timeTick, roll, pitch, yaw, stateX, stateY, stateZ, stateVX, stateVY, stateVZ, otX0, otY0, otZ0, otRoll0, otPitch0, otYaw0, left wing, pitch motor, yaw motor, right wing, voltage, roll rate, pitch rate, yaw rate, A_x, A_y, A_z, current, i_raw, v_raw, airflow_voltage, airflow_speed, pot_Pitch, voltage_nKF, kFFx, volt_KF_vel, kP, volt_KF_pos
19376, 1.4183067083358765, 3.956183671951294, -3.1317543983459473, 0, 0, 0, 0, 0, 0, -0.8213149905204773, -0.9503471255302429, 0.056696850806474686, -0.7932482647714388, 0.7111511016607608, 5.493523673381972, 0, 0, 0, 0, 0, 0, 0, 0, 0, 0, 0, 0, 0, 0, 0, 0, 0, 0, 0, 0, 0, 0
19386, 1.4190609455108643, 3.957425117492676, -3.1320645809173584, 0.0015835451195016503, 0.0004718344134744257, -6.755927562713623, 0.025828154757618904, 0.007692896761000156, -0.7592942118644714, -0.8213213682174683, -0.9503501653671265, 0.056722793728113174, -0.7977794339317268, 0.7014095796319282, 5.478515865085863, 9362.0, 30146.0, 35388.0, 9362.0, 0, -0.17531435191631317, 0.3296823799610138, 0.2536494731903076, 0.012693865224719048, -0.06196919083595276, 0.9981009364128113, 0, 0, 0, 0, 0, 0, 0, 0, 0, 0, 0
19396, 1.4189988374710083, 3.957441806793213, -3.130204916000366, 0.0018074369290843606, 0.0005385028198361397, -6.763522624969482, 0.01895027793943882, 0.005640564952045679, -0.7597424387931824, -0.8213181495666504, -0.9503463506698608, 0.05668918415904045, -0.796313513964767, 0.7114927022446125, 5.48341321577139, 9362.0, 30146.0, 35388.0, 9362.0, 0, -0.045992206782102585, 0.23014263808727264, 0.22901447117328644, 0.010726499371230602, -0.06200350448489189, 0.9973405599594116, 0, 0, 0, 1.4736328125, 0.1452178955078125, 0, 1.39453125, 10.0, 1.5159976482391357, 1.5, 1.5159976482391357
19406, 1.4198119640350342, 3.9554648399353027, -3.1296846866607666, 0.001962576527148485, 0.0005846552085131407, -6.771122455596924, 0.01207764819264412, 0.0035898559726774693, -0.7602653503417969, -0.8213188052177429, -0.9503554105758667, 0.05673551559448242, -0.8017576925079007, 0.6937876689311224, 5.486497442368208, 9362.0, 30146.0, 35388.0, 9362.0, 0, 0.09534411877393723, -0.16832076013088226, -0.18226779997348785, 0.009232785552740097, -0.06371961534023285, 0.9972278475761414, 0, 0, 0, 0.99462890625, 3.105987548828125, 1.491943359375, 1.66845703125, 10.0, 1.5164926052093506, 1.5, 1.5164926052093506
19416, 1.4215573072433472, 3.956334352493286, -3.1310133934020996, 0.002048992086201906, 0.0006102880579419434, -6.7787275314331055, 0.005205432418733835, 0.0015368792228400707, -0.7607477903366089, -0.8213269710540771, -0.9503535628318787, 0.056735340505838394, -0.8007583884923012, 0.6973897518177523, 5.480681566919353, 9362.0, 30146.0, 35388.0, 9362.0, 0, 0.12319232523441315, 0.24948805570602417, 0.27024534344673157, 0.010484783910214901, -0.06223943457007408, 0.9968747496604919, 0, 0, 0, 1.39013671875, 0.0314483642578125, 1.491943359375, 1.20849609375, 10.0, 1.51727294921875, 1.5, 1.51727294921875
19426, 1.4216148853302002, 3.955566883087158, -3.1301019191741943, 0.002066710963845253, 0.0006153875729069114, -6.786337852478027, -0.0016616503708064556, -0.0005170836811885238, -0.7613260746002197, -0.8213135600090027, -0.9503502249717712, 0.05670227110385895, -0.7958878679915842, 0.7123665990744144, 5.489296221219514, 9362.0, 30146.0, 35388.0, 9362.0, 0, -0.017255039885640144, -0.1503315567970276, -0.5063632130622864, 0.011786983348429203, -0.06296432018280029, 0.9981132745742798, 0, 0, 0, 1.31982421875, 0.0273590087890625, 1.4853515625, 1.001220703125, 10.0, 1.5177195072174072, 1.5, 1.5177195072174072
19436, 1.422361969947815, 3.9562313556671143, -3.1321048736572266, 0.0020157345570623875, 0.0005999368149787188, -6.7939534187316895, -0.008533713407814503, -0.002572832629084587, -0.7618162035942078, -0.8213222622871399, -0.9503417015075684, 0.05672616884112358, -0.7968741505895105, 0.7032024425820396, 5.485216375462919, 9362.0, 30146.0, 35388.0, 9362.0, 0, 0.22912204265594482, -0.14685238897800446, -0.25414812564849854, 0.01168470922857523, -0.06543401628732681, 0.9979140162467957, 0, 0, 0, 1.5791015625, 0.368133544921875, 1.4853515625, 1.453125, 10.0, 1.5176000595092773, 1.5, 1.5176000595092773
19446, 1.4238251447677612, 3.956113338470459, -3.1327743530273438, 0.0018960348097607493, 0.0005639247829094529, -6.801574230194092, -0.015406271442770958, -0.004629494156688452, -0.7623167634010315, -0.821323573589325, -0.9503442645072937, 0.05670176446437836, -0.8076927185472489, 0.7011351054663919, 5.489000524662018, 9362.0, 30146.0, 35388.0, 9362.0, 0, -0.03307926654815674, 0.062332648783922195, -0.1606428176164627, 0.010808159597218037, -0.06393522024154663, 0.9971789717674255, 0, 0, 0, 1.58056640625, 0.3715972900390625, 1.494140625, 1.521240234375, 10.0, 1.517924189567566, 1.5, 1.517924189567566
19456, 1.4236266613006592, 3.958078145980835, -3.1353962421417236, 0.0017076123040169477, 0.0005073347711004317, -6.809199810028076, -0.022278308868408203, -0.006688189692795277, -0.7628248929977417, -0.8213167786598206, -0.950346827507019, 0.05670813471078873, -0.7947605659878904, 0.7126886470864804, 5.483821591753609, 9362.0, 30146.0, 35388.0, 9362.0, 0, 0.006117816548794508, 0.31505754590034485, 0.12896846234798431, 0.009373185224831104, -0.06224707514047623, 0.9978446960449219, 0, 0, 0, 1.119140625, 1.04302978515625, 1.494140625, 1.65087890625, 10.0, 1.518478274345398, 1.5, 1.518478274345398
19466, 1.4242204427719116, 3.956064224243164, -3.1350202560424805, 0.001450445270165801, 0.00043015985284000635, -6.816830635070801, -0.029155107215046883, -0.008746832609176636, -0.7633128762245178, -0.8213222026824951, -0.9503557682037354, 0.0567183718085289, -0.7990060921232279, 0.6969021590742557, 5.483964578343312, 9362.0, 30146.0, 35388.0, 9362.0, 0, 0.04345743730664253, 0.04743878170847893, 0.028224093839526176, 0.009797208942472935, -0.06101147457957268, 0.9998979568481445, 0, 0, 0, 1.52490234375, 0.247039794921875, 1.493408203125, 1.66259765625, 10.0, 1.5186339616775513, 1.5, 1.5186339616775513
19476, 1.425635814666748, 3.954732656478882, -3.136106252670288, 0.001124486094340682, 0.0003323800046928227, -6.824465751647949, -0.03603680059313774, -0.010809015482664108, -0.7636837959289551, -0.8213207721710205, -0.9503560662269592, 0.056704744696617126, -0.8082181450724205, 0.6937361429314421, 5.481095656998494, 9362.0, 30146.0, 35388.0, 9362.0, 8.390083312988281, -0.019384225830435753, -0.4088771641254425, 0.056361932307481766, 0.011084184050559998, -0.06485751271247864, 0.9991547465324402, 0, 0, 0, 1.238525390625, 0.20343017578125, 1.493408203125, 1.191650390625, 10.0, 1.5182784795761108, 1.5, 1.5182784795761108
19486, 1.4263008832931519, 3.955673933029175, -3.135209798812866, 0.0007296918192878366, 0.00021395768271759152, -6.832104206085205, -0.0429220087826252, -0.012875561602413654, -0.7639737725257874, -0.821313738822937, -0.9503554701805115, 0.05670034512877464, -0.8053603975834527, 0.6976096033755539, 5.485760561737263, 9362.0, 30146.0, 35388.0, 9362.0, 8.390083312988281, -0.014881554991006851, 0.286734402179718, -0.06696853041648865, 0.01066521741449833, -0.06422737240791321, 0.9977552890777588, -0.06254465878009796, -0.28151702880859375, 1.472900390625, 1.751220703125, 0.8134918212890625, 1.494140625, 1.5966796875, 10.0, 1.518229603767395, 1.5, 1.518229603767395
19496, 1.426443099975586, 3.954089403152466, -3.1370060443878174, 0.0002661008620634675, 7.488319533877075e-05, -6.839746475219727, -0.04979626089334488, -0.014939123764634132, -0.7644441723823547, -0.8213110566139221, -0.9503419399261475, 0.05670089274644852, -0.8043819388066688, 0.6994462736192304, 5.482054068343575, 9362.0, 30146.0, 35388.0, 9362.0, 8.390083312988281, -0.10440729558467865, 0.07809200137853622, 0.09434068948030472, 0.01193358562886715, -0.0647592842578888, 0.9977015852928162, -0.06254465878009796, -0.28151702880859375, 1.472900390625, 1.453125, 0.1099090576171875, 1.494140625, 0.903076171875, 10.0, 1.518439769744873, 1.5, 1.518439769744873
19506, 1.425661563873291, 3.9542980194091797, -3.135667324066162, -0.000266225659288466, -8.482963312417269e-05, -6.847393035888672, -0.056668978184461594, -0.017003603279590607, -0.7648969292640686, -0.8213329315185547, -0.9503556489944458, 0.056697163730859756, -0.8008268278688548, 0.702822923679804, 5.487172403563179, 9362.0, 30146.0, 35388.0, 9362.0, 8.390083312988281, 0.3171815574169159, 0.2236948311328888, -0.16036668419837952, 0.010828533209860325, -0.06556709855794907, 0.9976659417152405, -0.06254465878009796, -0.28151702880859375, 1.472900390625, 1.74169921875, 0.78497314453125, 1.49267578125, 1.3095703125, 10.0, 1.519243836402893, 1.5, 1.519243836402893
19516, 1.4270777702331543, 3.9532124996185303, -3.1363208293914795, -0.0008672395488247275, -0.0002651689574122429, -6.855044841766357, -0.06353383511304855, -0.01906418427824974, -0.7654662132263184, -0.8213157057762146, -0.9503486752510071, 0.056709181517362595, -0.8080981139305212, 0.7055648201157112, 5.482712175101568, 9362.0, 30146.0, 35388.0, 9362.0, 8.390083312988281, -0.06441239267587662, 0.0952974185347557, -0.15181317925453186, 0.00958478357642889, -0.06323934346437454, 0.9970154166221619, -0.06254465878009796, -0.28151702880859375, 1.472900390625, 0.99462890625, 3.105987548828125, 1.49267578125, 1.6611328125, 10.0, 1.518984317779541, 1.5, 1.518984317779541
19526, 1.4269380569458008, 3.9519612789154053, -3.13718581199646, -0.0015369006432592869, -0.00046612846199423075, -6.862702369689941, -0.07039844244718552, -0.021127615123987198, -0.7660149931907654, -0.8213028907775879, -0.950353741645813, 0.056715551763772964, -0.7967303491891929, 0.7095835879239019, 5.486739556998545, 9362.0, 30146.0, 35388.0, 9362.0, 8.390083312988281, -0.0792526826262474, -0.19130198657512665, 0.1632055640220642, 0.011513583362102509, -0.06379144638776779, 0.9999452233314514, -0.06254465878009796, -0.28151702880859375, 1.472900390625, 1.6728515625, 0.59674072265625, 1.4912109375, 1.1484375, 10.0, 1.5180121660232544, 1.5, 1.5180121660232544
19536, 1.426056981086731, 3.9536314010620117, -3.136223793029785, -0.0022752583026885986, -0.0006877395207993686, -6.870364189147949, -0.07727307081222534, -0.02319471724331379, -0.7663902044296265, -0.8213244676589966, -0.9503645896911621, 0.05670078098773956, -0.799981502917911, 0.7032861684392628, 5.485267634684691, 9362.0, 30146.0, 35388.0, 9362.0, 8.390083312988281, 0.14575184881687164, 0.01610804721713066, 0.007327342871576548, 0.011699318885803223, -0.06465577334165573, 0.9991719126701355, -0.06254465878009796, -0.28151702880859375, 1.472900390625, 1.57177734375, 0.3512115478515625, 1.4912109375, 1.704345703125, 10.0, 1.5185400247573853, 1.5, 1.5185400247573853
19546, 1.4266483783721924, 3.9538378715515137, -3.136772394180298, -0.0030823959968984127, -0.0009300198871642351, -6.878029823303223, -0.08415450155735016, -0.025261290371418, -0.766708493232727, -0.8213137984275818, -0.9503351449966431, 0.05670315399765968, -0.8053456464383503, 0.6998297335724146, 5.486624047756898, 9362.0, 30146.0, 35388.0, 9362.0, 8.390083312988281, -0.013949173502624035, 0.20432573556900024, -0.05544710159301758, 0.012909428216516972, -0.061878010630607605, 0.9990517497062683, -0.06254465878009796, -0.28151702880859375, 1.472900390625, 1.06640625, 1.734771728515625, 1.493408203125, 1.566650390625, 10.0, 1.5185673236846924, 1.5, 1.5185673236846924
19556, 1.427601933479309, 3.9517269134521484, -3.138672113418579, -0.003958340734243393, -0.001192967756651342, -6.8856987953186035, -0.09103451669216156, -0.027328060939908028, -0.7670536041259766, -0.8213333487510681, -0.9503666758537292, 0.056684087961912155, -0.7992644850905807, 0.7078476358209116, 5.492925288868143, 9362.0, 30146.0, 35388.0, 9362.0, 8.390083312988281, 0.25208738446235657, 0.3295353949069977, 0.10282711684703827, 0.011864988133311272, -0.06386499106884003, 0.9966702461242676, -0.06254465878009796, -0.28151702880859375, 1.472900390625, 1.55126953125, 0.304718017578125, 1.493408203125, 1.68310546875, 10.0, 1.5191680192947388, 1.5, 1.5191680192947388
19566, 1.4279799461364746, 3.9505057334899902, -3.1378884315490723, -0.004903008230030537, -0.0014765732921659946, -6.893372058868408, -0.09789898991584778, -0.029393134638667107, -0.7675688862800598, -0.8213263154029846, -0.9503592848777771, 0.056708890944719315, -0.8076437641658801, 0.7010668996782954, 5.492055766137129, 9362.0, 30146.0, 35388.0, 9362.0, 8.390083312988281, -0.029186228290200233, -0.18691350519657135, -0.04489047825336456, 0.009403028525412083, -0.06500467658042908, 0.9981144070625305, -0.06254465878009796, -0.28151702880859375, 1.472900390625, 1.177734375, 0.5238800048828125, 1.493408203125, 1.65966796875, 10.0, 1.5192375183105469, 1.5, 1.5192375183105469
19576, 1.4282445907592773, 3.950913667678833, -3.1387016773223877, -0.005916318856179714, -0.0017808364937081933, -6.901050090789795, -0.1047632023692131, -0.03145940601825714, -0.7680595517158508, -0.8213077187538147, -0.9503602385520935, 0.05670198053121567, -0.8090124207252903, 0.7062643068573493, 5.488147980924003, 9362.0, 30146.0, 35388.0, 9362.0, 8.370248794555664, 0.005354092922061682, 0.20175854861736298, 0.37801530957221985, 0.008494889363646507, -0.06453976035118103, 0.9986811876296997, -0.06254465878009796, -0.28151702880859375, 1.472900390625, 1.70654296875, 0.68560791015625, 1.493408203125, 1.13232421875, 10.0, 1.5178476572036743, 1.5, 1.5178476572036743
19586, 1.4278793334960938, 3.950627326965332, -3.137300729751587, -0.0069983163848519325, -0.002105776220560074, -6.9087324142456055, -0.11163618415594101, -0.03352869674563408, -0.7684346437454224, -0.8213037848472595, -0.9503487348556519, 0.05670851841568947, -0.8036176650754255, 0.7041887903120028, 5.476630854251884, 9362.0, 30146.0, 35388.0, 9362.0, 8.370248794555664, 0.08516069501638412, -0.04158489778637886, 0.13685551285743713, 0.009706183336675167, -0.06431127339601517, 0.9972161650657654, -0.06613032519817352, -0.18295860290527344, 1.48095703125, 1.3359375, 0.01806640625, 1.493408203125, 1.6875, 10.0, 1.5182873010635376, 1.5, 1.5182873010635376
19596, 1.4280686378479004, 3.951383352279663, -3.135746717453003, -0.008148987777531147, -0.002451390726491809, -6.916419506072998, -0.11849799007177353, -0.0355943962931633, -0.7689605951309204, -0.8213239312171936, -0.9503556489944458, 0.05671709030866623, -0.8061315473930931, 0.7017226142914694, 5.476204505303869, 9362.0, 30146.0, 35388.0, 9362.0, 8.370248794555664, -0.08561050146818161, -0.24539832770824432, 0.0026961672119796276, 0.010749838314950466, -0.06353819370269775, 0.9995245933532715, -0.06613032519817352, -0.18295860290527344, 1.48095703125, 1.58203125, 0.37493896484375, 1.493408203125, 1.371826171875, 10.0, 1.5183829069137573, 1.5, 1.5183829069137573
19606, 1.426914095878601, 3.9531233310699463, -3.13584566116333, -0.00936832744628191, -0.00281767756678164, -6.9241108894348145, -0.12536990642547607, -0.03766297176480293, -0.7693617343902588, -0.8213145136833191, -0.9503440856933594, 0.05667513608932495, -0.799035668970022, 0.6987180282900738, 5.4939398593868995, 9362.0, 30146.0, 35388.0, 9362.0, 8.370248794555664, 0.21263998746871948, 0.2696639895439148, -0.09565231204032898, 0.01318718958646059, -0.06368287652730942, 1.0016380548477173, -0.06613032519817352, -0.18295860290527344, 1.48095703125, 1.70654296875, 0.68560791015625, 1.494873046875, 1.177001953125, 10.0, 1.5188534259796143, 1.5, 1.5188534259796143
19616, 1.4290156364440918, 3.9489593505859375, -3.1352956295013428, -0.01065648440271616, -0.003204664681106806, -6.93180513381958, -0.13226141035556793, -0.03973451629281044, -0.769524335861206, -0.8213246464729309, -0.9503532648086548, 0.056706395000219345, -0.7994142182552918, 0.6927550895252352, 5.485734172988411, 9362.0, 30146.0, 35388.0, 9362.0, 8.370248794555664, 0.07822632044553757, -0.3544347286224365, -0.16850556433200836, 0.014033782295882702, -0.06358664482831955, 0.9991923570632935, -0.06613032519817352, -0.18295860290527344, 1.48095703125, 1.486083984375, 0.16845703125, 1.494873046875, 1.4091796875, 10.0, 1.5195555686950684, 1.5, 1.5195555686950684
19626, 1.429031491279602, 3.951129674911499, -3.1362192630767822, -0.01201348565518856, -0.0036123767495155334, -6.939501762390137, -0.13913893699645996, -0.04180780053138733, -0.7697885036468506, -0.8213176727294922, -0.9503450989723206, 0.05672300606966019, -0.7998293428430739, 0.7014995133255297, 5.490333571670968, 9362.0, 30146.0, 35388.0, 9362.0, 8.370248794555664, -0.07016418129205704, -0.28129422664642334, 0.1170697808265686, 0.012220428325235844, -0.06355001777410507, 0.9987003207206726, -0.06613032519817352, -0.18295860290527344, 1.48095703125, 1.717529296875, 0.7158966064453125, 1.49560546875, 1.1689453125, 10.0, 1.5186823606491089, 1.5, 1.5186823606491089
19636, 1.42875337600708, 3.9546937942504883, -3.1366212368011475, -0.013439246453344822, -0.004040809813886881, -6.947201251983643, -0.14601320028305054, -0.04387877136468887, -0.7701516151428223, -0.8213141560554504, -0.950351357460022, 0.05672589689493179, -0.8007744029899289, 0.7112062513035937, 5.48861002298334, 9362.0, 30146.0, 35388.0, 9362.0, 8.370248794555664, 0.09730879217386246, 0.24348440766334534, -0.05571978911757469, 0.00985035765916109, -0.06568337976932526, 0.9977008700370789, -0.06613032519817352, -0.18295860290527344, 1.48095703125, 1.13232421875, 0.9053192138671875, 1.49560546875, 1.71240234375, 10.0, 1.519242763519287, 1.5, 1.519242763519287
19646, 1.4295399188995361, 3.954336404800415, -3.1362762451171875, -0.01493372954428196, -0.004489933140575886, -6.9549055099487305, -0.1528834104537964, -0.045945920050144196, -0.7706583142280579, -0.8212977647781372, -0.9503576159477234, 0.05673323571681976, -0.8025352920870016, 0.702696037519928, 5.483268383974623, 9362.0, 30146.0, 35388.0, 9362.0, 8.370248794555664, -0.18322442471981049, 0.10277272015810013, 0.445657342672348, 0.010998125188052654, -0.06547588855028152, 0.9969573616981506, -0.06613032519817352, -0.18295860290527344, 1.48095703125, 1.2451171875, 0.1796875, 1.48974609375, 1.710205078125, 10.0, 1.5186735391616821, 1.5, 1.5186735391616821
19656, 1.4277935028076172, 3.953949451446533, -3.133457899093628, -0.01649690419435501, -0.004959732294082642, -6.9626145362854, -0.1597512662410736, -0.04801427200436592, -0.7711897492408752, -0.821322500705719, -0.950345516204834, 0.05669490620493889, -0.7995274033465244, 0.7034656973648907, 5.493244497954076, 9362.0, 30146.0, 35388.0, 9362.0, 8.370248794555664, -0.20237556099891663, -0.49032410979270935, -0.2750329375267029, 0.01028420403599739, -0.06258191168308258, 0.9977643489837646, -0.06613032519817352, -0.18295860290527344, 1.48095703125, 1.3564453125, 0.0156707763671875, 1.48974609375, 1.76806640625, 10.0, 1.5186607837677002, 1.5, 1.5186607837677002
19666, 1.4267452955245972, 3.9561760425567627, -3.1331350803375244, -0.01812874712049961, -0.005450200289487839, -6.970329284667969, -0.16661714017391205, -0.05007936805486679, -0.7717371582984924, -0.8213281035423279, -0.9503413438796997, 0.056692935526371, -0.8095816553920727, 0.7018706575706801, 5.481440752195653, 9362.0, 30146.0, 35388.0, 9362.0, 8.370248794555664, 0.14757861196994781, -0.3616330623626709, -0.1780124008655548, 0.011085567064583302, -0.061154380440711975, 1.00052011013031, -0.06613032519817352, -0.18295860290527344, 1.48095703125, 1.59228515625, 0.3989715576171875, 1.486083984375, 1.399658203125, 10.0, 1.519058108329773, 1.5, 1.519058108329773
19676, 1.4270278215408325, 3.9586472511291504, -3.133876085281372, -0.019829370081424713, -0.005961340852081776, -6.978047847747803, -0.1735074818134308, -0.05214862897992134, -0.7719900608062744, -0.8213126063346863, -0.9503485560417175, 0.05667812004685402, -0.8019350944927573, 0.7025358852500574, 5.487277629772582, 9362.0, 30146.0, 35388.0, 9362.0, 8.390083312988281, -0.09201286733150482, -0.43580299615859985, 0.1330946981906891, 0.009870007634162903, -0.06227472424507141, 0.9976749420166016, -0.06613032519817352, -0.18295860290527344, 1.48095703125, 1.4619140625, 0.1246185302734375, 1.486083984375, 1.51025390625, 10.0, 1.5181703567504883, 1.5, 1.5181703567504883
19686, 1.4269641637802124, 3.9600231647491455, -3.1344149112701416, -0.021598882973194122, -0.006493164226412773, -6.985769271850586, -0.18039512634277344, -0.05421597138047218, -0.7723422646522522, -0.8213217258453369, -0.9503438472747803, 0.05668279528617859, -0.7995508418643055, 0.7057706462564681, 5.493484051409017, 9362.0, 30146.0, 35388.0, 9362.0, 8.390083312988281, -0.32717153429985046, -0.043826330453157425, -0.3165798783302307, 0.010650509968400002, -0.06348519772291183, 0.9966552257537842, -0.05690821632742882, -0.08439826965332031, 1.489013671875, 1.7373046875, 0.7721710205078125, 1.491943359375, 1.5439453125, 10.0, 1.5186530351638794, 1.5, 1.5186530351638794
19696, 1.4257954359054565, 3.9592390060424805, -3.1340699195861816, -0.02343721129000187, -0.00704563781619072, -6.993495464324951, -0.18727052211761475, -0.05627875030040741, -0.7729008793830872, -0.8213321566581726, -0.9502264261245728, 0.05649669095873833, -0.8209844233426465, 0.7592808434858966, 5.3962410011110435, 9362.0, 30146.0, 35388.0, 9362.0, 8.390083312988281, -0.054500531405210495, 0.24049688875675201, -0.2247610241174698, 0.011730395257472992, -0.0629165843129158, 1.0003935098648071, -0.05690821632742882, -0.08439826965332031, 1.489013671875, 1.71826171875, 0.7178955078125, 1.491943359375, 1.294189453125, 10.0, 1.5188475847244263, 1.5, 1.5188475847244263
19706, 1.4263079166412354, 3.9600539207458496, -3.134420394897461, -0.0253443606197834, -0.007618751842528582, -7.001226425170898, -0.19415926933288574, -0.058343999087810516, -0.7732502818107605, -0.8213346004486084, -0.950222909450531, 0.05649324879050255, -0.829656678908431, 0.7589943486830464, 5.39476355953874, 9362.0, 30146.0, 35388.0, 9362.0, 8.390083312988281, -0.32213982939720154, 0.1778123676776886, 0.06869705021381378, 0.010100899264216423, -0.06348518282175064, 0.9989042282104492, -0.05690821632742882, -0.08439826965332031, 1.489013671875, 1.773193359375, 0.8822784423828125, 1.494140625, 1.045166015625, 10.0, 1.5194958448410034, 1.5, 1.5194958448410034
19716, 1.4248363971710205, 3.9591591358184814, -3.133913993835449, -0.02732045389711857, -0.008212536573410034, -7.008959770202637, -0.20105931162834167, -0.060413066297769547, -0.7734588980674744, -0.8213198781013489, -0.9503641128540039, 0.05668170750141144, -0.8046243046787487, 0.6946016265939647, 5.489086766241511, 9362.0, 30146.0, 35388.0, 9362.0, 8.390083312988281, 0.11016310751438141, -0.21774767339229584, 0.03654713183641434, 0.011678247712552547, -0.05946052074432373, 0.9977676868438721, -0.05690821632742882, -0.08439826965332031, 1.489013671875, 1.755615234375, 0.8267822265625, 1.494140625, 1.39892578125, 10.0, 1.5201047658920288, 1.5, 1.5201047658920288
19726, 1.4252203702926636, 3.959695339202881, -3.1333398818969727, -0.02936543896794319, -0.008826971054077148, -7.016696929931641, -0.2079378068447113, -0.06247382611036301, -0.7739496827125549, -0.8213263750076294, -0.9503505825996399, 0.05668975040316582, -0.8044453266696385, 0.695396575489184, 5.485412235770271, 9362.0, 30146.0, 35388.0, 9362.0, 8.390083312988281, 0.11016310751438141, -0.21774767339229584, 0.03654713183641434, 0.012191610410809517, -0.05908747762441635, 0.9984680414199829, -0.05690821632742882, -0.08439826965332031, 1.489013671875, 1.601806640625, 0.42144775390625, 1.49267578125, 1.39892578125, 10.0, 1.5188318490982056, 1.5, 1.5188318490982056
19746, 1.4254940748214722, 3.9607324600219727, -3.1344540119171143, -0.031479232013225555, -0.009462021291255951, -7.024438858032227, -0.21482060849666595, -0.06453606486320496, -0.7743932604789734, -0.8213184475898743, -0.950359046459198, 0.05667245388031006, -0.7980962541581721, 0.702272801178907, 5.490561483120052, 9362.0, 30146.0, 35388.0, 9362.0, 8.390083312988281, 0.11016310751438141, -0.21774767339229584, 0.03654713183641434, 0.011713031679391861, -0.06377492100000381, 0.9974229335784912, -0.05690821632742882, -0.08439826965332031, 1.489013671875, 1.601806640625, 0.42144775390625, 1.490478515625, 1.39892578125, 10.0, 1.5194686651229858, 1.5, 1.5194686651229858
19756, 1.4262957572937012, 3.960204839706421, -3.135288953781128, -0.031479232013225555, -0.009462021291255951, -7.024438858032227, -0.21482060849666595, -0.06453606486320496, -0.7743932604789734, -0.8213194608688354, -0.9503500461578369, 0.05666419118642807, -0.8001429012416482, 0.7019663008692305, 5.475282617342165, 9362.0, 30146.0, 35388.0, 9362.0, 8.390083312988281, 0.11016310751438141, -0.21774767339229584, 0.03654713183641434, 0.011713031679391861, -0.06377492100000381, 0.9974229335784912, -0.05690821632742882, -0.08439826965332031, 1.489013671875, 1.601806640625, 0.42144775390625, 1.490478515625, 1.39892578125, 10.0, 1.5195767879486084, 1.5, 1.5195767879486084
19776, 1.4256395101547241, 3.959617853164673, -3.1345913410186768, -0.04062279686331749, -0.012208531610667706, -7.055449485778809, -0.2423633635044098, -0.0727904811501503, -0.7760748863220215, -0.8213157057762146, -0.9503475427627563, 0.05666372925043106, -0.8093831717298707, 0.7051600591947533, 5.482178663641361, 9362.0, 30146.0, 35388.0, 9362.0, 8.390083312988281, 0.11016310751438141, -0.21774767339229584, 0.03654713183641434, 0.010231598280370235, -0.06505537033081055, 0.9989731907844543, -0.05690821632742882, -0.08439826965332031, 1.489013671875, 1.10009765625, 1.2657470703125, 1.490478515625, 1.38720703125, 10.0, 1.5195844173431396, 1.5, 1.5195844173431396
19786, 1.427635669708252, 3.958362579345703, -3.1348140239715576, -0.04062279686331749, -0.012208531610667706, -7.055449485778809, -0.2423633635044098, -0.0727904811501503, -0.7760748863220215, -0.8213315606117249, -0.9502440094947815, 0.05647265166044235, -0.8240726683978782, 0.7606814954715162, 5.39684778845678, 9362.0, 30146.0, 35388.0, 9362.0, 8.390083312988281, 0.11016310751438141, -0.21774767339229584, 0.03654713183641434, 0.010231598280370235, -0.06505537033081055, 0.9989731907844543, -0.05690821632742882, -0.08439826965332031, 1.489013671875, 1.10009765625, 1.2657470703125, 1.490478515625, 1.38720703125, 10.0, 1.5207898616790771, 1.5, 1.5207898616790771
19806, 1.4295793771743774, 3.95874285697937, -3.13496732711792, -0.04820368438959122, -0.014485248364508152, -7.078747272491455, -0.26302698254585266, -0.0789937898516655, -0.777109682559967, -0.8213198184967041, -0.9503527879714966, 0.05668911337852478, -0.8056910827987087, 0.7054958063799006, 5.488406222487832, 9362.0, 30146.0, 35388.0, 9362.0, 8.390083312988281, 0.17110443115234375, -0.49246788024902344, -0.20697961747646332, 0.010171026922762394, -0.06518107652664185, 0.9988145232200623, -0.05690821632742882, -0.08439826965332031, 1.489013671875, 1.10009765625, 1.2657470703125, 1.490478515625, 1.38720703125, 10.0, 1.5201770067214966, 1.5, 1.5201770067214966
19816, 1.4309591054916382, 3.961204767227173, -3.136000633239746, -0.04820368438959122, -0.014485248364508152, -7.078747272491455, -0.26302698254585266, -0.0789937898516655, -0.777109682559967, -0.821312665939331, -0.950348973274231, 0.05667666345834732, -0.8047741618984887, 0.7042420424245392, 5.490119700026654, 9362.0, 30146.0, 35388.0, 9362.0, 8.390083312988281, 0.17110443115234375, -0.49246788024902344, -0.20697961747646332, 0.01119381096214056, -0.06371467560529709, 0.9982740879058838, -0.05690821632742882, -0.08439826965332031, 1.489013671875, 1.13232421875, 0.9053192138671875, 1.490478515625, 1.38720703125, 10.0, 1.5180150270462036, 1.5, 1.5180150270462036
19826, 1.4299349784851074, 3.9609220027923584, -3.133479118347168, -0.053602028638124466, -0.01610657200217247, -7.094296455383301, -0.2768082022666931, -0.08313947170972824, -0.7778031826019287, -0.8213319182395935, -0.9502332806587219, 0.05649079382419586, -0.8197599735433723, 0.7610458026728395, 5.392973696292674, 9362.0, 30146.0, 35388.0, 9362.0, 8.390083312988281, -0.23172499239444733, -0.043141771107912064, 0.14121580123901367, 0.010541259311139584, -0.06210506334900856, 0.9987670183181763, -0.05690821632742882, -0.08439826965332031, 1.489013671875, 1.13232421875, 0.9053192138671875, 1.4970703125, 1.38720703125, 10.0, 1.5174758434295654, 1.5, 1.5174758434295654
19836, 1.4289131164550781, 3.9623847007751465, -3.1326000690460205, -0.053602028638124466, -0.01610657200217247, -7.094296455383301, -0.2768082022666931, -0.08313947170972824, -0.7778031826019287, -0.8213180899620056, -0.9503576159477234, 0.0566711351275444, -0.8115075666953441, 0.7044217966682425, 5.481247271807967, 9362.0, 30146.0, 35388.0, 9362.0, 8.390083312988281, 0.10290591418743134, 0.38949429988861084, 0.046760570257902145, 0.011602179147303104, -0.06226404756307602, 0.9993669986724854, -0.05690821632742882, -0.08439826965332031, 1.489013671875, 1.4091796875, 0.04937744140625, 1.4970703125, 1.38720703125, 10.0, 1.5159581899642944, 1.5, 1.5159581899642944
19846, 1.4286339282989502, 3.961556911468506, -3.1309571266174316, -0.05927595868706703, -0.017810774967074394, -7.109860897064209, -0.29058682918548584, -0.0872802883386612, -0.7786088585853577, -0.8213291168212891, -0.9503479599952698, 0.05667863041162491, -0.8047768016312373, 0.7051269453681925, 5.486286511563611, 9362.0, 30146.0, 35388.0, 9362.0, 8.390083312988281, 0.10290591418743134, 0.38949429988861084, 0.046760570257902145, 0.010080617852509022, -0.06428948044776917, 0.998773455619812, -0.05690821632742882, -0.08439826965332031, 1.489013671875, 1.4091796875, 0.04937744140625, 1.4912109375, 1.38720703125, 10.0, 1.5163754224777222, 1.5, 1.5163754224777222
19856, 1.4280261993408203, 3.9605443477630615, -3.130931854248047, -0.062216293066740036, -0.01869392953813076, -7.117648601531982, -0.2974800169467926, -0.08935068547725677, -0.7789540886878967, -0.8213294744491577, -0.9503517150878906, 0.056698016822338104, -0.8023941625408872, 0.700207230129422, 5.479455656361809, 9362.0, 30146.0, 35388.0, 9362.0, 8.390083312988281, 0.10290591418743134, 0.38949429988861084, 0.046760570257902145, 0.010080617852509022, -0.06428948044776917, 0.998773455619812, -0.05690821632742882, -0.08439826965332031, 1.489013671875, 1.53955078125, 0.278778076171875, 1.4912109375, 1.38720703125, 10.0, 1.5147147178649902, 1.5, 1.5147147178649902
19876, 1.4289549589157104, 3.961052417755127, -3.1314525604248047, -0.0683036744594574, -0.020522313192486763, -7.133235454559326, -0.311259925365448, -0.09348805993795395, -0.7797355651855469, -0.8213187456130981, -0.9503652453422546, 0.056698113679885864, -0.8033835879827291, 0.7010012427665515, 5.476537449327993, 9362.0, 30146.0, 35388.0, 9362.0, 8.370248794555664, 0.10290591418743134, 0.38949429988861084, 0.046760570257902145, 0.010267197154462337, -0.062445323914289474, 0.9992898106575012, -0.05690821632742882, -0.08439826965332031, 1.489013671875, 1.099365234375, 1.27490234375, 1.4912109375, 1.38720703125, 10.0, 1.515156865119934, 1.5, 1.515156865119934
19886, 1.4290997982025146, 3.9613349437713623, -3.12894344329834, -0.0683036744594574, -0.020522313192486763, -7.133235454559326, -0.311259925365448, -0.09348805993795395, -0.7797355651855469, -0.8213170170783997, -0.9503586888313293, 0.056691743433475494, -0.8090050927604213, 0.7053997402583434, 5.490874580515979, 9362.0, 30146.0, 35388.0, 9362.0, 8.370248794555664, 0.017620179802179337, -0.24478501081466675, -0.07029633969068527, 0.010267197154462337, -0.062445323914289474, 0.9992898106575012, -0.05690821632742882, -0.08439826965332031, 1.489013671875, 1.01513671875, 2.6573486328125, 1.4912109375, 1.38720703125, 10.0, 1.515778660774231, 1.5, 1.515778660774231
19906, 1.4306614398956299, 3.962601900100708, -3.126861333847046, -0.07795123755931854, -0.023420045152306557, -7.156648635864258, -0.33191049098968506, -0.09969437122344971, -0.7811931371688843, -0.8213306069374084, -0.9502329230308533, 0.056487083435058594, -0.828413395609731, 0.7659413554711989, 5.401242475923679, 9362.0, 30146.0, 35388.0, 9362.0, 8.370248794555664, 0.04740045219659805, -0.4730069041252136, -0.051899779587984085, 0.010311316698789597, -0.06588087975978851, 0.9973998069763184, -0.05690821632742882, -0.08439826965332031, 1.489013671875, 1.01513671875, 2.6573486328125, 1.4912109375, 1.393798828125, 10.0, 1.515778660774231, 1.5, 1.515778660774231
19926, 1.430045247077942, 3.964080572128296, -3.1271262168884277, -0.0847271978855133, -0.025455361232161522, -7.172281742095947, -0.34569066762924194, -0.10383765399456024, -0.7820970416069031, -0.8213192224502563, -0.9503517150878906, 0.05670274421572685, -0.7923482946552834, 0.7127452172826736, 5.483362001159749, 9362.0, 30146.0, 35388.0, 9362.0, 8.370248794555664, -0.037926431745290756, 0.24632929265499115, 0.004181892145425081, 0.008973576128482819, -0.06406516581773758, 0.9981831908226013, -0.05690821632742882, -0.08439826965332031, 1.489013671875, 1.01513671875, 2.6573486328125, 1.4912109375, 1.393798828125, 10.0, 1.5152077674865723, 1.5, 1.5152077674865723
19936, 1.4308784008026123, 3.9617972373962402, -3.1280579566955566, -0.0847271978855133, -0.025455361232161522, -7.172281742095947, -0.34569066762924194, -0.10383765399456024, -0.7820970416069031, -0.821337103843689, -0.9502399563789368, 0.05650341883301735, -0.8294138097779875, 0.7599850638765133, 5.400318975840135, 9362.0, 30146.0, 35388.0, 9362.0, 8.370248794555664, -0.037926431745290756, 0.24632929265499115, 0.004181892145425081, 0.01008538156747818, -0.06525836139917374, 0.9973662495613098, -0.05690821632742882, -0.08439826965332031, 1.489013671875, 1.32275390625, 0.0251312255859375, 1.4912109375, 1.393798828125, 10.0, 1.5161917209625244, 1.5, 1.5161917209625244
19946, 1.4305959939956665, 3.9587509632110596, -3.128176689147949, -0.0847271978855133, -0.025455361232161522, -7.172281742095947, -0.34569066762924194, -0.10383765399456024, -0.7820970416069031, -0.8213282227516174, -0.9502454400062561, 0.05647889897227287, -0.8253204904514602, 0.7589954573883233, 5.402220087518955, 9362.0, 30146.0, 35388.0, 9362.0, 8.370248794555664, -0.037926431745290756, 0.24632929265499115, 0.004181892145425081, 0.01008538156747818, -0.06525836139917374, 0.9973662495613098, -0.05690821632742882, -0.08439826965332031, 1.489013671875, 1.32275390625, 0.0251312255859375, 1.4912109375, 1.393798828125, 10.0, 1.5143786668777466, 1.5, 1.5143786668777466
19956, 1.4322879314422607, 3.957676887512207, -3.127969264984131, -0.09540783613920212, -0.028663694858551025, -7.195765495300293, -0.3663370907306671, -0.11004946380853653, -0.7836018800735474, -0.8213210105895996, -0.9502372741699219, 0.05649779736995697, -0.8239009993379757, 0.7669390390971671, 5.415468548783052, 9362.0, 30146.0, 35388.0, 9362.0, 8.370248794555664, 0.04892440140247345, -0.11905820667743683, 0.02561301365494728, 0.01008538156747818, -0.06525836139917374, 0.9973662495613098, -0.05690821632742882, -0.08439826965332031, 1.489013671875, 1.32275390625, 0.0251312255859375, 1.4912109375, 1.393798828125, 10.0, 1.5149612426757812, 1.5, 1.5149612426757812
19976, 1.4334524869918823, 3.955571174621582, -3.1283276081085205, -0.10287207365036011, -0.03090616874396801, -7.211447715759277, -0.380079448223114, -0.11419681459665298, -0.7846992015838623, -0.8213133215904236, -0.9503584504127502, 0.05673139542341232, -0.7962926051027877, 0.7052347909621801, 5.471240115826061, 9362.0, 30146.0, 35388.0, 9362.0, 8.370248794555664, -0.02087712474167347, 0.3486342132091522, 0.0446045808494091, 0.010725600644946098, -0.06447285413742065, 0.995318591594696, -0.05690821632742882, -0.08439826965332031, 1.489013671875, 1.32275390625, 0.0251312255859375, 1.49267578125, 1.393798828125, 10.0, 1.5145041942596436, 1.5, 1.5145041942596436
19996, 1.4358549118041992, 3.9544317722320557, -3.1297409534454346, -0.10287207365036011, -0.03090616874396801, -7.211447715759277, -0.380079448223114, -0.11419681459665298, -0.7846992015838623, -0.8213149905204773, -0.9502324461936951, 0.05651899054646492, -0.8250838896932524, 0.76624789453885, 5.392598124101469, 9362.0, 30146.0, 35388.0, 9362.0, 8.370248794555664, -0.02087712474167347, 0.3486342132091522, 0.0446045808494091, 0.01027863658964634, -0.06441671401262283, 0.9991282820701599, -0.05690821632742882, -0.08439826965332031, 1.489013671875, 1.0283203125, 2.39398193359375, 1.49267578125, 1.393798828125, 10.0, 1.5159398317337036, 1.5, 1.5159398317337036
20006, 1.43556547164917, 3.9529995918273926, -3.130411386489868, -0.11458341777324677, -0.03442546725273132, -7.235014915466309, -0.4006901979446411, -0.12042980641126633, -0.7862496972084045, -0.8213188052177429, -0.950347900390625, 0.05669882148504257, -0.8061593503796283, 0.701027149690475, 5.4869504370139275, 9362.0, 30146.0, 35388.0, 9362.0, 8.370248794555664, 0.02098345197737217, 0.21106450259685516, -0.2780015170574188, 0.009799931198358536, -0.06237633526325226, 0.9993922710418701, -0.05690821632742882, -0.08439826965332031, 1.489013671875, 1.0283203125, 2.39398193359375, 1.493408203125, 1.393798828125, 10.0, 1.516396403312683, 1.5, 1.516396403312683
20016, 1.435696005821228, 3.951611280441284, -3.1307976245880127, -0.11862470954656601, -0.035640180110931396, -7.242879390716553, -0.4075682759284973, -0.12251251190900803, -0.7866098284721375, -0.8213294744491577, -0.9502325654029846, 0.056492552161216736, -0.8224947541636699, 0.7605595032300414, 5.398192716137284, 9362.0, 30146.0, 35388.0, 9362.0, 8.370248794555664, 0.00018888626073021442, -0.12041370570659637, 0.12671105563640594, 0.009446986950933933, -0.06358535587787628, 0.9977100491523743, -0.05690821632742882, -0.08439826965332031, 1.489013671875, 1.62890625, 0.4867095947265625, 1.493408203125, 0.87744140625, 10.0, 1.5152368545532227, 1.5, 1.5152368545532227
20026, 1.4358457326889038, 3.9516944885253906, -3.1302709579467773, -0.11862470954656601, -0.035640180110931396, -7.242879390716553, -0.4075682759284973, -0.12251251190900803, -0.7866098284721375, -0.821331799030304, -0.9502205848693848, 0.05649442598223686, -0.8275448007765216, 0.7616136100207882, 5.3950084170950054, 9362.0, 30146.0, 35388.0, 9362.0, 8.370248794555664, -0.07557529211044312, 0.313423752784729, -0.008400936610996723, 0.011527659371495247, -0.06390278786420822, 0.9980892539024353, -0.05690821632742882, -0.08439826965332031, 1.489013671875, 1.61572265625, 0.45465087890625, 1.494873046875, 0.87744140625, 10.0, 1.5144068002700806, 1.5, 1.5144068002700806
20036, 1.435374140739441, 3.9505257606506348, -3.1294891834259033, -0.12691348791122437, -0.038132064044475555, -7.258620262145996, -0.4213080406188965, -0.12667550146579742, -0.787497878074646, -0.8213180899620056, -0.9502289891242981, 0.056503117084503174, -0.8175920885910012, 0.7707940655232051, 5.396811622690282, 9362.0, 30146.0, 35388.0, 9362.0, 8.370248794555664, -0.07557529211044312, 0.313423752784729, -0.008400936610996723, 0.009551056660711765, -0.06411385536193848, 0.999369740486145, -0.05690821632742882, -0.08439826965332031, 1.489013671875, 1.0810546875, 1.5185089111328125, 1.494873046875, 0.87744140625, 10.0, 1.514777421951294, 1.5, 1.514777421951294
20046, 1.4355387687683105, 3.9523301124572754, -3.131275177001953, -0.1311609297990799, -0.03940923139452934, -7.2664971351623535, -0.4281799793243408, -0.128757506608963, -0.7878842353820801, -0.8213031888008118, -0.9503435492515564, 0.05672463774681091, -0.8023639612964796, 0.7097071138944102, 5.485459822595688, 9362.0, 30146.0, 35388.0, 9362.0, 8.370248794555664, -0.0821019783616066, 0.2458704113960266, 0.5414547920227051, 0.010125295259058475, -0.06529825180768967, 0.9982038736343384, -0.05690821632742882, -0.08439826965332031, 1.489013671875, 1.5234375, 0.2439727783203125, 1.493408203125, 0.87744140625, 10.0, 1.5152422189712524, 1.5, 1.5152422189712524
20056, 1.4357373714447021, 3.9510581493377686, -3.128011703491211, -0.13547708094120026, -0.04070721194148064, -7.274378299713135, -0.4350516200065613, -0.13083899021148682, -0.7883180379867554, -0.8213066458702087, -0.950352132320404, 0.05670355260372162, -0.8081656356444735, 0.7092713376679001, 5.486865577874572, 9362.0, 30146.0, 35388.0, 9362.0, 8.370248794555664, 0.12149310111999512, 0.17700141668319702, 0.07599788904190063, 0.010851391591131687, -0.06302715837955475, 0.9981874823570251, -0.05690821632742882, -0.08439826965332031, 1.489013671875, 1.377685546875, 0.023040771484375, 1.493408203125, 0.87744140625, 10.0, 1.5161033868789673, 1.5, 1.5161033868789673
20066, 1.436498761177063, 3.950477361679077, -3.1279711723327637, -0.13986194133758545, -0.042026013135910034, -7.28226375579834, -0.4419209361076355, -0.13292086124420166, -0.7887546420097351, -0.8212971687316895, -0.9503451585769653, 0.05670391023159027, -0.7952180046021309, 0.7111445454590068, 5.497098477911619, 9362.0, 30146.0, 35388.0, 9362.0, 8.370248794555664, -0.06043710559606552, 0.09615933150053024, 0.033444445580244064, 0.011126917786896229, -0.06189003959298134, 0.997943103313446, -0.05690821632742882, -0.08439826965332031, 1.489013671875, 1.103759765625, 1.2206573486328125, 1.491943359375, 0.87744140625, 10.0, 1.5152497291564941, 1.5, 1.5152497291564941
20076, 1.4361506700515747, 3.9492530822753906, -3.129038095474243, -0.13986194133758545, -0.042026013135910034, -7.28226375579834, -0.4419209361076355, -0.13292086124420166, -0.7887546420097351, -0.8213110566139221, -0.9503517746925354, 0.056695226579904556, -0.8009783867363377, 0.7056466556236103, 5.483815413982033, 9362.0, 30146.0, 35388.0, 9362.0, 8.390083312988281, -0.06043710559606552, 0.09615933150053024, 0.033444445580244064, 0.01031529251486063, -0.062226515263319016, 0.999647319316864, -0.05690821632742882, -0.08439826965332031, 1.489013671875, 1.6083984375, 0.437225341796875, 1.491943359375, 0.87744140625, 10.0, 1.5141313076019287, 1.5, 1.5141313076019287
20086, 1.4361945390701294, 3.948976516723633, -3.1275367736816406, -0.13986194133758545, -0.042026013135910034, -7.28226375579834, -0.4419209361076355, -0.13292086124420166, -0.7887546420097351, -0.8213015198707581, -0.9503361582756042, 0.05671871826052666, -0.8037532994766479, 0.7167737164083121, 5.478236163403113, 9362.0, 30146.0, 35388.0, 9362.0, 8.390083312988281, -0.16196280717849731, -0.1583232283592224, -0.00904889963567257, 0.010552885010838509, -0.06282413750886917, 0.9993269443511963, -0.06511618942022324, -0.07543754577636719, 1.48974609375, 1.47216796875, 0.142547607421875, 1.487548828125, 0.87744140625, 10.0, 1.5149331092834473, 1.5, 1.5149331092834473
20096, 1.4356096982955933, 3.950835943222046, -3.1269140243530273, -0.15342870354652405, -0.04610740765929222, -7.305944442749023, -0.4625335931777954, -0.1391735076904297, -0.7898892164230347, -0.8213041424751282, -0.9503526091575623, 0.05674285441637039, -0.8073420934818555, 0.7084269641578942, 5.495179248282539, 9362.0, 30146.0, 35388.0, 9362.0, 8.390083312988281, 0.35650938749313354, -0.02352210320532322, -0.27230730652809143, 0.010611262172460556, -0.06469616293907166, 0.9990363717079163, -0.06511618942022324, -0.07543754577636719, 1.48974609375, 1.365234375, 0.0175933837890625, 1.487548828125, 0.87744140625, 10.0, 1.5149331092834473, 1.5, 1.5149331092834473
20106, 1.4366313219070435, 3.9523258209228516, -3.127549409866333, -0.15342870354652405, -0.04610740765929222, -7.305944442749023, -0.4625335931777954, -0.1391735076904297, -0.7898892164230347, -0.8213218450546265, -0.9503526091575623, 0.05672435835003853, -0.8024869154700844, 0.7025448353856518, 5.485590508752171, 9362.0, 30146.0, 35388.0, 9362.0, 8.390083312988281, 0.17225925624370575, -0.04570409655570984, -0.22108645737171173, 0.010611262172460556, -0.06469616293907166, 0.9990363717079163, -0.06511618942022324, -0.07543754577636719, 1.48974609375, 1.5322265625, 0.2628021240234375, 1.494873046875, 1.224609375, 10.0, 1.5139847993850708, 1.5, 1.5139847993850708
20116, 1.437172293663025, 3.952530860900879, -3.128880023956299, -0.1628168374300003, -0.04893254116177559, -7.321749687194824, -0.47627943754196167, -0.1433400809764862, -0.7906858921051025, -0.8213052749633789, -0.9503493309020996, 0.05673561990261078, -0.7977216732823679, 0.7083587180834172, 5.491498417031526, 9362.0, 30146.0, 35388.0, 9362.0, 8.390083312988281, -0.03780384361743927, -0.3010663688182831, -0.2852301299571991, 0.010611262172460556, -0.06469616293907166, 0.9990363717079163, -0.06511618942022324, -0.07543754577636719, 1.48974609375, 1.508056640625, 0.211883544921875, 1.494873046875, 1.18505859375, 10.0, 1.5132520198822021, 1.5, 1.5132520198822021
20126, 1.4364291429519653, 3.9552414417266846, -3.13120698928833, -0.16761396825313568, -0.05037635564804077, -7.3296589851379395, -0.48314768075942993, -0.14542274177074432, -0.7911765575408936, -0.8213045597076416, -0.9503492116928101, 0.056737303733825684, -0.8003230271770292, 0.7149318098512651, 5.489174562530364, 9362.0, 30146.0, 35388.0, 9362.0, 8.390083312988281, -0.03780384361743927, -0.3010663688182831, -0.2852301299571991, 0.008827554062008858, -0.06171606481075287, 0.9977676868438721, -0.06511618942022324, -0.07543754577636719, 1.48974609375, 1.1923828125, 0.4285125732421875, 1.48828125, 1.18505859375, 10.0, 1.5122936964035034, 1.5, 1.5122936964035034
20136, 1.4380990266799927, 3.9546289443969727, -3.1326472759246826, -0.17247982323169708, -0.051840994507074356, -7.337573051452637, -0.4900231957435608, -0.1475045382976532, -0.7916296720504761, -0.8213056921958923, -0.9503406882286072, 0.05672280862927437, -0.7951943454747198, 0.7087919578234789, 5.486775328188572, 9362.0, 30146.0, 35388.0, 9362.0, 8.390083312988281, -0.08752042055130005, -0.5056523084640503, -0.0597371831536293, 0.009647799655795097, -0.06321720033884048, 0.9974424242973328, -0.06511618942022324, -0.07543754577636719, 1.48974609375, 1.57763671875, 0.3647918701171875, 1.48828125, 1.18505859375, 10.0, 1.5127081871032715, 1.5, 1.5127081871032715
20146, 1.4388147592544556, 3.9576833248138428, -3.1328017711639404, -0.1774144023656845, -0.053326454013586044, -7.345491886138916, -0.4968922734260559, -0.1495874971151352, -0.7921636700630188, -0.8213310837745667, -0.9502251744270325, 0.05655672028660774, -0.8238818717129001, 0.7613253117045815, 5.40074389154072, 9362.0, 30146.0, 35388.0, 9362.0, 8.390083312988281, -0.10515943914651871, -0.19647105038166046, 0.24451278150081635, 0.009647799655795097, -0.06321720033884048, 0.9974424242973328, -0.06511618942022324, -0.07543754577636719, 1.48974609375, 1.57763671875, 0.3647918701171875, 1.48828125, 1.18505859375, 10.0, 1.5127081871032715, 1.5, 1.5127081871032715
20176, 1.4395500421524048, 3.9599804878234863, -3.1339564323425293, -0.19263069331645966, -0.05790785700082779, -7.369279384613037, -0.5175380110740662, -0.1558401882648468, -0.79358971118927, -0.8213242888450623, -0.9502176642417908, 0.056503213942050934, -0.8198640466573112, 0.7609559757085833, 5.400647735833785, 9362.0, 30146.0, 35388.0, 9362.0, 8.390083312988281, 0.14395780861377716, -0.20552733540534973, -0.06120777875185013, 0.009732643142342567, -0.06388938426971436, 0.9989924430847168, -0.06511618942022324, -0.07543754577636719, 1.48974609375, 1.4912109375, 0.178253173828125, 1.494140625, 1.18505859375, 10.0, 1.5132864713668823, 1.5, 1.5132864713668823
20196, 1.440993070602417, 3.9625332355499268, -3.1348695755004883, -0.20311924815177917, -0.06106643006205559, -7.385159015655518, -0.5313169360160828, -0.16001766920089722, -0.7943849563598633, -0.821293830871582, -0.9502138495445251, 0.05653132498264313, -0.8183421863285428, 0.7680198159711153, 5.398572014127637, 9362.0, 30146.0, 35388.0, 9362.0, 8.390083312988281, 0.14395780861377716, -0.20552733540534973, -0.06120777875185013, 0.00901056919246912, -0.064916230738163, 0.9976056814193726, -0.06511618942022324, -0.07543754577636719, 1.48974609375, 1.4912109375, 0.178253173828125, 1.494140625, 1.18505859375, 10.0, 1.513741374015808, 1.5, 1.513741374015808
20206, 1.4410911798477173, 3.9612324237823486, -3.1360433101654053, -0.20846684277057648, -0.0626770481467247, -7.393105506896973, -0.5382028222084045, -0.16210536658763885, -0.7948746085166931, -0.8213033676147461, -0.95021653175354, 0.056509245187044144, -0.8230904915939417, 0.7715981321139225, 5.3964587465266645, 9362.0, 30146.0, 35388.0, 9362.0, 8.390083312988281, 0.06220601126551628, -0.20340485870838165, -0.2707482576370239, 0.00901056919246912, -0.064916230738163, 0.9976056814193726, -0.06511618942022324, -0.07543754577636719, 1.48974609375, 1.4912109375, 0.178253173828125, 1.494140625, 1.18505859375, 10.0, 1.5143022537231445, 1.5, 1.5143022537231445
20226, 1.4431527853012085, 3.9581050872802734, -3.138655185699463, -0.21936847269535065, -0.06596089899539948, -7.4090142250061035, -0.5519652366638184, -0.16628199815750122, -0.7959019541740417, -0.8213184475898743, -0.9502080678939819, 0.056519657373428345, -0.8220502838389793, 0.7727188015336992, 5.39388052500714, 9362.0, 30146.0, 35388.0, 9362.0, 8.390083312988281, 0.06220601126551628, -0.20340485870838165, -0.2707482576370239, 0.013231310993432999, -0.06408213824033737, 0.9960246682167053, -0.06511618942022324, -0.07543754577636719, 1.48974609375, 1.4912109375, 0.178253173828125, 1.487548828125, 1.18505859375, 10.0, 1.513942837715149, 1.5, 1.513942837715149
20236, 1.4419808387756348, 3.9603753089904785, -3.138566732406616, -0.21936847269535065, -0.06596089899539948, -7.4090142250061035, -0.5519652366638184, -0.16628199815750122, -0.7959019541740417, -0.821306049823761, -0.9502220153808594, 0.056505508720874786, -0.8221759661845202, 0.7710069683676863, 5.386318609282463, 9362.0, 30146.0, 35388.0, 9362.0, 8.390083312988281, 0.20047836005687714, 0.10508984327316284, 0.04014836996793747, 0.013231310993432999, -0.06408213824033737, 0.9960246682167053, -0.06511618942022324, -0.07543754577636719, 1.48974609375, 1.469970703125, 0.1386566162109375, 1.487548828125, 1.18505859375, 10.0, 1.513942837715149, 1.5, 1.513942837715149
20256, 1.4436792135238647, 3.9604644775390625, -3.1393094062805176, -0.23623669147491455, -0.07104332745075226, -7.432918071746826, -0.5725980401039124, -0.17255014181137085, -0.7975104451179504, -0.821320116519928, -0.9502155780792236, 0.056508950889110565, -0.8228605167060742, 0.769002289867359, 5.402531593609811, 9362.0, 30146.0, 35388.0, 9362.0, 8.390083312988281, -0.13080836832523346, -0.007393053267151117, 0.1992422342300415, 0.011450950987637043, -0.06583472341299057, 0.9995508193969727, -0.06511618942022324, -0.07543754577636719, 1.48974609375, 1.055419921875, 1.9101409912109375, 1.490478515625, 1.18505859375, 10.0, 1.5156810283660889, 1.5, 1.5156810283660889
20276, 1.4443227052688599, 3.960353374481201, -3.1384785175323486, -0.2419971525669098, -0.07277931272983551, -7.440894603729248, -0.5794956684112549, -0.17464691400527954, -0.797789454460144, -0.8213092684745789, -0.9503464102745056, 0.0566878467798233, -0.8038599786257073, 0.7144559069634226, 5.486972497350625, 9362.0, 30146.0, 35388.0, 9362.0, 8.390083312988281, 0.006907561328262091, -0.010994781740009785, -0.1168098896741867, 0.010887532494962215, -0.06424099951982498, 0.9982376098632812, -0.06511618942022324, -0.07543754577636719, 1.48974609375, 1.48681640625, 0.1698150634765625, 1.494140625, 1.18505859375, 10.0, 1.516282081604004, 1.5, 1.516282081604004
20296, 1.4458837509155273, 3.963108539581299, -3.14272141456604, -0.25969189405441284, -0.0781129002571106, -7.464848518371582, -0.6001500487327576, -0.18092648684978485, -0.799197256565094, -0.8213101029396057, -0.9503589868545532, 0.05673251301050186, -0.7939921672835807, 0.7030145948214113, 5.477849869221937, 9362.0, 30146.0, 35388.0, 9362.0, 8.390083312988281, 0.006907561328262091, -0.010994781740009785, -0.1168098896741867, 0.011094348505139351, -0.06347806006669998, 0.9963183403015137, -0.06511618942022324, -0.07543754577636719, 1.48974609375, 1.08837890625, 1.4176025390625, 1.494140625, 1.18505859375, 10.0, 1.517403483390808, 1.5, 1.517403483390808
20306, 1.445897102355957, 3.961345911026001, -3.14254093170166, -0.25969189405441284, -0.0781129002571106, -7.464848518371582, -0.6001500487327576, -0.18092648684978485, -0.799197256565094, -0.8213121891021729, -0.9503527879714966, 0.05671615153551102, -0.8008268922014743, 0.705853675396753, 5.485635355521318, 9362.0, 30146.0, 35388.0, 9362.0, 8.390083312988281, 0.006907561328262091, -0.010994781740009785, -0.1168098896741867, 0.01041947491466999, -0.06459353864192963, 0.998511552810669, -0.06511618942022324, -0.07543754577636719, 1.48974609375, 1.10595703125, 1.194122314453125, 1.494140625, 1.18505859375, 10.0, 1.517376184463501, 1.5, 1.517376184463501
20316, 1.4455353021621704, 3.9615721702575684, -3.1413443088531494, -0.25969189405441284, -0.0781129002571106, -7.464848518371582, -0.6001500487327576, -0.18092648684978485, -0.799197256565094, -0.8213258385658264, -0.9502251744270325, 0.05649217963218689, -0.8228213214193725, 0.7659043755149924, 5.411852815981979, 9362.0, 30146.0, 35388.0, 9362.0, 8.390083312988281, 0.006907561328262091, -0.010994781740009785, -0.1168098896741867, 0.01041947491466999, -0.06459353864192963, 0.998511552810669, -0.06511618942022324, -0.07543754577636719, 1.48974609375, 1.10595703125, 1.194122314453125, 1.494140625, 1.18505859375, 10.0, 1.515550136566162, 1.5, 1.515550136566162
20326, 1.4472156763076782, 3.9622347354888916, -3.1418769359588623, -0.2780061662197113, -0.08363495022058487, -7.488847732543945, -0.6208134889602661, -0.18721403181552887, -0.8005771040916443, -0.8213126063346863, -0.9503428936004639, 0.056694284081459045, -0.801668191442372, 0.7076477626737017, 5.486156014664029, 9362.0, 30146.0, 35388.0, 9362.0, 8.390083312988281, 0.10853135585784912, -0.18642102181911469, -0.20105494558811188, 0.01041947491466999, -0.06459353864192963, 0.998511552810669, -0.06511618942022324, -0.07543754577636719, 1.48974609375, 1.10595703125, 1.194122314453125, 1.494140625, 1.18505859375, 10.0, 1.515550136566162, 1.5, 1.515550136566162
20336, 1.4470196962356567, 3.9646756649017334, -3.143423080444336, -0.2780061662197113, -0.08363495022058487, -7.488847732543945, -0.6208134889602661, -0.18721403181552887, -0.8005771040916443, -0.8213104605674744, -0.9503464102745056, 0.05669741332530975, -0.7926255551674843, 0.7139106358632716, 5.486769158153073, 9362.0, 30146.0, 35388.0, 9362.0, 8.390083312988281, 0.10853135585784912, -0.18642102181911469, -0.20105494558811188, 0.01041947491466999, -0.06459353864192963, 0.998511552810669, -0.06511618942022324, -0.07543754577636719, 1.48974609375, 1.1748046875, 0.5444488525390625, 1.494140625, 1.18505859375, 10.0, 1.5163257122039795, 1.5, 1.5163257122039795
20346, 1.4472408294677734, 3.9646198749542236, -3.1434311866760254, -0.2780061662197113, -0.08363495022058487, -7.488847732543945, -0.6208134889602661, -0.18721403181552887, -0.8005771040916443, -0.8213086128234863, -0.9503480792045593, 0.056695640087127686, -0.8023445090623499, 0.7128903376120093, 5.486469865985231, 9362.0, 30146.0, 35388.0, 9362.0, 8.390083312988281, 0.10853135585784912, -0.18642102181911469, -0.20105494558811188, 0.01041947491466999, -0.06459353864192963, 0.998511552810669, -0.06511618942022324, -0.07543754577636719, 1.48974609375, 1.1748046875, 0.5444488525390625, 1.491943359375, 1.18505859375, 10.0, 1.51488196849823, 1.5, 1.51488196849823
20356, 1.4473930597305298, 3.964256525039673, -3.1424145698547363, -0.2780061662197113, -0.08363495022058487, -7.488847732543945, -0.6208134889602661, -0.18721403181552887, -0.8005771040916443, -0.8213198781013489, -0.9502249956130981, 0.056505341082811356, -0.8251843095898472, 0.7693880369612032, 5.403660029347158, 9362.0, 30146.0, 35388.0, 9362.0, 8.390083312988281, 0.0273286122828722, 0.23569273948669434, 0.07235453277826309, 0.01041947491466999, -0.06459353864192963, 0.998511552810669, -0.06511618942022324, -0.07543754577636719, 1.48974609375, 1.48828125, 0.172576904296875, 1.491943359375, 1.18505859375, 10.0, 1.5149695873260498, 1.5, 1.5149695873260498
20366, 1.447124719619751, 3.963761329650879, -3.14194393157959, -0.2780061662197113, -0.08363495022058487, -7.488847732543945, -0.6208134889602661, -0.18721403181552887, -0.8005771040916443, -0.8213147521018982, -0.9503433108329773, 0.05669673532247543, -0.8002462338852018, 0.7153673803146887, 5.490947910650282, 9362.0, 30146.0, 35388.0, 9362.0, 8.390083312988281, -0.023728005588054657, -0.00592012470588088, 0.12549737095832825, 0.011323700658977032, -0.06236462667584419, 0.997144877910614, -0.06511618942022324, -0.07543754577636719, 1.48974609375, 1.00341796875, 2.907745361328125, 1.491943359375, 1.18505859375, 10.0, 1.5140436887741089, 1.5, 1.5140436887741089
20376, 1.447655439376831, 3.963491201400757, -3.1406893730163574, -0.309908002614975, -0.0932578593492508, -7.528936386108398, -0.6552494168281555, -0.1976982206106186, -0.8031620383262634, -0.8213207125663757, -0.9503604769706726, 0.05670565366744995, -0.8046874038359079, 0.7040280014541338, 5.49432843097656, 9362.0, 30146.0, 35388.0, 9362.0, 8.390083312988281, -0.023728005588054657, -0.00592012470588088, 0.12549737095832825, 0.012629246339201927, -0.06461883336305618, 0.9967395067214966, -0.06511618942022324, -0.07543754577636719, 1.48974609375, 1.00341796875, 2.907745361328125, 1.491943359375, 1.18505859375, 10.0, 1.5140436887741089, 1.5, 1.5140436887741089
20386, 1.4497321844100952, 3.9645471572875977, -3.140212059020996, -0.309908002614975, -0.0932578593492508, -7.528936386108398, -0.6552494168281555, -0.1976982206106186, -0.8031620383262634, -0.8213157653808594, -0.9503653645515442, 0.05672161281108856, -0.8033418961494248, 0.7024030164105, 5.48600151962081, 9362.0, 30146.0, 35388.0, 9362.0, 8.390083312988281, -0.023728005588054657, -0.00592012470588088, 0.12549737095832825, 0.010443571954965591, -0.06375909596681595, 0.996553361415863, -0.06511618942022324, -0.07543754577636719, 1.48974609375, 1.333740234375, 0.0189361572265625, 1.48974609375, 1.18505859375, 10.0, 1.5153437852859497, 1.5, 1.5153437852859497
20396, 1.4506992101669312, 3.9642133712768555, -3.13971209526062, -0.309908002614975, -0.0932578593492508, -7.528936386108398, -0.6552494168281555, -0.1976982206106186, -0.8031620383262634, -0.8213246464729309, -0.9502288699150085, 0.056513458490371704, -0.8209317406460565, 0.7699951635254934, 5.403579321853008, 9362.0, 30146.0, 35388.0, 9362.0, 8.390083312988281, -0.023728005588054657, -0.00592012470588088, 0.12549737095832825, 0.010443571954965591, -0.06375909596681595, 0.996553361415863, -0.06511618942022324, -0.07543754577636719, 1.48974609375, 1.333740234375, 0.0189361572265625, 1.48974609375, 1.40771484375, 10.0, 1.5146050453186035, 1.5, 1.5146050453186035
20406, 1.450553059577942, 3.9639456272125244, -3.141716718673706, -0.32987529039382935, -0.09928324818611145, -7.553056240081787, -0.6759048700332642, -0.20399810373783112, -0.8048176765441895, -0.821312665939331, -0.9503560662269592, 0.056689560413360596, -0.7925836648830499, 0.715353416427746, 5.486207202182012, 9362.0, 30146.0, 35388.0, 9362.0, 8.390083312988281, -0.1362714022397995, 0.11950613558292389, 0.05701030045747757, 0.010443571954965591, -0.06375909596681595, 0.996553361415863, -0.06511618942022324, -0.07543754577636719, 1.48974609375, 1.333740234375, 0.0189361572265625, 1.48974609375, 1.40771484375, 10.0, 1.5146050453186035, 1.5, 1.5146050453186035
20426, 1.4515342712402344, 3.9658594131469727, -3.1425294876098633, -0.34353116154670715, -0.10340526700019836, -7.569162368774414, -0.6896814703941345, -0.20820333063602448, -0.805841326713562, -0.8213150501251221, -0.950355052947998, 0.0567229799926281, -0.8111789784199402, 0.6994407342743614, 5.4866929186841835, 9362.0, 30146.0, 35388.0, 9362.0, 8.390083312988281, 0.22649610042572021, -0.025208456441760063, 0.20445604622364044, 0.01048971340060234, -0.06567388027906418, 0.9971039891242981, -0.06511618942022324, -0.07543754577636719, 1.48974609375, 1.464111328125, 0.1283111572265625, 1.48974609375, 1.40771484375, 10.0, 1.5160824060440063, 1.5, 1.5160824060440063
