timeTick, roll, pitch, yaw, stateX, stateY, stateZ, stateVX, stateVY, stateVZ, otX0, otY0, otZ0, otRoll0, otPitch0, otYaw0, left wing, pitch motor, yaw motor, right wing, voltage, roll rate, pitch rate, yaw rate, A_x, A_y, A_z, current, i_raw, v_raw, airflow_voltage, airflow_speed, pot_Pitch, voltage_nKF, kFFx, volt_KF_vel, kP, volt_KF_pos
13961, -0.6655262112617493, 0.050149526447057724, -0.42157602310180664, 0, 0, 0, 0, 0, 0, -0.7896422147750854, -0.9752600789070129, 0.06414512544870377, -0.2835875576305746, -0.28844476879834247, 2.407326905642067, 0, 0, 0, 0, 0, 0, 0, 0, 0, 0, 0, 0, 0, 0, 0, 0, 0, 0, 0, 0, 0, 0
13971, -0.6659247279167175, 0.04688533395528793, -0.42180654406547546, 1.1055375580326654e-05, -0.000149067142046988, -3.5541253089904785, 0.00024892171495594084, -0.003264716360718012, -0.575598955154419, -0.7894926071166992, -0.9753044843673706, 0.06413844972848892, -0.24972159183853967, -0.3773462610834599, 2.448273553718024, 9362.0, 30146.0, 35388.0, 9362.0, 0, 0.028104562312364578, 0.3595753312110901, -0.06989999115467072, 0.005621523596346378, -0.05799276754260063, 0.9984735250473022, 0, 0, 0, 0, 0, 0, 0, 0, 0, 0, 0
13981, -0.6660701036453247, 0.048734575510025024, -0.420875608921051, 1.3158102774468716e-05, -0.00017602680600248277, -3.559882402420044, 0.00017161625146400183, -0.0021272171288728714, -0.575826108455658, -0.7894895076751709, -0.9752973914146423, 0.06413619220256805, -0.25093341947551384, -0.3693248487585379, 2.447378416745228, 9362.0, 30146.0, 35388.0, 9362.0, 0, -0.017177801579236984, -0.43716001510620117, -0.33630478382110596, 0.005901276599615812, -0.05769655108451843, 0.9974970817565918, 0, 0, 0, 1.313232421875, 0.0333251953125, 0, 1.42822265625, 10.0, 1.405282974243164, 1.5, 1.405282974243164
13991, -0.665427029132843, 0.048628296703100204, -0.4213414192199707, 1.4515330803988036e-05, -0.00019160239025950432, -3.565641403198242, 9.98143877950497e-05, -0.0009879000717774034, -0.5759519934654236, -0.7894958257675171, -0.9752943515777588, 0.06411635130643845, -0.2533143554307217, -0.36996140466376914, 2.4492666875642737, 9362.0, 30146.0, 35388.0, 9362.0, 0, 0.3265446424484253, -0.0095362588763237, -0.08272082358598709, 0.005590713582932949, -0.05732565373182297, 0.9946396946907043, 0, 0, 0, 1.4794921875, 0.155975341796875, 1.494873046875, 1.27587890625, 10.0, 1.4050501585006714, 1.5, 1.4050501585006714
14001, -0.6644837856292725, 0.04737551510334015, -0.4226876497268677, 1.513986262580147e-05, -0.00019580194202717394, -3.5714030265808105, 2.5100423954427242e-05, 0.0001479965285398066, -0.5763958096504211, -0.7894900441169739, -0.9753031134605408, 0.0641215443611145, -0.25082259442272076, -0.37287600462389037, 2.4410778387821686, 9362.0, 30146.0, 35388.0, 9362.0, 0, 0.033119771629571915, 0.14288751780986786, -0.1495288461446762, 0.003785379696637392, -0.058950189501047134, 0.9957830905914307, 0, 0, 0, 1.40771484375, 0.0478363037109375, 1.494873046875, 1.49853515625, 10.0, 1.4045405387878418, 1.5, 1.4045405387878418
14011, -0.6655800938606262, 0.045701757073402405, -0.42308005690574646, 1.5018275007605553e-05, -0.00018864964658860117, -3.577169418334961, -4.9401420255890116e-05, 0.001282470882870257, -0.576867938041687, -0.7894966006278992, -0.975311815738678, 0.06411837041378021, -0.24959014520942416, -0.3734854488816097, 2.4462832939739596, 9362.0, 30146.0, 35388.0, 9362.0, 0, -0.26604411005973816, 0.2848317325115204, 0.17750495672225952, 0.004557154607027769, -0.06023400276899338, 0.996234655380249, 0, 0, 0, 1.250244140625, 0.162445068359375, 1.48974609375, 1.48388671875, 10.0, 1.4041630029678345, 1.5, 1.4041630029678345
14021, -0.6659469604492188, 0.04421121999621391, -0.4235229194164276, 1.416211398463929e-05, -0.0001701560104265809, -3.582940101623535, -0.00012183398939669132, 0.0024162514600902796, -0.5772588849067688, -0.7894949316978455, -0.9753065705299377, 0.06412386149168015, -0.2469972990241753, -0.37528151879735105, 2.449116637618755, 9362.0, 30146.0, 35388.0, 9362.0, 0, -0.02412230707705021, 0.1775408387184143, -0.12616263329982758, 0.0055288164876401424, -0.05947144702076912, 0.997263491153717, 0, 0, 0, 1.3623046875, 0.0167999267578125, 1.48974609375, 1.51611328125, 10.0, 1.4044278860092163, 1.5, 1.4044278860092163
14031, -0.6643778085708618, 0.04414430633187294, -0.42411473393440247, 1.2595716725627426e-05, -0.00014031058526597917, -3.588714122772217, -0.00019144437101203948, 0.0035528347361832857, -0.5775680541992188, -0.7895416617393494, -0.9752716422080994, 0.06412816792726517, -0.26760479049901775, -0.3515934777714165, 2.4322431915695897, 9362.0, 30146.0, 35388.0, 9362.0, 0, 0.26420357823371887, -0.01769937388598919, -0.011980604380369186, 0.0037000023294240236, -0.05706346780061722, 0.9980646967887878, 0, 0, 0, 1.201171875, 0.3771514892578125, 1.48828125, 1.434814453125, 10.0, 1.404122233390808, 1.5, 1.404122233390808
14041, -0.6655653119087219, 0.04398108273744583, -0.42298218607902527, 1.0345884220441803e-05, -9.909429354593158e-05, -3.5944912433624268, -0.0002585106703918427, 0.0046904319897294044, -0.5778431296348572, -0.7895039916038513, -0.9753109812736511, 0.06410548090934753, -0.24345247754633445, -0.36832078718595085, 2.4407099806533314, 9362.0, 30146.0, 35388.0, 9362.0, 0, -0.02261088788509369, -0.2460504174232483, 0.1759406477212906, 0.004374297335743904, -0.05691630020737648, 0.9998558759689331, 0, 0, 0, 1.428955078125, 0.073577880859375, 1.48828125, 1.242919921875, 10.0, 1.4041833877563477, 1.5, 1.4041833877563477
14051, -0.6652262210845947, 0.04298747703433037, -0.42313817143440247, 7.425279363815207e-06, -4.6504559577442706e-05, -3.6002700328826904, -0.0003256331547163427, 0.005827512592077255, -0.5779309868812561, -0.7895389795303345, -0.9752798676490784, 0.06411305069923401, -0.2651922805272528, -0.344941084313092, 2.435507575658006, 9362.0, 30146.0, 35388.0, 9362.0, 0, 0.07765838503837585, 0.07265635579824448, 0.0793829932808876, 0.004315723665058613, -0.058814749121665955, 0.996495246887207, 0, 0, 0, 1.31689453125, 0.0298919677734375, 1.487548828125, 1.27294921875, 10.0, 1.403942584991455, 1.5, 1.403942584991455
14061, -0.6656494140625, 0.0434214323759079, -0.42472419142723083, 3.835077222902328e-06, 1.746152702253312e-05, -3.6060502529144287, -0.0003924068296328187, 0.006965705193579197, -0.5780978202819824, -0.7895388603210449, -0.9752786159515381, 0.06412115693092346, -0.26971459927422853, -0.34959157255875084, 2.4320873896966204, 9362.0, 30146.0, 35388.0, 9362.0, 8.350414276123047, 0.054764676839113235, -0.08081727474927902, -0.21102727949619293, 0.005156754050403833, -0.05720973014831543, 0.9962983727455139, -0.07684198766946793, -0.10231781005859375, 1.487548828125, 1.465576171875, 0.130889892578125, 1.487548828125, 1.44140625, 10.0, 1.4035016298294067, 1.5, 1.4035016298294067
14071, -0.6656927466392517, 0.04233265668153763, -0.42359939217567444, -4.1358453017892316e-07, 9.279274672735482e-05, -3.611833333969116, -0.000457291112979874, 0.0081005385145545, -0.5785028338432312, -0.7894994616508484, -0.9753023982048035, 0.06412729620933533, -0.2492074784992122, -0.3768599471674463, 2.443598648561049, 9362.0, 30146.0, 35388.0, 9362.0, 8.350414276123047, -0.12697583436965942, -0.12672926485538483, 0.18105663359165192, 0.00401260843500495, -0.056316692382097244, 0.9971481561660767, -0.07684198766946793, -0.10231781005859375, 1.487548828125, 1.487548828125, 0.1712188720703125, 1.493408203125, 1.265625, 10.0, 1.4030990600585938, 1.5, 1.4030990600585938
14081, -0.6657229065895081, 0.040249720215797424, -0.42362526059150696, -5.315045200404711e-06, 0.00017948358436115086, -3.617619752883911, -0.0005230283713899553, 0.009237626567482948, -0.5787765383720398, -0.7895258665084839, -0.9752826690673828, 0.06411623954772949, -0.2638079478787714, -0.34314797455192547, 2.436704622101476, 9362.0, 30146.0, 35388.0, 9362.0, 8.350414276123047, 0.04997553303837776, 0.16315975785255432, -0.038590751588344574, 0.0037538032047450542, -0.059850677847862244, 0.9980618357658386, -0.07684198766946793, -0.10231781005859375, 1.487548828125, 1.47802734375, 0.1532745361328125, 1.493408203125, 1.42822265625, 10.0, 1.4034526348114014, 1.5, 1.4034526348114014
14091, -0.6662298440933228, 0.042227763682603836, -0.4230897128582001, -1.0864805517485365e-05, 0.0002775475732050836, -3.623408794403076, -0.0005869312444701791, 0.010375173762440681, -0.5790159702301025, -0.7895305752754211, -0.9752705693244934, 0.06412269920110703, -0.2677736989362378, -0.34879539414737337, 2.429383527352455, 9362.0, 30146.0, 35388.0, 9362.0, 8.350414276123047, -0.2800183892250061, 0.04147595167160034, 0.23965464532375336, 0.005006150808185339, -0.05861480161547661, 0.9986993074417114, -0.07684198766946793, -0.10231781005859375, 1.487548828125, 1.452392578125, 0.10870361328125, 1.4912109375, 1.2275390625, 10.0, 1.4035967588424683, 1.5, 1.4035967588424683
14101, -0.6660692691802979, 0.04171551764011383, -0.42391112446784973, -1.7036138160619885e-05, 0.00038699351716786623, -3.629199504852295, -0.0006473421817645431, 0.011514013633131981, -0.579146146774292, -0.7894787788391113, -0.9753234386444092, 0.06418821215629578, -0.23484568415799204, -0.38467570528578676, 2.440674736224374, 9362.0, 30146.0, 35388.0, 9362.0, 8.350414276123047, 0.154241681098938, -0.14607001841068268, -0.014820083044469357, 0.004445917438715696, -0.05763645097613335, 0.9988706111907959, -0.07684198766946793, -0.10231781005859375, 1.487548828125, 1.278076171875, 0.087799072265625, 1.4912109375, 1.259765625, 10.0, 1.4038283824920654, 1.5, 1.4038283824920654
14111, -0.6650251150131226, 0.041772034019231796, -0.4229585528373718, -2.382843740633689e-05, 0.000507830991409719, -3.6349916458129883, -0.0007111024460755289, 0.012653476558625698, -0.5792997479438782, -0.7894659638404846, -0.9753075838088989, 0.06419344991445541, -0.2327525401768951, -0.38873709043218696, 2.437644494652872, 9362.0, 30146.0, 35388.0, 9362.0, 8.350414276123047, 0.2805681526660919, 0.02083994448184967, 0.0963001400232315, 0.005076857749372721, -0.0572354681789875, 0.9980313777923584, -0.07684198766946793, -0.10231781005859375, 1.487548828125, 1.3212890625, 0.026214599609375, 1.48681640625, 1.41064453125, 10.0, 1.4039638042449951, 1.5, 1.4039638042449951
14121, -0.6655353903770447, 0.0424099899828434, -0.4234752953052521, -3.1253977795131505e-05, 0.000640063313767314, -3.6407852172851562, -0.0007740247529000044, 0.013792985118925571, -0.579425036907196, -0.7894774079322815, -0.9753261804580688, 0.06419025361537933, -0.2388696056512595, -0.381716317186374, 2.4429141553714566, 9362.0, 30146.0, 35388.0, 9362.0, 8.350414276123047, 0.01973729021847248, 0.08365881443023682, -0.05394952744245529, 0.00401259446516633, -0.05860249325633049, 0.9967060089111328, -0.07684198766946793, -0.10231781005859375, 1.487548828125, 1.423095703125, 0.06591796875, 1.48681640625, 1.48388671875, 10.0, 1.404118299484253, 1.5, 1.404118299484253
14131, -0.6652816534042358, 0.04365668445825577, -0.4238620698451996, -3.930874663637951e-05, 0.0007836702279746532, -3.6465811729431152, -0.0008369157440029085, 0.014928401447832584, -0.5797491073608398, -0.7896085977554321, -0.9752583503723145, 0.06422331184148788, -0.2818935054583647, -0.29893436189374256, 2.3968266239504095, 9362.0, 30146.0, 35388.0, 9362.0, 8.350414276123047, -0.05220111832022667, 0.0120398523285985, 0.1492604911327362, 0.004782868083566427, -0.05780523642897606, 0.9979739785194397, -0.07684198766946793, -0.10231781005859375, 1.487548828125, 1.489013671875, 0.174041748046875, 1.4912109375, 1.354248046875, 10.0, 1.4039322137832642, 1.5, 1.4039322137832642
14141, -0.6637740135192871, 0.04362691193819046, -0.4247405230998993, -4.799794623977505e-05, 0.0009386385791003704, -3.6523799896240234, -0.0009009108180180192, 0.016065265983343124, -0.580024003982544, -0.789472758769989, -0.9753243923187256, 0.06420334428548813, -0.23496373852475172, -0.38714244707455236, 2.4479564527474467, 9362.0, 30146.0, 35388.0, 9362.0, 8.350414276123047, 0.0012421540450304747, 0.4650374948978424, -0.08766386657953262, 0.004662726540118456, -0.057504281401634216, 0.9984906315803528, -0.07684198766946793, -0.10231781005859375, 1.487548828125, 1.503662109375, 0.2029876708984375, 1.4912109375, 1.285400390625, 10.0, 1.403827428817749, 1.5, 1.403827428817749
14151, -0.6653626561164856, 0.0415443517267704, -0.4247571527957916, -5.73380348214414e-05, 0.0011049789609387517, -3.6581811904907227, -0.0009670899598859251, 0.017202818766236305, -0.5802048444747925, -0.7894838452339172, -0.9753230214118958, 0.06420905888080597, -0.23344678672648117, -0.38798699432379635, 2.4427245691294557, 9362.0, 30146.0, 35388.0, 9362.0, 8.350414276123047, -0.2977849245071411, -0.12764465808868408, 0.11560980975627899, 0.005280727054923773, -0.061387088149785995, 0.997061014175415, -0.07684198766946793, -0.10231781005859375, 1.487548828125, 1.20703125, 0.34527587890625, 1.4912109375, 1.489013671875, 10.0, 1.4040261507034302, 1.5, 1.4040261507034302
14161, -0.6658245325088501, 0.03930099308490753, -0.42445048689842224, -6.733945338055491e-05, 0.0012826782185584307, -3.663984537124634, -0.0010332015808671713, 0.018337029963731766, -0.5804502367973328, -0.7894889712333679, -0.9753164052963257, 0.06417731940746307, -0.22709806246462735, -0.3951045031514866, 2.446751559303649, 9362.0, 30146.0, 35388.0, 9362.0, 8.350414276123047, 0.06639592349529266, 0.1280084103345871, 0.12010838091373444, 0.0024927547201514244, -0.057104505598545074, 0.996975839138031, -0.08109854906797409, -0.10231781005859375, 1.487548828125, 1.482421875, 0.161529541015625, 1.4912109375, 1.229736328125, 10.0, 1.4042192697525024, 1.5, 1.4042192697525024
14171, -0.6660890579223633, 0.03891276568174362, -0.42444711923599243, -7.798386650392786e-05, 0.0014717287849634886, -3.669790744781494, -0.0010956989135593176, 0.019473079591989517, -0.5807690620422363, -0.7895066738128662, -0.9752939939498901, 0.06420058757066727, -0.2524688929160394, -0.36323395537590386, 2.432483381867615, 9362.0, 30146.0, 35388.0, 9362.0, 8.350414276123047, 0.00796356238424778, 0.13540999591350555, -0.03163684904575348, 0.004203822463750839, -0.055803749710321426, 0.99659264087677, -0.08109854906797409, -0.10231781005859375, 1.487548828125, 1.22021484375, 0.2799530029296875, 1.48974609375, 1.317626953125, 10.0, 1.4044922590255737, 1.5, 1.4044922590255737
14181, -0.6643425822257996, 0.03801208361983299, -0.42309480905532837, -8.923409041017294e-05, 0.0016721432330086827, -3.675600051879883, -0.0011543482542037964, 0.020609810948371887, -0.5810949802398682, -0.789560079574585, -0.9752969741821289, 0.06414507329463959, -0.24271955348885185, -0.3569043587139902, 2.408486910199999, 9362.0, 30146.0, 35388.0, 9362.0, 8.350414276123047, 0.2099132537841797, 0.2969594895839691, 0.16280321776866913, 0.004314149729907513, -0.05460311472415924, 0.9967181086540222, -0.08109854906797409, -0.10231781005859375, 1.487548828125, 1.435546875, 0.0829315185546875, 1.48974609375, 1.178466796875, 10.0, 1.4037680625915527, 1.5, 1.4037680625915527
14191, -0.6638484597206116, 0.03772569075226784, -0.42405468225479126, -0.00010106750414706767, 0.0018839278491213918, -3.681412696838379, -0.0012123665073886514, 0.021747108548879623, -0.581410825252533, -0.789534330368042, -0.9752932190895081, 0.06417012214660645, -0.23637461180201527, -0.3541274256435827, 2.40259096487611, 9362.0, 30146.0, 35388.0, 9362.0, 8.350414276123047, 0.10476676374673843, 0.12903143465518951, -0.1704559177160263, 0.0041816094890236855, -0.05680836737155914, 0.9984207153320312, -0.08109854906797409, -0.10231781005859375, 1.487548828125, 1.487548828125, 0.1712188720703125, 1.487548828125, 1.1748046875, 10.0, 1.4037128686904907, 1.5, 1.4037128686904907
14201, -0.6636468172073364, 0.0361412912607193, -0.4262554347515106, -0.00011347375402692705, 0.002107072388753295, -3.687228202819824, -0.0012688665883615613, 0.02288178540766239, -0.5816942453384399, -0.7895083427429199, -0.9753179550170898, 0.0641661062836647, -0.22380784717684343, -0.37839814462057575, 2.424769457244506, 9362.0, 30146.0, 35388.0, 9362.0, 8.350414276123047, -0.16218562424182892, 0.12754510343074799, -0.11921858787536621, 0.0068299132399261, -0.05765990912914276, 0.9986262321472168, -0.08109854906797409, -0.10231781005859375, 1.487548828125, 1.461181640625, 0.1233062744140625, 1.487548828125, 1.42529296875, 10.0, 1.4032723903656006, 1.5, 1.4032723903656006
14211, -0.6635247468948364, 0.030662842094898224, -0.4235523045063019, -0.0001264428865397349, 0.0023415673058480024, -3.6930458545684814, -0.0013249217299744487, 0.02401721104979515, -0.581839919090271, -0.7895029187202454, -0.9753210544586182, 0.06416993588209152, -0.2184358223853511, -0.377794215524176, 2.4160876415797654, 9362.0, 30146.0, 35388.0, 9362.0, 8.350414276123047, 0.07133136689662933, 0.5324888825416565, 0.34619420766830444, 0.005414488725364208, -0.05986607074737549, 0.9980023503303528, -0.08109854906797409, -0.10231781005859375, 1.487548828125, 1.4736328125, 0.1452178955078125, 1.482421875, 1.443603515625, 10.0, 1.4030237197875977, 1.5, 1.4030237197875977
14221, -0.6642715930938721, 0.029515260830521584, -0.42308446764945984, -0.0001399587927153334, 0.0025874138809740543, -3.6988651752471924, -0.0013783260947093368, 0.02515210211277008, -0.5820004343986511, -0.7895028591156006, -0.9753202795982361, 0.06414596736431122, -0.21998115250797212, -0.37632309205307024, 2.419829510922216, 9362.0, 30146.0, 35388.0, 9362.0, 8.350414276123047, 0.041428789496421814, 0.15511514246463776, 0.1510089635848999, 0.003911502659320831, -0.05868689715862274, 0.9974380731582642, -0.08109854906797409, -0.10231781005859375, 1.487548828125, 1.25390625, 0.1508331298828125, 1.482421875, 1.382080078125, 10.0, 1.4034050703048706, 1.5, 1.4034050703048706
14231, -0.6636283993721008, 0.032168734818696976, -0.42473623156547546, -0.00015396205708384514, 0.00284460443072021, -3.704686403274536, -0.0014223400503396988, 0.026286009699106216, -0.5822210311889648, -0.7895065546035767, -0.9753245711326599, 0.06415034085512161, -0.22158537150065225, -0.38262423214928276, 2.4180406237685808, 9362.0, 30146.0, 35388.0, 9362.0, 8.350414276123047, 0.12350033223628998, -0.07848227769136429, -0.4322011470794678, 0.00483472365885973, -0.05562901496887207, 0.9967480897903442, -0.08109854906797409, -0.10231781005859375, 1.487548828125, 1.231201171875, 0.2321319580078125, 1.487548828125, 1.49267578125, 10.0, 1.4035924673080444, 1.5, 1.4035924673080444
14241, -0.6625064611434937, 0.03310224413871765, -0.42579570412635803, -0.00016839549061842263, 0.0031131356954574585, -3.710510015487671, -0.0014642997412011027, 0.02742025814950466, -0.5825222730636597, -0.7895057201385498, -0.9753203988075256, 0.06416001170873642, -0.2203014748484254, -0.3717334107462307, 2.4210111467720417, 9362.0, 30146.0, 35388.0, 9362.0, 8.350414276123047, -0.11883623898029327, -0.12986303865909576, 0.048246391117572784, 0.005620843730866909, -0.05632109194993973, 0.998136579990387, -0.08109854906797409, -0.10231781005859375, 1.487548828125, 1.27587890625, 0.092620849609375, 1.487548828125, 1.348388671875, 10.0, 1.4038596153259277, 1.5, 1.4038596153259277
14251, -0.6623029708862305, 0.03195391967892647, -0.42398756742477417, -0.0001832711714087054, 0.003393007442355156, -3.716336488723755, -0.0015108119696378708, 0.028554093092679977, -0.582767128944397, -0.7896411418914795, -0.9752808213233948, 0.06417917460203171, -0.2512679994955845, -0.2924173582134415, 2.3779720202100196, 9362.0, 30146.0, 35388.0, 9362.0, 8.350414276123047, 0.1900990754365921, 0.0748293325304985, 0.06458824127912521, 0.005364658776670694, -0.06042024865746498, 0.9972333908081055, -0.08109854906797409, -0.10231781005859375, 1.487548828125, 1.46337890625, 0.1270751953125, 1.4912109375, 1.3125, 10.0, 1.4036775827407837, 1.5, 1.4036775827407837
14261, -0.6635348796844482, 0.034076470881700516, -0.4254658818244934, -0.00019861990585923195, 0.003684207797050476, -3.72216534614563, -0.0015589749673381448, 0.02968597412109375, -0.583015501499176, -0.7895626425743103, -0.9752933382987976, 0.06416242569684982, -0.23633779946807482, -0.35575479561742895, 2.4102187262015855, 9362.0, 30146.0, 35388.0, 9362.0, 8.350414276123047, -0.06973771005868912, 0.011603189632296562, -0.1713201105594635, 0.004232034087181091, -0.060564760118722916, 0.9987400770187378, -0.06517317146062851, -0.10231781005859375, 1.487548828125, 1.475830078125, 0.1492767333984375, 1.4912109375, 1.462646484375, 10.0, 1.4039101600646973, 1.5, 1.4039101600646973
14271, -0.6636976599693298, 0.03335658460855484, -0.42616182565689087, -0.00021444087906274945, 0.003986730705946684, -3.727996349334717, -0.0016051860293373466, 0.030818603932857513, -0.583168089389801, -0.7894768714904785, -0.9753237962722778, 0.06417577713727951, -0.23392414533800818, -0.3884212251830945, 2.4390223993273303, 9362.0, 30146.0, 35388.0, 9362.0, 8.350414276123047, 0.18604835867881775, 0.03922883793711662, -0.09346051514148712, 0.004380503203719854, -0.058377962559461594, 0.9976310729980469, -0.06517317146062851, -0.10231781005859375, 1.487548828125, 1.45458984375, 0.11224365234375, 1.490478515625, 1.44873046875, 10.0, 1.403285026550293, 1.5, 1.403285026550293
14281, -0.6628565788269043, 0.0337972491979599, -0.4271973669528961, -0.00023074191994965076, 0.0043005915358662605, -3.7338287830352783, -0.0016550089931115508, 0.03195352107286453, -0.583307683467865, -0.7895207405090332, -0.9752880334854126, 0.0642121210694313, -0.2535472633801443, -0.3586671571217437, 2.424904737367644, 9362.0, 30146.0, 35388.0, 9362.0, 8.350414276123047, 0.13532321155071259, -0.03521587327122688, 0.2319672703742981, 0.00557734165340662, -0.056018609553575516, 0.9965999722480774, -0.06517317146062851, -0.10231781005859375, 1.487548828125, 1.421630859375, 0.0640716552734375, 1.490478515625, 1.30224609375, 10.0, 1.4035260677337646, 1.5, 1.4035260677337646
14291, -0.662649929523468, 0.032797761261463165, -0.42916446924209595, -0.00024753453908488154, 0.00462579308077693, -3.7396633625030518, -0.0017034935299307108, 0.03308679908514023, -0.5836118459701538, -0.7895195484161377, -0.9753001928329468, 0.0641876831650734, -0.2535743569916463, -0.3596946706171593, 2.435950909140588, 9362.0, 30146.0, 35388.0, 9362.0, 8.350414276123047, 0.0418049655854702, 0.14702513813972473, -0.019469236955046654, 0.00557734165340662, -0.056018609553575516, 0.9965999722480774, -0.06517317146062851, -0.10231781005859375, 1.487548828125, 1.376953125, 0.0225982666015625, 1.489013671875, 1.30224609375, 10.0, 1.4035260677337646, 1.5, 1.4035260677337646
14301, -0.6618609428405762, 0.03354550898075104, -0.4273228347301483, -0.00024753453908488154, 0.00462579308077693, -3.7396633625030518, -0.0017034935299307108, 0.03308679908514023, -0.5836118459701538, -0.7896019816398621, -0.9752916693687439, 0.06422848999500275, -0.2677940528141678, -0.2949641961115219, 2.4064507093435537, 9362.0, 30146.0, 35388.0, 9362.0, 8.350414276123047, 0.14293250441551208, 0.1715134084224701, 0.15245328843593597, 0.00557734165340662, -0.056018609553575516, 0.9965999722480774, -0.06517317146062851, -0.10231781005859375, 1.487548828125, 1.398193359375, 0.03826904296875, 1.489013671875, 1.17333984375, 10.0, 1.4035260677337646, 1.5, 1.4035260677337646
14311, -0.6616442203521729, 0.034690648317337036, -0.42737430334091187, -0.00024753453908488154, 0.00462579308077693, -3.7396633625030518, -0.0017034935299307108, 0.03308679908514023, -0.5836118459701538, -0.7894813418388367, -0.9753241539001465, 0.06420637667179108, -0.2312060030064533, -0.3920958321912167, 2.4455811211801226, 9362.0, 30146.0, 35388.0, 9362.0, 8.350414276123047, 0.16787272691726685, -0.11353425681591034, 0.031035058200359344, 0.00557734165340662, -0.056018609553575516, 0.9965999722480774, -0.06517317146062851, -0.10231781005859375, 1.487548828125, 1.398193359375, 0.03826904296875, 1.489013671875, 1.17333984375, 10.0, 1.4035260677337646, 1.5, 1.4035260677337646
14321, -0.6618540287017822, 0.037311214953660965, -0.4271005094051361, -0.0003008295316249132, 0.0056693763472139835, -3.7571802139282227, -0.001849255757406354, 0.03648450970649719, -0.5841584205627441, -0.7894790768623352, -0.9753149747848511, 0.06419990211725235, -0.23578294521079235, -0.3887272298249229, 2.444862585209844, 9362.0, 30146.0, 35388.0, 9362.0, 8.350414276123047, 0.16787272691726685, -0.11353425681591034, 0.031035058200359344, 0.00557734165340662, -0.056018609553575516, 0.9965999722480774, -0.06517317146062851, -0.10231781005859375, 1.487548828125, 1.398193359375, 0.03826904296875, 1.489013671875, 1.51611328125, 10.0, 1.4035260677337646, 1.5, 1.4035260677337646
14331, -0.6611212491989136, 0.03698126599192619, -0.4259798228740692, -0.00031957624014467, 0.006039875093847513, -3.7630228996276855, -0.0019000795437023044, 0.03761523589491844, -0.5843819379806519, -0.7894794940948486, -0.9753355383872986, 0.06417375057935715, -0.23312712894827434, -0.3883359486442828, 2.440608776379124, 9362.0, 30146.0, 35388.0, 9362.0, 8.350414276123047, 0.14719240367412567, -0.0066635143011808395, 0.0211789608001709, 0.00557734165340662, -0.056018609553575516, 0.9965999722480774, -0.06517317146062851, -0.10231781005859375, 1.487548828125, 1.398193359375, 0.03826904296875, 1.489013671875, 1.458984375, 10.0, 1.4035260677337646, 1.5, 1.4035260677337646
14341, -0.6610580682754517, 0.037835996598005295, -0.42707157135009766, -0.00031957624014467, 0.006039875093847513, -3.7630228996276855, -0.0019000795437023044, 0.03761523589491844, -0.5843819379806519, -0.7894763350486755, -0.975321352481842, 0.06419804692268372, -0.23798684406025628, -0.3842433379570309, 2.44258676530258, 9362.0, 30146.0, 35388.0, 9362.0, 8.350414276123047, 0.14719240367412567, -0.0066635143011808395, 0.0211789608001709, 0.004463501274585724, -0.059849876910448074, 0.9995930790901184, -0.06517317146062851, -0.10231781005859375, 1.487548828125, 1.449462890625, 0.103973388671875, 1.489013671875, 1.458984375, 10.0, 1.4035260677337646, 1.5, 1.4035260677337646
14351, -0.6607363224029541, 0.03357580676674843, -0.4257660210132599, -0.00035868107806891203, 0.0068147857673466206, -3.7747159004211426, -0.002010138239711523, 0.039875734597444534, -0.5848696231842041, -0.7894598245620728, -0.9753164052963257, 0.06419836729764938, -0.23403725956494814, -0.38279711286244833, 2.444634559339495, 9362.0, 30146.0, 35388.0, 9362.0, 8.350414276123047, 0.015142792835831642, 0.48430970311164856, 0.29211002588272095, 0.005600552540272474, -0.058717723935842514, 0.9979758262634277, -0.06517317146062851, -0.10231781005859375, 1.487548828125, 1.449462890625, 0.103973388671875, 1.489013671875, 1.46484375, 10.0, 1.4035260677337646, 1.5, 1.4035260677337646
14361, -0.6591269373893738, 0.03206827491521835, -0.42526689171791077, -0.00035868107806891203, 0.0068147857673466206, -3.7747159004211426, -0.002010138239711523, 0.039875734597444534, -0.5848696231842041, -0.7895097732543945, -0.9752969741821289, 0.06421408802270889, -0.25086298100607024, -0.3543578018944231, 2.4296789749616985, 9362.0, 30146.0, 35388.0, 9362.0, 8.350414276123047, 0.015142792835831642, 0.48430970311164856, 0.29211002588272095, 0.005600552540272474, -0.058717723935842514, 0.9979758262634277, -0.0682595893740654, -0.07543754577636719, 1.48974609375, 1.449462890625, 0.103973388671875, 1.489013671875, 1.29931640625, 10.0, 1.4035260677337646, 1.5, 1.4035260677337646
14371, -0.6588814854621887, 0.03221164643764496, -0.4260462820529938, -0.00035868107806891203, 0.0068147857673466206, -3.7747159004211426, -0.002010138239711523, 0.039875734597444534, -0.5848696231842041, -0.7895243167877197, -0.9753015637397766, 0.06418683379888535, -0.25367429104904676, -0.3611139432177879, 2.4319636652207897, 9362.0, 30146.0, 35388.0, 9362.0, 8.350414276123047, 0.020026663318276405, 0.05514072626829147, 0.07386976480484009, 0.005600552540272474, -0.058717723935842514, 0.9979758262634277, -0.0682595893740654, -0.07543754577636719, 1.48974609375, 1.449462890625, 0.103973388671875, 1.4853515625, 1.29931640625, 10.0, 1.4035260677337646, 1.5, 1.4035260677337646
14381, -0.6588046550750732, 0.033600255846977234, -0.4253672659397125, -0.00042136001866310835, 0.008061912842094898, -3.7922682762145996, -0.0021618998143821955, 0.04326380416750908, -0.585300624370575, -0.7894671559333801, -0.9753268361091614, 0.06418543308973312, -0.23506795684081994, -0.3812188619479002, 2.4469264501841974, 9362.0, 30146.0, 35388.0, 9362.0, 8.350414276123047, -0.0467040054500103, -0.3366217315196991, 0.06888093054294586, 0.005600552540272474, -0.058717723935842514, 0.9979758262634277, -0.0682595893740654, -0.07543754577636719, 1.48974609375, 1.449462890625, 0.103973388671875, 1.4853515625, 1.29931640625, 10.0, 1.4035260677337646, 1.5, 1.4035260677337646
14391, -0.6587498784065247, 0.03319662809371948, -0.4234054982662201, -0.00042136001866310835, 0.008061912842094898, -3.7922682762145996, -0.0021618998143821955, 0.04326380416750908, -0.585300624370575, -0.7894790172576904, -0.9753208160400391, 0.0641789436340332, -0.23701609198194845, -0.39334517744046593, 2.4421835939549883, 9362.0, 30146.0, 35388.0, 9362.0, 8.350414276123047, -0.0467040054500103, -0.3366217315196991, 0.06888093054294586, 0.005206243135035038, -0.05947821959853172, 0.9959434866905212, -0.0682595893740654, -0.07543754577636719, 1.48974609375, 1.36083984375, 0.016387939453125, 1.4853515625, 1.4794921875, 10.0, 1.4035260677337646, 1.5, 1.4035260677337646
14401, -0.6592039465904236, 0.03250497207045555, -0.421044260263443, -0.0004655436205212027, 0.008949719369411469, -3.8039777278900146, -0.0022576553747057915, 0.04551587626338005, -0.5857263207435608, -0.7894723415374756, -0.9753167629241943, 0.06419967859983444, -0.23311495749868183, -0.3863143157942375, 2.438855953777074, 9362.0, 30146.0, 35388.0, 9362.0, 8.350414276123047, -0.016523046419024467, 0.26838812232017517, 0.2838429808616638, 0.005206243135035038, -0.05947821959853172, 0.9959434866905212, -0.0682595893740654, -0.07543754577636719, 1.48974609375, 1.36083984375, 0.016387939453125, 1.4853515625, 1.4208984375, 10.0, 1.4035260677337646, 1.5, 1.4035260677337646
14411, -0.6606755256652832, 0.03532840684056282, -0.41958966851234436, -0.0004655436205212027, 0.008949719369411469, -3.8039777278900146, -0.0022576553747057915, 0.04551587626338005, -0.5857263207435608, -0.7894667983055115, -0.9753120541572571, 0.06420398503541946, -0.23600625173093293, -0.3883301144293796, 2.44352928081255, 9362.0, 30146.0, 35388.0, 9362.0, 8.350414276123047, -0.016523046419024467, 0.26838812232017517, 0.2838429808616638, 0.005206243135035038, -0.05947821959853172, 0.9959434866905212, -0.0682595893740654, -0.07543754577636719, 1.48974609375, 1.36083984375, 0.016387939453125, 1.493408203125, 1.4208984375, 10.0, 1.4035260677337646, 1.5, 1.4035260677337646
14421, -0.660911500453949, 0.03630898520350456, -0.41916388273239136, -0.0004655436205212027, 0.008949719369411469, -3.8039777278900146, -0.0022576553747057915, 0.04551587626338005, -0.5857263207435608, -0.7894622683525085, -0.9753323793411255, 0.06421535462141037, -0.23721349002337958, -0.38431243022020567, 2.44625313645408, 9362.0, 30146.0, 35388.0, 9362.0, 8.350414276123047, -0.02899249829351902, -0.20928551256656647, -0.010924112983047962, 0.005206243135035038, -0.05947821959853172, 0.9959434866905212, -0.0682595893740654, -0.07543754577636719, 1.48974609375, 1.305908203125, 0.0413360595703125, 1.493408203125, 1.251708984375, 10.0, 1.4035260677337646, 1.5, 1.4035260677337646
14431, -0.6600987911224365, 0.03505843132734299, -0.4177854061126709, -0.0004655436205212027, 0.008949719369411469, -3.8039777278900146, -0.0022576553747057915, 0.04551587626338005, -0.5857263207435608, -0.7894744873046875, -0.9753053188323975, 0.06420300155878067, -0.2322506971807125, -0.3916203357081258, 2.439632681256516, 9362.0, 30146.0, 35388.0, 9362.0, 8.350414276123047, -0.08052914589643478, 0.3470879793167114, -0.04994462803006172, 0.005206243135035038, -0.05947821959853172, 0.9959434866905212, -0.0682595893740654, -0.07543754577636719, 1.48974609375, 1.305908203125, 0.0413360595703125, 1.487548828125, 1.251708984375, 10.0, 1.4035260677337646, 1.5, 1.4035260677337646
14441, -0.6607930064201355, 0.03422485664486885, -0.41772082448005676, -0.0005597701529040933, 0.010860349982976913, -3.8274381160736084, -0.0024590869434177876, 0.050022948533296585, -0.5869454741477966, -0.7894632816314697, -0.975307822227478, 0.06421340256929398, -0.23938911823665276, -0.3870255272520353, 2.4343026878584646, 9362.0, 30146.0, 35388.0, 9362.0, 8.350414276123047, -0.043230969458818436, -0.013092920184135437, -0.1659347116947174, 0.005206243135035038, -0.05947821959853172, 0.9959434866905212, -0.0682595893740654, -0.07543754577636719, 1.48974609375, 1.305908203125, 0.0413360595703125, 1.487548828125, 1.45751953125, 10.0, 1.4035260677337646, 1.5, 1.4035260677337646
14451, -0.6610445976257324, 0.03395481035113335, -0.4172649681568146, -0.0005846194690093398, 0.01136622205376625, -3.833308458328247, -0.0025107753463089466, 0.05115146189928055, -0.5871309638023376, -0.7895469069480896, -0.9753131866455078, 0.06424827128648758, -0.24479144232721334, -0.3392757119828218, 2.4202187196713267, 9362.0, 30146.0, 35388.0, 9362.0, 8.350414276123047, 0.2256581336259842, 0.20051328837871552, 0.2079629898071289, 0.003984823822975159, -0.05810389295220375, 0.9978163838386536, -0.0682595893740654, -0.07543754577636719, 1.48974609375, 1.37548828125, 0.021820068359375, 1.487548828125, 1.289794921875, 10.0, 1.4035260677337646, 1.5, 1.4035260677337646
14471, -0.6584232449531555, 0.03354343771934509, -0.4175419807434082, -0.0006099784513935447, 0.011883383616805077, -3.8391807079315186, -0.002561025321483612, 0.052280861884355545, -0.5873416066169739, -0.7894688248634338, -0.9753273725509644, 0.0641937106847763, -0.23640016912072218, -0.38467406866749343, 2.446411774697329, 9362.0, 30146.0, 35388.0, 9362.0, 8.350414276123047, 0.2256581336259842, 0.20051328837871552, 0.2079629898071289, 0.005425631999969482, -0.05935537815093994, 0.9964107871055603, -0.07469401508569717, -0.13815879821777344, 1.484619140625, 1.37548828125, 0.021820068359375, 1.491943359375, 1.298583984375, 10.0, 1.4035260677337646, 1.5, 1.4035260677337646
14481, -0.659006655216217, 0.032234396785497665, -0.41687166690826416, -0.0006099784513935447, 0.011883383616805077, -3.8391807079315186, -0.002561025321483612, 0.052280861884355545, -0.5873416066169739, -0.7894597053527832, -0.9753208160400391, 0.06422045826911926, -0.23114427953061017, -0.38056196830774525, 2.4388282401510626, 9362.0, 30146.0, 35388.0, 9362.0, 8.350414276123047, -0.0886026918888092, 0.2465648055076599, 0.22708696126937866, 0.005425631999969482, -0.05935537815093994, 0.9964107871055603, -0.07469401508569717, -0.13815879821777344, 1.484619140625, 1.37548828125, 0.021820068359375, 1.491943359375, 1.3330078125, 10.0, 1.4035260677337646, 1.5, 1.4035260677337646
14491, -0.6591623425483704, 0.03362126648426056, -0.41830822825431824, -0.0006099784513935447, 0.011883383616805077, -3.8391807079315186, -0.002561025321483612, 0.052280861884355545, -0.5873416066169739, -0.7895439863204956, -0.9753152132034302, 0.06426448374986649, -0.2513260941795998, -0.3347493874506995, 2.4234294735199624, 9362.0, 30146.0, 35388.0, 9362.0, 8.350414276123047, -0.12081009894609451, -0.3789841830730438, -0.13925409317016602, 0.005425631999969482, -0.05935537815093994, 0.9964107871055603, -0.07469401508569717, -0.13815879821777344, 1.484619140625, 1.327880859375, 0.0218353271484375, 1.487548828125, 1.3330078125, 10.0, 1.4035260677337646, 1.5, 1.4035260677337646
14501, -0.6593027710914612, 0.03338872641324997, -0.4183284044265747, -0.0007163785048760474, 0.01406482420861721, -3.8626976013183594, -0.0027566426433622837, 0.056789301335811615, -0.5883498191833496, -0.7895130515098572, -0.9753410816192627, 0.064131960272789, -0.24581740287515086, -0.40505271215440075, 2.445658099902034, 9362.0, 30146.0, 35388.0, 9362.0, 8.350414276123047, -0.043965648859739304, 0.1022794097661972, 0.17590200901031494, 0.003776827361434698, -0.05587799474596977, 0.9978612065315247, -0.07469401508569717, -0.13815879821777344, 1.484619140625, 1.327880859375, 0.0218353271484375, 1.487548828125, 1.46630859375, 10.0, 1.4035260677337646, 1.5, 1.4035260677337646
14511, -0.6602013111114502, 0.029865717515349388, -0.4183368384838104, -0.0007441911729983985, 0.014638353139162064, -3.868582010269165, -0.0028058867901563644, 0.05791649967432022, -0.5885087847709656, -0.7894823551177979, -0.9753246903419495, 0.06420506536960602, -0.23153330739466138, -0.3879337046193143, 2.4484690020539794, 9362.0, 30146.0, 35388.0, 9362.0, 8.350414276123047, -0.047495681792497635, 0.5721668601036072, 0.06288884580135345, 0.005717347841709852, -0.05922174081206322, 0.9956448078155518, -0.07469401508569717, -0.13815879821777344, 1.484619140625, 1.327880859375, 0.0218353271484375, 1.487548828125, 1.491943359375, 10.0, 1.4035260677337646, 1.5, 1.4035260677337646
14521, -0.6604341268539429, 0.028857991099357605, -0.4184185266494751, -0.0007724937750026584, 0.015223144553601742, -3.8744688034057617, -0.002854658057913184, 0.05904180184006691, -0.5888534188270569, -0.7895615696907043, -0.9753254652023315, 0.06414366513490677, -0.26343482201301577, -0.38108274101603, 2.4469038117066537, 9362.0, 30146.0, 35388.0, 9362.0, 8.350414276123047, 0.04883058741688728, -0.4659838080406189, -0.334407776594162, 0.005717347841709852, -0.05922174081206322, 0.9956448078155518, -0.07469401508569717, -0.13815879821777344, 1.484619140625, 1.327880859375, 0.0218353271484375, 1.487548828125, 1.491943359375, 10.0, 1.4035260677337646, 1.5, 1.4035260677337646
14531, -0.6607595086097717, 0.030450839549303055, -0.4191959500312805, -0.0007724937750026584, 0.015223144553601742, -3.8744688034057617, -0.002854658057913184, 0.05904180184006691, -0.5888534188270569, -0.7894795536994934, -0.9753183722496033, 0.06420329958200455, -0.23267288393689164, -0.38972486426362707, 2.4439829657424124, 9362.0, 30146.0, 35388.0, 9362.0, 8.350414276123047, 0.04883058741688728, -0.4659838080406189, -0.334407776594162, 0.005717347841709852, -0.05922174081206322, 0.9956448078155518, -0.07469401508569717, -0.13815879821777344, 1.484619140625, 1.327880859375, 0.0218353271484375, 1.49267578125, 1.491943359375, 10.0, 1.4035260677337646, 1.5, 1.4035260677337646
14541, -0.6611385941505432, 0.028359171003103256, -0.41875290870666504, -0.0007724937750026584, 0.015223144553601742, -3.8744688034057617, -0.002854658057913184, 0.05904180184006691, -0.5888534188270569, -0.7894823551177979, -0.9753299951553345, 0.06420426815748215, -0.23541655378738882, -0.39124596532977307, 2.4409049147049844, 9362.0, 30146.0, 35388.0, 9362.0, 8.350414276123047, 0.02498248778283596, -0.22861704230308533, -0.10545725375413895, 0.005717347841709852, -0.05922174081206322, 0.9956448078155518, -0.07469401508569717, -0.13815879821777344, 1.484619140625, 1.4033203125, 0.043182373046875, 1.49267578125, 1.29345703125, 10.0, 1.4035260677337646, 1.5, 1.4035260677337646
14551, -0.6590471267700195, 0.03080632910132408, -0.41871216893196106, -0.0007724937750026584, 0.015223144553601742, -3.8744688034057617, -0.002854658057913184, 0.05904180184006691, -0.5888534188270569, -0.7894746661186218, -0.9753327369689941, 0.06422688066959381, -0.2355059251361377, -0.3818451008022521, 2.4476863353201805, 9362.0, 30146.0, 35388.0, 9362.0, 8.350414276123047, 0.09620031714439392, -0.026849007233977318, 0.08803623169660568, 0.0046686590649187565, -0.0575513131916523, 0.9973422884941101, -0.07469401508569717, -0.13815879821777344, 1.484619140625, 1.4033203125, 0.043182373046875, 1.490478515625, 1.29345703125, 10.0, 1.4035260677337646, 1.5, 1.4035260677337646
14571, -0.6590089797973633, 0.03224725276231766, -0.41822418570518494, -0.0009205085807479918, 0.018316341564059258, -3.9039368629455566, -0.0030669430270791054, 0.06468591094017029, -0.5897796750068665, -0.78948575258255, -0.9753152132034302, 0.06421397626399994, -0.2299002322113645, -0.3873408192348222, 2.4399894294173334, 9362.0, 30146.0, 35388.0, 9362.0, 8.350414276123047, -0.004209582228213549, -0.1536158323287964, -0.12603145837783813, 0.003857188858091831, -0.05634381249547005, 0.9990255832672119, -0.04166371747851372, -0.0037593841552734375, 1.49560546875, 1.4033203125, 0.043182373046875, 1.490478515625, 1.4619140625, 10.0, 1.4035260677337646, 1.5, 1.4035260677337646
14581, -0.6588097214698792, 0.032943520694971085, -0.4178447425365448, -0.0009205085807479918, 0.018316341564059258, -3.9039368629455566, -0.0030669430270791054, 0.06468591094017029, -0.5897796750068665, -0.7895219922065735, -0.9753100872039795, 0.06418759375810623, -0.24524658014249223, -0.36664509692676006, 2.423130671177054, 9362.0, 30146.0, 35388.0, 9362.0, 8.350414276123047, -0.004209582228213549, -0.1536158323287964, -0.12603145837783813, 0.0046364497393369675, -0.05754651874303818, 0.9968316555023193, -0.04166371747851372, -0.0037593841552734375, 1.49560546875, 1.4033203125, 0.043182373046875, 1.490478515625, 1.42529296875, 10.0, 1.404079556465149, 1.5, 1.404079556465149
14591, -0.6592883467674255, 0.031490277498960495, -0.4177263379096985, -0.0009827520698308945, 0.019632607698440552, -3.915735960006714, -0.0031585139222443104, 0.06694027036428452, -0.5901184678077698, -0.7895176410675049, -0.9752967953681946, 0.06419474631547928, -0.2516613643801759, -0.358710470068047, 2.426957158969433, 9362.0, 30146.0, 35388.0, 9362.0, 8.350414276123047, 0.050808366388082504, 0.21396097540855408, -0.1655511111021042, 0.0046364497393369675, -0.05754651874303818, 0.9968316555023193, -0.04166371747851372, -0.0037593841552734375, 1.49560546875, 1.4033203125, 0.043182373046875, 1.490478515625, 1.42529296875, 10.0, 1.404079556465149, 1.5, 1.404079556465149
14601, -0.6596212387084961, 0.0331011600792408, -0.4177170991897583, -0.0009827520698308945, 0.019632607698440552, -3.915735960006714, -0.0031585139222443104, 0.06694027036428452, -0.5901184678077698, -0.7895472645759583, -0.975310206413269, 0.06424609571695328, -0.24830789363342476, -0.33398923873727426, 2.426753998432257, 9362.0, 30146.0, 35388.0, 9362.0, 8.350414276123047, 0.04401138052344322, -0.17899753153324127, -0.13194729387760162, 0.0046364497393369675, -0.05754651874303818, 0.9968316555023193, -0.04166371747851372, -0.0037593841552734375, 1.49560546875, 1.462646484375, 0.125823974609375, 1.490478515625, 1.288330078125, 10.0, 1.404079556465149, 1.5, 1.404079556465149
14611, -0.6583535671234131, 0.032409071922302246, -0.4186299443244934, -0.0009827520698308945, 0.019632607698440552, -3.915735960006714, -0.0031585139222443104, 0.06694027036428452, -0.5901184678077698, -0.7894749045372009, -0.9753276109695435, 0.06420508772134781, -0.2386006006343515, -0.3939284544597115, 2.4392892356898233, 9362.0, 30146.0, 35388.0, 9362.0, 8.350414276123047, 0.04401138052344322, -0.17899753153324127, -0.13194729387760162, 0.00461422698572278, -0.058362022042274475, 0.9983056783676147, -0.04166371747851372, -0.0037593841552734375, 1.49560546875, 1.44580078125, 0.098236083984375, 1.490478515625, 1.4736328125, 10.0, 1.404079556465149, 1.5, 1.404079556465149
14621, -0.6589965224266052, 0.032164137810468674, -0.4191298484802246, -0.001079633366316557, 0.021691467612981796, -3.9334521293640137, -0.0033004472497850657, 0.070319265127182, -0.5908542275428772, -0.7894666194915771, -0.9753315448760986, 0.06420813500881195, -0.2316805073483556, -0.3853595238724665, 2.444166090339253, 9362.0, 30146.0, 35388.0, 9362.0, 8.350414276123047, 0.04401138052344322, -0.17899753153324127, -0.13194729387760162, 0.0036175313871353865, -0.059502556920051575, 0.9968051314353943, -0.04166371747851372, -0.0037593841552734375, 1.49560546875, 1.44580078125, 0.098236083984375, 1.490478515625, 1.4736328125, 10.0, 1.404079556465149, 1.5, 1.404079556465149
14631, -0.658758282661438, 0.03055170550942421, -0.41723331809043884, -0.001079633366316557, 0.021691467612981796, -3.9334521293640137, -0.0033004472497850657, 0.070319265127182, -0.5908542275428772, -0.789519190788269, -0.9752951264381409, 0.06418785452842712, -0.25446621822339716, -0.3610016913673064, 2.434664271419139, 9362.0, 30146.0, 35388.0, 9362.0, 8.350414276123047, 0.09297820180654526, 0.1640448421239853, 0.2604738175868988, 0.0036175313871353865, -0.059502556920051575, 0.9968051314353943, -0.04166371747851372, -0.0037593841552734375, 1.49560546875, 1.436279296875, 0.0838775634765625, 1.490478515625, 1.503662109375, 10.0, 1.404079556465149, 1.5, 1.404079556465149
14641, -0.6586809158325195, 0.032882582396268845, -0.4186248183250427, -0.001079633366316557, 0.021691467612981796, -3.9334521293640137, -0.0033004472497850657, 0.070319265127182, -0.5908542275428772, -0.7894790172576904, -0.97532719373703, 0.06420736759901047, -0.2353079095081364, -0.39048330313866586, 2.441033430996315, 9362.0, 30146.0, 35388.0, 9362.0, 8.350414276123047, -0.12786085903644562, -0.49144208431243896, -0.1899997442960739, 0.0036175313871353865, -0.059502556920051575, 0.9968051314353943, -0.04166371747851372, -0.0037593841552734375, 1.49560546875, 1.436279296875, 0.0838775634765625, 1.490478515625, 1.3154296875, 10.0, 1.404079556465149, 1.5, 1.404079556465149
14651, -0.6588302254676819, 0.033184487372636795, -0.4197596311569214, -0.0011807448463514447, 0.023851657286286354, -3.951190948486328, -0.00343821058049798, 0.07369419932365417, -0.591699481010437, -0.7895156145095825, -0.9753045439720154, 0.06420810520648956, -0.24251768136431429, -0.3630129958966961, 2.4344566690418934, 9362.0, 30146.0, 35388.0, 9362.0, 8.350414276123047, 0.10374424606561661, 0.21389630436897278, -0.3642841875553131, 0.0036175313871353865, -0.059502556920051575, 0.9968051314353943, -0.04166371747851372, -0.0037593841552734375, 1.49560546875, 1.436279296875, 0.0838775634765625, 1.490478515625, 1.3154296875, 10.0, 1.404079556465149, 1.5, 1.404079556465149
14671, -0.6589638590812683, 0.031381428241729736, -0.4178485572338104, -0.0012504701735451818, 0.025348052382469177, -3.9630298614501953, -0.003534549381583929, 0.07594450563192368, -0.5922527313232422, -0.7896052002906799, -0.9752727150917053, 0.06423477083444595, -0.2761248105333172, -0.29336948616841596, 2.4068018545051273, 9362.0, 30146.0, 35388.0, 9362.0, 8.350414276123047, 0.030339378863573074, 0.21080149710178375, -0.027736324816942215, 0.0038085130508989096, -0.05834074318408966, 0.9957196116447449, -0.04166371747851372, -0.0037593841552734375, 1.49560546875, 1.436279296875, 0.0838775634765625, 1.490478515625, 1.3154296875, 10.0, 1.404079556465149, 1.5, 1.404079556465149
14691, -0.6592473387718201, 0.029945949092507362, -0.41969871520996094, -0.0013220779364928603, 0.026889458298683167, -3.9748787879943848, -0.003625965677201748, 0.07819748669862747, -0.5925592184066772, -0.7896079421043396, -0.9752897620201111, 0.0642169788479805, -0.26593132669068203, -0.29821194099514514, 2.4089222594103292, 9362.0, 30146.0, 35388.0, 9362.0, 8.350414276123047, -0.21969376504421234, -0.05248495936393738, 0.025536727160215378, 0.005000889301300049, -0.05808098241686821, 0.9988691210746765, -0.04166371747851372, -0.0037593841552734375, 1.49560546875, 1.436279296875, 0.0838775634765625, 1.490478515625, 1.462646484375, 10.0, 1.404079556465149, 1.5, 1.404079556465149
14701, -0.6584429740905762, 0.03054620511829853, -0.42164868116378784, -0.0013585543492808938, 0.027677053585648537, -3.9808051586151123, -0.0036693064030259848, 0.07932168245315552, -0.5927101373672485, -0.7894765138626099, -0.9753193855285645, 0.0641997754573822, -0.22941183081718122, -0.38648549833681045, 2.444947586047205, 9362.0, 30146.0, 35388.0, 9362.0, 8.350414276123047, 0.0796012282371521, 0.22239916026592255, -0.16813784837722778, 0.005000889301300049, -0.05808098241686821, 0.9988691210746765, -0.04166371747851372, -0.0037593841552734375, 1.49560546875, 1.436279296875, 0.0838775634765625, 1.490478515625, 1.462646484375, 10.0, 1.404079556465149, 1.5, 1.404079556465149
14711, -0.6575416326522827, 0.029638096690177917, -0.42109712958335876, -0.0013585543492808938, 0.027677053585648537, -3.9808051586151123, -0.0036693064030259848, 0.07932168245315552, -0.5927101373672485, -0.7894663214683533, -0.9753162264823914, 0.06421835720539093, -0.23127423089404922, -0.3860025613667233, 2.4448948489069133, 9362.0, 30146.0, 35388.0, 9362.0, 8.350414276123047, 0.020697951316833496, -0.03148595616221428, 0.07389821112155914, 0.005000889301300049, -0.05808098241686821, 0.9988691210746765, -0.04166371747851372, -0.0037593841552734375, 1.49560546875, 1.436279296875, 0.0838775634765625, 1.48974609375, 1.399658203125, 10.0, 1.404079556465149, 1.5, 1.404079556465149
14721, -0.6568292379379272, 0.026707841083407402, -0.41976258158683777, -0.0013585543492808938, 0.027677053585648537, -3.9808051586151123, -0.0036693064030259848, 0.07932168245315552, -0.5927101373672485, -0.7894615530967712, -0.9753255248069763, 0.06422097980976105, -0.23313608759028806, -0.3912353803571875, 2.444764814654673, 9362.0, 30146.0, 35388.0, 9362.0, 8.350414276123047, 0.34337952733039856, 0.4648689031600952, -0.07285212725400925, 0.005000889301300049, -0.05808098241686821, 0.9988691210746765, -0.04166371747851372, -0.0037593841552734375, 1.49560546875, 1.22900390625, 0.2412872314453125, 1.48974609375, 1.399658203125, 10.0, 1.404079556465149, 1.5, 1.404079556465149
14731, -0.6563648581504822, 0.024577535688877106, -0.419769823551178, -0.0013585543492808938, 0.027677053585648537, -3.9808051586151123, -0.0036693064030259848, 0.07932168245315552, -0.5927101373672485, -0.7894715666770935, -0.9753308892250061, 0.06422065198421478, -0.23585890579214094, -0.38104576418066927, 2.450625287580896, 9362.0, 30146.0, 35388.0, 9362.0, 8.350414276123047, 0.34337952733039856, 0.4648689031600952, -0.07285212725400925, 0.0039032590575516224, -0.05751481652259827, 1.001194953918457, -0.04166371747851372, -0.0037593841552734375, 1.49560546875, 1.188720703125, 0.4511871337890625, 1.48974609375, 1.482421875, 10.0, 1.404079556465149, 1.5, 1.404079556465149
14741, -0.6558206677436829, 0.02300103008747101, -0.42003074288368225, -0.0015087488573044538, 0.030939970165491104, -4.0045294761657715, -0.0038359505124390125, 0.08382078260183334, -0.5934901833534241, -0.7894680500030518, -0.9753212928771973, 0.06421311944723129, -0.23570846329834905, -0.3860461804679005, 2.4438379068244918, 9362.0, 30146.0, 35388.0, 9362.0, 8.350414276123047, -0.12228171527385712, 0.11170007288455963, -0.20720209181308746, 0.0037592502776533365, -0.059971947222948074, 1.000106930732727, -0.04166371747851372, -0.0037593841552734375, 1.49560546875, 1.188720703125, 0.4511871337890625, 1.48974609375, 1.244384765625, 10.0, 1.404079556465149, 1.5, 1.404079556465149
14751, -0.6546791791915894, 0.024813838303089142, -0.41910621523857117, -0.0015472779050469398, 0.0317838080227375, -4.010463714599609, -0.003869844600558281, 0.08494685590267181, -0.5933200120925903, -0.7894790768623352, -0.9753117561340332, 0.06420879065990448, -0.2311279502397724, -0.3939483470255425, 2.442421023994506, 9362.0, 30146.0, 35388.0, 9362.0, 8.350414276123047, 0.3009312152862549, -0.23725296556949615, 0.1808326095342636, 0.004334819037467241, -0.0581316277384758, 0.9971402883529663, -0.04166371747851372, -0.0037593841552734375, 1.49560546875, 1.188720703125, 0.4511871337890625, 1.48974609375, 1.3828125, 10.0, 1.404079556465149, 1.5, 1.404079556465149
14761, -0.6552574634552002, 0.025660596787929535, -0.4196416139602661, -0.001586131751537323, 0.03263888135552406, -4.016397953033447, -0.0039009421598166227, 0.08606775104999542, -0.5935195088386536, -0.7895153164863586, -0.9752985835075378, 0.0641992837190628, -0.24947531124490352, -0.365323143074022, 2.4326117456987078, 9362.0, 30146.0, 35388.0, 9362.0, 8.350414276123047, -0.1663975566625595, -0.089323490858078, 0.10772019624710083, 0.004334819037467241, -0.0581316277384758, 0.9971402883529663, -0.04166371747851372, -0.0037593841552734375, 1.49560546875, 1.188720703125, 0.4511871337890625, 1.48974609375, 1.43994140625, 10.0, 1.404079556465149, 1.5, 1.404079556465149
14771, -0.6542362570762634, 0.0273988526314497, -0.4203655421733856, -0.001586131751537323, 0.03263888135552406, -4.016397953033447, -0.0039009421598166227, 0.08606775104999542, -0.5935195088386536, -0.7894667387008667, -0.9753232598304749, 0.06422331929206848, -0.23635799521586587, -0.3783985847489646, 2.4478942492625873, 9362.0, 30146.0, 35388.0, 9362.0, 8.350414276123047, 0.10533542186021805, -0.3156837821006775, -0.34621211886405945, 0.004334819037467241, -0.0581316277384758, 0.9971402883529663, -0.04166371747851372, -0.0037593841552734375, 1.49560546875, 1.188720703125, 0.4511871337890625, 1.48974609375, 1.43994140625, 10.0, 1.404079556465149, 1.5, 1.404079556465149
14791, -0.654760479927063, 0.028405578806996346, -0.4171408414840698, -0.0017047420842573047, 0.035271260887384415, -4.034214019775391, -0.004009366501122713, 0.08942345529794693, -0.5942481756210327, -0.7896099090576172, -0.9752880334854126, 0.06422121822834015, -0.2631372826335056, -0.30267084184816895, 2.4114940448993796, 9362.0, 30146.0, 35388.0, 9362.0, 8.350414276123047, 0.02059897966682911, 0.166423499584198, -0.023964140564203262, 0.004334819037467241, -0.0581316277384758, 0.9971402883529663, -0.04166371747851372, -0.0037593841552734375, 1.49560546875, 1.259765625, 0.1334381103515625, 1.48974609375, 1.48095703125, 10.0, 1.4027974605560303, 1.5, 1.4027974605560303
14801, -0.6539555191993713, 0.027414707466959953, -0.4193708598613739, -0.0017047420842573047, 0.035271260887384415, -4.034214019775391, -0.004009366501122713, 0.08942345529794693, -0.5942481756210327, -0.7896054983139038, -0.9752768874168396, 0.06422273069620132, -0.2649871153695215, -0.29820288909201054, 2.394039367834154, 9362.0, 30146.0, 35388.0, 9362.0, 8.350414276123047, -0.03167586773633957, 0.18515588343143463, -0.21772025525569916, 0.004334819037467241, -0.0581316277384758, 0.9971402883529663, -0.04166371747851372, -0.0037593841552734375, 1.49560546875, 1.30224609375, 0.0460052490234375, 1.48974609375, 1.45458984375, 10.0, 1.4027974605560303, 1.5, 1.4027974605560303
14811, -0.6550719141960144, 0.026389893144369125, -0.419882595539093, -0.0017047420842573047, 0.035271260887384415, -4.034214019775391, -0.004009366501122713, 0.08942345529794693, -0.5942481756210327, -0.7895097732543945, -0.9752983450889587, 0.06420141458511353, -0.25241898165873217, -0.3568229703139423, 2.431774555104027, 9362.0, 30146.0, 35388.0, 9362.0, 8.350414276123047, -0.17707186937332153, 0.25949737429618835, -0.11150205135345459, 0.0056843520142138, -0.058481987565755844, 0.9990956783294678, -0.04166371747851372, -0.0037593841552734375, 1.49560546875, 1.30224609375, 0.0460052490234375, 1.48974609375, 1.45458984375, 10.0, 1.4027974605560303, 1.5, 1.4027974605560303
14821, -0.6548864245414734, 0.02403680421411991, -0.4211631417274475, -0.0017047420842573047, 0.035271260887384415, -4.034214019775391, -0.004009366501122713, 0.08942345529794693, -0.5942481756210327, -0.7895169854164124, -0.9752908945083618, 0.06420495361089706, -0.25545126786399225, -0.3623188924182159, 2.433833360216015, 9362.0, 30146.0, 35388.0, 9362.0, 8.350414276123047, -0.17707186937332153, 0.25949737429618835, -0.11150205135345459, 0.005705723073333502, -0.05836974456906319, 0.9983122944831848, -0.04166371747851372, -0.0037593841552734375, 1.49560546875, 1.30224609375, 0.0460052490234375, 1.48974609375, 1.475830078125, 10.0, 1.4027974605560303, 1.5, 1.4027974605560303
14831, -0.6541624665260315, 0.02304891310632229, -0.4206194281578064, -0.0018682832596823573, 0.038937728852033615, -4.057998180389404, -0.004165097139775753, 0.0939011201262474, -0.594873309135437, -0.7895032167434692, -0.9753133654594421, 0.06415539234876633, -0.21933833504250572, -0.37521732266361596, 2.418842651865799, 9362.0, 30146.0, 35388.0, 9362.0, 8.350414276123047, -0.03353450447320938, 0.20459453761577606, 0.10834987461566925, 0.005705723073333502, -0.05836974456906319, 0.9983122944831848, -0.04166371747851372, -0.0037593841552734375, 1.49560546875, 1.423828125, 0.066802978515625, 1.48974609375, 1.44140625, 10.0, 1.4027974605560303, 1.5, 1.4027974605560303
14841, -0.6536931991577148, 0.021571828052401543, -0.41948366165161133, -0.0019100983627140522, 0.03988233208656311, -4.063948154449463, -0.004197937436401844, 0.09501979500055313, -0.5951299071311951, -0.7894783616065979, -0.9753260612487793, 0.0641912892460823, -0.23052554555910088, -0.38408828159728614, 2.444671092593308, 9362.0, 30146.0, 35388.0, 9362.0, 8.350414276123047, -0.03315966576337814, 0.3388734757900238, 0.2674937844276428, 0.005705723073333502, -0.05836974456906319, 0.9983122944831848, -0.04166371747851372, -0.0037593841552734375, 1.49560546875, 1.417236328125, 0.058624267578125, 1.48974609375, 1.44140625, 10.0, 1.4027974605560303, 1.5, 1.4027974605560303
14851, -0.6532071232795715, 0.018564043566584587, -0.4187898337841034, -0.0019100983627140522, 0.03988233208656311, -4.063948154449463, -0.004197937436401844, 0.09501979500055313, -0.5951299071311951, -0.7896451950073242, -0.9752642512321472, 0.06419554352760315, -0.26468398991126185, -0.2878959048208287, 2.3764182987090527, 9362.0, 30146.0, 35388.0, 9362.0, 8.350414276123047, -0.07862833142280579, 0.4701075255870819, -0.15349982678890228, 0.005705723073333502, -0.05836974456906319, 0.9983122944831848, -0.04166371747851372, -0.0037593841552734375, 1.49560546875, 1.36376953125, 0.017181396484375, 1.49267578125, 1.44140625, 10.0, 1.4027974605560303, 1.5, 1.4027974605560303
14861, -0.6533241271972656, 0.018384147435426712, -0.4200432300567627, -0.0019100983627140522, 0.03988233208656311, -4.063948154449463, -0.004197937436401844, 0.09501979500055313, -0.5951299071311951, -0.7895559668540955, -0.9753395915031433, 0.06410900503396988, -0.23347502207191967, -0.391600406558382, 2.426748461688214, 9362.0, 30146.0, 35388.0, 9362.0, 8.350414276123047, 0.03466000780463219, -0.0015052651287987828, -0.20719626545906067, 0.005705723073333502, -0.05836974456906319, 0.9983122944831848, -0.06532859057188034, 0.06792068481445312, 1.50146484375, 1.2978515625, 0.05224609375, 1.49267578125, 1.32275390625, 10.0, 1.4027974605560303, 1.5, 1.4027974605560303
14871, -0.6535441875457764, 0.016845814883708954, -0.41655707359313965, -0.0019100983627140522, 0.03988233208656311, -4.063948154449463, -0.004197937436401844, 0.09501979500055313, -0.5951299071311951, -0.7895394563674927, -0.9753060340881348, 0.06417609006166458, -0.23953582290884348, -0.3467930276157176, 2.4132813619500673, 9362.0, 30146.0, 35388.0, 9362.0, 8.350414276123047, -0.012244350276887417, 0.24645017087459564, 0.22470375895500183, 0.005500769708305597, -0.05844096839427948, 0.9968925714492798, -0.06532859057188034, 0.06792068481445312, 1.50146484375, 1.2978515625, 0.05224609375, 1.49267578125, 1.46044921875, 10.0, 1.4027974605560303, 1.5, 1.4027974605560303
14881, -0.6528481245040894, 0.018408386036753654, -0.41519421339035034, -0.0020802943035960197, 0.04377250745892525, -4.087769985198975, -0.004304664209485054, 0.09948717802762985, -0.5960023999214172, -0.7894624471664429, -0.9753262400627136, 0.06420306116342545, -0.22573776256889386, -0.38147088419515285, 2.4393624934682236, 9362.0, 30146.0, 35388.0, 9362.0, 8.350414276123047, 0.23214158415794373, -0.16857697069644928, 0.05577695369720459, 0.006938247475773096, -0.05733614042401314, 0.996780514717102, -0.06532859057188034, 0.06792068481445312, 1.50146484375, 1.4296875, 0.07464599609375, 1.49267578125, 1.45166015625, 10.0, 1.4027974605560303, 1.5, 1.4027974605560303
