timeTick, roll, pitch, yaw, stateX, stateY, stateZ, stateVX, stateVY, stateVZ, otX0, otY0, otZ0, otRoll0, otPitch0, otYaw0, left wing, pitch motor, yaw motor, right wing, voltage, roll rate, pitch rate, yaw rate, A_x, A_y, A_z, current, i_raw, v_raw, airflow_voltage, airflow_speed, pot_Pitch, voltage_nKF, kFFx, volt_KF_vel, kP, volt_KF_pos
15668, -1.1193429231643677, -0.7418745160102844, 0.17364847660064697, 0, 0, 0, 0, 0, 0, -0.7964020371437073, -0.9811573028564453, 0.06372974067926407, -0.1864465380941635, -0.3931377621815102, 7.0351218761978105, 0, 0, 0, 0, 0, 0, 0, 0, 0, 0, 0, 0, 0, 0, 0, 0, 0, 0, 0, 0, 0, 0
15678, -1.1196774244308472, -0.7375762462615967, 0.17104624211788177, -4.009105759905651e-05, -6.058712460799143e-05, -1.761114478111267, 0.0005594546091742814, 0.000856097205542028, -0.2506999969482422, -0.7964794635772705, -0.9812216758728027, 0.06342066079378128, -0.18357939965584621, -0.4577042811617389, 7.096968309655093, 9362.0, 30146.0, 35388.0, 9362.0, 0, 0.2395727038383484, -0.02733398601412773, 0.027857499197125435, 0.007045499514788389, -0.058269206434488297, 0.9992404580116272, 0, 0, 0, 0, 0, 0, 0, 0, 0, 0, 0
15688, -1.1179544925689697, -0.7378348112106323, 0.17125916481018066, -2.8215312340762466e-05, -4.242726572556421e-05, -1.7636218070983887, 0.001815687632188201, 0.0027758809737861156, -0.2507742941379547, -0.7964149117469788, -0.9812406301498413, 0.0633770078420639, -0.1980830549935406, -0.4277517905746606, 7.087701756989275, 9362.0, 30146.0, 35388.0, 9362.0, 0, -0.11387860029935837, -0.13887961208820343, 0.014713124372065067, 0.008010518737137318, -0.05993792042136192, 0.9993423223495483, 0, 0, 0, 1.431884765625, 0.07769775390625, 0, 1.090576171875, 10.0, 1.3511770963668823, 1.5, 1.3511770963668823
15698, -1.1180275678634644, -0.7373866438865662, 0.17292773723602295, -3.776602170546539e-06, -5.086702003609389e-06, -1.7661300897598267, 0.00307199964299798, 0.004692269489169121, -0.250873327255249, -0.7964441180229187, -0.9811471700668335, 0.06368084251880646, -0.18745201347237864, -0.3664968975175782, 7.034463196347799, 9362.0, 30146.0, 35388.0, 9362.0, 0, 0.012671595439314842, 0.31740206480026245, -0.13977237045764923, 0.005935643333941698, -0.05943640321493149, 1.0007222890853882, 0, 0, 0, 1.16748046875, 0.598236083984375, 1.491943359375, 1.12939453125, 10.0, 1.3515387773513794, 1.5, 1.3515387773513794
15708, -1.1178805828094482, -0.7405136227607727, 0.171402707695961, 3.322861448395997e-05, 5.14299790665973e-05, -1.7686387300491333, 0.00432909419760108, 0.006611033342778683, -0.2508554458618164, -0.7964712977409363, -0.9812222719192505, 0.0634211078286171, -0.17936853868003547, -0.45592823529139537, 7.108637230778189, 9362.0, 30146.0, 35388.0, 9362.0, 0, 0.1614413857460022, -0.13067635893821716, -0.20334401726722717, 0.007421005982905626, -0.06098761036992073, 1.000478982925415, 0, 0, 0, 1.477294921875, 0.1519775390625, 1.491943359375, 1.427490234375, 10.0, 1.351892352104187, 1.5, 1.351892352104187
15718, -1.116790771484375, -0.741033673286438, 0.169851154088974, 8.283157512778416e-05, 0.0001271326036658138, -1.7711472511291504, 0.005591551773250103, 0.00852945912629366, -0.25084105134010315, -0.7964335680007935, -0.9811513423919678, 0.06369658559560776, -0.18614180700585672, -0.36460530167727256, 7.031292879451089, 9362.0, 30146.0, 35388.0, 9362.0, 0, -0.05305190756917, 0.06362029910087585, -0.04269205033779144, 0.00883534923195839, -0.06146741285920143, 0.9991010427474976, 0, 0, 0, 1.377685546875, 0.023040771484375, 1.49267578125, 1.516845703125, 10.0, 1.351317286491394, 1.5, 1.351317286491394
15728, -1.1164312362670898, -0.7410334944725037, 0.16830570995807648, 0.0001450596028007567, 0.00022200355306267738, -1.773655891418457, 0.0068541038781404495, 0.010444694198668003, -0.25089287757873535, -0.7963999509811401, -0.9811588525772095, 0.06372842937707901, -0.17654140439857544, -0.3923194735173752, 7.03604826614373, 9362.0, 30146.0, 35388.0, 9362.0, 0, 0.08488984405994415, 0.06722508370876312, 0.12066689133644104, 0.006116380449384451, -0.05800604820251465, 1.0004163980484009, 0, 0, 0, 1.187255859375, 0.46051025390625, 1.49267578125, 1.18212890625, 10.0, 1.3519231081008911, 1.5, 1.3519231081008911
15738, -1.115959882736206, -0.7420896887779236, 0.168342724442482, 0.00021991736139170825, 0.0003360295668244362, -1.7761647701263428, 0.00811744574457407, 0.012360511347651482, -0.25088343024253845, -0.7963851094245911, -0.9811566472053528, 0.06373149901628494, -0.18560332225372836, -0.3779408682654548, 7.040258676963584, 9362.0, 30146.0, 35388.0, 9362.0, 0, -0.1623191386461258, -0.1316113919019699, -0.19660651683807373, 0.004976107273250818, -0.058283474296331406, 0.9988482594490051, 0, 0, 0, 1.2451171875, 0.1796875, 1.4912109375, 1.065673828125, 10.0, 1.3519141674041748, 1.5, 1.3519141674041748
15748, -1.1171295642852783, -0.7401964664459229, 0.1684938669204712, 0.00030741275986656547, 0.0004692024667747319, -1.7786738872528076, 0.009381632320582867, 0.014274070039391518, -0.2509484887123108, -0.7964006662368774, -0.9811593294143677, 0.06371905654668808, -0.1794377183119977, -0.39142962318385344, 7.04114989951985, 9362.0, 30146.0, 35388.0, 9362.0, 0, 0.08863713592290878, -0.15999221801757812, -0.12061365693807602, 0.005772387608885765, -0.05972731113433838, 0.9967694282531738, 0, 0, 0, 1.51025390625, 0.2164154052734375, 1.4912109375, 1.28173828125, 10.0, 1.3519471883773804, 1.5, 1.3519471883773804
15758, -1.1162121295928955, -0.7400044202804565, 0.1680361032485962, 0.000407517101848498, 0.0006214955938048661, -1.7811850309371948, 0.010639251209795475, 0.016184551641345024, -0.2512730360031128, -0.7964015007019043, -0.9811532497406006, 0.0637156218290329, -0.18020226327705255, -0.3857722350207098, 7.036001531780558, 9362.0, 30146.0, 35388.0, 9362.0, 0, -0.02269124612212181, 0.3726338744163513, 0.04663022607564926, 0.006867917254567146, -0.05853232368826866, 0.9981611371040344, 0, 0, 0, 1.338134765625, 0.01727294921875, 1.49560546875, 1.182861328125, 10.0, 1.3527885675430298, 1.5, 1.3527885675430298
15768, -1.1157498359680176, -0.7416690587997437, 0.16778728365898132, 0.0005202022148296237, 0.0007928949198685586, -1.7836989164352417, 0.011897771619260311, 0.018095314502716064, -0.2515024244785309, -0.79646897315979, -0.9812243580818176, 0.06344565749168396, -0.17794248095703788, -0.4560956366053688, 7.1015813828672565, 9362.0, 30146.0, 35388.0, 9362.0, 8.390083312988281, 0.09311061352491379, -0.32959508895874023, -0.17979796230793, 0.005405568052083254, -0.058396775275468826, 0.9983959197998047, -0.059447623789310455, -0.1650371551513672, 1.482421875, 1.47802734375, 0.1532745361328125, 1.49560546875, 1.1220703125, 10.0, 1.351975440979004, 1.5, 1.351975440979004
15778, -1.1155810356140137, -0.7392660975456238, 0.16663339734077454, 0.0006454876274801791, 0.0009833992226049304, -1.78621506690979, 0.013159358873963356, 0.020005520433187485, -0.25171878933906555, -0.7964866757392883, -0.9812379479408264, 0.06341022253036499, -0.17866205377674652, -0.4566917864462994, 7.106178524955333, 9362.0, 30146.0, 35388.0, 9362.0, 8.390083312988281, 0.1740238517522812, -0.2450132817029953, 0.12001195549964905, 0.004232369363307953, -0.05839786306023598, 0.9997677803039551, -0.059447623789310455, -0.1650371551513672, 1.482421875, 1.408447265625, 0.0485382080078125, 1.49560546875, 1.179931640625, 10.0, 1.3511883020401, 1.5, 1.3511883020401
15788, -1.1141189336776733, -0.7377222776412964, 0.1668369621038437, 0.0007833759882487357, 0.0011930151376873255, -1.7887327671051025, 0.014418307691812515, 0.021917674690485, -0.25181999802589417, -0.7963359355926514, -0.9811784029006958, 0.06363514810800552, -0.15873394528007556, -0.4290953818788239, 7.06637396773277, 9362.0, 30146.0, 35388.0, 9362.0, 8.390083312988281, -0.008141620084643364, 0.2355097532272339, 0.12165194749832153, 0.005291760433465242, -0.05847262218594551, 0.9980064630508423, -0.059447623789310455, -0.1650371551513672, 1.482421875, 1.358642578125, 0.0159912109375, 1.49560546875, 1.10888671875, 10.0, 1.351097822189331, 1.5, 1.351097822189331
15798, -1.1144068241119385, -0.737409770488739, 0.16719713807106018, 0.0009338398231193423, 0.0014217388816177845, -1.791251540184021, 0.015674445778131485, 0.0238270815461874, -0.2519340515136719, -0.7965994477272034, -0.9811963438987732, 0.06351178884506226, -0.22146099734786323, -0.38982827222710625, 7.065979546522483, 9362.0, 30146.0, 35388.0, 9362.0, 8.390083312988281, -0.11897703260183334, 0.020088665187358856, -0.08522140234708786, 0.006863115355372429, -0.05831948667764664, 0.9968557953834534, -0.059447623789310455, -0.1650371551513672, 1.482421875, 1.41943359375, 0.0612945556640625, 1.491943359375, 1.56298828125, 10.0, 1.351524829864502, 1.5, 1.351524829864502
15808, -1.1154961585998535, -0.7383170127868652, 0.16660182178020477, 0.0010968493297696114, 0.0016695394879207015, -1.7937724590301514, 0.01692746952176094, 0.025733018293976784, -0.2522503137588501, -0.7966004610061646, -0.9811931848526001, 0.063489630818367, -0.21969411950855533, -0.39310461218803994, 7.06321425881096, 9362.0, 30146.0, 35388.0, 9362.0, 8.390083312988281, 0.1338428407907486, 0.044203441590070724, 0.24601441621780396, 0.006635918747633696, -0.059664953500032425, 0.9971203207969666, -0.059447623789310455, -0.1650371551513672, 1.482421875, 1.2802734375, 0.0831756591796875, 1.491943359375, 1.197509765625, 10.0, 1.351894497871399, 1.5, 1.351894497871399
15818, -1.1142419576644897, -0.738630473613739, 0.16807690262794495, 0.0012723965337499976, 0.0019364082254469395, -1.7962965965270996, 0.018181921914219856, 0.02764076180756092, -0.25257211923599243, -0.7965145111083984, -0.9812218546867371, 0.06339579075574875, -0.16089021890153385, -0.4465080870802467, 7.0780489334973815, 9362.0, 30146.0, 35388.0, 9362.0, 8.390083312988281, 0.12280567735433578, 0.061958834528923035, 0.013143900781869888, 0.00643710233271122, -0.05892234668135643, 1.000248670578003, -0.059447623789310455, -0.1650371551513672, 1.482421875, 1.1279296875, 0.9498291015625, 1.493408203125, 1.52783203125, 10.0, 1.351161241531372, 1.5, 1.351161241531372
15828, -1.1143757104873657, -0.7376841306686401, 0.1685946136713028, 0.0014605033211410046, 0.002222362905740738, -1.7988229990005493, 0.01943943090736866, 0.029550202190876007, -0.2526969015598297, -0.7965237498283386, -0.9812241196632385, 0.06344537436962128, -0.21085130662566737, -0.38345080366784146, 7.024263190086271, 9362.0, 30146.0, 35388.0, 9362.0, 8.390083312988281, 0.10561081767082214, -0.20330704748630524, 0.008615718223154545, 0.007443132810294628, -0.0594685859978199, 0.998755931854248, -0.059447623789310455, -0.1650371551513672, 1.482421875, 0.99609375, 3.0723114013671875, 1.493408203125, 1.3623046875, 10.0, 1.3510593175888062, 1.5, 1.3510593175888062
15838, -1.113629937171936, -0.7367945909500122, 0.16945646703243256, 0.0016611793544143438, 0.002527416916564107, -1.8013503551483154, 0.020695760846138, 0.031460605561733246, -0.25278469920158386, -0.79659503698349, -0.981211245059967, 0.06344541162252426, -0.19659884943057282, -0.4172458234137366, 7.041067784249469, 9362.0, 30146.0, 35388.0, 9362.0, 8.390083312988281, -0.13899803161621094, 0.21040542423725128, 0.09635709226131439, 0.006163882557302713, -0.05819964036345482, 0.9977723956108093, -0.059447623789310455, -0.1650371551513672, 1.482421875, 1.102294921875, 1.23858642578125, 1.49267578125, 1.355712890625, 10.0, 1.3516819477081299, 1.5, 1.3516819477081299
15848, -1.1149406433105469, -0.7377102971076965, 0.1694592535495758, 0.0018744028639048338, 0.0028515560552477837, -1.8038792610168457, 0.021948935464024544, 0.03336723893880844, -0.25300028920173645, -0.7964511513710022, -0.9811366200447083, 0.06371086835861206, -0.17624169679615923, -0.3558552876776844, 6.991697399704389, 9362.0, 30146.0, 35388.0, 9362.0, 8.390083312988281, 0.11236324906349182, -0.19331565499305725, 0.12011817842721939, 0.007585237734019756, -0.06030793488025665, 0.9994708299636841, -0.059447623789310455, -0.1650371551513672, 1.482421875, 1.53076171875, 0.2596435546875, 1.49267578125, 1.291259765625, 10.0, 1.3508447408676147, 1.5, 1.3508447408676147
15858, -1.1151142120361328, -0.7363422513008118, 0.16949377954006195, 0.002100170822814107, 0.0031947805546224117, -1.8064099550247192, 0.02320466749370098, 0.03527763485908508, -0.2531379759311676, -0.7964525818824768, -0.9812458753585815, 0.06337689608335495, -0.18421526988739975, -0.41750717701305007, 7.053039270900423, 9362.0, 30146.0, 35388.0, 9362.0, 8.390083312988281, 0.009153998456895351, 0.06273380666971207, -0.031062070280313492, 0.007383515127003193, -0.0584167018532753, 1.0009269714355469, -0.059447623789310455, -0.1650371551513672, 1.482421875, 1.339599609375, 0.0168914794921875, 1.49267578125, 1.519775390625, 10.0, 1.3509882688522339, 1.5, 1.3509882688522339
15868, -1.1147433519363403, -0.7355156540870667, 0.16848371922969818, 0.0023384951055049896, 0.003557126736268401, -1.8089412450790405, 0.024460241198539734, 0.03719157725572586, -0.2531079947948456, -0.7964457273483276, -0.9811542630195618, 0.06368213146924973, -0.17380926989982196, -0.39581425297376427, 7.008406626403837, 9362.0, 30146.0, 35388.0, 9362.0, 8.390083312988281, 0.1587478220462799, 0.0766214057803154, 0.052589524537324905, 0.0052207475528120995, -0.05750732123851776, 0.9984561800956726, -0.04207983240485191, -0.021678924560546875, 1.494140625, 1.522705078125, 0.242462158203125, 1.49267578125, 0.980712890625, 10.0, 1.3503535985946655, 1.5, 1.3503535985946655
15878, -1.1133904457092285, -0.7366638779640198, 0.16890521347522736, 0.002589360112324357, 0.003938596695661545, -1.811472773551941, 0.0257127583026886, 0.03910241276025772, -0.25320500135421753, -0.7965167164802551, -0.9811973571777344, 0.0633077621459961, -0.18783452918969784, -0.43296449225911715, 7.058642075529663, 9362.0, 30146.0, 35388.0, 9362.0, 8.390083312988281, 0.024737263098359108, 0.005206109490245581, -0.09958644211292267, 0.007497335784137249, -0.0577859990298748, 0.9990096092224121, -0.04207983240485191, -0.021678924560546875, 1.494140625, 1.01513671875, 2.6573486328125, 1.494873046875, 1.46337890625, 10.0, 1.350480079650879, 1.5, 1.350480079650879
15888, -1.1130210161209106, -0.735944926738739, 0.16865628957748413, 0.0028527549002319574, 0.004339155741035938, -1.814005732536316, 0.02696623094379902, 0.041009366512298584, -0.2533823847770691, -0.7966081500053406, -0.981177568435669, 0.06339795142412186, -0.221349003425612, -0.394622031919738, 7.028826257967984, 9362.0, 30146.0, 35388.0, 9362.0, 8.390083312988281, -0.16323938965797424, -0.28547215461730957, 0.1172933578491211, 0.008389084599912167, -0.05904697999358177, 1.0005106925964355, -0.04207983240485191, -0.021678924560546875, 1.494140625, 1.14404296875, 0.7935333251953125, 1.494873046875, 1.518310546875, 10.0, 1.3492603302001953, 1.5, 1.3492603302001953
15898, -1.1131069660186768, -0.733937680721283, 0.1703629344701767, 0.003128687385469675, 0.004758794791996479, -1.8165397644042969, 0.02822020836174488, 0.04291844367980957, -0.2534199357032776, -0.7964838743209839, -0.9811239838600159, 0.06358522921800613, -0.2020093312223097, -0.343327724341691, 6.995914518916917, 9362.0, 30146.0, 35388.0, 9362.0, 8.390083312988281, 0.21687984466552734, 0.2219315469264984, 0.005109840538352728, 0.007170282769948244, -0.05950155109167099, 0.9994337558746338, -0.04207983240485191, -0.021678924560546875, 1.494140625, 1.52490234375, 0.247039794921875, 1.494873046875, 1.10595703125, 10.0, 1.3484519720077515, 1.5, 1.3484519720077515
15908, -1.1121729612350464, -0.734013020992279, 0.16968275606632233, 0.003417141968384385, 0.0051975250244140625, -1.8190741539001465, 0.029470713809132576, 0.04482756182551384, -0.25346148014068604, -0.7964496612548828, -0.9811320900917053, 0.06359568983316422, -0.1846532480866809, -0.3696837499647927, 7.003202873695138, 9362.0, 30146.0, 35388.0, 9362.0, 8.390083312988281, 0.02305033430457115, 0.03251916915178299, 0.16304367780685425, 0.007356604561209679, -0.05898703634738922, 0.9984715580940247, -0.04207983240485191, -0.021678924560546875, 1.494140625, 1.40771484375, 0.0478363037109375, 1.494873046875, 1.52783203125, 10.0, 1.348831295967102, 1.5, 1.348831295967102
15918, -1.1123802661895752, -0.7351593971252441, 0.17094266414642334, 0.003718093503266573, 0.005655324552208185, -1.8216097354888916, 0.030719520524144173, 0.04673237353563309, -0.2536432147026062, -0.7966194748878479, -0.981152355670929, 0.06341434270143509, -0.2225569418341259, -0.36797493728272457, 7.021842948417745, 9362.0, 30146.0, 35388.0, 9362.0, 8.390083312988281, 0.18378067016601562, -0.46675923466682434, 0.22383753955364227, 0.007668293546885252, -0.05742352828383446, 0.9987722635269165, -0.04207983240485191, -0.021678924560546875, 1.494140625, 1.494873046875, 0.185455322265625, 1.494873046875, 1.191650390625, 10.0, 1.3493397235870361, 1.5, 1.3493397235870361
15928, -1.1120526790618896, -0.7329514622688293, 0.17220285534858704, 0.004031544551253319, 0.006132177077233791, -1.8241469860076904, 0.03197065368294716, 0.048638179898262024, -0.2537946403026581, -0.7964850068092346, -0.9811347126960754, 0.06360296159982681, -0.19975296915355653, -0.3518622447228381, 6.995362340708009, 9362.0, 30146.0, 35388.0, 9362.0, 8.390083312988281, -0.013636220246553421, 0.0689915120601654, 0.06926203519105911, 0.005792470183223486, -0.0559602715075016, 0.998988926410675, -0.04207983240485191, -0.021678924560546875, 1.494140625, 1.225341796875, 0.25689697265625, 1.494873046875, 1.510986328125, 10.0, 1.3498908281326294, 1.5, 1.3498908281326294
15938, -1.110819935798645, -0.7338998317718506, 0.17321430146694183, 0.004357487428933382, 0.00662808446213603, -1.8266856670379639, 0.03321788087487221, 0.05054331570863724, -0.25395190715789795, -0.7963907122612, -0.9811583757400513, 0.0635102242231369, -0.16545869851087905, -0.4160969813465556, 7.034965799393293, 9362.0, 30146.0, 35388.0, 9362.0, 8.390083312988281, 0.17158256471157074, 0.20447880029678345, 0.02959446795284748, 0.0068495869636535645, -0.0596037283539772, 0.9993561506271362, -0.04207983240485191, -0.021678924560546875, 1.494140625, 1.467041015625, 0.1334686279296875, 1.494873046875, 1.5380859375, 10.0, 1.3501980304718018, 1.5, 1.3501980304718018
15948, -1.1097408533096313, -0.7358309626579285, 0.1726897656917572, 0.004695913288742304, 0.007143036928027868, -1.829225778579712, 0.03446732461452484, 0.05244719237089157, -0.25406524538993835, -0.7964541912078857, -0.9811265468597412, 0.06360993534326553, -0.1883089735721283, -0.36773007922599277, 6.995018773735767, 9362.0, 30146.0, 35388.0, 9362.0, 8.390083312988281, 0.15657660365104675, -0.10413625836372375, 0.020496148616075516, 0.007766069378703833, -0.060360491275787354, 1.0000090599060059, -0.04207983240485191, -0.021678924560546875, 1.494140625, 1.282470703125, 0.0786590576171875, 1.494873046875, 1.433349609375, 10.0, 1.3503994941711426, 1.5, 1.3503994941711426
15958, -1.1097267866134644, -0.733855128288269, 0.17229720950126648, 0.005046854726970196, 0.007677026093006134, -1.8317666053771973, 0.03572101891040802, 0.054350629448890686, -0.2541058659553528, -0.7965993285179138, -0.9811739921569824, 0.0634063109755516, -0.2145820123935716, -0.3919453472043699, 7.039364232754372, 9362.0, 30146.0, 35388.0, 9362.0, 8.390083312988281, 0.06838299334049225, 0.26738372445106506, -0.06691865622997284, 0.00807514414191246, -0.05933225899934769, 0.9986066222190857, -0.04207983240485191, -0.021678924560546875, 1.494140625, 1.503662109375, 0.2029876708984375, 1.4970703125, 1.34912109375, 10.0, 1.3506724834442139, 1.5, 1.3506724834442139
15968, -1.1094168424606323, -0.7361134886741638, 0.17174628376960754, 0.005410314071923494, 0.008230045437812805, -1.8343080282211304, 0.036970850080251694, 0.05625326931476593, -0.2541852295398712, -0.7965880632400513, -0.9811797142028809, 0.06341654062271118, -0.21656759987320104, -0.39044400307307114, 7.039200749021919, 9362.0, 30146.0, 35388.0, 9362.0, 8.370248794555664, -0.08173862844705582, 0.06660965085029602, 0.2948206067085266, 0.0053212204948067665, -0.058935511857271194, 0.9984068870544434, -0.052204567939043045, -0.030637741088867188, 1.493408203125, 1.078125, 1.5602264404296875, 1.4970703125, 1.458984375, 10.0, 1.3509445190429688, 1.5, 1.3509445190429688
15978, -1.1091381311416626, -0.7367937564849854, 0.17438985407352448, 0.005786282941699028, 0.008802076801657677, -1.836850881576538, 0.03822287172079086, 0.05815303698182106, -0.2543891966342926, -0.7965317964553833, -0.9811990857124329, 0.06333120912313461, -0.18770540779709666, -0.4412808238796231, 7.074935334781701, 9362.0, 30146.0, 35388.0, 9362.0, 8.370248794555664, -0.00810801237821579, -0.04763640835881233, -0.10112214833498001, 0.005413916893303394, -0.058250170201063156, 0.998807966709137, -0.052204567939043045, -0.030637741088867188, 1.493408203125, 1.09716796875, 1.302642822265625, 1.48828125, 1.427490234375, 10.0, 1.350324273109436, 1.5, 1.350324273109436
15988, -1.108715534210205, -0.736490786075592, 0.1729874312877655, 0.006174780428409576, 0.009393108077347279, -1.8393956422805786, 0.039476633071899414, 0.06005311384797096, -0.2545514702796936, -0.7965986132621765, -0.9811790585517883, 0.06340361386537552, -0.22140868330694907, -0.39250050743095244, 7.03289508134297, 9362.0, 30146.0, 35388.0, 9362.0, 8.370248794555664, -0.10834024846553802, 0.24072381854057312, -0.30448395013809204, 0.006491019390523434, -0.057949699461460114, 0.9985054731369019, -0.052204567939043045, -0.030637741088867188, 1.493408203125, 1.50146484375, 0.1985626220703125, 1.48828125, 1.259033203125, 10.0, 1.3495430946350098, 1.5, 1.3495430946350098
16018, -1.110030174255371, -0.7390215396881104, 0.1708911508321762, 0.006575813051313162, 0.010003135539591312, -1.8419419527053833, 0.040729910135269165, 0.06195239722728729, -0.25471529364585876, -0.7964455485343933, -0.9811385273933411, 0.06361190229654312, -0.19201313407342122, -0.36653706480433357, 7.003477825779739, 9362.0, 30146.0, 35388.0, 9362.0, 8.370248794555664, 0.10167865455150604, -0.20365507900714874, 0.09398477524518967, 0.008478443138301373, -0.05823502689599991, 1.0005037784576416, -0.052204567939043045, -0.030637741088867188, 1.493408203125, 0.92578125, 4.9995880126953125, 1.49560546875, 1.259033203125, 10.0, 1.3495430946350098, 1.5, 1.3495430946350098
16028, -1.10866379737854, -0.7395786643028259, 0.17076241970062256, 0.006575813051313162, 0.010003135539591312, -1.8419419527053833, 0.040729910135269165, 0.06195239722728729, -0.25471529364585876, -0.7964373230934143, -0.9811149835586548, 0.06362732499837875, -0.18586287229824633, -0.36259382474528934, 6.999921467063493, 9362.0, 30146.0, 35388.0, 9362.0, 8.370248794555664, 0.1506759524345398, 0.04902786761522293, -0.06217930465936661, 0.007060371804982424, -0.057435788214206696, 0.9985431432723999, -0.052204567939043045, -0.030637741088867188, 1.493408203125, 0.92578125, 4.9995880126953125, 1.49560546875, 1.259033203125, 10.0, 1.3495430946350098, 1.5, 1.3495430946350098
16038, -1.1078335046768188, -0.7396140098571777, 0.17112477123737335, 0.006575813051313162, 0.010003135539591312, -1.8419419527053833, 0.040729910135269165, 0.06195239722728729, -0.25471529364585876, -0.7965216040611267, -0.9812127351760864, 0.0633222684264183, -0.18833137121911972, -0.4306174169720123, 7.070304745503486, 9362.0, 30146.0, 35388.0, 9362.0, 8.370248794555664, -0.11110220849514008, 0.22330792248249054, 0.21313321590423584, 0.006396767683327198, -0.057029224932193756, 0.9995730519294739, -0.052204567939043045, -0.030637741088867188, 1.493408203125, 0.92578125, 4.9995880126953125, 1.49560546875, 1.259033203125, 10.0, 1.3495430946350098, 1.5, 1.3495430946350098
16048, -1.108984112739563, -0.7400339245796204, 0.17061954736709595, 0.008769329637289047, 0.013338380493223667, -1.8546996116638184, 0.04701600223779678, 0.07145460695028305, -0.255522757768631, -0.796448290348053, -0.9811330437660217, 0.0636153295636177, -0.18946221435662305, -0.37277893057938627, 7.000653492883619, 9362.0, 30146.0, 35388.0, 9362.0, 8.370248794555664, -0.23634883761405945, -0.1755121350288391, 0.08317754417657852, 0.005735429003834724, -0.057969581335783005, 0.9998982548713684, -0.052204567939043045, -0.030637741088867188, 1.493408203125, 0.92578125, 4.9995880126953125, 1.49560546875, 1.259033203125, 10.0, 1.3495430946350098, 1.5, 1.3495430946350098
16078, -1.1110550165176392, -0.7360301613807678, 0.17370228469371796, 0.008769329637289047, 0.013338380493223667, -1.8546996116638184, 0.04701600223779678, 0.07145460695028305, -0.255522757768631, -0.7966011762619019, -0.9811784029006958, 0.06340301036834717, -0.2165058305103862, -0.388630209465191, 7.0356595458201285, 9362.0, 30146.0, 35388.0, 9362.0, 8.390083312988281, 0.2540396451950073, 0.1454961597919464, 0.16922235488891602, 0.007518835365772247, -0.058467134833335876, 0.9993729591369629, -0.052204567939043045, -0.030637741088867188, 1.493408203125, 1.544677734375, 0.2900543212890625, 1.49560546875, 1.547607421875, 10.0, 1.3495430946350098, 1.5, 1.3495430946350098
16088, -1.1106688976287842, -0.7353213429450989, 0.174302875995636, 0.008769329637289047, 0.013338380493223667, -1.8546996116638184, 0.04701600223779678, 0.07145460695028305, -0.255522757768631, -0.7966017723083496, -0.9811820387840271, 0.06341470777988434, -0.21268172168454058, -0.3832653195250373, 7.0429742383947636, 9362.0, 30146.0, 35388.0, 9362.0, 8.390083312988281, -0.24555274844169617, 0.3159111738204956, 0.25381192564964294, 0.007518835365772247, -0.058467134833335876, 0.9993729591369629, -0.052204567939043045, -0.030637741088867188, 1.493408203125, 1.544677734375, 0.2900543212890625, 1.49560546875, 1.5146484375, 10.0, 1.3495430946350098, 1.5, 1.3495430946350098
16098, -1.1109899282455444, -0.7359793186187744, 0.17559891939163208, 0.008769329637289047, 0.013338380493223667, -1.8546996116638184, 0.04701600223779678, 0.07145460695028305, -0.255522757768631, -0.7964918613433838, -0.9811398983001709, 0.06359882652759552, -0.1995998782295102, -0.34585483523889593, 6.995154579280162, 9362.0, 30146.0, 35388.0, 9362.0, 8.390083312988281, 0.03412030637264252, -0.28576740622520447, -0.18166206777095795, 0.006038628984242678, -0.06150035187602043, 0.9982578754425049, -0.052204567939043045, -0.030637741088867188, 1.493408203125, 1.544677734375, 0.2900543212890625, 1.48974609375, 1.5146484375, 10.0, 1.3495430946350098, 1.5, 1.3495430946350098
16138, -1.1110166311264038, -0.7306606769561768, 0.17719461023807526, 0.008769329637289047, 0.013338380493223667, -1.8546996116638184, 0.04701600223779678, 0.07145460695028305, -0.255522757768631, -0.7966055870056152, -0.9811771512031555, 0.0633978471159935, -0.21859483964506543, -0.39212345723552744, 7.030888645489166, 9362.0, 30146.0, 35388.0, 9362.0, 8.390083312988281, 0.007919109426438808, 0.23040857911109924, -0.2373817265033722, 0.007397245615720749, -0.05894354730844498, 0.9973342418670654, -0.052204567939043045, -0.030637741088867188, 1.493408203125, 1.521240234375, 0.2393646240234375, 1.491943359375, 1.30078125, 10.0, 1.3495430946350098, 1.5, 1.3495430946350098
16148, -1.1113616228103638, -0.7319967150688171, 0.17727859318256378, 0.008769329637289047, 0.013338380493223667, -1.8546996116638184, 0.04701600223779678, 0.07145460695028305, -0.255522757768631, -0.7966023683547974, -0.9811832904815674, 0.06340067833662033, -0.21775812427971947, -0.38816052877979246, 7.03917959480384, 9362.0, 30146.0, 35388.0, 9362.0, 8.390083312988281, -0.05206343159079552, 0.14880816638469696, 0.021432196721434593, 0.007397245615720749, -0.05894354730844498, 0.9973342418670654, -0.052204567939043045, -0.030637741088867188, 1.493408203125, 1.521240234375, 0.2393646240234375, 1.491943359375, 1.49560546875, 10.0, 1.3495430946350098, 1.5, 1.3495430946350098
16158, -1.1116421222686768, -0.7333217859268188, 0.17868657410144806, 0.008769329637289047, 0.013338380493223667, -1.8546996116638184, 0.04701600223779678, 0.07145460695028305, -0.255522757768631, -0.7963802814483643, -0.9811577200889587, 0.06347724050283432, -0.16836307850951654, -0.4141220741953191, 7.038008277667316, 9362.0, 30146.0, 35388.0, 9362.0, 8.390083312988281, 0.08641432225704193, -0.1595972627401352, 0.0701567530632019, 0.006559038534760475, -0.05765821039676666, 1.0002800226211548, -0.052204567939043045, -0.030637741088867188, 1.493408203125, 1.521240234375, 0.2393646240234375, 1.49267578125, 1.49560546875, 10.0, 1.3495430946350098, 1.5, 1.3495430946350098
16168, -1.111498236656189, -0.7326959371566772, 0.1795310080051422, 0.01531371008604765, 0.02328282967209816, -1.8854587078094482, 0.06202610209584236, 0.09429046511650085, -0.25720667839050293, -0.7966010570526123, -0.9811763167381287, 0.0633988231420517, -0.21663171332229442, -0.4016094841071265, 7.034432704467598, 9362.0, 30146.0, 35388.0, 9362.0, 8.390083312988281, 0.08641432225704193, -0.1595972627401352, 0.0701567530632019, 0.0054864841513335705, -0.05891894921660423, 0.9994375705718994, -0.052204567939043045, -0.030637741088867188, 1.493408203125, 1.521240234375, 0.2393646240234375, 1.49267578125, 1.49560546875, 10.0, 1.3495430946350098, 1.5, 1.3495430946350098
16178, -1.1119377613067627, -0.7302225232124329, 0.18087582290172577, 0.01531371008604765, 0.02328282967209816, -1.8854587078094482, 0.06202610209584236, 0.09429046511650085, -0.25720667839050293, -0.796602725982666, -0.9811673164367676, 0.06342141330242157, -0.21842841094530555, -0.3948765799409273, 7.0298763054283215, 9362.0, 30146.0, 35388.0, 9362.0, 8.390083312988281, 0.05123137682676315, -0.27502891421318054, -0.15505854785442352, 0.007050097920000553, -0.05940850079059601, 0.9992104768753052, -0.052204567939043045, -0.030637741088867188, 1.493408203125, 1.521240234375, 0.2393646240234375, 1.49267578125, 1.49267578125, 10.0, 1.3495430946350098, 1.5, 1.3495430946350098
16188, -1.1120145320892334, -0.7297581434249878, 0.18093283474445343, 0.016579169780015945, 0.02520677074790001, -1.89060378074646, 0.06451722234487534, 0.09810337424278259, -0.25734323263168335, -0.7966208457946777, -0.9811541438102722, 0.06340712308883667, -0.2082699779542431, -0.394104232006498, 7.0111666098506324, 9362.0, 30146.0, 35388.0, 9362.0, 8.390083312988281, -0.13618485629558563, -0.21497970819473267, 0.15232425928115845, 0.007405847776681185, -0.06073920428752899, 0.9974125027656555, -0.052204567939043045, -0.030637741088867188, 1.493408203125, 1.521240234375, 0.2393646240234375, 1.49267578125, 1.49267578125, 10.0, 1.3495430946350098, 1.5, 1.3495430946350098
16208, -1.1112366914749146, -0.7284396886825562, 0.17877116799354553, 0.017894307151436806, 0.0272069089114666, -1.895755410194397, 0.06699427962303162, 0.10190963000059128, -0.2578360438346863, -0.7966033816337585, -0.9811738729476929, 0.06338662654161453, -0.21608186092295142, -0.39370763347668003, 7.0335245898850784, 9362.0, 30146.0, 35388.0, 9362.0, 8.390083312988281, -0.062157902866601944, 0.10319188237190247, -0.1407168060541153, 0.007819786667823792, -0.05837235227227211, 0.9967794418334961, -0.052204567939043045, -0.030637741088867188, 1.493408203125, 1.521240234375, 0.2393646240234375, 1.49267578125, 1.49267578125, 10.0, 1.3477039337158203, 1.5, 1.3477039337158203
16218, -1.1116949319839478, -0.7287830710411072, 0.1781088411808014, 0.017894307151436806, 0.0272069089114666, -1.895755410194397, 0.06699427962303162, 0.10190963000059128, -0.2578360438346863, -0.7964497208595276, -0.9811229109764099, 0.06359223276376724, -0.1888761638649531, -0.3735645805093952, 7.006516730714954, 9362.0, 30146.0, 35388.0, 9362.0, 8.390083312988281, -0.09942431002855301, 0.11967374384403229, 0.10388684272766113, 0.007819786667823792, -0.05837235227227211, 0.9967794418334961, -0.052204567939043045, -0.030637741088867188, 1.493408203125, 1.521240234375, 0.2393646240234375, 1.494873046875, 1.49267578125, 10.0, 1.3477039337158203, 1.5, 1.3477039337158203
16228, -1.1124022006988525, -0.7302877306938171, 0.17848174273967743, 0.017894307151436806, 0.0272069089114666, -1.895755410194397, 0.06699427962303162, 0.10190963000059128, -0.2578360438346863, -0.7965970635414124, -0.9811733961105347, 0.0633874461054802, -0.21326046716193098, -0.38999645424163987, 7.039604060166602, 9362.0, 30146.0, 35388.0, 9362.0, 8.390083312988281, 0.12142723798751831, 0.09338319301605225, -0.01444452628493309, 0.007319205906242132, -0.0568048395216465, 0.9989001154899597, -0.052204567939043045, -0.030637741088867188, 1.493408203125, 1.521240234375, 0.2393646240234375, 1.494873046875, 1.524169921875, 10.0, 1.3477039337158203, 1.5, 1.3477039337158203
16248, -1.1112946271896362, -0.7305512428283691, 0.17785871028900146, 0.017894307151436806, 0.0272069089114666, -1.895755410194397, 0.06699427962303162, 0.10190963000059128, -0.2578360438346863, -0.7966381311416626, -0.9811676740646362, 0.06338399648666382, -0.2239557363794765, -0.37076211464935227, 7.023503863731655, 9362.0, 30146.0, 35388.0, 9362.0, 8.390083312988281, -0.052905891090631485, -0.14980342984199524, 0.020581791177392006, 0.00796344131231308, -0.05830742046236992, 1.0007781982421875, -0.052204567939043045, -0.030637741088867188, 1.493408203125, 1.521240234375, 0.2393646240234375, 1.494873046875, 1.4619140625, 10.0, 1.3477039337158203, 1.5, 1.3477039337158203
16258, -1.111416220664978, -0.7311329245567322, 0.17805548012256622, 0.017894307151436806, 0.0272069089114666, -1.895755410194397, 0.06699427962303162, 0.10190963000059128, -0.2578360438346863, -0.7964567542076111, -0.9811294674873352, 0.0635882169008255, -0.191860852637227, -0.3761532857174359, 6.998970786163088, 9362.0, 30146.0, 35388.0, 9362.0, 8.390083312988281, 0.011321855708956718, -0.45996353030204773, -0.10040472447872162, 0.00796344131231308, -0.05830742046236992, 1.0007781982421875, -0.052204567939043045, -0.030637741088867188, 1.493408203125, 1.521240234375, 0.2393646240234375, 1.489013671875, 1.4619140625, 10.0, 1.3477039337158203, 1.5, 1.3477039337158203
16278, -1.1109678745269775, -0.7291330099105835, 0.17656147480010986, 0.022137382999062538, 0.033664315938949585, -1.9112529754638672, 0.07444844394922256, 0.11333870887756348, -0.2586544454097748, -0.7965907454490662, -0.9811719655990601, 0.0634077861905098, -0.21023779122774086, -0.3887536521050379, 7.026523859507046, 9362.0, 30146.0, 35388.0, 9362.0, 8.390083312988281, -0.17030225694179535, -0.16631770133972168, 0.15345613658428192, 0.006935582496225834, -0.05922665819525719, 0.9992020726203918, -0.058035708963871, -0.15607833862304688, 1.483154296875, 1.521240234375, 0.2393646240234375, 1.493408203125, 1.4619140625, 10.0, 1.3477039337158203, 1.5, 1.3477039337158203
16298, -1.1117985248565674, -0.7297383546829224, 0.176676943898201, 0.02365119382739067, 0.035969216376543045, -1.9164260625839233, 0.07693278789520264, 0.11715096980333328, -0.2586752772331238, -0.7966302037239075, -0.9811602234840393, 0.06338777393102646, -0.21397779898131386, -0.39702315634147567, 7.006143289616686, 9362.0, 30146.0, 35388.0, 9362.0, 8.390083312988281, 0.11147832125425339, -0.2650204002857208, -0.17304201424121857, 0.007055374328047037, -0.05694485828280449, 0.9989525079727173, -0.058035708963871, -0.15607833862304688, 1.483154296875, 1.521240234375, 0.2393646240234375, 1.493408203125, 1.456787109375, 10.0, 1.3477039337158203, 1.5, 1.3477039337158203
16308, -1.1114872694015503, -0.7261706590652466, 0.17584481835365295, 0.02365119382739067, 0.035969216376543045, -1.9164260625839233, 0.07693278789520264, 0.11715096980333328, -0.2586752772331238, -0.7966002225875854, -0.9811704158782959, 0.0633833184838295, -0.21399363588276446, -0.3895998862100498, 7.034700179106845, 9362.0, 30146.0, 35388.0, 9362.0, 8.390083312988281, -0.298410028219223, -0.49012720584869385, -0.1730385422706604, 0.00669951131567359, -0.05781008303165436, 0.9974027276039124, -0.058035708963871, -0.15607833862304688, 1.483154296875, 1.521240234375, 0.2393646240234375, 1.493408203125, 1.4765625, 10.0, 1.3477039337158203, 1.5, 1.3477039337158203
16318, -1.1115682125091553, -0.7233836650848389, 0.1755174696445465, 0.02365119382739067, 0.035969216376543045, -1.9164260625839233, 0.07693278789520264, 0.11715096980333328, -0.2586752772331238, -0.796610414981842, -0.9811893105506897, 0.06340484321117401, -0.22001694524547466, -0.39446632289011063, 7.036164080030634, 9362.0, 30146.0, 35388.0, 9362.0, 8.390083312988281, -0.0439324826002121, -0.0315869078040123, -0.17277774214744568, 0.00669951131567359, -0.05781008303165436, 0.9974027276039124, -0.058035708963871, -0.15607833862304688, 1.483154296875, 1.521240234375, 0.2393646240234375, 1.493408203125, 1.52490234375, 10.0, 1.3477039337158203, 1.5, 1.3477039337158203
16328, -1.1122047901153564, -0.7220366597175598, 0.1742035448551178, 0.026827611029148102, 0.04080764204263687, -1.9267853498458862, 0.08187927305698395, 0.12476804107427597, -0.25937384366989136, -0.7966420650482178, -0.9811635613441467, 0.06339100748300552, -0.226279720501206, -0.37506855010374807, 7.0206793334797135, 9362.0, 30146.0, 35388.0, 9362.0, 8.390083312988281, 0.10401765257120132, 0.03941667824983597, 0.07267764210700989, 0.00669951131567359, -0.05781008303165436, 0.9974027276039124, -0.058035708963871, -0.15607833862304688, 1.483154296875, 1.521240234375, 0.2393646240234375, 1.493408203125, 1.52490234375, 10.0, 1.3477039337158203, 1.5, 1.3477039337158203
16338, -1.1126432418823242, -0.7219818234443665, 0.17498359084129333, 0.026827611029148102, 0.04080764204263687, -1.9267853498458862, 0.08187927305698395, 0.12476804107427597, -0.25937384366989136, -0.796608030796051, -0.9811716675758362, 0.06339355558156967, -0.21605447781843412, -0.3928267111488992, 7.034149146030874, 9362.0, 30146.0, 35388.0, 9362.0, 8.390083312988281, -0.09657542407512665, 0.11323516815900803, 0.22346177697181702, 0.007304738275706768, -0.05823807790875435, 0.9991493821144104, -0.058035708963871, -0.15607833862304688, 1.483154296875, 1.521240234375, 0.2393646240234375, 1.493408203125, 1.52490234375, 10.0, 1.3477039337158203, 1.5, 1.3477039337158203
16348, -1.1131927967071533, -0.7226675748825073, 0.17594411969184875, 0.026827611029148102, 0.04080764204263687, -1.9267853498458862, 0.08187927305698395, 0.12476804107427597, -0.25937384366989136, -0.7966000437736511, -0.981182336807251, 0.06337390094995499, -0.2164267223961977, -0.38893432498485936, 7.037138285284879, 9362.0, 30146.0, 35388.0, 9362.0, 8.390083312988281, -0.03560669720172882, -0.05058436468243599, -0.14240796864032745, 0.007304738275706768, -0.05823807790875435, 0.9991493821144104, -0.058035708963871, -0.15607833862304688, 1.483154296875, 1.521240234375, 0.2393646240234375, 1.493408203125, 1.537353515625, 10.0, 1.3477039337158203, 1.5, 1.3477039337158203
16358, -1.1131913661956787, -0.7237655520439148, 0.17602483928203583, 0.026827611029148102, 0.04080764204263687, -1.9267853498458862, 0.08187927305698395, 0.12476804107427597, -0.25937384366989136, -0.7966066598892212, -0.9811761379241943, 0.06339526176452637, -0.21963169909896135, -0.39308666496401656, 7.035748119563319, 9362.0, 30146.0, 35388.0, 9362.0, 8.390083312988281, -0.03486522659659386, 0.1607488989830017, 0.018347211182117462, 0.00789390318095684, -0.056857142597436905, 0.9996412992477417, -0.058035708963871, -0.15607833862304688, 1.483154296875, 1.521240234375, 0.2393646240234375, 1.493408203125, 1.49560546875, 10.0, 1.3477039337158203, 1.5, 1.3477039337158203
16368, -1.1122864484786987, -0.7220970392227173, 0.174464613199234, 0.026827611029148102, 0.04080764204263687, -1.9267853498458862, 0.08187927305698395, 0.12476804107427597, -0.25937384366989136, -0.7965932488441467, -0.9811728000640869, 0.06340192258358002, -0.21349465590556513, -0.3927267160618726, 7.032455979624675, 9362.0, 30146.0, 35388.0, 9362.0, 8.390083312988281, 0.08183125406503677, -0.22464844584465027, -0.04561929032206535, 0.00789390318095684, -0.056857142597436905, 0.9996412992477417, -0.058035708963871, -0.15607833862304688, 1.483154296875, 1.521240234375, 0.2393646240234375, 1.493408203125, 1.477294921875, 10.0, 1.3477039337158203, 1.5, 1.3477039337158203
16378, -1.11164391040802, -0.7214810252189636, 0.17613783478736877, 0.026827611029148102, 0.04080764204263687, -1.9267853498458862, 0.08187927305698395, 0.12476804107427597, -0.25937384366989136, -0.796593964099884, -0.9811714887619019, 0.0633799284696579, -0.22784841516010124, -0.3871361089851746, 7.036467047305165, 9362.0, 30146.0, 35388.0, 9362.0, 8.390083312988281, -0.19038976728916168, 0.09886850416660309, 0.08809912949800491, 0.005872689187526703, -0.05891779065132141, 1.0018914937973022, -0.058035708963871, -0.15607833862304688, 1.483154296875, 1.521240234375, 0.2393646240234375, 1.493408203125, 1.477294921875, 10.0, 1.3477039337158203, 1.5, 1.3477039337158203
16398, -1.1118991374969482, -0.7245637774467468, 0.1793728768825531, 0.03196174278855324, 0.048637039959430695, -1.9423649311065674, 0.08925818651914597, 0.1362113058567047, -0.25992751121520996, -0.7966640591621399, -0.9811528325080872, 0.06340586394071579, -0.21119581712424182, -0.3747682153276912, 6.994247016954412, 9362.0, 30146.0, 35388.0, 9362.0, 8.390083312988281, 0.18839101493358612, 0.08615200221538544, -0.15789949893951416, 0.007679798174649477, -0.057002805173397064, 0.9974201917648315, -0.058035708963871, -0.15607833862304688, 1.483154296875, 1.521240234375, 0.2393646240234375, 1.49267578125, 1.477294921875, 10.0, 1.3477039337158203, 1.5, 1.3477039337158203
16408, -1.1115503311157227, -0.7252053022384644, 0.17976266145706177, 0.033771540969610214, 0.05139941722154617, -1.9475637674331665, 0.09172119945287704, 0.1400233656167984, -0.2601216733455658, -0.7966712713241577, -0.9811548590660095, 0.06338414549827576, -0.21977688116983135, -0.37723272555919607, 7.001633980522743, 9362.0, 30146.0, 35388.0, 9362.0, 8.390083312988281, 0.07750986516475677, -0.04120732471346855, -0.14864318072795868, 0.00571255711838603, -0.057257723063230515, 0.9975726008415222, -0.058035708963871, -0.15607833862304688, 1.483154296875, 1.521240234375, 0.2393646240234375, 1.49267578125, 1.477294921875, 10.0, 1.3477039337158203, 1.5, 1.3477039337158203
16418, -1.1114000082015991, -0.7249616384506226, 0.1810908168554306, 0.033771540969610214, 0.05139941722154617, -1.9475637674331665, 0.09172119945287704, 0.1400233656167984, -0.2601216733455658, -0.796612024307251, -0.9811800718307495, 0.06338883191347122, -0.21929564849145491, -0.3972429717297814, 7.04239801721089, 9362.0, 30146.0, 35388.0, 9362.0, 8.390083312988281, -0.044520482420921326, 0.19797293841838837, 0.061602141708135605, 0.005534809082746506, -0.059857919812202454, 1.0008049011230469, -0.058035708963871, -0.15607833862304688, 1.483154296875, 1.521240234375, 0.2393646240234375, 1.49267578125, 1.49267578125, 10.0, 1.3477039337158203, 1.5, 1.3477039337158203
16428, -1.1112788915634155, -0.7284913659095764, 0.18227872252464294, 0.033771540969610214, 0.05139941722154617, -1.9475637674331665, 0.09172119945287704, 0.1400233656167984, -0.2601216733455658, -0.7964799404144287, -0.9811164736747742, 0.0636090636253357, -0.203451063421933, -0.3474321870279198, 6.997940928342956, 9362.0, 30146.0, 35388.0, 9362.0, 8.390083312988281, -0.035250648856163025, -0.2325231432914734, 0.16279080510139465, 0.0073666865937411785, -0.057139020413160324, 0.9979898929595947, -0.058035708963871, -0.15607833862304688, 1.483154296875, 1.521240234375, 0.2393646240234375, 1.49267578125, 1.430419921875, 10.0, 1.3477039337158203, 1.5, 1.3477039337158203
16448, -1.109751582145691, -0.7246336340904236, 0.18175658583641052, 0.03753919154405594, 0.057152703404426575, -1.9579805135726929, 0.09666640311479568, 0.14764076471328735, -0.26065385341644287, -0.7965332865715027, -0.9812003374099731, 0.06332015991210938, -0.19198835742580042, -0.44307529160880676, 7.066040382440023, 9362.0, 30146.0, 35388.0, 9362.0, 8.390083312988281, 0.030121084302663803, 0.024566160514950752, -0.2953927218914032, 0.006110669579356909, -0.057057205587625504, 1.000887393951416, -0.058035708963871, -0.15607833862304688, 1.483154296875, 1.521240234375, 0.2393646240234375, 1.49267578125, 1.359375, 10.0, 1.3477039337158203, 1.5, 1.3477039337158203
16458, -1.1099539995193481, -0.7239893078804016, 0.18101277947425842, 0.03753919154405594, 0.057152703404426575, -1.9579805135726929, 0.09666640311479568, 0.14764076471328735, -0.26065385341644287, -0.7965980768203735, -0.9811778664588928, 0.06339989602565765, -0.21651480968621056, -0.3904417016811692, 7.034649397009133, 9362.0, 30146.0, 35388.0, 9362.0, 8.390083312988281, 0.02115684561431408, -0.5169038772583008, -0.17221474647521973, 0.006110669579356909, -0.057057205587625504, 1.000887393951416, -0.058035708963871, -0.15607833862304688, 1.483154296875, 1.521240234375, 0.2393646240234375, 1.493408203125, 1.359375, 10.0, 1.3477039337158203, 1.5, 1.3477039337158203
16468, -1.1110793352127075, -0.7205044031143188, 0.1796255260705948, 0.03949720785021782, 0.0601436048746109, -1.9631937742233276, 0.0991344153881073, 0.15144917368888855, -0.26068833470344543, -0.7965618371963501, -0.9811888933181763, 0.06330664455890656, -0.18817192367643626, -0.4496855939793818, 7.044990832320592, 9362.0, 30146.0, 35388.0, 9362.0, 8.390083312988281, 0.02036997489631176, 0.21494688093662262, 0.0974673330783844, 0.006110669579356909, -0.057057205587625504, 1.000887393951416, -0.058035708963871, -0.15607833862304688, 1.483154296875, 1.521240234375, 0.2393646240234375, 1.493408203125, 1.359375, 10.0, 1.3477039337158203, 1.5, 1.3477039337158203
16488, -1.1118922233581543, -0.7212076783180237, 0.18229477107524872, 0.03949720785021782, 0.0601436048746109, -1.9631937742233276, 0.0991344153881073, 0.15144917368888855, -0.26068833470344543, -0.7965951561927795, -0.9811729788780212, 0.06339795142412186, -0.22244495571150222, -0.39285615693802356, 7.037658398304929, 9362.0, 30146.0, 35388.0, 9362.0, 8.390083312988281, -0.004041657783091068, -0.08005533367395401, -0.14515265822410583, 0.006796759553253651, -0.060728251934051514, 0.9979845285415649, -0.058035708963871, -0.15607833862304688, 1.483154296875, 1.521240234375, 0.2393646240234375, 1.493408203125, 1.46484375, 10.0, 1.3477039337158203, 1.5, 1.3477039337158203
16498, -1.112699270248413, -0.7207924127578735, 0.18284972012043, 0.03949720785021782, 0.0601436048746109, -1.9631937742233276, 0.0991344153881073, 0.15144917368888855, -0.26068833470344543, -0.796650767326355, -0.9811621308326721, 0.06339022517204285, -0.2269116989377938, -0.3790723856956504, 7.0291188791976005, 9362.0, 30146.0, 35388.0, 9362.0, 8.390083312988281, 0.08173681050539017, 0.20349885523319244, 0.3921402394771576, 0.00703184399753809, -0.05995158106088638, 0.9995284676551819, -0.058035708963871, -0.15607833862304688, 1.483154296875, 1.521240234375, 0.2393646240234375, 1.493408203125, 1.46484375, 10.0, 1.3477039337158203, 1.5, 1.3477039337158203
16518, -1.1128910779953003, -0.7252271771430969, 0.1854090839624405, 0.04356078431010246, 0.06635402888059616, -1.973625898361206, 0.10404307395219803, 0.1590723842382431, -0.2610495984554291, -0.79645836353302, -0.9811162948608398, 0.0636155903339386, -0.19690393002545387, -0.3688607280585927, 6.999618609473592, 9362.0, 30146.0, 35388.0, 9362.0, 8.390083312988281, 0.1964336633682251, 0.06712169945240021, -0.2922344505786896, 0.008102965541183949, -0.05880342423915863, 0.997556209564209, -0.058035708963871, -0.15607833862304688, 1.483154296875, 1.4794921875, 0.155975341796875, 1.493408203125, 1.330078125, 10.0, 1.3477039337158203, 1.5, 1.3477039337158203
16528, -1.11137056350708, -0.7239399552345276, 0.18201091885566711, 0.04356078431010246, 0.06635402888059616, -1.973625898361206, 0.10404307395219803, 0.1590723842382431, -0.2610495984554291, -0.7966066598892212, -0.9811705946922302, 0.06339430063962936, -0.21733328874949046, -0.39736006696821846, 7.045226436436143, 9362.0, 30146.0, 35388.0, 9362.0, 8.390083312988281, 0.020747074857354164, -0.09428954124450684, -0.09846501052379608, 0.0066316453740000725, -0.058679427951574326, 0.9976205825805664, -0.058035708963871, -0.15607833862304688, 1.483154296875, 1.4794921875, 0.155975341796875, 1.493408203125, 1.330078125, 10.0, 1.3477039337158203, 1.5, 1.3477039337158203
16538, -1.1120760440826416, -0.7234689593315125, 0.18143899738788605, 0.04356078431010246, 0.06635402888059616, -1.973625898361206, 0.10404307395219803, 0.1590723842382431, -0.2610495984554291, -0.7966032028198242, -0.9811643958091736, 0.06340733915567398, -0.22603902217384111, -0.40187057511673174, 7.042864656017454, 9362.0, 30146.0, 35388.0, 9362.0, 8.390083312988281, 0.06256701052188873, 0.19105175137519836, -0.05170988664031029, 0.006446028593927622, -0.059028081595897675, 0.9986215829849243, -0.058035708963871, -0.15607833862304688, 1.483154296875, 1.4794921875, 0.155975341796875, 1.493408203125, 1.537353515625, 10.0, 1.3477039337158203, 1.5, 1.3477039337158203
16548, -1.1101921796798706, -0.7236887812614441, 0.1803589016199112, 0.04782100394368172, 0.07286927849054337, -1.984086513519287, 0.10896655917167664, 0.16668857634067535, -0.261989951133728, -0.7963882088661194, -0.9811428189277649, 0.06351183354854584, -0.17983432861334703, -0.4240530839475696, 7.0335498784566814, 9362.0, 30146.0, 35388.0, 9362.0, 8.390083312988281, -0.13242873549461365, -0.22183330357074738, -0.1991688460111618, 0.006900140084326267, -0.057872604578733444, 1.0001215934753418, -0.058035708963871, -0.15607833862304688, 1.483154296875, 1.4794921875, 0.155975341796875, 1.493408203125, 1.537353515625, 10.0, 1.3477039337158203, 1.5, 1.3477039337158203
16558, -1.1111892461776733, -0.7224556803703308, 0.17966558039188385, 0.04782100394368172, 0.07286927849054337, -1.984086513519287, 0.10896655917167664, 0.16668857634067535, -0.261989951133728, -0.796561598777771, -0.981183648109436, 0.06331095099449158, -0.1933287420450203, -0.44667758225716625, 7.034668511838371, 9362.0, 30146.0, 35388.0, 9362.0, 8.390083312988281, 0.10472483187913895, 0.2845642864704132, 0.14595691859722137, 0.006900140084326267, -0.057872604578733444, 1.0001215934753418, -0.058035708963871, -0.15607833862304688, 1.483154296875, 1.4794921875, 0.155975341796875, 1.493408203125, 1.4501953125, 10.0, 1.3477039337158203, 1.5, 1.3477039337158203
16578, -1.1088697910308838, -0.7245430946350098, 0.18167904019355774, 0.05002497881650925, 0.0762411504983902, -1.9893269538879395, 0.1114310622215271, 0.17050082981586456, -0.2619696259498596, -0.796423614025116, -0.9811347126960754, 0.06350560486316681, -0.16828764581309263, -0.4174499493086614, 7.014822060230226, 9362.0, 30146.0, 35388.0, 9362.0, 8.390083312988281, 0.06214311346411705, -0.38142770528793335, -0.21317452192306519, 0.006900140084326267, -0.057872604578733444, 1.0001215934753418, -0.0525025874376297, -0.08439826965332031, 1.489013671875, 1.4794921875, 0.155975341796875, 1.493408203125, 1.4501953125, 10.0, 1.3477039337158203, 1.5, 1.3477039337158203
16588, -1.10867440700531, -0.7232715487480164, 0.18032868206501007, 0.05227828025817871, 0.07968930155038834, -1.9945639371871948, 0.11390026658773422, 0.17431311309337616, -0.26174110174179077, -0.7966383099555969, -0.9811551570892334, 0.06340807676315308, -0.23048643880589886, -0.37674286070762264, 7.0339438947722694, 9362.0, 30146.0, 35388.0, 9362.0, 8.390083312988281, -0.002130624372512102, 0.11735167354345322, 0.4114392101764679, 0.006900140084326267, -0.057872604578733444, 1.0001215934753418, -0.0525025874376297, -0.08439826965332031, 1.489013671875, 1.4794921875, 0.155975341796875, 1.493408203125, 1.4501953125, 10.0, 1.3477039337158203, 1.5, 1.3477039337158203
16598, -1.1085870265960693, -0.7235922813415527, 0.18246830999851227, 0.05227828025817871, 0.07968930155038834, -1.9945639371871948, 0.11390026658773422, 0.17431311309337616, -0.26174110174179077, -0.7964538335800171, -0.9811387062072754, 0.06347939372062683, -0.1668339802268841, -0.41592240993148266, 7.011346853894981, 9362.0, 30146.0, 35388.0, 9362.0, 8.390083312988281, 0.13003145158290863, 0.13964791595935822, 0.04120462387800217, 0.008367116563022137, -0.05995210260152817, 0.9976801872253418, -0.0525025874376297, -0.08439826965332031, 1.489013671875, 1.4794921875, 0.155975341796875, 1.49560546875, 1.4501953125, 10.0, 1.3477039337158203, 1.5, 1.3477039337158203
16618, -1.1084331274032593, -0.7248003482818604, 0.18425123393535614, 0.05227828025817871, 0.07968930155038834, -1.9945639371871948, 0.11390026658773422, 0.17431311309337616, -0.26174110174179077, -0.7966160178184509, -0.981171190738678, 0.06342270225286484, -0.22145770818022337, -0.39563014612116376, 7.0406304162807, 9362.0, 30146.0, 35388.0, 9362.0, 8.390083312988281, 0.12752704322338104, 0.27159741520881653, -0.25152096152305603, 0.007698347792029381, -0.05835047736763954, 0.9993748664855957, -0.0525025874376297, -0.08439826965332031, 1.489013671875, 1.4794921875, 0.155975341796875, 1.494873046875, 1.4501953125, 10.0, 1.3477039337158203, 1.5, 1.3477039337158203
16638, -1.1092487573623657, -0.7247833609580994, 0.18513551354408264, 0.05227828025817871, 0.07968930155038834, -1.9945639371871948, 0.11390026658773422, 0.17431311309337616, -0.26174110174179077, -0.7966301441192627, -0.9811497926712036, 0.0633980855345726, -0.216851394618256, -0.40644330026702846, 7.003653004793158, 9362.0, 30146.0, 35388.0, 9362.0, 8.390083312988281, 0.16218936443328857, -0.14427614212036133, 0.061813145875930786, 0.00713783735409379, -0.05926671624183655, 0.9988864064216614, -0.0525025874376297, -0.08439826965332031, 1.489013671875, 1.4794921875, 0.155975341796875, 1.491943359375, 1.4501953125, 10.0, 1.3477039337158203, 1.5, 1.3477039337158203
16668, -1.1073487997055054, -0.7211930155754089, 0.18499717116355896, 0.06178448721766472, 0.09424222260713577, -2.0155508518218994, 0.12375415861606598, 0.18951044976711273, -0.2629096806049347, -0.796625554561615, -0.9811583161354065, 0.06339164823293686, -0.2114107460080471, -0.40205567225555683, 7.006637460060912, 9362.0, 30146.0, 35388.0, 9362.0, 8.390083312988281, -0.04629819840192795, -0.26544249057769775, 0.08118931204080582, 0.005205670837312937, -0.05930130556225777, 0.9986212253570557, -0.0525025874376297, -0.08439826965332031, 1.489013671875, 1.4794921875, 0.155975341796875, 1.489013671875, 1.4501953125, 10.0, 1.3477039337158203, 1.5, 1.3477039337158203
16678, -1.1066999435424805, -0.7205249071121216, 0.1859898567199707, 0.06178448721766472, 0.09424222260713577, -2.0155508518218994, 0.12375415861606598, 0.18951044976711273, -0.2629096806049347, -0.796642541885376, -0.9811601042747498, 0.06338866055011749, -0.21173877056199217, -0.4080942812360888, 7.0107228645380575, 9362.0, 30146.0, 35388.0, 9362.0, 8.390083312988281, -0.04629819840192795, -0.26544249057769775, 0.08118931204080582, 0.005205670837312937, -0.05930130556225777, 0.9986212253570557, -0.0525025874376297, -0.08439826965332031, 1.489013671875, 1.4794921875, 0.155975341796875, 1.489013671875, 1.48974609375, 10.0, 1.3477039337158203, 1.5, 1.3477039337158203
16688, -1.1065692901611328, -0.7238225936889648, 0.1860906183719635, 0.06178448721766472, 0.09424222260713577, -2.0155508518218994, 0.12375415861606598, 0.18951044976711273, -0.2629096806049347, -0.7965951561927795, -0.9811559915542603, 0.06336798518896103, -0.2041752450393518, -0.4474077463762569, 7.0400003340186466, 9362.0, 30146.0, 35388.0, 9362.0, 8.390083312988281, -0.15759016573429108, 0.0357644259929657, 0.25855758786201477, 0.005205670837312937, -0.05930130556225777, 0.9986212253570557, -0.0525025874376297, -0.08439826965332031, 1.489013671875, 1.4794921875, 0.155975341796875, 1.489013671875, 1.48974609375, 10.0, 1.3477039337158203, 1.5, 1.3477039337158203
16708, -1.1074954271316528, -0.7239679098129272, 0.1871151328086853, 0.0668327808380127, 0.10197426378726959, -2.026085615158081, 0.1286654770374298, 0.1970909982919693, -0.2638656497001648, -0.7965350151062012, -0.9812014698982239, 0.06329887360334396, -0.1909850051160925, -0.44341262160668293, 7.072686578965116, 9362.0, 30146.0, 35388.0, 9362.0, 8.390083312988281, -0.021086212247610092, -0.023918479681015015, 0.06554211676120758, 0.007067799102514982, -0.057642612606287, 1.000166416168213, -0.0525025874376297, -0.08439826965332031, 1.489013671875, 1.4794921875, 0.155975341796875, 1.49560546875, 1.48974609375, 10.0, 1.3477039337158203, 1.5, 1.3477039337158203
16718, -1.1085203886032104, -0.724955141544342, 0.18767987191677094, 0.0668327808380127, 0.10197426378726959, -2.026085615158081, 0.1286654770374298, 0.1970909982919693, -0.2638656497001648, -0.7966358065605164, -0.981153666973114, 0.06338343024253845, -0.21527611040692302, -0.39596447569743987, 7.015380201112745, 9362.0, 30146.0, 35388.0, 9362.0, 8.390083312988281, -0.3034414052963257, -0.2265908569097519, 0.04268820583820343, 0.006015588995069265, -0.05787542089819908, 0.9985204935073853, -0.0525025874376297, -0.08439826965332031, 1.489013671875, 1.4794921875, 0.155975341796875, 1.49560546875, 1.5029296875, 10.0, 1.3477039337158203, 1.5, 1.3477039337158203
16728, -1.1092004776000977, -0.7238337993621826, 0.18947823345661163, 0.0668327808380127, 0.10197426378726959, -2.026085615158081, 0.1286654770374298, 0.1970909982919693, -0.2638656497001648, -0.796644389629364, -0.981154203414917, 0.06338219344615936, -0.21702813775946336, -0.3993351219276349, 7.00943248654066, 9362.0, 30146.0, 35388.0, 9362.0, 8.390083312988281, -0.00039870571345090866, 0.08309594541788101, 0.27086153626441956, 0.005698022432625294, -0.05600985884666443, 0.9992538690567017, -0.0525025874376297, -0.08439826965332031, 1.489013671875, 1.4794921875, 0.155975341796875, 1.49560546875, 1.487548828125, 10.0, 1.3477039337158203, 1.5, 1.3477039337158203
16738, -1.1097753047943115, -0.7238773107528687, 0.19017280638217926, 0.0668327808380127, 0.10197426378726959, -2.026085615158081, 0.1286654770374298, 0.1970909982919693, -0.2638656497001648, -0.7966010570526123, -0.981162965297699, 0.06340581178665161, -0.2146759494181289, -0.3981250144468049, 7.0418003851214275, 9362.0, 30146.0, 35388.0, 9362.0, 8.390083312988281, -0.039549894630908966, 0.2289867103099823, 0.25018033385276794, 0.007433094084262848, -0.05636189505457878, 0.9971721172332764, -0.0525025874376297, -0.08439826965332031, 1.489013671875, 1.4794921875, 0.155975341796875, 1.49560546875, 1.437744140625, 10.0, 1.3477039337158203, 1.5, 1.3477039337158203
16748, -1.1102936267852783, -0.7228640913963318, 0.19119679927825928, 0.0668327808380127, 0.10197426378726959, -2.026085615158081, 0.1286654770374298, 0.1970909982919693, -0.2638656497001648, -0.7966023087501526, -0.9811800718307495, 0.06339862942695618, -0.21839968191186784, -0.40332630689468374, 7.043929218904376, 9362.0, 30146.0, 35388.0, 9362.0, 8.390083312988281, 0.0038013416342437267, 0.042494919151067734, -0.022687340155243874, 0.007433094084262848, -0.05636189505457878, 0.9971721172332764, -0.0525025874376297, -0.08439826965332031, 1.489013671875, 1.4794921875, 0.155975341796875, 1.49560546875, 1.437744140625, 10.0, 1.3417439460754395, 1.5, 1.3417439460754395
16758, -1.1100432872772217, -0.7243444919586182, 0.19058553874492645, 0.0668327808380127, 0.10197426378726959, -2.026085615158081, 0.1286654770374298, 0.1970909982919693, -0.2638656497001648, -0.7966260313987732, -0.9811775088310242, 0.06339571624994278, -0.23300972988375804, -0.38140358712689704, 7.0278519545970175, 9362.0, 30146.0, 35388.0, 9362.0, 8.390083312988281, 0.10400548577308655, -0.4179438054561615, -0.13894149661064148, 0.007433094084262848, -0.05636189505457878, 0.9971721172332764, -0.0525025874376297, -0.08439826965332031, 1.489013671875, 1.4794921875, 0.155975341796875, 1.487548828125, 1.437744140625, 10.0, 1.3417439460754395, 1.5, 1.3417439460754395
