timeTick, roll, pitch, yaw, stateX, stateY, stateZ, stateVX, stateVY, stateVZ, otX0, otY0, otZ0, otRoll0, otPitch0, otYaw0, left wing, pitch motor, yaw motor, right wing, voltage, roll rate, pitch rate, yaw rate, A_x, A_y, A_z, current, i_raw, v_raw, airflow_voltage, airflow_speed, pot_Pitch, voltage_nKF, kFFx, volt_KF_vel, kP, volt_KF_pos
36282, 9.895094871520996, 5.530425548553467, -13.946823120117188, 0, 0, 0, 0, 0, 0, -0.7810319066047668, -0.9654825925827026, 0.06326869875192642, -0.212067622041409, -0.438471592643225, 0.5056182685312138, 0, 0, 0, 0, 0, 0, 0, 0, 0, 0, 0, 0, 0, 0, 0, 0, 0, 0, 0, 0, 0, 0
36292, 9.895379066467285, 5.53036642074585, -13.945345878601074, 0.0014202729798853397, 0.001530022593215108, -10.912290573120117, 0.05793379247188568, 0.06241071596741676, -0.621451199054718, -0.7810319662094116, -0.965499997138977, 0.06326625496149063, -0.2090597396192204, -0.4291125051019833, 0.4965326387223569, 0, 0, 0, 0, 0, 0, 0, 0, 0, 0, 0, 0, 0, 0, 0, 0, 0, 0, 0, 0, 0, 0
36302, 9.894728660583496, 5.532166004180908, -13.947434425354004, 0.0019343274179846048, 0.0020837942138314247, -10.918516159057617, 0.04487745836377144, 0.04834325984120369, -0.6236944794654846, -0.7810275554656982, -0.9654593467712402, 0.06329897791147232, -0.2305775972187482, -0.4384899702474172, 0.49848062419894057, 9362.0, 30146.0, 35388.0, 9362.0, 0, -0.04993843659758568, -0.2419499158859253, -0.3532896637916565, 0.004952657036483288, -0.056283798068761826, 0.9965327382087708, 0, 0, 0, 1.4208984375, 0.063079833984375, 0, 0, 0, 0, 0, 0
36312, 9.895058631896973, 5.532532215118408, -13.94802474975586, 0.0023178248666226864, 0.0024968921206891537, -10.924764633178711, 0.03182156756520271, 0.03427676483988762, -0.6259446740150452, -0.7810238003730774, -0.9654545783996582, 0.06329066306352615, -0.2327311040950388, -0.43945752773916524, 0.5069872291500803, 9362.0, 30146.0, 35388.0, 9362.0, 0, 0.02816203236579895, 0.041333794593811035, -0.1477082371711731, 0.004224176052957773, -0.05761222541332245, 0.9970396757125854, 0, 0, 0, 1.53076171875, 0.2596435546875, 1.48974609375, 1.355712890625, 10.0, 1.4360573291778564, 1.5, 1.4360573291778564
36322, 9.89450740814209, 5.532598495483398, -13.948359489440918, 0.002570733428001404, 0.0027693212032318115, -10.931035041809082, 0.018759984523057938, 0.020209163427352905, -0.6281742453575134, -0.7810292840003967, -0.9654629826545715, 0.06329421699047089, -0.23175997620405178, -0.44020222339219117, 0.4907402548241031, 9362.0, 30146.0, 35388.0, 9362.0, 0, -0.07040194422006607, -0.12843045592308044, -0.22102628648281097, 0.003936540335416794, -0.05847879499197006, 0.9962651133537292, 0, 0, 0, 1.61279296875, 0.4476470947265625, 1.48974609375, 1.171875, 10.0, 1.4363563060760498, 1.5, 1.4363563060760498
36332, 9.895184516906738, 5.536106586456299, -13.950065612792969, 0.002693021669983864, 0.0029010730795562267, -10.937328338623047, 0.005697599612176418, 0.006141249556094408, -0.6304038166999817, -0.7810277342796326, -0.9654912352561951, 0.06328412145376205, -0.2102371916386898, -0.4424748015405555, 0.49799830347239693, 9362.0, 30146.0, 35388.0, 9362.0, 0, 0.07846979051828384, -0.5578264594078064, -0.17208990454673767, 0.004455588757991791, -0.05812431499361992, 0.9988020062446594, 0, 0, 0, 1.203369140625, 0.3649749755859375, 1.49560546875, 1.3037109375, 10.0, 1.4369133710861206, 1.5, 1.4369133710861206
36342, 9.894671440124512, 5.536126613616943, -13.950629234313965, 0.002684616483747959, 0.0028920755721628666, -10.943642616271973, -0.00737890275195241, -0.00794034544378519, -0.6325318813323975, -0.7810324430465698, -0.9654401540756226, 0.06327971071004868, -0.23544130101635036, -0.4315107560811384, 0.5015785140974335, 9362.0, 30146.0, 35388.0, 9362.0, 0, -0.04212494567036629, -0.08468502759933472, -0.15772001445293427, 0.0044860560446977615, -0.060034554451704025, 0.9971615672111511, 0, 0, 0, 1.2158203125, 0.300750732421875, 1.49560546875, 1.51171875, 10.0, 1.4361759424209595, 1.5, 1.4361759424209595
36352, 9.895343780517578, 5.537431716918945, -13.953777313232422, 0.002545432187616825, 0.0027422846760600805, -10.949978828430176, -0.020458124577999115, -0.022017721086740494, -0.6346853971481323, -0.781027615070343, -0.9654481410980225, 0.06328309327363968, -0.22807635273509497, -0.43745324379719364, 0.4943876440191509, 9362.0, 30146.0, 35388.0, 9362.0, 0, 0.11639376729726791, -0.11211220175027847, -0.3587845265865326, 0.004402605816721916, -0.05855444073677063, 0.9976552128791809, 0, 0, 0, 1.575439453125, 0.3596649169921875, 1.4970703125, 1.546875, 10.0, 1.4354801177978516, 1.5, 1.4354801177978516
36362, 9.895600318908691, 5.538601398468018, -13.956964492797852, 0.002275441773235798, 0.0024517099373042583, -10.95633602142334, -0.03354066610336304, -0.036096520721912384, -0.6368191242218018, -0.7810224890708923, -0.9654857516288757, 0.06326679140329361, -0.20149379519508842, -0.4370373500262019, 0.4950166438801488, 9362.0, 30146.0, 35388.0, 9362.0, 0, -0.11060643196105957, -0.3074171543121338, -0.1595114916563034, 0.004032452125102282, -0.05674104765057564, 0.9983966946601868, 0, 0, 0, 1.225341796875, 0.25689697265625, 1.4970703125, 1.302978515625, 10.0, 1.4359220266342163, 1.5, 1.4359220266342163
36372, 9.896435737609863, 5.53971004486084, -13.95716381072998, 0.001874580280855298, 0.002020315732806921, -10.962714195251465, -0.04663237929344177, -0.05018159747123718, -0.6389091610908508, -0.7810250520706177, -0.9654659032821655, 0.06331012398004532, -0.21753083211536187, -0.4349005007742335, 0.49327747089235013, 9362.0, 30146.0, 35388.0, 9362.0, 0, 0.15761356055736542, -0.11982405185699463, -0.20564207434654236, 0.0038790598046034575, -0.054456789046525955, 0.9975770711898804, 0, 0, 0, 1.5849609375, 0.381805419921875, 1.496337890625, 1.434814453125, 10.0, 1.435257077217102, 1.5, 1.435257077217102
36382, 9.8966064453125, 5.54004430770874, -13.958443641662598, 0.0013427791418507695, 0.0014480652753263712, -10.96911334991455, -0.059727832674980164, -0.06426844745874405, -0.640986979007721, -0.7810162901878357, -0.9654486179351807, 0.06328067183494568, -0.23508996284894174, -0.43762090554412225, 0.5043900393472615, 9362.0, 30146.0, 35388.0, 9362.0, 0, -0.16312222182750702, -0.27136775851249695, -0.10873690992593765, 0.002986478852108121, -0.05769902840256691, 0.9986611008644104, 0, 0, 0, 1.552734375, 0.3080596923828125, 1.496337890625, 1.368896484375, 10.0, 1.435729742050171, 1.5, 1.435729742050171
36392, 9.897324562072754, 5.541295051574707, -13.96087646484375, 0.0006800401024520397, 0.0007349716615863144, -10.975533485412598, -0.0728202760219574, -0.07834997773170471, -0.643105149269104, -0.7811511754989624, -0.9654762148857117, 0.06328034400939941, -0.22116146307598875, -0.3456357011207558, 0.53404343470262, 9362.0, 30146.0, 35388.0, 9362.0, 8.370248794555664, 0.24466843903064728, -0.06332365423440933, -0.26939746737480164, 0.00435454398393631, -0.05755556747317314, 0.9991494417190552, -0.06901827454566956, -0.0037593841552734375, 1.49560546875, 1.14404296875, 0.7935333251953125, 1.494873046875, 1.116943359375, 10.0, 1.4360991716384888, 1.5, 1.4360991716384888
36402, 9.89681625366211, 5.543653964996338, -13.961019515991211, -0.00011371367145329714, -0.00011902861297130585, -10.981974601745605, -0.08593103289604187, -0.09244956076145172, -0.6450980305671692, -0.7810341119766235, -0.9654830098152161, 0.06326272338628769, -0.2046095095520036, -0.4400881256509024, 0.5045405786360426, 9362.0, 30146.0, 35388.0, 9362.0, 8.370248794555664, 0.007948484271764755, -0.3785553574562073, 0.10515106469392776, 0.005453825928270817, -0.057558897882699966, 0.9978997707366943, -0.06901827454566956, -0.0037593841552734375, 1.49560546875, 1.547607421875, 0.296478271484375, 1.494873046875, 1.59375, 10.0, 1.435176968574524, 1.5, 1.435176968574524
36412, 9.89704418182373, 5.5439581871032715, -13.961477279663086, -0.001038526650518179, -0.0011139578418806195, -10.988435745239258, -0.09903157502412796, -0.10653632134199142, -0.6471832394599915, -0.7810168862342834, -0.9654476642608643, 0.06329560279846191, -0.2289585958017833, -0.42938701017206427, 0.4919787103941703, 9362.0, 30146.0, 35388.0, 9362.0, 8.370248794555664, -0.021990159526467323, 0.022651754319667816, 0.0034849129151552916, 0.004244845826178789, -0.05797089263796806, 0.9986526370048523, -0.06901827454566956, -0.0037593841552734375, 1.49560546875, 1.4765625, 0.1505584716796875, 1.48974609375, 1.50146484375, 10.0, 1.4355319738388062, 1.5, 1.4355319738388062
36422, 9.896585464477539, 5.5445556640625, -13.961713790893555, -0.002094387076795101, -0.0022497710306197405, -10.994917869567871, -0.11214061081409454, -0.12062622606754303, -0.6492341160774231, -0.781026303768158, -0.9654538035392761, 0.06330708414316177, -0.23409502040608704, -0.42848536124202496, 0.4965547425367425, 9362.0, 30146.0, 35388.0, 9362.0, 8.370248794555664, -0.06575837731361389, -0.14729537069797516, -0.18704022467136383, 0.0036585216876119375, -0.05692934989929199, 0.9977825284004211, -0.06901827454566956, -0.0037593841552734375, 1.49560546875, 1.1044921875, 1.2117767333984375, 1.48974609375, 1.3447265625, 10.0, 1.4356615543365479, 1.5, 1.4356615543365479
36432, 9.896673202514648, 5.5462236404418945, -13.961393356323242, -0.003281302284449339, -0.0035264419857412577, -11.001420974731445, -0.12524253129959106, -0.13470794260501862, -0.6513420939445496, -0.7810274958610535, -0.9654508233070374, 0.06330954283475876, -0.23693845991264728, -0.43256776231160643, 0.49984242226049874, 9362.0, 30146.0, 35388.0, 9362.0, 8.370248794555664, 0.036322154104709625, -0.04291101172566414, 0.08847666531801224, 0.004607172217220068, -0.05801437050104141, 0.9950398802757263, -0.06901827454566956, -0.0037593841552734375, 1.49560546875, 1.52783203125, 0.253387451171875, 1.49267578125, 1.60400390625, 10.0, 1.4346158504486084, 1.5, 1.4346158504486084
36442, 9.896024703979492, 5.54596471786499, -13.962958335876465, -0.004599126521497965, -0.004943802021443844, -11.007946014404297, -0.1383221298456192, -0.14876408874988556, -0.6536183953285217, -0.7810437083244324, -0.9654521942138672, 0.06329244375228882, -0.23293884472095358, -0.4396537834620631, 0.5001390675164463, 9362.0, 30146.0, 35388.0, 9362.0, 8.370248794555664, -0.1089816689491272, 0.041378870606422424, -0.17317552864551544, 0.004894041456282139, -0.05792439728975296, 0.995682418346405, -0.06901827454566956, -0.0037593841552734375, 1.49560546875, 1.478759765625, 0.1546478271484375, 1.49267578125, 1.147705078125, 10.0, 1.4349101781845093, 1.5, 1.4349101781845093
36452, 9.897668838500977, 5.547142505645752, -13.963555335998535, -0.006047682836651802, -0.006501637864857912, -11.014493942260742, -0.15138955414295197, -0.1628027707338333, -0.6560072302818298, -0.7810250520706177, -0.9654935598373413, 0.06327936798334122, -0.2092511767936767, -0.4442457383659075, 0.5044458120322015, 9362.0, 30146.0, 35388.0, 9362.0, 8.370248794555664, 0.18122448027133942, -0.008571472018957138, -0.04933233559131622, 0.0034355551470071077, -0.057804543524980545, 0.9990717768669128, -0.06901827454566956, -0.0037593841552734375, 1.49560546875, 1.58056640625, 0.3715972900390625, 1.49267578125, 1.60693359375, 10.0, 1.4350485801696777, 1.5, 1.4350485801696777
36462, 9.898422241210938, 5.546130180358887, -13.963459014892578, -0.0076270876452326775, -0.008200042881071568, -11.021064758300781, -0.1644914448261261, -0.17687807977199554, -0.6581395864486694, -0.7810402512550354, -0.9654647707939148, 0.06326823681592941, -0.23217518538200346, -0.4394012964942249, 0.49975174803297334, 9362.0, 30146.0, 35388.0, 9362.0, 8.370248794555664, 0.12442381680011749, 0.07537446171045303, -0.06914304196834564, 0.0033739465288817883, -0.05698816105723381, 0.9976159334182739, -0.06901827454566956, -0.0037593841552734375, 1.49560546875, 1.329345703125, 0.02105712890625, 1.49267578125, 1.538818359375, 10.0, 1.4355080127716064, 1.5, 1.4355080127716064
36472, 9.898452758789062, 5.5466203689575195, -13.964927673339844, -0.009337596595287323, -0.01003928855061531, -11.027656555175781, -0.1776103973388672, -0.19097112119197845, -0.6601665019989014, -0.7810391187667847, -0.9654800891876221, 0.06328115612268448, -0.2076431669536501, -0.435617057593106, 0.4949735197917887, 9362.0, 30146.0, 35388.0, 9362.0, 8.370248794555664, -0.12195103615522385, 0.042450182139873505, 0.07559636235237122, 0.0038933921605348587, -0.05836423486471176, 0.9973763823509216, -0.06901827454566956, -0.0037593841552734375, 1.49560546875, 1.56298828125, 0.3311767578125, 1.491943359375, 1.566650390625, 10.0, 1.4351727962493896, 1.5, 1.4351727962493896
36482, 9.899843215942383, 5.545833587646484, -13.965616226196289, -0.011179211549460888, -0.012019390240311623, -11.034269332885742, -0.19071288406848907, -0.20504887402057648, -0.6623066067695618, -0.781019389629364, -0.9654955863952637, 0.06325948983430862, -0.2097746474869271, -0.43956021131211287, 0.49884316458707406, 9362.0, 30146.0, 35388.0, 9362.0, 8.370248794555664, 0.08541026711463928, 0.07642156630754471, -0.020819304510951042, 0.0031562699005007744, -0.05698389932513237, 0.9960402846336365, -0.06901827454566956, -0.0037593841552734375, 1.49560546875, 1.58349609375, 0.3784332275390625, 1.491943359375, 1.330078125, 10.0, 1.435576319694519, 1.5, 1.435576319694519
36492, 9.900547981262207, 5.547711372375488, -13.96619987487793, -0.013151818886399269, -0.014140226878225803, -11.040903091430664, -0.20380881428718567, -0.21911828219890594, -0.6645018458366394, -0.781034529209137, -0.9654515385627747, 0.06330836564302444, -0.23238204315235114, -0.43466561292447636, 0.4994666525991684, 9362.0, 30146.0, 35388.0, 9362.0, 8.370248794555664, 0.11932302266359329, -0.22056162357330322, -0.03729058429598808, 0.003668285207822919, -0.05632985755801201, 0.9967047572135925, -0.08530613780021667, 0.08584022521972656, 1.5029296875, 1.27880859375, 0.086212158203125, 1.493408203125, 1.524169921875, 10.0, 1.436043381690979, 1.5, 1.436043381690979
36502, 9.901965141296387, 5.54652214050293, -13.96723747253418, -0.015255315229296684, -0.01640169695019722, -11.04755973815918, -0.21689043939113617, -0.23317550122737885, -0.6667972803115845, -0.7810292840003967, -0.9654721021652222, 0.06331192702054977, -0.2185546735853794, -0.430967492789307, 0.49984906528930007, 9362.0, 30146.0, 35388.0, 9362.0, 8.370248794555664, 0.03236042335629463, -0.11176924407482147, -0.2533142566680908, 0.004215116146951914, -0.056811656802892685, 0.9989651441574097, -0.08530613780021667, 0.08584022521972656, 1.5029296875, 1.60107421875, 0.4197540283203125, 1.493408203125, 1.576171875, 10.0, 1.435546875, 1.5, 1.435546875
36512, 9.903487205505371, 5.548023700714111, -13.96742057800293, -0.01748977042734623, -0.018803875893354416, -11.054238319396973, -0.23000091314315796, -0.24725991487503052, -0.6689088344573975, -0.7810078263282776, -0.965488612651825, 0.06327545642852783, -0.20418234617124653, -0.44090687912776616, 0.4992508864035584, 9362.0, 30146.0, 35388.0, 9362.0, 8.370248794555664, 0.27323201298713684, -0.25821009278297424, -0.03132500499486923, 0.004157848656177521, -0.05790754780173302, 0.9980405569076538, -0.08530613780021667, 0.08584022521972656, 1.5029296875, 1.43115234375, 0.0766143798828125, 1.494873046875, 1.563720703125, 10.0, 1.4360694885253906, 1.5, 1.4360694885253906
36522, 9.901833534240723, 5.547351360321045, -13.96590518951416, -0.019855370745062828, -0.021346960216760635, -11.060937881469727, -0.2431190460920334, -0.2613568603992462, -0.6709542870521545, -0.7811505794525146, -0.9654450416564941, 0.06330589950084686, -0.2372269953796312, -0.34305980600291264, 0.5315499876656703, 9362.0, 30146.0, 35388.0, 9362.0, 8.370248794555664, -0.12091683596372604, 0.3214226961135864, 0.15761590003967285, 0.0034701989497989416, -0.057836007326841354, 0.9979469776153564, -0.08530613780021667, 0.08584022521972656, 1.5029296875, 1.51171875, 0.21942138671875, 1.494873046875, 1.5234375, 10.0, 1.436053991317749, 1.5, 1.436053991317749
36532, 9.902721405029297, 5.54652738571167, -13.96396255493164, -0.022352132946252823, -0.024030987173318863, -11.067657470703125, -0.25623318552970886, -0.2754487991333008, -0.6730486154556274, -0.7810125350952148, -0.9654743671417236, 0.06328173726797104, -0.20750989583226476, -0.4336289024883513, 0.5005951431570145, 9362.0, 30146.0, 35388.0, 9362.0, 8.370248794555664, -0.001268338761292398, 0.024072546511888504, -0.1365964710712433, 0.0027749338187277317, -0.0569932796061039, 0.9977181553840637, -0.08530613780021667, 0.08584022521972656, 1.5029296875, 1.153564453125, 0.709808349609375, 1.49853515625, 1.17626953125, 10.0, 1.4362928867340088, 1.5, 1.4362928867340088
36542, 9.901812553405762, 5.546413898468018, -13.964632034301758, -0.02497998997569084, -0.02685588225722313, -11.0743989944458, -0.2693376839160919, -0.2895307242870331, -0.6751977801322937, -0.7810351252555847, -0.9654598236083984, 0.06330889463424683, -0.23479440270641408, -0.4281403651143876, 0.5005909017639967, 9362.0, 30146.0, 35388.0, 9362.0, 8.370248794555664, -0.024109970778226852, -0.14264480769634247, 0.06796538084745407, 0.00379646522924304, -0.057065024971961975, 0.9965631365776062, -0.08530613780021667, 0.08584022521972656, 1.5029296875, 1.142578125, 0.8070068359375, 1.49853515625, 1.21728515625, 10.0, 1.435400128364563, 1.5, 1.435400128364563
36552, 9.902029037475586, 5.547948360443115, -13.966689109802246, -0.027738841250538826, -0.02982156164944172, -11.081162452697754, -0.28243276476860046, -0.3036050796508789, -0.6774091124534607, -0.7810161709785461, -0.9654948711395264, 0.06330092251300812, -0.2077779337631517, -0.4383095330468052, 0.4972783741851747, 9362.0, 30146.0, 35388.0, 9362.0, 8.370248794555664, -0.00845376867800951, -0.2979092001914978, -0.18224011361598969, 0.003934147302061319, -0.058580074459314346, 0.9991486668586731, -0.08530613780021667, 0.08584022521972656, 1.5029296875, 1.569580078125, 0.3462371826171875, 1.48828125, 1.278076171875, 10.0, 1.4344755411148071, 1.5, 1.4344755411148071
36562, 9.901575088500977, 5.5472588539123535, -13.96671199798584, -0.030628683045506477, -0.03292802348732948, -11.087946891784668, -0.29553624987602234, -0.31768670678138733, -0.6795589327812195, -0.7810346484184265, -0.9654624462127686, 0.06328903138637543, -0.23207686475656628, -0.4342366308249552, 0.49947142665268507, 9362.0, 30146.0, 35388.0, 9362.0, 8.370248794555664, -0.003412405261769891, 0.23377060890197754, -0.07667373865842819, 0.0038589814212173223, -0.05622611567378044, 0.9985969662666321, -0.08530613780021667, 0.08584022521972656, 1.5029296875, 1.502197265625, 0.20001220703125, 1.48828125, 1.496337890625, 10.0, 1.4349021911621094, 1.5, 1.4349021911621094
36572, 9.901765823364258, 5.546384334564209, -13.969002723693848, -0.03364969417452812, -0.03617542237043381, -11.094752311706543, -0.3086659610271454, -0.33179333806037903, -0.6815356016159058, -0.7810754179954529, -0.965468168258667, 0.06329180300235748, -0.23144388520998077, -0.4402129782473878, 0.47896649063027197, 9362.0, 30146.0, 35388.0, 9362.0, 8.370248794555664, 0.06664782762527466, -0.17759373784065247, -0.23710022866725922, 0.003767431015148759, -0.055505454540252686, 0.9990301728248596, -0.08530613780021667, 0.08584022521972656, 1.5029296875, 1.53955078125, 0.278778076171875, 1.49267578125, 1.5849609375, 10.0, 1.4351146221160889, 1.5, 1.4351146221160889
36582, 9.903549194335938, 5.546728610992432, -13.968583106994629, -0.03680194169282913, -0.039563827216625214, -11.101577758789062, -0.32178422808647156, -0.3458874225616455, -0.6835908889770508, -0.7810760736465454, -0.9654784798622131, 0.06327904760837555, -0.23458102026841035, -0.4364342503901639, 0.4905525307336844, 9362.0, 30146.0, 35388.0, 9362.0, 8.370248794555664, 0.19318990409374237, -0.2151382863521576, 0.2181403636932373, 0.0036817961372435093, -0.05657524615526199, 0.9977641701698303, -0.08530613780021667, 0.08584022521972656, 1.5029296875, 1.07080078125, 1.667816162109375, 1.49267578125, 1.5322265625, 10.0, 1.4354443550109863, 1.5, 1.4354443550109863
36602, 9.903740882873535, 5.546738147735596, -13.970266342163086, -0.04008536785840988, -0.04309317469596863, -11.108424186706543, -0.3349010944366455, -0.35998252034187317, -0.6856452226638794, -0.7810640931129456, -0.9654647707939148, 0.06328155100345612, -0.2341457142203149, -0.44193399219906837, 0.4825092852289359, 9362.0, 30146.0, 35388.0, 9362.0, 8.370248794555664, 0.11824173480272293, 0.0971565768122673, -0.0391211211681366, 0.00548859778791666, -0.05482159182429314, 0.9982955455780029, -0.08530613780021667, 0.08584022521972656, 1.5029296875, 1.37548828125, 0.021820068359375, 1.4912109375, 1.235595703125, 10.0, 1.4354443550109863, 1.5, 1.4354443550109863
36642, 9.906318664550781, 5.5476202964782715, -13.966734886169434, -0.054530106484889984, -0.05861951410770416, -11.13602066040039, -0.3873266577720642, -0.416326642036438, -0.6942099332809448, -0.7811934947967529, -0.9654661417007446, 0.06308283656835556, -0.2576701878915149, -0.4672229950031408, 0.5023825174273467, 9362.0, 30146.0, 35388.0, 9362.0, 8.370248794555664, 0.05643807351589203, -0.474259614944458, -0.23980864882469177, 0.002486958634108305, -0.05844447389245033, 0.9974998831748962, -0.08530613780021667, 0.08584022521972656, 1.5029296875, 1.401123046875, 0.041015625, 1.494140625, 1.235595703125, 10.0, 1.435113787651062, 1.5, 1.435113787651062
36662, 9.907427787780762, 5.550463676452637, -13.967222213745117, -0.06673917174339294, -0.07174274325370789, -11.156947135925293, -0.42662304639816284, -0.45856937766075134, -0.7008137106895447, -0.7812013626098633, -0.9655117392539978, 0.06304292380809784, -0.23704844264099337, -0.4628263839740896, 0.5116619008363281, 9362.0, 30146.0, 35388.0, 9362.0, 8.370248794555664, 0.16516095399856567, -0.39913350343704224, -0.15005870163440704, 0.004130781162530184, -0.05590192601084709, 0.999060869216919, -0.08530613780021667, 0.08584022521972656, 1.5029296875, 1.308837890625, 0.0379486083984375, 1.493408203125, 1.235595703125, 10.0, 1.435113787651062, 1.5, 1.435113787651062
36682, 9.908949851989746, 5.548131465911865, -13.966362953186035, -0.06673917174339294, -0.07174274325370789, -11.156947135925293, -0.42662304639816284, -0.45856937766075134, -0.7008137106895447, -0.7811934351921082, -0.9654734134674072, 0.0630991980433464, -0.25781860134048207, -0.4625725074776028, 0.5086429695691989, 9362.0, 30146.0, 35388.0, 9362.0, 8.370248794555664, 0.10986120998859406, -0.022238122299313545, 0.16339538991451263, 0.0056199547834694386, -0.05833703652024269, 0.9986679553985596, -0.08530613780021667, 0.08584022521972656, 1.5029296875, 1.2333984375, 0.2232666015625, 1.49560546875, 1.235595703125, 10.0, 1.4336254596710205, 1.5, 1.4336254596710205
36702, 9.909758567810059, 5.548747539520264, -13.96401596069336, -0.08485420793294907, -0.09121407568454742, -11.185141563415527, -0.47912347316741943, -0.5149974822998047, -0.7089521288871765, -0.7812036275863647, -0.9654768109321594, 0.06307319551706314, -0.2555613945046494, -0.46233903889881844, 0.5041583715705847, 9362.0, 30146.0, 35388.0, 9362.0, 8.370248794555664, -0.014559275470674038, 0.19676890969276428, 0.27875572443008423, 0.004113304428756237, -0.05651827156543732, 0.9987890720367432, -0.08530613780021667, 0.08584022521972656, 1.5029296875, 1.481689453125, 0.1600799560546875, 1.49560546875, 1.235595703125, 10.0, 1.4336254596710205, 1.5, 1.4336254596710205
36722, 9.909843444824219, 5.551155090332031, -13.962346076965332, -0.09469916671514511, -0.1017962247133255, -11.199361801147461, -0.5053805112838745, -0.5432268977165222, -0.7129734754562378, -0.7811854481697083, -0.9655026197433472, 0.06307835131883621, -0.23868134880500105, -0.463051831946359, 0.5141408926887604, 9362.0, 30146.0, 35388.0, 9362.0, 8.370248794555664, 0.01748717948794365, -0.4436551034450531, 0.26950663328170776, 0.004544108174741268, -0.054113201797008514, 0.9969287514686584, -0.08530613780021667, 0.08584022521972656, 1.5029296875, 1.33740234375, 0.0175323486328125, 1.494873046875, 1.235595703125, 10.0, 1.4336254596710205, 1.5, 1.4336254596710205
36732, 9.909554481506348, 5.552008152008057, -13.962088584899902, -0.09469916671514511, -0.1017962247133255, -11.199361801147461, -0.5053805112838745, -0.5432268977165222, -0.7129734754562378, -0.7812076210975647, -0.9654774069786072, 0.06308989971876144, -0.2601456136745202, -0.465730091856841, 0.5126802135876655, 9362.0, 30146.0, 35388.0, 9362.0, 8.370248794555664, 0.01748717948794365, -0.4436551034450531, 0.26950663328170776, 0.004587610252201557, -0.05696863681077957, 0.9970528483390808, -0.08530613780021667, 0.08584022521972656, 1.5029296875, 1.311767578125, 0.0348052978515625, 1.494140625, 1.235595703125, 10.0, 1.4315096139907837, 1.5, 1.4315096139907837
36742, 9.910935401916504, 5.5512237548828125, -13.962549209594727, -0.09469916671514511, -0.1017962247133255, -11.199361801147461, -0.5053805112838745, -0.5432268977165222, -0.7129734754562378, -0.7812020778656006, -0.9654653072357178, 0.06308712810277939, -0.25594549276374595, -0.4603389609087287, 0.5124912169949679, 9362.0, 30146.0, 35388.0, 9362.0, 8.370248794555664, 0.01748717948794365, -0.4436551034450531, 0.26950663328170776, 0.004106737207621336, -0.058354176580905914, 0.9971611499786377, -0.08530613780021667, 0.08584022521972656, 1.5029296875, 1.6083984375, 0.437225341796875, 1.494140625, 1.235595703125, 10.0, 1.432068109512329, 1.5, 1.432068109512329
36762, 9.910564422607422, 5.554646968841553, -13.964666366577148, -0.11596321314573288, -0.12465275824069977, -11.228053092956543, -0.5578305125236511, -0.5996034741401672, -0.7215870022773743, -0.7811939120292664, -0.9654646515846252, 0.0630817711353302, -0.25722325200500434, -0.46357140644821015, 0.5125916286594162, 9362.0, 30146.0, 35388.0, 9362.0, 8.370248794555664, -0.08714917302131653, -0.37587666511535645, -0.20849159359931946, 0.004769043531268835, -0.05736827477812767, 0.999051570892334, -0.08530613780021667, 0.08584022521972656, 1.5029296875, 1.60400390625, 0.4266204833984375, 1.49560546875, 1.235595703125, 10.0, 1.432010293006897, 1.5, 1.432010293006897
36782, 9.909730911254883, 5.554495334625244, -13.965862274169922, -0.12738262116909027, -0.13692712783813477, -11.242525100708008, -0.5841131806373596, -0.6278355121612549, -0.725572943687439, -0.7811931371688843, -0.9655031561851501, 0.06307122856378555, -0.23576529160437196, -0.46396845695622346, 0.5060896794497522, 9362.0, 30146.0, 35388.0, 9362.0, 8.370248794555664, 0.160935640335083, 0.4037366211414337, -0.05622237175703049, 0.004767183680087328, -0.055391885340213776, 0.997477114200592, -0.08530613780021667, 0.08584022521972656, 1.5029296875, 1.387939453125, 0.0297393798828125, 1.493408203125, 1.235595703125, 10.0, 1.432010293006897, 1.5, 1.432010293006897
36802, 9.911293029785156, 5.555438995361328, -13.971353530883789, -0.1332894116640091, -0.14327597618103027, -11.249791145324707, -0.5972455739974976, -0.641935408115387, -0.7276589870452881, -0.7812061309814453, -0.9654656648635864, 0.06308966130018234, -0.2609101604878445, -0.46260436729059506, 0.5051719620673557, 9362.0, 30146.0, 35388.0, 9362.0, 8.370248794555664, 0.30373555421829224, -0.19869977235794067, 0.028141330927610397, 0.00408652750775218, -0.05760437995195389, 0.9983040690422058, -0.08530613780021667, 0.08584022521972656, 1.5029296875, 1.18798828125, 0.455841064453125, 1.5, 1.235595703125, 10.0, 1.4308663606643677, 1.5, 1.4308663606643677
36822, 9.911032676696777, 5.556210041046143, -13.971406936645508, -0.15179717540740967, -0.16316811740398407, -11.271717071533203, -0.6366159915924072, -0.6842171549797058, -0.7340804934501648, -0.7811998128890991, -0.9654780626296997, 0.06307713687419891, -0.2591856509964488, -0.46620070050974505, 0.5097513241107016, 9362.0, 30146.0, 35388.0, 9362.0, 8.370248794555664, 0.14039406180381775, -0.23948101699352264, -0.0377318300306797, 0.005032959394156933, -0.05776691809296608, 0.9979455471038818, -0.08530613780021667, 0.08584022521972656, 1.5029296875, 1.0107421875, 2.7494049072265625, 1.493408203125, 1.235595703125, 10.0, 1.4310846328735352, 1.5, 1.4310846328735352
36852, 9.913358688354492, 5.556520938873291, -13.975360870361328, -0.1647922694683075, -0.17713461816310883, -11.286438941955566, -0.662907063961029, -0.7124471068382263, -0.7380661964416504, -0.7811925411224365, -0.9654700756072998, 0.06309235095977783, -0.263485151280873, -0.4624679302704635, 0.5115848327958129, 9362.0, 30146.0, 35388.0, 9362.0, 8.370248794555664, -0.12228208035230637, -0.008453667163848877, -0.15389639139175415, 0.004280696623027325, -0.05531052500009537, 0.9962215423583984, -0.08530613780021667, 0.08584022521972656, 1.5029296875, 1.3564453125, 0.0156707763671875, 1.496337890625, 1.235595703125, 10.0, 1.430755615234375, 1.5, 1.430755615234375
36862, 9.912853240966797, 5.558482646942139, -13.977029800415039, -0.1647922694683075, -0.17713461816310883, -11.286438941955566, -0.662907063961029, -0.7124471068382263, -0.7380661964416504, -0.7812094688415527, -0.9654645323753357, 0.0630752444267273, -0.2608061385105965, -0.4697159140791598, 0.5114583801414099, 9362.0, 30146.0, 35388.0, 9362.0, 8.370248794555664, -0.12228208035230637, -0.008453667163848877, -0.15389639139175415, 0.0037400652654469013, -0.06052619591355324, 0.9994540214538574, -0.08530613780021667, 0.08584022521972656, 1.5029296875, 1.609130859375, 0.4388580322265625, 1.496337890625, 1.235595703125, 10.0, 1.4312702417373657, 1.5, 1.4312702417373657
36882, 9.912345886230469, 5.5557637214660645, -13.975963592529297, -0.19235868752002716, -0.2067599892616272, -11.316132545471191, -0.7154425978660583, -0.7688482999801636, -0.7464837431907654, -0.7811904549598694, -0.9655066132545471, 0.06305227428674698, -0.2369248794544703, -0.4660504082884245, 0.5130378031667876, 9362.0, 30146.0, 35388.0, 9362.0, 8.370248794555664, 0.030394569039344788, 0.043941330164670944, 0.27650296688079834, 0.00388183631002903, -0.05541250854730606, 0.9987368583679199, -0.08530613780021667, 0.08584022521972656, 1.5029296875, 1.59375, 0.4024658203125, 1.49560546875, 1.235595703125, 10.0, 1.4312583208084106, 1.5, 1.4312583208084106
36902, 9.91181755065918, 5.555508136749268, -13.975379943847656, -0.20693033933639526, -0.2224191278219223, -11.331103324890137, -0.741714358329773, -0.7970565557479858, -0.750636637210846, -0.7811988592147827, -0.9654597640037537, 0.06307783722877502, -0.2611583215378751, -0.46336563735673053, 0.5021853307015636, 9362.0, 30146.0, 35388.0, 9362.0, 8.370248794555664, 0.03432979807257652, -0.09766896069049835, 0.03310731053352356, 0.005732172634452581, -0.05538693815469742, 0.9964229464530945, -0.08530613780021667, 0.08584022521972656, 1.5029296875, 1.166748046875, 0.6037750244140625, 1.494873046875, 1.235595703125, 10.0, 1.4312583208084106, 1.5, 1.4312583208084106
36912, 9.911855697631836, 5.557051658630371, -13.975781440734863, -0.20693033933639526, -0.2224191278219223, -11.331103324890137, -0.741714358329773, -0.7970565557479858, -0.750636637210846, -0.7811765074729919, -0.9654941558837891, 0.06307032704353333, -0.23744226526459367, -0.4646877895546311, 0.5154524637090496, 9362.0, 30146.0, 35388.0, 9362.0, 8.370248794555664, 0.03432979807257652, -0.09766896069049835, 0.03310731053352356, 0.002854167716577649, -0.059320490807294846, 0.9976964592933655, -0.08530613780021667, 0.08584022521972656, 1.5029296875, 1.20849609375, 0.3375701904296875, 1.49560546875, 1.235595703125, 10.0, 1.4312583208084106, 1.5, 1.4312583208084106
36942, 9.913322448730469, 5.554239749908447, -13.979290008544922, -0.23764821887016296, -0.2554280757904053, -11.361305236816406, -0.7942206859588623, -0.8534337878227234, -0.7591920495033264, -0.781197726726532, -0.9654786586761475, 0.06308123469352722, -0.26229077331588657, -0.460757978009525, 0.5055369338627989, 9362.0, 30146.0, 35388.0, 9362.0, 8.370248794555664, 0.15047475695610046, -0.07023581862449646, -0.035991109907627106, 0.003954705316573381, -0.056280456483364105, 0.9993218779563904, -0.08530613780021667, 0.08584022521972656, 1.5029296875, 1.42236328125, 0.0649566650390625, 1.486083984375, 1.235595703125, 10.0, 1.4301036596298218, 1.5, 1.4301036596298218
36952, 9.913546562194824, 5.551267623901367, -13.977330207824707, -0.2456561177968979, -0.2640329599380493, -11.36890697479248, -0.8073582053184509, -0.8675429224967957, -0.76124107837677, -0.7811967730522156, -0.9654744863510132, 0.06309182941913605, -0.25954717951506057, -0.4583400113573646, 0.5083770940649834, 9362.0, 30146.0, 35388.0, 9362.0, 8.370248794555664, -0.05007633939385414, 0.28351014852523804, 0.36665645241737366, 0.003954705316573381, -0.056280456483364105, 0.9993218779563904, -0.08530613780021667, 0.08584022521972656, 1.5029296875, 1.4033203125, 0.043182373046875, 1.493408203125, 1.235595703125, 10.0, 1.4301036596298218, 1.5, 1.4301036596298218
36962, 9.912569999694824, 5.555607318878174, -13.978464126586914, -0.2456561177968979, -0.2640329599380493, -11.36890697479248, -0.8073582053184509, -0.8675429224967957, -0.76124107837677, -0.7811906337738037, -0.9654709100723267, 0.06308013945817947, -0.26045578765560784, -0.4617572684889524, 0.5075245364131782, 9362.0, 30146.0, 35388.0, 9362.0, 8.370248794555664, -0.05007633939385414, 0.28351014852523804, 0.36665645241737366, 0.0045579709112644196, -0.05859514698386192, 1.0002806186676025, -0.08530613780021667, 0.08584022521972656, 1.5029296875, 1.16162109375, 0.643707275390625, 1.493408203125, 1.235595703125, 10.0, 1.4301036596298218, 1.5, 1.4301036596298218
36982, 9.912775039672852, 5.559584617614746, -13.981244087219238, -0.2456561177968979, -0.2640329599380493, -11.36890697479248, -0.8073582053184509, -0.8675429224967957, -0.76124107837677, -0.781195342540741, -0.9654790163040161, 0.0630895271897316, -0.2603213043785929, -0.459792582930163, 0.5052226810354956, 9362.0, 30146.0, 35388.0, 9362.0, 8.370248794555664, -0.05007633939385414, 0.28351014852523804, 0.36665645241737366, 0.004739284981042147, -0.05576111748814583, 0.9982624650001526, -0.08530613780021667, 0.08584022521972656, 1.5029296875, 1.568115234375, 0.3428955078125, 1.493408203125, 1.235595703125, 10.0, 1.4304168224334717, 1.5, 1.4304168224334717
37002, 9.913248062133789, 5.562252521514893, -13.982148170471191, -0.2456561177968979, -0.2640329599380493, -11.36890697479248, -0.8073582053184509, -0.8675429224967957, -0.76124107837677, -0.7812015414237976, -0.9654628038406372, 0.06308244168758392, -0.2612156890363382, -0.4624108935355764, 0.5101461274848484, 9362.0, 30146.0, 35388.0, 9362.0, 8.370248794555664, -0.04522213712334633, -0.18145565688610077, -0.20527257025241852, 0.005282223224639893, -0.05754731222987175, 0.9967437982559204, -0.08530613780021667, 0.08584022521972656, 1.5029296875, 1.51611328125, 0.2286224365234375, 1.493408203125, 1.235595703125, 10.0, 1.430359959602356, 1.5, 1.430359959602356
37022, 9.914406776428223, 5.5650835037231445, -13.986735343933105, -0.29646390676498413, -0.31862664222717285, -11.41494083404541, -0.8862273097038269, -0.9522146582603455, -0.7733854651451111, -0.7811890244483948, -0.9654974341392517, 0.06306986510753632, -0.23655458407128874, -0.4682522541512242, 0.5152138652279297, 9362.0, 30146.0, 35388.0, 9362.0, 8.370248794555664, 0.10286840796470642, 0.053325582295656204, -0.42542892694473267, 0.0031134674791246653, -0.05762793496251106, 0.9970015287399292, -0.08530613780021667, 0.08584022521972656, 1.5029296875, 1.57470703125, 0.3579864501953125, 1.491943359375, 1.235595703125, 10.0, 1.429929256439209, 1.5, 1.429929256439209
37042, 9.914280891418457, 5.563594341278076, -13.988513946533203, -0.29646390676498413, -0.31862664222717285, -11.41494083404541, -0.8862273097038269, -0.9522146582603455, -0.7733854651451111, -0.7813294529914856, -0.965461015701294, 0.06308089941740036, -0.2629293543930349, -0.38372310618552774, 0.5375049332271505, 9362.0, 30146.0, 35388.0, 9362.0, 8.370248794555664, 0.10286840796470642, 0.053325582295656204, -0.42542892694473267, 0.003993072547018528, -0.05844419077038765, 0.9938995838165283, -0.08530613780021667, 0.08584022521972656, 1.5029296875, 1.559326171875, 0.32293701171875, 1.494873046875, 1.235595703125, 10.0, 1.42951238155365, 1.5, 1.42951238155365
37052, 9.914751052856445, 5.562650680541992, -13.988245964050293, -0.29646390676498413, -0.31862664222717285, -11.41494083404541, -0.8862273097038269, -0.9522146582603455, -0.7733854651451111, -0.7811932563781738, -0.965465784072876, 0.06308853626251221, -0.2586694471011473, -0.46644882736640625, 0.5107317083880355, 9362.0, 30146.0, 35388.0, 9362.0, 8.370248794555664, 0.10286840796470642, 0.053325582295656204, -0.42542892694473267, 0.0035456749610602856, -0.05776858329772949, 0.9962509274482727, -0.08530613780021667, 0.08584022521972656, 1.5029296875, 1.086181640625, 1.4473876953125, 1.4970703125, 1.235595703125, 10.0, 1.4299222230911255, 1.5, 1.4299222230911255
37062, 9.914205551147461, 5.565792560577393, -13.988482475280762, -0.29646390676498413, -0.31862664222717285, -11.41494083404541, -0.8862273097038269, -0.9522146582603455, -0.7733854651451111, -0.7811923623085022, -0.9655041694641113, 0.06307029724121094, -0.2392466926523447, -0.46572771557376313, 0.5166488967667726, 9362.0, 30146.0, 35388.0, 9362.0, 8.370248794555664, -0.015691600739955902, -0.3507651388645172, 0.016435936093330383, 0.004887519869953394, -0.0567314438521862, 0.9978171586990356, -0.08530613780021667, 0.08584022521972656, 1.5029296875, 1.506591796875, 0.2088775634765625, 1.4970703125, 1.235595703125, 10.0, 1.4299222230911255, 1.5, 1.4299222230911255
37082, 9.914545059204102, 5.56599235534668, -13.988914489746094, -0.3617180585861206, -0.3887324035167694, -11.469614028930664, -0.9781699180603027, -1.05079185962677, -0.7888339757919312, -0.7811903953552246, -0.9654964208602905, 0.06305018812417984, -0.23059600375259573, -0.465359276482161, 0.5135304755449547, 9362.0, 30146.0, 35388.0, 9362.0, 8.370248794555664, -0.015691600739955902, -0.3507651388645172, 0.016435936093330383, 0.004204096272587776, -0.056446291506290436, 0.9967141151428223, -0.08530613780021667, 0.08584022521972656, 1.5029296875, 1.2392578125, 0.20068359375, 1.49267578125, 1.235595703125, 10.0, 1.4290822744369507, 1.5, 1.4290822744369507
37102, 9.913071632385254, 5.568077087402344, -13.990234375, -0.3617180585861206, -0.3887324035167694, -11.469614028930664, -0.9781699180603027, -1.05079185962677, -0.7888339757919312, -0.7811985015869141, -0.9654623866081238, 0.06305807083845139, -0.26312250342077304, -0.4671369404670145, 0.5046671135525057, 9362.0, 30146.0, 35388.0, 9362.0, 8.370248794555664, -0.07843796163797379, -0.1409299373626709, 0.11415866017341614, 0.00382608943618834, -0.057125382125377655, 0.9968967437744141, -0.07725784182548523, -0.12023735046386719, 1.486083984375, 1.56884765625, 0.3444366455078125, 1.494873046875, 1.52490234375, 10.0, 1.4290822744369507, 1.5, 1.4290822744369507
37122, 9.912083625793457, 5.567532539367676, -13.98963451385498, -0.4018961489200592, -0.43189066648483276, -11.5013427734375, -1.0307339429855347, -1.1071158647537231, -0.7976420521736145, -0.7812004685401917, -0.9654586315155029, 0.06306344270706177, -0.25993395110965783, -0.46351182399817503, 0.5079030952592254, 9362.0, 30146.0, 35388.0, 9362.0, 8.370248794555664, -0.07843796163797379, -0.1409299373626709, 0.11415866017341614, 0.004135363269597292, -0.05865540727972984, 0.9986976981163025, -0.07725784182548523, -0.12023735046386719, 1.486083984375, 1.61279296875, 0.4476470947265625, 1.4970703125, 1.52490234375, 10.0, 1.4300744533538818, 1.5, 1.4300744533538818
37142, 9.91135311126709, 5.570121765136719, -13.992812156677246, -0.4227738380432129, -0.4543147683143616, -11.517337799072266, -1.0570365190505981, -1.1352946758270264, -0.8019006252288818, -0.7811933755874634, -0.9654714465141296, 0.06307681649923325, -0.2625531098753063, -0.46301838015403973, 0.510351959819245, 9362.0, 30146.0, 35388.0, 9362.0, 8.370248794555664, -0.05663776770234108, 0.24221768975257874, -0.006732114125043154, 0.0025580902583897114, -0.05549733713269234, 0.9985535144805908, -0.07725784182548523, -0.12023735046386719, 1.486083984375, 1.486083984375, 0.16845703125, 1.4912109375, 1.52490234375, 10.0, 1.4300744533538818, 1.5, 1.4300744533538818
37152, 9.910054206848145, 5.569329738616943, -13.993501663208008, -0.4334099590778351, -0.4657381474971771, -11.525367736816406, -1.0701909065246582, -1.1493788957595825, -0.8040464520454407, -0.7811883091926575, -0.9654484391212463, 0.06308076530694962, -0.26170750899680406, -0.4651010780646061, 0.5071831514359829, 9362.0, 30146.0, 35388.0, 9362.0, 8.370248794555664, -0.05663776770234108, 0.24221768975257874, -0.006732114125043154, 0.002755418885499239, -0.05684364214539528, 0.9979208707809448, -0.07725784182548523, -0.12023735046386719, 1.486083984375, 1.22900390625, 0.2412872314453125, 1.49560546875, 1.52490234375, 10.0, 1.4300744533538818, 1.5, 1.4300744533538818
37162, 9.909174919128418, 5.570827484130859, -13.994768142700195, -0.4334099590778351, -0.4657381474971771, -11.525367736816406, -1.0701909065246582, -1.1493788957595825, -0.8040464520454407, -0.7811888456344604, -0.9654651880264282, 0.06306355446577072, -0.2582978471319305, -0.4596595688107925, 0.5081565122946009, 9362.0, 30146.0, 35388.0, 9362.0, 8.370248794555664, -0.05663776770234108, 0.24221768975257874, -0.006732114125043154, 0.0033328135032206774, -0.055808138102293015, 0.9962534308433533, -0.07725784182548523, -0.12023735046386719, 1.486083984375, 1.475830078125, 0.1492767333984375, 1.49560546875, 1.52490234375, 10.0, 1.430057168006897, 1.5, 1.430057168006897
37172, 9.910207748413086, 5.570361614227295, -13.994232177734375, -0.4550769627094269, -0.48900747299194336, -11.54149055480957, -1.0964971780776978, -1.177543044090271, -0.8083339333534241, -0.7813235521316528, -0.9654639363288879, 0.06306424736976624, -0.26258757339815414, -0.38099223466625176, 0.5408487748238656, 9362.0, 30146.0, 35388.0, 9362.0, 8.370248794555664, -0.05663776770234108, 0.24221768975257874, -0.006732114125043154, 0.004218077752739191, -0.05583180859684944, 0.995148777961731, -0.07725784182548523, -0.12023735046386719, 1.486083984375, 1.5615234375, 0.3278350830078125, 1.494873046875, 1.52490234375, 10.0, 1.430057168006897, 1.5, 1.430057168006897
37202, 9.908846855163574, 5.569377899169922, -13.992469787597656, -0.47726941108703613, -0.5128393173217773, -11.557703971862793, -1.122752070426941, -1.2056466341018677, -0.8130098581314087, -0.7811867594718933, -0.9655011892318726, 0.0630442351102829, -0.2396013544604127, -0.4665823934712705, 0.5153962238160373, 9362.0, 30146.0, 35388.0, 9362.0, 8.370248794555664, -0.04128674790263176, 0.004416787531226873, 0.32328522205352783, 0.0020701992325484753, -0.05691501498222351, 0.9979361295700073, -0.09404230862855911, 0.03208160400390625, 1.49853515625, 1.2509765625, 0.1600799560546875, 1.493408203125, 1.52490234375, 10.0, 1.430057168006897, 1.5, 1.430057168006897
37222, 9.910713195800781, 5.569459438323975, -13.993669509887695, -0.47726941108703613, -0.5128393173217773, -11.557703971862793, -1.122752070426941, -1.2056466341018677, -0.8130098581314087, -0.7812147736549377, -0.9654678702354431, 0.06307502090930939, -0.26413188245592034, -0.4550919533756712, 0.5104004582679428, 9362.0, 30146.0, 35388.0, 9362.0, 8.370248794555664, -0.04128674790263176, 0.004416787531226873, 0.32328522205352783, 0.00513186352327466, -0.05789932236075401, 0.9988314509391785, -0.09404230862855911, 0.03208160400390625, 1.49853515625, 0.913330078125, 5.4127044677734375, 1.4970703125, 1.52490234375, 10.0, 1.4312965869903564, 1.5, 1.4312965869903564
37242, 9.911028861999512, 5.5707316398620605, -13.992772102355957, -0.5350520610809326, -0.5748826265335083, -11.598614692687988, -1.1885594129562378, -1.2760965824127197, -0.8234078288078308, -0.7811987996101379, -0.9654755592346191, 0.06307598948478699, -0.25987635743283494, -0.4615484878742677, 0.5024901849336318, 9362.0, 30146.0, 35388.0, 9362.0, 8.370248794555664, 0.06346774846315384, 0.07466540485620499, 0.1079787090420723, 0.004262534435838461, -0.057457178831100464, 0.9990807771682739, -0.09404230862855911, 0.03208160400390625, 1.49853515625, 1.5146484375, 0.225494384765625, 1.49560546875, 1.52490234375, 10.0, 1.4312965869903564, 1.5, 1.4312965869903564
37262, 9.912227630615234, 5.571037292480469, -13.993435859680176, -0.5470035076141357, -0.5877140760421753, -11.60685920715332, -1.2017265558242798, -1.2901947498321533, -0.8254514336585999, -0.7812045216560364, -0.9654640555381775, 0.06309352815151215, -0.25735779912480466, -0.46677386838655366, 0.5136395140719823, 9362.0, 30146.0, 35388.0, 9362.0, 8.370248794555664, 0.05220310762524605, -0.30380526185035706, -0.35665515065193176, 0.004007913172245026, -0.05517071485519409, 0.9980421662330627, -0.09404230862855911, 0.03208160400390625, 1.49853515625, 1.447998046875, 0.1016693115234375, 1.49560546875, 1.52490234375, 10.0, 1.4305334091186523, 1.5, 1.4305334091186523
37282, 9.913729667663574, 5.572231292724609, -13.993202209472656, -0.571301281452179, -0.6137998104095459, -11.623409271240234, -1.2280453443527222, -1.3183715343475342, -0.8296707272529602, -0.7812018990516663, -0.9654651284217834, 0.06308537721633911, -0.26426214674672555, -0.468692822181481, 0.5123932012694095, 9362.0, 30146.0, 35388.0, 9362.0, 8.370248794555664, -0.045942727476358414, -0.11595455557107925, 0.04370799660682678, 0.004109370056539774, -0.054902397096157074, 0.9943535327911377, -0.09404230862855911, 0.03208160400390625, 1.49853515625, 1.5703125, 0.34783935546875, 1.4970703125, 1.52490234375, 10.0, 1.4313404560089111, 1.5, 1.4313404560089111
37302, 9.913252830505371, 5.573789119720459, -13.993985176086426, -0.6087338924407959, -0.6539839506149292, -11.648401260375977, -1.2674601078033447, -1.3605631589889526, -0.8365340828895569, -0.7812039852142334, -0.9654682874679565, 0.06308917701244354, -0.25787466963733474, -0.46403938063286887, 0.5076449129144629, 9362.0, 30146.0, 35388.0, 9362.0, 8.370248794555664, 0.05166413262486458, -0.36923515796661377, -0.13594596087932587, 0.005484130699187517, -0.057564206421375275, 0.9980636239051819, -0.07905667275190353, -0.13815879821777344, 1.484619140625, 1.17333984375, 0.554962158203125, 1.4970703125, 1.52490234375, 10.0, 1.4313404560089111, 1.5, 1.4313404560089111
37322, 9.913599014282227, 5.576828956604004, -13.995865821838379, -0.6343463659286499, -0.6814770102500916, -11.66517448425293, -1.2937846183776855, -1.3887370824813843, -0.8407887816429138, -0.7812005281448364, -0.9654911160469055, 0.0630759745836258, -0.24745806918124386, -0.462787013010427, 0.5134416863559704, 9362.0, 30146.0, 35388.0, 9362.0, 8.370248794555664, -0.06716758757829666, -0.1713114231824875, -0.011949236504733562, 0.0037615865003317595, -0.056650079786777496, 0.9985012412071228, -0.07905667275190353, -0.13815879821777344, 1.484619140625, 1.197509765625, 0.3980255126953125, 1.494140625, 1.52490234375, 10.0, 1.4313404560089111, 1.5, 1.4313404560089111
37342, 9.913603782653809, 5.575470924377441, -13.994471549987793, -0.660485565662384, -0.7095336318016052, -11.682031631469727, -1.3201329708099365, -1.416925072669983, -0.8449534773826599, -0.7812005877494812, -0.9654678106307983, 0.06308003515005112, -0.26397180751452104, -0.4617993992025049, 0.5118824236472496, 9362.0, 30146.0, 35388.0, 9362.0, 8.370248794555664, -0.22448572516441345, 0.4264224171638489, 0.050601180642843246, 0.0030100794974714518, -0.05739693343639374, 0.9978535771369934, -0.07905667275190353, -0.13815879821777344, 1.484619140625, 1.5234375, 0.2439727783203125, 1.49560546875, 1.52490234375, 10.0, 1.4303706884384155, 1.5, 1.4303706884384155
37362, 9.913995742797852, 5.575272560119629, -13.99527645111084, -0.660485565662384, -0.7095336318016052, -11.682031631469727, -1.3201329708099365, -1.416925072669983, -0.8449534773826599, -0.7812089323997498, -0.9654667973518372, 0.06309472024440765, -0.2632239378546921, -0.45932372981670255, 0.5074343715070146, 9362.0, 30146.0, 35388.0, 9362.0, 8.370248794555664, 0.12420818954706192, 0.02583351545035839, 0.10343550145626068, 0.003116167616099119, -0.056662242859601974, 0.9965037703514099, -0.07905667275190353, -0.13815879821777344, 1.484619140625, 1.0341796875, 2.28289794921875, 1.4970703125, 1.52490234375, 10.0, 1.4307914972305298, 1.5, 1.4307914972305298
37382, 9.91387939453125, 5.574542999267578, -13.997696876525879, -0.7143437266349792, -0.7673370838165283, -11.71600341796875, -1.3727730512619019, -1.4732457399368286, -0.8536680340766907, -0.7812009453773499, -0.9654751420021057, 0.06309948861598969, -0.2505922644690223, -0.4594779354518721, 0.5039858502366296, 9362.0, 30146.0, 35388.0, 9362.0, 8.370248794555664, 0.006272294092923403, -0.07681950181722641, -0.020053323358297348, 0.0038273457903414965, -0.05635499209165573, 0.9972780346870422, -0.07905667275190353, -0.13815879821777344, 1.484619140625, 1.5703125, 0.34783935546875, 1.4970703125, 1.52490234375, 10.0, 1.4307914972305298, 1.5, 1.4307914972305298
37402, 9.915319442749023, 5.579362392425537, -13.999999046325684, -0.7281372547149658, -0.7821399569511414, -11.7245512008667, -1.3859333992004395, -1.4873307943344116, -0.855815589427948, -0.7811806797981262, -0.9655210971832275, 0.0630902424454689, -0.22287345046384652, -0.4684463858076242, 0.5132506935053811, 9362.0, 30146.0, 35388.0, 9362.0, 8.370248794555664, 0.04640200734138489, -0.4644039273262024, -0.4837908446788788, 0.0038273457903414965, -0.05635499209165573, 0.9972780346870422, -0.07015740126371384, 0.08584022521972656, 1.5029296875, 1.244384765625, 0.18212890625, 1.496337890625, 1.52490234375, 10.0, 1.430652141571045, 1.5, 1.430652141571045
37422, 9.917394638061523, 5.579028129577637, -14.004342079162598, -0.7703074812889099, -0.8273934721946716, -11.750324249267578, -1.425441861152649, -1.52959144115448, -0.8622103929519653, -0.7812016606330872, -0.9655025601387024, 0.06309100240468979, -0.2384168546700417, -0.4508636449114931, 0.5080919836228136, 9362.0, 30146.0, 35388.0, 9362.0, 8.370248794555664, 0.12080773711204529, -0.11100277304649353, -0.002332068979740143, 0.0033566418569535017, -0.05739497393369675, 0.9999018907546997, -0.07015740126371384, 0.08584022521972656, 1.5029296875, 1.537353515625, 0.27386474609375, 1.49560546875, 1.52490234375, 10.0, 1.430652141571045, 1.5, 1.430652141571045
37442, 9.917228698730469, 5.579260349273682, -14.006293296813965, -0.7846279740333557, -0.8427600264549255, -11.758955955505371, -1.438659906387329, -1.5437228679656982, -0.8640432357788086, -0.7812018990516663, -0.9654628038406372, 0.06308021396398544, -0.2744369991334107, -0.46508182908928575, 0.5066783382490455, 9362.0, 30146.0, 35388.0, 9362.0, 8.370248794555664, 0.0316087007522583, -0.0515652634203434, -0.20129601657390594, 0.006527941673994064, -0.058102622628211975, 0.9971755146980286, -0.07015740126371384, 0.08584022521972656, 1.5029296875, 1.232666015625, 0.22625732421875, 1.494873046875, 1.52490234375, 10.0, 1.430652141571045, 1.5, 1.430652141571045
37452, 9.917633056640625, 5.582100868225098, -14.00812816619873, -0.7846279740333557, -0.8427600264549255, -11.758955955505371, -1.438659906387329, -1.5437228679656982, -0.8640432357788086, -0.781201183795929, -0.9654960632324219, 0.06306389719247818, -0.2451785107660913, -0.46072588420929605, 0.5087259705735026, 9362.0, 30146.0, 35388.0, 9362.0, 8.370248794555664, 0.0316087007522583, -0.0515652634203434, -0.20129601657390594, 0.006527941673994064, -0.058102622628211975, 0.9971755146980286, -0.07015740126371384, 0.08584022521972656, 1.5029296875, 1.341064453125, 0.01654052734375, 1.493408203125, 1.52490234375, 10.0, 1.430213451385498, 1.5, 1.430213451385498
37462, 9.91795825958252, 5.584514141082764, -14.009032249450684, -0.7846279740333557, -0.8427600264549255, -11.758955955505371, -1.438659906387329, -1.5437228679656982, -0.8640432357788086, -0.781212329864502, -0.9654979705810547, 0.06306466460227966, -0.24570350602256036, -0.4582843940333987, 0.5047873837892274, 9362.0, 30146.0, 35388.0, 9362.0, 8.370248794555664, 0.0316087007522583, -0.0515652634203434, -0.20129601657390594, 0.0029924579430371523, -0.05722753331065178, 0.9970100522041321, -0.07015740126371384, 0.08584022521972656, 1.5029296875, 1.1337890625, 0.890838623046875, 1.493408203125, 1.52490234375, 10.0, 1.430213451385498, 1.5, 1.430213451385498
37482, 9.917861938476562, 5.584898948669434, -14.00677490234375, -0.8582082986831665, -0.9217076301574707, -11.802422523498535, -1.5045552253723145, -1.6141676902770996, -0.8746871948242188, -0.781207799911499, -0.9654887318611145, 0.06305550038814545, -0.24168105322227762, -0.46285114735570687, 0.5088896234961126, 9362.0, 30146.0, 35388.0, 9362.0, 8.370248794555664, 0.05370137095451355, -0.10799318552017212, 0.141569122672081, 0.004550241399556398, -0.05709756165742874, 0.9976395964622498, -0.07015740126371384, 0.08584022521972656, 1.5029296875, 1.582763671875, 0.3765869140625, 1.493408203125, 1.52490234375, 10.0, 1.4308195114135742, 1.5, 1.4308195114135742
37502, 9.917835235595703, 5.583425998687744, -14.006790161132812, -0.8885630965232849, -0.9542727470397949, -11.81995964050293, -1.5309162139892578, -1.6423299312591553, -0.8790345191955566, -0.7813370227813721, -0.9654524922370911, 0.06309670209884644, -0.26512914643129537, -0.36613011549513885, 0.5405149675885326, 9362.0, 30146.0, 35388.0, 9362.0, 8.370248794555664, -0.036694929003715515, 0.16589629650115967, 0.057722341269254684, 0.0034490698017179966, -0.05720670148730278, 0.9985207915306091, -0.07015740126371384, 0.08584022521972656, 1.5029296875, 1.330078125, 0.0206298828125, 1.493408203125, 1.52490234375, 10.0, 1.4308195114135742, 1.5, 1.4308195114135742
37522, 9.916912078857422, 5.583389759063721, -14.009724617004395, -0.8885630965232849, -0.9542727470397949, -11.81995964050293, -1.5309162139892578, -1.6423299312591553, -0.8790345191955566, -0.7812034487724304, -0.9654572606086731, 0.06309734284877777, -0.26436801059983595, -0.46135595995752965, 0.5112391142951219, 9362.0, 30146.0, 35388.0, 9362.0, 8.370248794555664, 0.0009246099507436156, -0.17715859413146973, -0.21586276590824127, 0.004022752866148949, -0.057046107947826385, 0.9979239106178284, -0.07015740126371384, 0.08584022521972656, 1.5029296875, 1.116943359375, 1.0672607421875, 1.4970703125, 1.52490234375, 10.0, 1.4298274517059326, 1.5, 1.4298274517059326
37542, 9.916267395019531, 5.585277080535889, -14.012039184570312, -0.9508544206619263, -1.0210927724838257, -11.855293273925781, -1.5836182832717896, -1.6986398696899414, -0.8878251910209656, -0.7811932563781738, -0.9654646515846252, 0.06307855993509293, -0.2621597292427446, -0.45873742191184874, 0.505773288938109, 9362.0, 30146.0, 35388.0, 9362.0, 8.370248794555664, 0.0009246099507436156, -0.17715859413146973, -0.21586276590824127, 0.00502889696508646, -0.05689326301217079, 0.9991042613983154, -0.07015740126371384, 0.08584022521972656, 1.5029296875, 1.0693359375, 1.6899566650390625, 1.494873046875, 1.52490234375, 10.0, 1.4300490617752075, 1.5, 1.4300490617752075
37562, 9.91671085357666, 5.584716796875, -14.014445304870605, -0.9667565822601318, -1.0381495952606201, -11.864181518554688, -1.5968163013458252, -1.7127357721328735, -0.889874279499054, -0.7811798453330994, -0.9654861688613892, 0.0630461722612381, -0.24356089200136002, -0.4587409441476211, 0.5093997769228299, 9362.0, 30146.0, 35388.0, 9362.0, 8.370248794555664, 0.033809635788202286, 0.057090986520051956, -0.05719026178121567, 0.0043060993775725365, -0.057591669261455536, 0.9982343912124634, -0.07015740126371384, 0.08584022521972656, 1.5029296875, 1.10595703125, 1.194122314453125, 1.4970703125, 1.52490234375, 10.0, 1.4300490617752075, 1.5, 1.4300490617752075
37582, 9.918126106262207, 5.584465980529785, -14.017853736877441, -1.0152541399002075, -1.0901650190353394, -11.890976905822754, -1.6363744735717773, -1.7549796104431152, -0.8963074684143066, -0.7812129855155945, -0.9654551148414612, 0.06307409703731537, -0.2677778805694927, -0.4626503458714808, 0.5096064592254512, 9362.0, 30146.0, 35388.0, 9362.0, 8.370248794555664, 0.033809635788202286, 0.057090986520051956, -0.05719026178121567, 0.0026019203942269087, -0.059371817857027054, 0.9964210391044617, -0.07015740126371384, 0.08584022521972656, 1.5029296875, 1.564453125, 0.3344879150390625, 1.4970703125, 1.52490234375, 10.0, 1.4297988414764404, 1.5, 1.4297988414764404
37602, 9.917447090148926, 5.58683443069458, -14.021120071411133, -1.0152541399002075, -1.0901650190353394, -11.890976905822754, -1.6363744735717773, -1.7549796104431152, -0.8963074684143066, -0.7812057733535767, -0.9654467105865479, 0.06308292597532272, -0.26659835662626796, -0.4576382465901929, 0.506496469882588, 9362.0, 30146.0, 35388.0, 9362.0, 8.370248794555664, 0.10582902282476425, -0.016538703814148903, 0.05687711387872696, 0.0025612388271838427, -0.05551363155245781, 0.9981294274330139, -0.0842689648270607, -0.09335899353027344, 1.48828125, 1.168212890625, 0.59271240234375, 1.4970703125, 1.52490234375, 10.0, 1.4297988414764404, 1.5, 1.4297988414764404
37622, 9.91909408569336, 5.588258743286133, -14.023080825805664, -1.081763744354248, -1.1614899635314941, -11.927006721496582, -1.689097285270691, -1.8112658262252808, -0.9051600098609924, -0.7812060713768005, -0.9654883146286011, 0.06307146698236465, -0.2422825246448496, -0.46086535199850687, 0.5045026197725353, 9362.0, 30146.0, 35388.0, 9362.0, 8.370248794555664, -0.003373699262738228, 0.09663611650466919, -0.06717832386493683, 0.0037316067609936, -0.057632334530353546, 0.9983564615249634, -0.0842689648270607, -0.09335899353027344, 1.48828125, 1.434814453125, 0.081787109375, 1.493408203125, 1.52490234375, 10.0, 1.4297988414764404, 1.5, 1.4297988414764404
37632, 9.91765022277832, 5.589919090270996, -14.02580738067627, -1.098720669746399, -1.1796729564666748, -11.93606948852539, -1.7022864818572998, -1.8253436088562012, -0.9073347449302673, -0.7811985611915588, -0.9654751420021057, 0.06305980682373047, -0.2509750333368386, -0.46792131672543746, 0.5059221413204639, 9362.0, 30146.0, 35388.0, 9362.0, 8.370248794555664, -0.003373699262738228, 0.09663611650466919, -0.06717832386493683, 0.004207740072160959, -0.056610699743032455, 0.9997590184211731, -0.0842689648270607, -0.09335899353027344, 1.48828125, 1.22607421875, 0.2537689208984375, 1.497802734375, 1.52490234375, 10.0, 1.4297988414764404, 1.5, 1.4297988414764404
37642, 9.918278694152832, 5.589245796203613, -14.029213905334473, -1.098720669746399, -1.1796729564666748, -11.93606948852539, -1.7022864818572998, -1.8253436088562012, -0.9073347449302673, -0.7813082933425903, -0.9654754400253296, 0.06304881721735, -0.2518837337790419, -0.3851862257274661, 0.5408187659480548, 9362.0, 30146.0, 35388.0, 9362.0, 8.370248794555664, -0.003373699262738228, 0.09663611650466919, -0.06717832386493683, 0.004727513995021582, -0.05680322274565697, 0.9978321194648743, -0.0842689648270607, -0.09335899353027344, 1.48828125, 1.57470703125, 0.3579864501953125, 1.497802734375, 1.52490234375, 10.0, 1.42898428440094, 1.5, 1.42898428440094
37682, 9.91378402709961, 5.595810413360596, -14.033788681030273, -1.18548583984375, -1.272701382637024, -11.981693267822266, -1.7682850360870361, -1.8957390785217285, -0.9180043339729309, -0.7811914086341858, -0.96546870470047, 0.06303372234106064, -0.2439037442248963, -0.4736919236740391, 0.5097990949864466, 9362.0, 30146.0, 35388.0, 9362.0, 8.370248794555664, -0.1796170473098755, -0.4919176995754242, -0.16356948018074036, 0.0030142569448798895, -0.057527437806129456, 0.9965977668762207, -0.0842689648270607, -0.09335899353027344, 1.48828125, 1.232666015625, 0.22625732421875, 1.494140625, 1.52490234375, 10.0, 1.4290060997009277, 1.5, 1.4290060997009277
