timeTick, roll, pitch, yaw, stateX, stateY, stateZ, stateVX, stateVY, stateVZ, otX0, otY0, otZ0, otRoll0, otPitch0, otYaw0, left wing, pitch motor, yaw motor, right wing, voltage, roll rate, pitch rate, yaw rate, A_x, A_y, A_z, current, i_raw, v_raw, airflow_voltage, airflow_speed, pot_Pitch, voltage_nKF, kFFx, volt_KF_vel, kP, volt_KF_pos
11358, 8.083292007446289, 80.75728607177734, -7.114832401275635, 0, 0, 0, 0, 0, 0, 0, 0, 0, 0, 0, 0, 0, 0, 0, 0, 0, 0, 0, 0, 0, 0, 0, 0, 0, 0, 0, 0, 0, 0, 0, 0, 0, 0
11368, 8.119841575622559, 80.78456115722656, -7.150791168212891, 0.0, 0.0, -7.525885105133057, 0.0, 0.0, 0.24366378784179688, 0, 0, 0, 0, 0, 0, 9362.0, 30146.0, 35388.0, 9362.0, 0, 0.08891703188419342, -0.05518335476517677, -0.09839043021202087, 0.9977622628211975, 0.01798395812511444, 0.02919686958193779, 0, 0, 0, 0, 0, 0, 0, 0, 0, 0, 0
11378, 8.127079963684082, 80.80229949951172, -7.157381057739258, 0.0, 0.0, -7.523685932159424, 0.0, 0.0, 0.21991729736328125, 0, 0, 0, 0, 0, 0, 9362.0, 30146.0, 35388.0, 9362.0, 0, 0.12024828791618347, -0.09921759366989136, 0.33154839277267456, 0.9982978105545044, 0.018627425655722618, 0.03179645538330078, 0, 0, 0, 1.387939453125, 0.0297393798828125, 0, 1.34765625, 10.0, 1.4506068229675293, 1.5, 1.4506068229675293
11388, 8.15030574798584, 80.82817840576172, -7.180497646331787, 0.0, 0.0, -7.518415927886963, 0.0, 0.0, 0.5270004272460938, 0, 0, 0, 0, 0, 0, 9362.0, 30146.0, 35388.0, 9362.0, 0, -0.059521377086639404, -0.1468266397714615, -0.000783863477408886, 1.0008118152618408, 0.018786286935210228, 0.030393501743674278, 0, 0, 0, 1.302978515625, 0.0450897216796875, 1.493408203125, 1.143310546875, 10.0, 1.4496259689331055, 1.5, 1.4496259689331055
11398, 8.16568660736084, 80.8464584350586, -7.195683479309082, 0.0, 0.0, -7.513665676116943, 0.0, 0.0, 0.4750251770019531, 0, 0, 0, 0, 0, 0, 9362.0, 30146.0, 35388.0, 9362.0, 0, 0.0470854677259922, -0.15332119166851044, 0.06572836637496948, 0.9991771578788757, 0.016973543912172318, 0.02927563153207302, 0, 0, 0, 1.41650390625, 0.0577545166015625, 1.493408203125, 1.346923828125, 10.0, 1.4492981433868408, 1.5, 1.4492981433868408
11408, 8.190921783447266, 80.87268829345703, -7.219062328338623, 0.0, 0.0, -7.511565208435059, 0.0, 0.0, 0.21004676818847656, 0, 0, 0, 0, 0, 0, 9362.0, 30146.0, 35388.0, 9362.0, 0, 0.352702260017395, 0.02344944328069687, -0.04707266390323639, 0.9979070425033569, 0.015458781272172928, 0.02848844975233078, 0, 0, 0, 1.509521484375, 0.2148895263671875, 1.487548828125, 1.4326171875, 10.0, 1.4492448568344116, 1.5, 1.4492448568344116
11418, 8.22252368927002, 80.88938903808594, -7.251754283905029, 0.0, 0.0, -7.509668350219727, 0.0, 0.0, 0.18968582153320312, 0, 0, 0, 0, 0, 0, 9362.0, 30146.0, 35388.0, 9362.0, 0, -0.1261727511882782, -0.09786772727966309, -0.28660252690315247, 0.9977485537528992, 0.01636059768497944, 0.03153977543115616, 0, 0, 0, 1.503662109375, 0.2029876708984375, 1.487548828125, 1.43994140625, 10.0, 1.4492151737213135, 1.5, 1.4492151737213135
11428, 8.243690490722656, 80.91554260253906, -7.274046897888184, 0.0, 0.0, -7.511505603790283, 0.0, 0.0, -0.18372535705566406, 0, 0, 0, 0, 0, 0, 9362.0, 30146.0, 35388.0, 9362.0, 0, -0.13179190456867218, 0.03674840182065964, 0.09746690094470978, 0.9984806180000305, 0.0176161490380764, 0.030763203278183937, 0, 0, 0, 1.261962890625, 0.127288818359375, 1.487548828125, 1.484619140625, 10.0, 1.4493281841278076, 1.5, 1.4493281841278076
11438, 8.273653984069824, 80.93413543701172, -7.304164409637451, 0.0, 0.0, -7.513152599334717, 0.0, 0.0, -0.16469955444335938, 0, 0, 0, 0, 0, 0, 9362.0, 30146.0, 35388.0, 9362.0, 0, 0.0849170908331871, -0.26313695311546326, -0.31433406472206116, 0.9992944002151489, 0.018433721736073494, 0.030487896874547005, 0, 0, 0, 1.393798828125, 0.0344085693359375, 1.487548828125, 1.346923828125, 10.0, 1.449001431465149, 1.5, 1.449001431465149
11448, 8.292806625366211, 80.959228515625, -7.322787284851074, 0.0, 0.0, -7.517632007598877, 0.0, 0.0, -0.4479408264160156, 0, 0, 0, 0, 0, 0, 9362.0, 30146.0, 35388.0, 9362.0, 0, 0.025039754807949066, 0.07376465201377869, 0.09510491788387299, 0.9996936321258545, 0.01996947079896927, 0.028219591826200485, 0, 0, 0, 1.3623046875, 0.0167999267578125, 1.489013671875, 1.401123046875, 10.0, 1.4488487243652344, 1.5, 1.4488487243652344
11458, 8.312253952026367, 80.97676849365234, -7.3410444259643555, 0.0, 0.0, -7.521655559539795, 0.0, 0.0, -0.4023551940917969, 0, 0, 0, 0, 0, 0, 9362.0, 30146.0, 35388.0, 9362.0, 8.152067184448242, 0.10442113131284714, -0.1336955428123474, 0.053433679044246674, 0.998659610748291, 0.01787075586616993, 0.028681959956884384, -0.05819889158010483, -0.05751800537109375, 1.4912109375, 1.386474609375, 0.028656005859375, 1.489013671875, 1.3447265625, 10.0, 1.4485164880752563, 1.5, 1.4485164880752563
11468, 8.344300270080566, 81.00260925292969, -7.372551441192627, 0.0, 0.0, -7.521985054016113, 0.0, 0.0, -0.03294944763183594, 0, 0, 0, 0, 0, 0, 9362.0, 30146.0, 35388.0, 9362.0, 8.152067184448242, 0.0914650410413742, 0.027828484773635864, 0.02475026808679104, 0.9985438585281372, 0.017117958515882492, 0.029115743935108185, -0.05819889158010483, -0.05751800537109375, 1.4912109375, 1.279541015625, 0.0847015380859375, 1.48974609375, 1.461181640625, 10.0, 1.448556900024414, 1.5, 1.448556900024414
11478, 8.350613594055176, 81.0194091796875, -7.3779802322387695, 0.0, 0.0, -7.522275447845459, 0.0, 0.0, -0.029039382934570312, 0, 0, 0, 0, 0, 0, 9362.0, 30146.0, 35388.0, 9362.0, 8.152067184448242, -0.031507458537817, 0.018070705235004425, 0.40341776609420776, 1.0006980895996094, 0.01854444295167923, 0.029186274856328964, -0.05819889158010483, -0.05751800537109375, 1.4912109375, 1.10595703125, 1.194122314453125, 1.48974609375, 1.458251953125, 10.0, 1.4485877752304077, 1.5, 1.4485877752304077
11488, 8.399092674255371, 81.0447998046875, -7.427084922790527, 0.0, 0.0, -7.52635383605957, 0.0, 0.0, -0.4078388214111328, 0, 0, 0, 0, 0, 0, 9362.0, 30146.0, 35388.0, 9362.0, 8.152067184448242, -0.17691224813461304, -0.09146755188703537, -0.36687418818473816, 1.0014443397521973, 0.01928430236876011, 0.0304315946996212, -0.05819889158010483, -0.05751800537109375, 1.4912109375, 1.5234375, 0.2439727783203125, 1.494140625, 1.34326171875, 10.0, 1.4482518434524536, 1.5, 1.4482518434524536
11498, 8.421751976013184, 81.06234741210938, -7.450002193450928, 0.0, 0.0, -7.5300164222717285, 0.0, 0.0, -0.3662586212158203, 0, 0, 0, 0, 0, 0, 9362.0, 30146.0, 35388.0, 9362.0, 8.152067184448242, 0.11981511861085892, -0.16098430752754211, -0.04558824375271797, 1.0009182691574097, 0.017569581046700478, 0.03105303645133972, -0.05819889158010483, -0.05751800537109375, 1.4912109375, 1.130859375, 0.91998291015625, 1.494140625, 1.435546875, 10.0, 1.4482113122940063, 1.5, 1.4482113122940063
11508, 8.43638801574707, 81.08843231201172, -7.462876796722412, 0.0, 0.0, -7.5311126708984375, 0.0, 0.0, -0.10962486267089844, 0, 0, 0, 0, 0, 0, 9362.0, 30146.0, 35388.0, 9362.0, 8.152067184448242, 0.33913591504096985, -0.1291881650686264, 0.20981250703334808, 1.0003420114517212, 0.017826896160840988, 0.029906613752245903, -0.05819889158010483, -0.05751800537109375, 1.4912109375, 1.31689453125, 0.0298919677734375, 1.490478515625, 1.499267578125, 10.0, 1.4483741521835327, 1.5, 1.4483741521835327
11518, 8.449761390686035, 81.10520935058594, -7.47564172744751, 0.0, 0.0, -7.532090663909912, 0.0, 0.0, -0.09779930114746094, 0, 0, 0, 0, 0, 0, 9362.0, 30146.0, 35388.0, 9362.0, 8.152067184448242, 0.11460717022418976, 0.040422987192869186, 0.13808299601078033, 0.9999561905860901, 0.017514312639832497, 0.027879206463694572, -0.05819889158010483, -0.05751800537109375, 1.4912109375, 1.162353515625, 0.637847900390625, 1.490478515625, 1.42236328125, 10.0, 1.4482911825180054, 1.5, 1.4482911825180054
11528, 8.467268943786621, 81.1273422241211, -7.491766929626465, 0.0, 0.0, -7.529952526092529, 0.0, 0.0, 0.21381378173828125, 0, 0, 0, 0, 0, 0, 9362.0, 30146.0, 35388.0, 9362.0, 8.152067184448242, -0.011760017834603786, 0.24260784685611725, 0.027397722005844116, 0.9980820417404175, 0.017396867275238037, 0.0291544571518898, -0.05819889158010483, -0.05751800537109375, 1.4912109375, 1.253173828125, 0.15313720703125, 1.489013671875, 1.443603515625, 10.0, 1.4482762813568115, 1.5, 1.4482762813568115
11538, 8.486701011657715, 81.1431884765625, -7.511097431182861, 0.0, 0.0, -7.528020858764648, 0.0, 0.0, 0.19316673278808594, 0, 0, 0, 0, 0, 0, 9362.0, 30146.0, 35388.0, 9362.0, 8.152067184448242, 0.0005636254791170359, 0.006723686121404171, 0.04486026614904404, 0.9992702007293701, 0.01685863360762596, 0.028548767790198326, -0.05819889158010483, -0.05751800537109375, 1.4912109375, 1.387939453125, 0.0297393798828125, 1.489013671875, 1.562255859375, 10.0, 1.4486397504806519, 1.5, 1.4486397504806519
11548, 8.52021312713623, 81.16846466064453, -7.543115615844727, 0.0, 0.0, -7.52873420715332, 0.0, 0.0, -0.0713348388671875, 0, 0, 0, 0, 0, 0, 9362.0, 30146.0, 35388.0, 9362.0, 8.152067184448242, 0.2480553686618805, -0.05916108936071396, 0.09805840253829956, 0.9991267323493958, 0.01602296344935894, 0.027027711272239685, -0.05819889158010483, -0.05751800537109375, 1.4912109375, 1.53369140625, 0.265960693359375, 1.491943359375, 1.31689453125, 10.0, 1.448219656944275, 1.5, 1.448219656944275
11558, 8.533079147338867, 81.18509674072266, -7.5564703941345215, 0.0, 0.0, -7.529369354248047, 0.0, 0.0, -0.06351470947265625, 0, 0, 0, 0, 0, 0, 9362.0, 30146.0, 35388.0, 9362.0, 8.152067184448242, -0.20630131661891937, -0.20217671990394592, 0.119017094373703, 0.9995632171630859, 0.017047390341758728, 0.031294386833906174, -0.04508325830101967, -0.021678924560546875, 1.494140625, 1.496337890625, 0.1883087158203125, 1.491943359375, 1.306640625, 10.0, 1.447768211364746, 1.5, 1.447768211364746
11568, 8.572010040283203, 81.20964813232422, -7.595092296600342, 0.0, 0.0, -7.534031867980957, 0.0, 0.0, -0.4662513732910156, 0, 0, 0, 0, 0, 0, 9362.0, 30146.0, 35388.0, 9362.0, 8.152067184448242, -0.05915167182683945, -0.1905364841222763, -0.19030028581619263, 0.9986389875411987, 0.017327474430203438, 0.029641689732670784, -0.04508325830101967, -0.021678924560546875, 1.494140625, 1.238525390625, 0.20343017578125, 1.490478515625, 1.475830078125, 10.0, 1.4478576183319092, 1.5, 1.4478576183319092
11578, 8.584135055541992, 81.22530364990234, -7.60630464553833, 0.0, 0.0, -7.53822135925293, 0.0, 0.0, -0.4189491271972656, 0, 0, 0, 0, 0, 0, 9362.0, 30146.0, 35388.0, 9362.0, 8.152067184448242, 0.1779167205095291, 0.09115166962146759, 0.14880390465259552, 0.9993323087692261, 0.018662694841623306, 0.029631853103637695, -0.04508325830101967, -0.021678924560546875, 1.494140625, 1.52783203125, 0.253387451171875, 1.490478515625, 1.373291015625, 10.0, 1.447619915008545, 1.5, 1.447619915008545
11588, 8.606802940368652, 81.24855041503906, -7.628125190734863, 0.0, 0.0, -7.53842830657959, 0.0, 0.0, -0.020694732666015625, 0, 0, 0, 0, 0, 0, 9362.0, 30146.0, 35388.0, 9362.0, 8.152067184448242, 0.06343567371368408, 0.09356571733951569, -0.06312035769224167, 0.9989473819732666, 0.017099378630518913, 0.028102286159992218, -0.04508325830101967, -0.021678924560546875, 1.494140625, 1.377685546875, 0.023040771484375, 1.491943359375, 1.446533203125, 10.0, 1.447616457939148, 1.5, 1.447616457939148
11598, 8.618196487426758, 81.26322174072266, -7.64016580581665, 0.0, 0.0, -7.538608551025391, 0.0, 0.0, -0.018024444580078125, 0, 0, 0, 0, 0, 0, 9362.0, 30146.0, 35388.0, 9362.0, 8.152067184448242, -0.158131405711174, 0.15350587666034698, 0.06542094051837921, 0.9992356300354004, 0.0183260440826416, 0.03168877214193344, -0.04508325830101967, -0.021678924560546875, 1.494140625, 1.5556640625, 0.3145904541015625, 1.491943359375, 1.4150390625, 10.0, 1.4475126266479492, 1.5, 1.4475126266479492
11608, 8.655055046081543, 81.28728485107422, -7.6775336265563965, 0.0, 0.0, -7.53575325012207, 0.0, 0.0, 0.28553009033203125, 0, 0, 0, 0, 0, 0, 9362.0, 30146.0, 35388.0, 9362.0, 8.152067184448242, -0.001642253715544939, -0.18676231801509857, -0.07826441526412964, 0.9995434880256653, 0.017589719966053963, 0.03000957891345024, -0.04508325830101967, -0.021678924560546875, 1.494140625, 1.517578125, 0.231689453125, 1.493408203125, 1.2041015625, 10.0, 1.4467368125915527, 1.5, 1.4467368125915527
11618, 8.68346118927002, 81.30132293701172, -7.706079006195068, 0.0, 0.0, -7.533176898956299, 0.0, 0.0, 0.25763511657714844, 0, 0, 0, 0, 0, 0, 9362.0, 30146.0, 35388.0, 9362.0, 8.152067184448242, -0.10884261131286621, 0.21867915987968445, -0.06448528170585632, 1.0004901885986328, 0.016933009028434753, 0.03157491236925125, -0.04508325830101967, -0.021678924560546875, 1.494140625, 1.364501953125, 0.0173492431640625, 1.493408203125, 1.5439453125, 10.0, 1.4470466375350952, 1.5, 1.4470466375350952
11628, 8.73493766784668, 81.32347106933594, -7.755866050720215, 0.0, 0.0, -7.534675121307373, 0.0, 0.0, -0.14982223510742188, 0, 0, 0, 0, 0, 0, 9362.0, 30146.0, 35388.0, 9362.0, 8.152067184448242, 0.05108409747481346, 0.02509729191660881, -0.09552910178899765, 1.0013086795806885, 0.019467292353510857, 0.028739554807543755, -0.04508325830101967, -0.021678924560546875, 1.494140625, 1.55419921875, 0.311279296875, 1.48828125, 1.412841796875, 10.0, 1.4469376802444458, 1.5, 1.4469376802444458
11638, 8.750350952148438, 81.3397216796875, -7.7715864181518555, 0.0, 0.0, -7.536016464233398, 0.0, 0.0, -0.13413429260253906, 0, 0, 0, 0, 0, 0, 9362.0, 30146.0, 35388.0, 9362.0, 8.152067184448242, -0.09845229238271713, 0.041972920298576355, 0.21870723366737366, 1.001936674118042, 0.018246276304125786, 0.028603950515389442, -0.04508325830101967, -0.021678924560546875, 1.494140625, 1.3857421875, 0.0280914306640625, 1.48828125, 1.399658203125, 10.0, 1.4467869997024536, 1.5, 1.4467869997024536
11648, 8.775643348693848, 81.36202239990234, -7.796601295471191, 0.0, 0.0, -7.534204483032227, 0.0, 0.0, 0.1811981201171875, 0, 0, 0, 0, 0, 0, 9362.0, 30146.0, 35388.0, 9362.0, 8.152067184448242, 0.10635467618703842, 0.331587016582489, -0.02063714899122715, 1.000745415687561, 0.018645601347088814, 0.027871808037161827, -0.04508325830101967, -0.021678924560546875, 1.494140625, 1.49267578125, 0.1811065673828125, 1.490478515625, 1.32421875, 10.0, 1.4463964700698853, 1.5, 1.4463964700698853
11658, 8.794499397277832, 81.37641143798828, -7.815100193023682, 0.0, 0.0, -7.532565593719482, 0.0, 0.0, 0.16388893127441406, 0, 0, 0, 0, 0, 0, 9362.0, 30146.0, 35388.0, 9362.0, 8.152067184448242, -0.025276558473706245, 0.19238942861557007, 0.03777925297617912, 0.9988157153129578, 0.016365088522434235, 0.028987335041165352, -0.04158272221684456, -0.04855918884277344, 1.491943359375, 1.49853515625, 0.1927032470703125, 1.490478515625, 1.191650390625, 10.0, 1.445584774017334, 1.5, 1.445584774017334
11668, 8.815985679626465, 81.39891052246094, -7.837393760681152, 0.0, 0.0, -7.52889347076416, 0.0, 0.0, 0.36721229553222656, 0, 0, 0, 0, 0, 0, 9362.0, 30146.0, 35388.0, 9362.0, 8.152067184448242, -0.10563613474369049, 0.13413552939891815, 0.09774705767631531, 0.9977564215660095, 0.017261823639273643, 0.03207577019929886, -0.04158272221684456, -0.04855918884277344, 1.491943359375, 1.29638671875, 0.0542755126953125, 1.48681640625, 1.5146484375, 10.0, 1.4458048343658447, 1.5, 1.4458048343658447
11678, 8.842463493347168, 81.41210174560547, -7.863158702850342, 0.0, 0.0, -7.525583267211914, 0.0, 0.0, 0.3310203552246094, 0, 0, 0, 0, 0, 0, 9362.0, 30146.0, 35388.0, 9362.0, 8.152067184448242, 0.10634686797857285, 0.3424270749092102, -0.08734514564275742, 0.9992526769638062, 0.017799580469727516, 0.03112158365547657, -0.04158272221684456, -0.04855918884277344, 1.491943359375, 1.5029296875, 0.201446533203125, 1.48681640625, 1.3095703125, 10.0, 1.4453707933425903, 1.5, 1.4453707933425903
11688, 8.892702102661133, 81.43293762207031, -7.912656307220459, 0.0, 0.0, -7.519862174987793, 0.0, 0.0, 0.5721092224121094, 0, 0, 0, 0, 0, 0, 9362.0, 30146.0, 35388.0, 9362.0, 8.152067184448242, 0.006296155508607626, 0.22006264328956604, 0.042782846838235855, 0.9987635016441345, 0.018760142847895622, 0.029500355944037437, -0.04158272221684456, -0.04855918884277344, 1.491943359375, 1.440673828125, 0.090423583984375, 1.489013671875, 1.327880859375, 10.0, 1.4449964761734009, 1.5, 1.4449964761734009
11698, 8.908257484436035, 81.44904327392578, -7.928461074829102, 0.0, 0.0, -7.514707088470459, 0.0, 0.0, 0.5155086517333984, 0, 0, 0, 0, 0, 0, 9362.0, 30146.0, 35388.0, 9362.0, 8.152067184448242, -0.06836438179016113, -0.2695240080356598, 0.10347459465265274, 0.9992589354515076, 0.01770266517996788, 0.030270779505372047, -0.04158272221684456, -0.04855918884277344, 1.491943359375, 1.453125, 0.1099090576171875, 1.489013671875, 1.44140625, 10.0, 1.444985032081604, 1.5, 1.444985032081604
11708, 8.935823440551758, 81.4703598022461, -7.955838203430176, 0.0, 0.0, -7.50349760055542, 0.0, 0.0, 1.1209487915039062, 0, 0, 0, 0, 0, 0, 9362.0, 30146.0, 35388.0, 9362.0, 8.152067184448242, -0.08357206732034683, 0.2179804891347885, 0.1924361288547516, 1.0002479553222656, 0.018572647124528885, 0.030247842893004417, -0.04158272221684456, -0.04855918884277344, 1.491943359375, 1.234130859375, 0.2203521728515625, 1.494873046875, 1.4560546875, 10.0, 1.445020318031311, 1.5, 1.445020318031311
11718, 8.948932647705078, 81.48502349853516, -7.968352794647217, 0.0, 0.0, -7.49340295791626, 0.0, 0.0, 1.0094642639160156, 0, 0, 0, 0, 0, 0, 9362.0, 30146.0, 35388.0, 9362.0, 8.152067184448242, 0.09936638176441193, -0.06800924986600876, 0.12594132125377655, 1.0002479553222656, 0.018572647124528885, 0.030247842893004417, -0.04158272221684456, -0.04855918884277344, 1.491943359375, 1.234130859375, 0.2203521728515625, 1.494873046875, 1.41943359375, 10.0, 1.445020318031311, 1.5, 1.445020318031311
11728, 9.00121021270752, 81.50834655761719, -8.018726348876953, 0.0, 0.0, -7.481027126312256, 0.0, 0.0, 1.2375831604003906, 0, 0, 0, 0, 0, 0, 9362.0, 30146.0, 35388.0, 9362.0, 8.152067184448242, 0.12087126821279526, -0.10207805037498474, -0.08547410368919373, 1.0002479553222656, 0.018572647124528885, 0.030247842893004417, -0.04158272221684456, -0.04855918884277344, 1.491943359375, 1.499267578125, 0.1941070556640625, 1.49560546875, 1.41943359375, 10.0, 1.445020318031311, 1.5, 1.445020318031311
11738, 9.042957305908203, 81.52383422851562, -8.06027889251709, 0.0, 0.0, -7.469883918762207, 0.0, 0.0, 1.1143207550048828, 0, 0, 0, 0, 0, 0, 9362.0, 30146.0, 35388.0, 9362.0, 8.152067184448242, 0.12087126821279526, -0.10207805037498474, -0.08547410368919373, 1.0002479553222656, 0.018572647124528885, 0.030247842893004417, -0.04158272221684456, -0.04855918884277344, 1.491943359375, 1.405517578125, 0.0454254150390625, 1.49560546875, 1.53515625, 10.0, 1.445020318031311, 1.5, 1.445020318031311
11748, 9.077703475952148, 81.54335021972656, -8.094053268432617, 0.0, 0.0, -7.462307929992676, 0.0, 0.0, 0.757598876953125, 0, 0, 0, 0, 0, 0, 9362.0, 30146.0, 35388.0, 9362.0, 8.152067184448242, 0.12087126821279526, -0.10207805037498474, -0.08547410368919373, 1.000569224357605, 0.017763452604413033, 0.028550922870635986, -0.04158272221684456, -0.04855918884277344, 1.491943359375, 1.472900390625, 0.1439361572265625, 1.49560546875, 1.53515625, 10.0, 1.445020318031311, 1.5, 1.445020318031311
11758, 9.110450744628906, 81.55752563476562, -8.125907897949219, 0.0, 0.0, -7.4554829597473145, 0.0, 0.0, 0.6824970245361328, 0, 0, 0, 0, 0, 0, 9362.0, 30146.0, 35388.0, 9362.0, 8.152067184448242, 0.12087126821279526, -0.10207805037498474, -0.08547410368919373, 0.9987912774085999, 0.018903542309999466, 0.030728960409760475, -0.04046813026070595, -0.07543754577636719, 1.48974609375, 1.16162109375, 0.643707275390625, 1.49560546875, 1.53515625, 10.0, 1.445020318031311, 1.5, 1.445020318031311
11768, 9.15233039855957, 81.57962036132812, -8.1663818359375, 0.0, 0.0, -7.4554829597473145, 0.0, 0.0, 0.6824970245361328, 0, 0, 0, 0, 0, 0, 9362.0, 30146.0, 35388.0, 9362.0, 8.152067184448242, 0.12087126821279526, -0.10207805037498474, -0.08547410368919373, 1.0001204013824463, 0.019520195201039314, 0.030361969023942947, -0.04046813026070595, -0.07543754577636719, 1.48974609375, 1.288330078125, 0.0676116943359375, 1.49560546875, 1.524169921875, 10.0, 1.445020318031311, 1.5, 1.445020318031311
11778, 9.180888175964355, 81.59306335449219, -8.19416332244873, 0.0, 0.0, -7.473398685455322, 0.0, 0.0, -0.8483409881591797, 0, 0, 0, 0, 0, 0, 9362.0, 30146.0, 35388.0, 9362.0, 8.152067184448242, 0.12087126821279526, -0.10207805037498474, -0.08547410368919373, 1.0001204013824463, 0.019520195201039314, 0.030361969023942947, -0.04046813026070595, -0.07543754577636719, 1.48974609375, 1.288330078125, 0.0676116943359375, 1.49560546875, 1.41650390625, 10.0, 1.445020318031311, 1.5, 1.445020318031311
11788, 9.236659049987793, 81.61479949951172, -8.24847412109375, 0.0, 0.0, -7.472822666168213, 0.0, 0.0, 0.0576019287109375, 0, 0, 0, 0, 0, 0, 9362.0, 30146.0, 35388.0, 9362.0, 8.152067184448242, 0.12087126821279526, -0.10207805037498474, -0.08547410368919373, 0.999705970287323, 0.01933753490447998, 0.02825809083878994, -0.04046813026070595, -0.07543754577636719, 1.48974609375, 1.487548828125, 0.1712188720703125, 1.494140625, 1.41650390625, 10.0, 1.445020318031311, 1.5, 1.445020318031311
11798, 9.2666015625, 81.62994384765625, -8.278116226196289, 0.0, 0.0, -7.472299098968506, 0.0, 0.0, 0.052356719970703125, 0, 0, 0, 0, 0, 0, 9362.0, 30146.0, 35388.0, 9362.0, 8.152067184448242, 0.12087126821279526, -0.10207805037498474, -0.08547410368919373, 0.9978532791137695, 0.01771431416273117, 0.02730637416243553, -0.04046813026070595, -0.07543754577636719, 1.48974609375, 1.27294921875, 0.099334716796875, 1.494140625, 1.522705078125, 10.0, 1.445020318031311, 1.5, 1.445020318031311
11808, 9.324068069458008, 81.65140533447266, -8.334253311157227, 0.0, 0.0, -7.470999240875244, 0.0, 0.0, 0.12998580932617188, 0, 0, 0, 0, 0, 0, 9362.0, 30146.0, 35388.0, 9362.0, 8.152067184448242, 0.09950453788042068, -0.1119287759065628, -0.43988552689552307, 0.9978532791137695, 0.01771431416273117, 0.02730637416243553, -0.04046813026070595, -0.07543754577636719, 1.48974609375, 1.27294921875, 0.099334716796875, 1.494140625, 1.389404296875, 10.0, 1.445020318031311, 1.5, 1.445020318031311
11818, 9.321858406066895, 81.66500854492188, -8.333064079284668, 0.0, 0.0, -7.469825267791748, 0.0, 0.0, 0.11739730834960938, 0, 0, 0, 0, 0, 0, 9362.0, 30146.0, 35388.0, 9362.0, 8.152067184448242, 0.09950453788042068, -0.1119287759065628, -0.43988552689552307, 0.999470055103302, 0.018776118755340576, 0.027286788448691368, -0.04046813026070595, -0.07543754577636719, 1.48974609375, 1.4912109375, 0.178253173828125, 1.494140625, 1.503662109375, 10.0, 1.445020318031311, 1.5, 1.445020318031311
11828, 9.340095520019531, 81.68701934814453, -8.350592613220215, 0.0, 0.0, -7.47422981262207, 0.0, 0.0, -0.44045448303222656, 0, 0, 0, 0, 0, 0, 9362.0, 30146.0, 35388.0, 9362.0, 8.152067184448242, 0.1498812884092331, 0.01226251944899559, 0.06381779164075851, 0.999470055103302, 0.018776118755340576, 0.027286788448691368, -0.04046813026070595, -0.07543754577636719, 1.48974609375, 1.220947265625, 0.2765960693359375, 1.494140625, 1.503662109375, 10.0, 1.445020318031311, 1.5, 1.445020318031311
11838, 9.35715389251709, 81.70071411132812, -8.367077827453613, 0.0, 0.0, -7.478188514709473, 0.0, 0.0, -0.3958702087402344, 0, 0, 0, 0, 0, 0, 9362.0, 30146.0, 35388.0, 9362.0, 8.152067184448242, 0.07428736239671707, 0.008588062599301338, 0.25871914625167847, 0.999470055103302, 0.018776118755340576, 0.027286788448691368, -0.04046813026070595, -0.07543754577636719, 1.48974609375, 1.540283203125, 0.280364990234375, 1.494140625, 1.503662109375, 10.0, 1.445020318031311, 1.5, 1.445020318031311
11848, 9.371597290039062, 81.72089385986328, -8.382623672485352, 0.0, 0.0, -7.480922698974609, 0.0, 0.0, -0.2734184265136719, 0, 0, 0, 0, 0, 0, 9362.0, 30146.0, 35388.0, 9362.0, 8.152067184448242, 0.07428736239671707, 0.008588062599301338, 0.25871914625167847, 0.999470055103302, 0.018776118755340576, 0.027286788448691368, -0.04046813026070595, -0.07543754577636719, 1.48974609375, 1.2978515625, 0.05224609375, 1.494140625, 1.489013671875, 10.0, 1.445020318031311, 1.5, 1.445020318031311
11858, 9.388317108154297, 81.73577880859375, -8.399200439453125, 0.0, 0.0, -7.483378887176514, 0.0, 0.0, -0.2456188201904297, 0, 0, 0, 0, 0, 0, 9362.0, 30146.0, 35388.0, 9362.0, 8.152067184448242, 0.07428736239671707, 0.008588062599301338, 0.25871914625167847, 0.999470055103302, 0.018776118755340576, 0.027286788448691368, -0.0398700125515461, -0.0037593841552734375, 1.49560546875, 1.2041015625, 0.3609771728515625, 1.494140625, 1.489013671875, 10.0, 1.445020318031311, 1.5, 1.445020318031311
11868, 9.414933204650879, 81.75808715820312, -8.424518585205078, 0.0, 0.0, -7.4831223487854, 0.0, 0.0, 0.025653839111328125, 0, 0, 0, 0, 0, 0, 9362.0, 30146.0, 35388.0, 9362.0, 8.152067184448242, 0.1347818821668625, -0.4021572172641754, -0.05073514208197594, 0.999470055103302, 0.018776118755340576, 0.027286788448691368, -0.0398700125515461, -0.0037593841552734375, 1.49560546875, 1.2041015625, 0.3609771728515625, 1.490478515625, 1.489013671875, 10.0, 1.445020318031311, 1.5, 1.445020318031311
11878, 9.432243347167969, 81.77311706542969, -8.441825866699219, 0.0, 0.0, -7.482884883880615, 0.0, 0.0, 0.023746490478515625, 0, 0, 0, 0, 0, 0, 9362.0, 30146.0, 35388.0, 9362.0, 8.152067184448242, -0.06809141486883163, -0.19989648461341858, 0.09092668443918228, 0.999470055103302, 0.018776118755340576, 0.027286788448691368, -0.0398700125515461, -0.0037593841552734375, 1.49560546875, 1.48681640625, 0.1698150634765625, 1.490478515625, 1.489013671875, 10.0, 1.445020318031311, 1.5, 1.445020318031311
11888, 9.468811988830566, 81.7941665649414, -8.477734565734863, 0.0, 0.0, -7.485123157501221, 0.0, 0.0, -0.22382736206054688, 0, 0, 0, 0, 0, 0, 9362.0, 30146.0, 35388.0, 9362.0, 8.152067184448242, 0.024306969717144966, -0.23093083500862122, -0.13412150740623474, 0.999470055103302, 0.018776118755340576, 0.027286788448691368, -0.0398700125515461, -0.0037593841552734375, 1.49560546875, 1.435546875, 0.0829315185546875, 1.491943359375, 1.489013671875, 10.0, 1.445020318031311, 1.5, 1.445020318031311
11898, 9.49028205871582, 81.80764770507812, -8.499322891235352, 0.0, 0.0, -7.487133026123047, 0.0, 0.0, -0.2009868621826172, 0, 0, 0, 0, 0, 0, 9362.0, 30146.0, 35388.0, 9362.0, 8.152067184448242, 0.024306969717144966, -0.23093083500862122, -0.13412150740623474, 0.9993544816970825, 0.01576150208711624, 0.030277306213974953, -0.0398700125515461, -0.0037593841552734375, 1.49560546875, 1.33154296875, 0.0198516845703125, 1.491943359375, 1.54541015625, 10.0, 1.445020318031311, 1.5, 1.445020318031311
11908, 9.517433166503906, 81.82545471191406, -8.526629447937012, 0.0, 0.0, -7.493855953216553, 0.0, 0.0, -0.6722927093505859, 0, 0, 0, 0, 0, 0, 9362.0, 30146.0, 35388.0, 9362.0, 8.152067184448242, 0.016736261546611786, 0.21282750368118286, 0.00312811229377985, 0.9993544816970825, 0.01576150208711624, 0.030277306213974953, -0.0398700125515461, -0.0037593841552734375, 1.49560546875, 1.33154296875, 0.0198516845703125, 1.4912109375, 1.54541015625, 10.0, 1.445020318031311, 1.5, 1.445020318031311
11918, 9.520566940307617, 81.83775329589844, -8.529094696044922, 0.0, 0.0, -7.49990177154541, 0.0, 0.0, -0.6045818328857422, 0, 0, 0, 0, 0, 0, 9362.0, 30146.0, 35388.0, 9362.0, 8.152067184448242, 0.016736261546611786, 0.21282750368118286, 0.00312811229377985, 1.001916527748108, 0.01719348505139351, 0.02956937812268734, -0.0398700125515461, -0.0037593841552734375, 1.49560546875, 1.52783203125, 0.253387451171875, 1.4912109375, 1.54541015625, 10.0, 1.445020318031311, 1.5, 1.445020318031311
11928, 9.589155197143555, 81.85755157470703, -8.596988677978516, 0.0, 0.0, -7.510256290435791, 0.0, 0.0, -1.035451889038086, 0, 0, 0, 0, 0, 0, 9362.0, 30146.0, 35388.0, 9362.0, 8.152067184448242, 0.016736261546611786, 0.21282750368118286, 0.00312811229377985, 1.001916527748108, 0.01719348505139351, 0.02956937812268734, -0.0398700125515461, -0.0037593841552734375, 1.49560546875, 1.497802734375, 0.19122314453125, 1.494873046875, 1.42822265625, 10.0, 1.445020318031311, 1.5, 1.445020318031311
11938, 9.605271339416504, 81.86975860595703, -8.61425495147705, 0.0, 0.0, -7.519567489624023, 0.0, 0.0, -0.9311199188232422, 0, 0, 0, 0, 0, 0, 9362.0, 30146.0, 35388.0, 9362.0, 8.152067184448242, -0.3028537333011627, 0.14653560519218445, 0.05994490534067154, 1.001916527748108, 0.01719348505139351, 0.02956937812268734, -0.0398700125515461, -0.0037593841552734375, 1.49560546875, 1.5205078125, 0.237762451171875, 1.494873046875, 1.42822265625, 10.0, 1.445020318031311, 1.5, 1.445020318031311
11948, 9.640813827514648, 81.88922882080078, -8.64962100982666, 0.0, 0.0, -7.519567489624023, 0.0, 0.0, -0.9311199188232422, 0, 0, 0, 0, 0, 0, 9362.0, 30146.0, 35388.0, 9362.0, 8.152067184448242, 0.0661420226097107, 0.14656180143356323, -0.038933899253606796, 1.001916527748108, 0.01719348505139351, 0.02956937812268734, -0.0398700125515461, -0.0037593841552734375, 1.49560546875, 1.423095703125, 0.06591796875, 1.4912109375, 1.42822265625, 10.0, 1.445020318031311, 1.5, 1.445020318031311
11958, 9.672945022583008, 81.90283966064453, -8.681466102600098, 0.0, 0.0, -7.538580894470215, 0.0, 0.0, -0.9003639221191406, 0, 0, 0, 0, 0, 0, 9362.0, 30146.0, 35388.0, 9362.0, 8.152067184448242, 0.02526732161641121, -0.05543891713023186, -0.14652593433856964, 1.001916527748108, 0.01719348505139351, 0.02956937812268734, -0.03445720672607422, -0.19191741943359375, 1.480224609375, 1.46484375, 0.1295928955078125, 1.4912109375, 1.42822265625, 10.0, 1.445020318031311, 1.5, 1.445020318031311
11968, 9.702942848205566, 81.9218978881836, -8.710755348205566, 0.0, 0.0, -7.543394565582275, 0.0, 0.0, -0.4813671112060547, 0, 0, 0, 0, 0, 0, 9362.0, 30146.0, 35388.0, 9362.0, 8.152067184448242, 0.035202424973249435, 0.06783947348594666, 0.12920819222927094, 1.001916527748108, 0.01719348505139351, 0.02956937812268734, -0.03445720672607422, -0.19191741943359375, 1.480224609375, 1.46484375, 0.1295928955078125, 1.49267578125, 1.42822265625, 10.0, 1.445020318031311, 1.5, 1.445020318031311
11978, 9.742855072021484, 81.93466186523438, -8.751322746276855, 0.0, 0.0, -7.5477213859558105, 0.0, 0.0, -0.4326820373535156, 0, 0, 0, 0, 0, 0, 9362.0, 30146.0, 35388.0, 9362.0, 8.152067184448242, 0.035202424973249435, 0.06783947348594666, 0.12920819222927094, 1.000123381614685, 0.0182885080575943, 0.02817198820412159, -0.03445720672607422, -0.19191741943359375, 1.480224609375, 1.248046875, 0.169647216796875, 1.49267578125, 1.491943359375, 10.0, 1.445020318031311, 1.5, 1.445020318031311
11988, 9.78562068939209, 81.95367431640625, -8.793654441833496, 0.0, 0.0, -7.554067611694336, 0.0, 0.0, -0.6346225738525391, 0, 0, 0, 0, 0, 0, 9362.0, 30146.0, 35388.0, 9362.0, 8.152067184448242, 0.009900946170091629, -0.14618737995624542, -0.15153975784778595, 1.000123381614685, 0.0182885080575943, 0.02817198820412159, -0.03445720672607422, -0.19191741943359375, 1.480224609375, 1.46923828125, 0.137359619140625, 1.49267578125, 1.26416015625, 10.0, 1.445020318031311, 1.5, 1.445020318031311
11998, 9.815701484680176, 81.96731567382812, -8.82331371307373, 0.0, 0.0, -7.559774398803711, 0.0, 0.0, -0.5706787109375, 0, 0, 0, 0, 0, 0, 9362.0, 30146.0, 35388.0, 9362.0, 8.152067184448242, 0.080809585750103, -0.09796715527772903, 0.02635406330227852, 1.000123381614685, 0.0182885080575943, 0.02817198820412159, -0.03445720672607422, -0.19191741943359375, 1.480224609375, 1.49853515625, 0.1927032470703125, 1.49267578125, 1.239990234375, 10.0, 1.445020318031311, 1.5, 1.445020318031311
12008, 9.860003471374512, 81.98379516601562, -8.865850448608398, 0.0, 0.0, -7.556429386138916, 0.0, 0.0, 0.3345012664794922, 0, 0, 0, 0, 0, 0, 9362.0, 30146.0, 35388.0, 9362.0, 8.152067184448242, 0.006451267283409834, 0.45136207342147827, 0.04650048166513443, 1.000123381614685, 0.0182885080575943, 0.02817198820412159, -0.03445720672607422, -0.19191741943359375, 1.480224609375, 1.4765625, 0.1505584716796875, 1.49560546875, 1.239990234375, 10.0, 1.445020318031311, 1.5, 1.445020318031311
12018, 9.897126197814941, 81.99886322021484, -8.903870582580566, 0.0, 0.0, -7.553412914276123, 0.0, 0.0, 0.3016471862792969, 0, 0, 0, 0, 0, 0, 9362.0, 30146.0, 35388.0, 9362.0, 8.152067184448242, -0.20248499512672424, -0.38983821868896484, -0.1516852229833603, 0.9976198077201843, 0.0179180596023798, 0.02937435358762741, -0.03445720672607422, -0.19191741943359375, 1.480224609375, 1.52783203125, 0.253387451171875, 1.49560546875, 1.239990234375, 10.0, 1.445020318031311, 1.5, 1.445020318031311
12028, 9.942704200744629, 82.01880645751953, -8.948296546936035, 0.0, 0.0, -7.555339336395264, 0.0, 0.0, -0.1926422119140625, 0, 0, 0, 0, 0, 0, 9362.0, 30146.0, 35388.0, 9362.0, 8.152067184448242, 0.08236877620220184, -0.1087648943066597, -0.03776245191693306, 0.9976198077201843, 0.0179180596023798, 0.02937435358762741, -0.03445720672607422, -0.19191741943359375, 1.480224609375, 1.46923828125, 0.137359619140625, 1.490478515625, 1.239990234375, 10.0, 1.445020318031311, 1.5, 1.445020318031311
12038, 9.977461814880371, 82.03094482421875, -8.982951164245605, 0.0, 0.0, -7.557069778442383, 0.0, 0.0, -0.17304420471191406, 0, 0, 0, 0, 0, 0, 9362.0, 30146.0, 35388.0, 9362.0, 8.152067184448242, 0.08236877620220184, -0.1087648943066597, -0.03776245191693306, 0.9985926151275635, 0.01747560314834118, 0.02867734059691429, -0.03445720672607422, -0.19191741943359375, 1.480224609375, 1.4091796875, 0.04937744140625, 1.490478515625, 1.53515625, 10.0, 1.445020318031311, 1.5, 1.445020318031311
12048, 10.02309799194336, 82.04956817626953, -9.02772331237793, 0.0, 0.0, -7.564635753631592, 0.0, 0.0, -0.7565975189208984, 0, 0, 0, 0, 0, 0, 9362.0, 30146.0, 35388.0, 9362.0, 8.152067184448242, 0.08236877620220184, -0.1087648943066597, -0.03776245191693306, 0.9985926151275635, 0.01747560314834118, 0.02867734059691429, -0.03445720672607422, -0.19191741943359375, 1.480224609375, 1.40185546875, 0.0417938232421875, 1.490478515625, 1.530029296875, 10.0, 1.445020318031311, 1.5, 1.445020318031311
12058, 10.051362991333008, 82.06266021728516, -9.055964469909668, 0.0, 0.0, -7.571441650390625, 0.0, 0.0, -0.6805896759033203, 0, 0, 0, 0, 0, 0, 9362.0, 30146.0, 35388.0, 9362.0, 8.152067184448242, 0.08236877620220184, -0.1087648943066597, -0.03776245191693306, 0.9985926151275635, 0.01747560314834118, 0.02867734059691429, -0.029718341305851936, -0.030637741088867188, 1.493408203125, 1.358642578125, 0.0159912109375, 1.490478515625, 1.530029296875, 10.0, 1.445020318031311, 1.5, 1.445020318031311
12068, 10.088577270507812, 82.08106231689453, -9.09322452545166, 0.0, 0.0, -7.578655242919922, 0.0, 0.0, -0.7213592529296875, 0, 0, 0, 0, 0, 0, 9362.0, 30146.0, 35388.0, 9362.0, 8.152067184448242, 0.08236877620220184, -0.1087648943066597, -0.03776245191693306, 0.9987760782241821, 0.019376760348677635, 0.03028945066034794, -0.029718341305851936, -0.030637741088867188, 1.493408203125, 1.26708984375, 0.1136474609375, 1.490478515625, 1.51171875, 10.0, 1.445020318031311, 1.5, 1.445020318031311
12078, 10.110528945922852, 82.09390258789062, -9.115798950195312, 0.0, 0.0, -7.585143566131592, 0.0, 0.0, -0.6488323211669922, 0, 0, 0, 0, 0, 0, 9362.0, 30146.0, 35388.0, 9362.0, 8.152067184448242, 0.08236877620220184, -0.1087648943066597, -0.03776245191693306, 0.9972059726715088, 0.020117396488785744, 0.030741330236196518, -0.029718341305851936, -0.030637741088867188, 1.493408203125, 1.40771484375, 0.0478363037109375, 1.490478515625, 1.562255859375, 10.0, 1.445020318031311, 1.5, 1.445020318031311
12088, 10.151344299316406, 82.11429595947266, -9.154733657836914, 0.0, 0.0, -7.593164443969727, 0.0, 0.0, -0.8020877838134766, 0, 0, 0, 0, 0, 0, 9362.0, 30146.0, 35388.0, 9362.0, 8.152067184448242, 0.3554689288139343, -0.04508095234632492, 0.14189212024211884, 0.9972059726715088, 0.020117396488785744, 0.030741330236196518, -0.029718341305851936, -0.030637741088867188, 1.493408203125, 1.3974609375, 0.03759765625, 1.493408203125, 1.562255859375, 10.0, 1.445020318031311, 1.5, 1.445020318031311
12098, 10.195049285888672, 82.12866973876953, -9.198249816894531, 0.0, 0.0, -7.600379943847656, 0.0, 0.0, -0.7215499877929688, 0, 0, 0, 0, 0, 0, 9362.0, 30146.0, 35388.0, 9362.0, 8.152067184448242, 0.17328496277332306, -0.3911052942276001, -0.3042638897895813, 0.9972059726715088, 0.020117396488785744, 0.030741330236196518, -0.029718341305851936, -0.030637741088867188, 1.493408203125, 1.42236328125, 0.0649566650390625, 1.493408203125, 1.562255859375, 10.0, 1.445020318031311, 1.5, 1.445020318031311
12108, 10.238101959228516, 82.148193359375, -9.242684364318848, 0.0, 0.0, -7.6093292236328125, 0.0, 0.0, -0.894927978515625, 0, 0, 0, 0, 0, 0, 9362.0, 30146.0, 35388.0, 9362.0, 8.152067184448242, -0.018482327461242676, -0.35278138518333435, -0.08274897187948227, 0.9972059726715088, 0.020117396488785744, 0.030741330236196518, -0.029718341305851936, -0.030637741088867188, 1.493408203125, 1.4970703125, 0.18975830078125, 1.4912109375, 1.562255859375, 10.0, 1.445020318031311, 1.5, 1.445020318031311
12118, 10.274736404418945, 82.15912628173828, -9.279010772705078, 0.0, 0.0, -7.617380142211914, 0.0, 0.0, -0.8050918579101562, 0, 0, 0, 0, 0, 0, 9362.0, 30146.0, 35388.0, 9362.0, 8.152067184448242, 0.021030385047197342, 0.05480116978287697, -0.17828568816184998, 0.9972059726715088, 0.020117396488785744, 0.030741330236196518, -0.029718341305851936, -0.030637741088867188, 1.493408203125, 1.447998046875, 0.1016693115234375, 1.4912109375, 1.562255859375, 10.0, 1.445020318031311, 1.5, 1.445020318031311
12128, 10.328377723693848, 82.17628479003906, -9.332682609558105, 0.0, 0.0, -7.622158527374268, 0.0, 0.0, -0.47783851623535156, 0, 0, 0, 0, 0, 0, 9362.0, 30146.0, 35388.0, 9362.0, 8.152067184448242, 0.021030385047197342, 0.05480116978287697, -0.17828568816184998, 0.9995689392089844, 0.0176717359572649, 0.029895298182964325, -0.029718341305851936, -0.030637741088867188, 1.493408203125, 1.2509765625, 0.1600799560546875, 1.4912109375, 1.471435546875, 10.0, 1.445020318031311, 1.5, 1.445020318031311
12138, 10.329413414001465, 82.18778991699219, -9.333126068115234, 0.0, 0.0, -7.626454830169678, 0.0, 0.0, -0.4296302795410156, 0, 0, 0, 0, 0, 0, 9362.0, 30146.0, 35388.0, 9362.0, 8.152067184448242, 0.021030385047197342, 0.05480116978287697, -0.17828568816184998, 0.9984400868415833, 0.018512723967432976, 0.028929056599736214, -0.029718341305851936, -0.030637741088867188, 1.493408203125, 1.27880859375, 0.086212158203125, 1.4912109375, 1.43701171875, 10.0, 1.445020318031311, 1.5, 1.445020318031311
12148, 10.344598770141602, 82.20529174804688, -9.34754753112793, 0.0, 0.0, -7.61965274810791, 0.0, 0.0, 0.6802082061767578, 0, 0, 0, 0, 0, 0, 9362.0, 30146.0, 35388.0, 9362.0, 8.152067184448242, 0.021030385047197342, 0.05480116978287697, -0.17828568816184998, 1.0012106895446777, 0.01624578982591629, 0.028812194243073463, -0.029718341305851936, -0.030637741088867188, 1.493408203125, 1.259033203125, 0.135589599609375, 1.4912109375, 1.4970703125, 10.0, 1.445020318031311, 1.5, 1.445020318031311
12158, 10.35513973236084, 82.21646118164062, -9.358510971069336, 0.0, 0.0, -7.613526821136475, 0.0, 0.0, 0.6125926971435547, 0, 0, 0, 0, 0, 0, 9362.0, 30146.0, 35388.0, 9362.0, 8.152067184448242, -0.06017028167843819, 0.4363242983818054, 0.17223256826400757, 1.0012106895446777, 0.01624578982591629, 0.028812194243073463, -0.016882987692952156, -0.01271820068359375, 1.494873046875, 1.34326171875, 0.01605224609375, 1.4912109375, 1.4970703125, 10.0, 1.445020318031311, 1.5, 1.445020318031311
12168, 10.416318893432617, 82.23440551757812, -9.417776107788086, 0.0, 0.0, -7.613526821136475, 0.0, 0.0, 0.6125926971435547, 0, 0, 0, 0, 0, 0, 9362.0, 30146.0, 35388.0, 9362.0, 8.152067184448242, 0.3319956064224243, -0.13852332532405853, -0.11969880759716034, 1.0012106895446777, 0.01624578982591629, 0.028812194243073463, -0.016882987692952156, -0.01271820068359375, 1.494873046875, 1.482421875, 0.161529541015625, 1.491943359375, 1.4970703125, 10.0, 1.445020318031311, 1.5, 1.445020318031311
12178, 10.451986312866211, 82.2467269897461, -9.452515602111816, 0.0, 0.0, -7.596800327301025, 0.0, 0.0, 0.7925033569335938, 0, 0, 0, 0, 0, 0, 9362.0, 30146.0, 35388.0, 9362.0, 8.152067184448242, 0.3319956064224243, -0.13852332532405853, -0.11969880759716034, 0.9986950755119324, 0.01907396875321865, 0.030200673267245293, -0.016882987692952156, -0.01271820068359375, 1.494873046875, 1.339599609375, 0.0168914794921875, 1.491943359375, 1.546875, 10.0, 1.445020318031311, 1.5, 1.445020318031311
12188, 10.478639602661133, 82.26271057128906, -9.480310440063477, 0.0, 0.0, -7.590208530426025, 0.0, 0.0, 0.6591796875, 0, 0, 0, 0, 0, 0, 9362.0, 30146.0, 35388.0, 9362.0, 8.152067184448242, 0.3319956064224243, -0.13852332532405853, -0.11969880759716034, 0.9986950755119324, 0.01907396875321865, 0.030200673267245293, -0.016882987692952156, -0.01271820068359375, 1.494873046875, 1.3212890625, 0.026214599609375, 1.491943359375, 1.48828125, 10.0, 1.445020318031311, 1.5, 1.445020318031311
12198, 10.510010719299316, 82.2742919921875, -9.510810852050781, 0.0, 0.0, -7.584272384643555, 0.0, 0.0, 0.5936145782470703, 0, 0, 0, 0, 0, 0, 9362.0, 30146.0, 35388.0, 9362.0, 8.152067184448242, 0.15629152953624725, -0.036750949919223785, -0.0623166449368, 0.9986950755119324, 0.01907396875321865, 0.030200673267245293, -0.016882987692952156, -0.01271820068359375, 1.494873046875, 1.33447265625, 0.0186309814453125, 1.491943359375, 1.48828125, 10.0, 1.445020318031311, 1.5, 1.445020318031311
12208, 10.539350509643555, 82.29155731201172, -9.539728164672852, 0.0, 0.0, -7.584938049316406, 0.0, 0.0, -0.06656646728515625, 0, 0, 0, 0, 0, 0, 9362.0, 30146.0, 35388.0, 9362.0, 8.152067184448242, 0.068060964345932, -0.01205357350409031, 0.10239546000957489, 0.9986950755119324, 0.01907396875321865, 0.030200673267245293, -0.016882987692952156, -0.01271820068359375, 1.494873046875, 1.5, 0.19561767578125, 1.491943359375, 1.48828125, 10.0, 1.445020318031311, 1.5, 1.445020318031311
12218, 10.555792808532715, 82.30489349365234, -9.556750297546387, 0.0, 0.0, -7.585533618927002, 0.0, 0.0, -0.05955696105957031, 0, 0, 0, 0, 0, 0, 9362.0, 30146.0, 35388.0, 9362.0, 8.152067184448242, 0.068060964345932, -0.01205357350409031, 0.10239546000957489, 0.998503565788269, 0.01727372035384178, 0.028877751901745796, -0.016882987692952156, -0.01271820068359375, 1.494873046875, 1.494873046875, 0.185455322265625, 1.491943359375, 1.497802734375, 10.0, 1.445020318031311, 1.5, 1.445020318031311
12228, 10.617999076843262, 82.32074737548828, -9.616973876953125, 0.0, 0.0, -7.581963539123535, 0.0, 0.0, 0.3570079803466797, 0, 0, 0, 0, 0, 0, 9362.0, 30146.0, 35388.0, 9362.0, 8.152067184448242, 0.068060964345932, -0.01205357350409031, 0.10239546000957489, 0.9986593127250671, 0.016834218055009842, 0.030094614252448082, -0.016882987692952156, -0.01271820068359375, 1.494873046875, 1.46630859375, 0.132171630859375, 1.491943359375, 1.497802734375, 10.0, 1.445020318031311, 1.5, 1.445020318031311
12238, 10.659958839416504, 82.33148193359375, -9.65848159790039, 0.0, 0.0, -7.578746795654297, 0.0, 0.0, 0.3216743469238281, 0, 0, 0, 0, 0, 0, 9362.0, 30146.0, 35388.0, 9362.0, 8.152067184448242, 0.10710610449314117, -0.0808527022600174, -0.3610366880893707, 0.9986593127250671, 0.016834218055009842, 0.030094614252448082, -0.016882987692952156, -0.01271820068359375, 1.494873046875, 1.50732421875, 0.2104644775390625, 1.491943359375, 1.497802734375, 10.0, 1.445020318031311, 1.5, 1.445020318031311
12248, 10.665609359741211, 82.3472671508789, -9.663736343383789, 0.0, 0.0, -7.581587791442871, 0.0, 0.0, -0.2840995788574219, 0, 0, 0, 0, 0, 0, 9362.0, 30146.0, 35388.0, 9362.0, 8.152067184448242, 0.03293444588780403, 0.20636434853076935, 0.14849160611629486, 0.9986593127250671, 0.016834218055009842, 0.030094614252448082, -0.016882987692952156, -0.01271820068359375, 1.494873046875, 1.45751953125, 0.117095947265625, 1.4912109375, 1.497802734375, 10.0, 1.445020318031311, 1.5, 1.445020318031311
12258, 10.687589645385742, 82.35750579833984, -9.685699462890625, 0.0, 0.0, -7.584140300750732, 0.0, 0.0, -0.2552509307861328, 0, 0, 0, 0, 0, 0, 9362.0, 30146.0, 35388.0, 9362.0, 8.152067184448242, 0.03293444588780403, 0.20636434853076935, 0.14849160611629486, 0.9986593127250671, 0.016834218055009842, 0.030094614252448082, -0.039875663816928864, 0.03208160400390625, 1.49853515625, 1.22021484375, 0.2799530029296875, 1.4912109375, 1.497802734375, 10.0, 1.445020318031311, 1.5, 1.445020318031311
12268, 10.73154354095459, 82.37486267089844, -9.730085372924805, 0.0, 0.0, -7.583970546722412, 0.0, 0.0, 0.01697540283203125, 0, 0, 0, 0, 0, 0, 9362.0, 30146.0, 35388.0, 9362.0, 8.152067184448242, -0.1997172087430954, -0.24245308339595795, -0.1380206197500229, 0.9986593127250671, 0.016834218055009842, 0.030094614252448082, -0.039875663816928864, 0.03208160400390625, 1.49853515625, 1.22021484375, 0.2799530029296875, 1.4912109375, 1.497802734375, 10.0, 1.445020318031311, 1.5, 1.445020318031311
12278, 10.7620267868042, 82.38449096679688, -9.760969161987305, 0.0, 0.0, -7.5838141441345215, 0.0, 0.0, 0.0156402587890625, 0, 0, 0, 0, 0, 0, 9362.0, 30146.0, 35388.0, 9362.0, 8.152067184448242, -0.07562677562236786, 0.3704526722431183, -0.08951368182897568, 0.9986593127250671, 0.016834218055009842, 0.030094614252448082, -0.039875663816928864, 0.03208160400390625, 1.49853515625, 1.50732421875, 0.2104644775390625, 1.4912109375, 1.497802734375, 10.0, 1.445020318031311, 1.5, 1.445020318031311
12288, 10.803056716918945, 82.40038299560547, -9.800592422485352, 0.0, 0.0, -7.590775489807129, 0.0, 0.0, -0.6961345672607422, 0, 0, 0, 0, 0, 0, 9362.0, 30146.0, 35388.0, 9362.0, 8.152067184448242, -0.07562677562236786, 0.3704526722431183, -0.08951368182897568, 0.9995881915092468, 0.016999533399939537, 0.027705732733011246, -0.039875663816928864, 0.03208160400390625, 1.49853515625, 1.2568359375, 0.1420135498046875, 1.49267578125, 1.472900390625, 10.0, 1.445020318031311, 1.5, 1.445020318031311
12298, 10.818936347961426, 82.41168212890625, -9.816229820251465, 0.0, 0.0, -7.597037315368652, 0.0, 0.0, -0.6261825561523438, 0, 0, 0, 0, 0, 0, 9362.0, 30146.0, 35388.0, 9362.0, 8.152067184448242, -0.014330588281154633, -0.20409619808197021, -0.012189081870019436, 0.9995881915092468, 0.016999533399939537, 0.027705732733011246, -0.039875663816928864, 0.03208160400390625, 1.49853515625, 1.3505859375, 0.0153045654296875, 1.49267578125, 1.472900390625, 10.0, 1.445020318031311, 1.5, 1.445020318031311
12308, 10.826883316040039, 82.42622375488281, -9.824825286865234, 0.0, 0.0, -7.591458797454834, 0.0, 0.0, 0.5578517913818359, 0, 0, 0, 0, 0, 0, 9362.0, 30146.0, 35388.0, 9362.0, 8.152067184448242, -0.014330588281154633, -0.20409619808197021, -0.012189081870019436, 0.9979074001312256, 0.01850876957178116, 0.03042159602046013, -0.039875663816928864, 0.03208160400390625, 1.49853515625, 1.404052734375, 0.04400634765625, 1.49267578125, 1.502197265625, 10.0, 1.445020318031311, 1.5, 1.445020318031311
12318, 10.845678329467773, 82.43597412109375, -9.842963218688965, 0.0, 0.0, -7.586434364318848, 0.0, 0.0, 0.5024433135986328, 0, 0, 0, 0, 0, 0, 9362.0, 30146.0, 35388.0, 9362.0, 8.152067184448242, -0.014330588281154633, -0.20409619808197021, -0.012189081870019436, 1.000113844871521, 0.0184938982129097, 0.030630867928266525, -0.039875663816928864, 0.03208160400390625, 1.49853515625, 1.23486328125, 0.2174835205078125, 1.49267578125, 1.490478515625, 10.0, 1.445020318031311, 1.5, 1.445020318031311
12328, 10.897223472595215, 82.4510269165039, -9.893963813781738, 0.0, 0.0, -7.578900337219238, 0.0, 0.0, 0.7534027099609375, 0, 0, 0, 0, 0, 0, 9362.0, 30146.0, 35388.0, 9362.0, 8.152067184448242, -0.06130104511976242, 0.074784055352211, -0.21389824151992798, 1.000113844871521, 0.0184938982129097, 0.030630867928266525, -0.039875663816928864, 0.03208160400390625, 1.49853515625, 1.23486328125, 0.2174835205078125, 1.490478515625, 1.490478515625, 10.0, 1.445020318031311, 1.5, 1.445020318031311
12338, 10.93712043762207, 82.4608154296875, -9.933507919311523, 0.0, 0.0, -7.572115421295166, 0.0, 0.0, 0.6784915924072266, 0, 0, 0, 0, 0, 0, 9362.0, 30146.0, 35388.0, 9362.0, 8.152067184448242, -0.06130104511976242, 0.074784055352211, -0.21389824151992798, 0.9999538064002991, 0.017956014722585678, 0.03172764182090759, -0.039875663816928864, 0.03208160400390625, 1.49853515625, 1.2685546875, 0.1099395751953125, 1.490478515625, 1.46630859375, 10.0, 1.445020318031311, 1.5, 1.445020318031311
12348, 10.974553108215332, 82.47454071044922, -9.969927787780762, 0.0, 0.0, -7.573931694030762, 0.0, 0.0, -0.1816272735595703, 0, 0, 0, 0, 0, 0, 9362.0, 30146.0, 35388.0, 9362.0, 8.152067184448242, -0.06130104511976242, 0.074784055352211, -0.21389824151992798, 0.9991339445114136, 0.01687830686569214, 0.028984956443309784, -0.039875663816928864, 0.03208160400390625, 1.49853515625, 1.14404296875, 0.7935333251953125, 1.490478515625, 1.48681640625, 10.0, 1.445020318031311, 1.5, 1.445020318031311
12358, 10.992273330688477, 82.48511505126953, -9.9877347946167, 0.0, 0.0, -7.575562477111816, 0.0, 0.0, -0.16307830810546875, 0, 0, 0, 0, 0, 0, 9362.0, 30146.0, 35388.0, 9362.0, 8.152067184448242, -0.06130104511976242, 0.074784055352211, -0.21389824151992798, 0.9998300075531006, 0.01824197731912136, 0.027086641639471054, -0.04019584134221077, 0.06792068481445312, 1.50146484375, 1.14404296875, 0.7935333251953125, 1.490478515625, 1.48681640625, 10.0, 1.445020318031311, 1.5, 1.445020318031311
12368, 11.033259391784668, 82.5008544921875, -10.029001235961914, 0.0, 0.0, -7.575562477111816, 0.0, 0.0, -0.16307830810546875, 0, 0, 0, 0, 0, 0, 9362.0, 30146.0, 35388.0, 9362.0, 8.152067184448242, -0.06970017403364182, 0.08868521451950073, -0.06689054518938065, 0.9998300075531006, 0.01824197731912136, 0.027086641639471054, -0.04019584134221077, 0.06792068481445312, 1.50146484375, 1.14404296875, 0.7935333251953125, 1.491943359375, 1.48681640625, 10.0, 1.445020318031311, 1.5, 1.445020318031311
12378, 11.069967269897461, 82.51187133789062, -10.065519332885742, 0.0, 0.0, -7.572622776031494, 0.0, 0.0, 0.13947486877441406, 0, 0, 0, 0, 0, 0, 9362.0, 30146.0, 35388.0, 9362.0, 8.152067184448242, -0.06970017403364182, 0.08868521451950073, -0.06689054518938065, 0.9986715912818909, 0.016453318297863007, 0.02764805406332016, -0.04019584134221077, 0.06792068481445312, 1.50146484375, 1.37109375, 0.0197906494140625, 1.491943359375, 1.49853515625, 10.0, 1.445020318031311, 1.5, 1.445020318031311
12388, 11.121459007263184, 82.52792358398438, -10.116451263427734, 0.0, 0.0, -7.573550224304199, 0.0, 0.0, -0.09274482727050781, 0, 0, 0, 0, 0, 0, 9362.0, 30146.0, 35388.0, 9362.0, 8.152067184448242, 0.09450002014636993, 0.04238780215382576, 0.014734809286892414, 1.0001306533813477, 0.016361054033041, 0.030380327254533768, -0.04019584134221077, 0.06792068481445312, 1.50146484375, 1.37109375, 0.0197906494140625, 1.494140625, 1.49853515625, 10.0, 1.445020318031311, 1.5, 1.445020318031311
12398, 11.146438598632812, 82.53709411621094, -10.140525817871094, 0.0, 0.0, -7.574381351470947, 0.0, 0.0, -0.08311271667480469, 0, 0, 0, 0, 0, 0, 9362.0, 30146.0, 35388.0, 9362.0, 8.152067184448242, 0.09450002014636993, 0.04238780215382576, 0.014734809286892414, 0.998322069644928, 0.01654118485748768, 0.03199949860572815, -0.04019584134221077, 0.06792068481445312, 1.50146484375, 1.35498046875, 0.01556396484375, 1.494140625, 1.519775390625, 10.0, 1.445020318031311, 1.5, 1.445020318031311
12408, 11.176142692565918, 82.55133056640625, -10.170327186584473, 0.0, 0.0, -7.570202350616455, 0.0, 0.0, 0.41790008544921875, 0, 0, 0, 0, 0, 0, 9362.0, 30146.0, 35388.0, 9362.0, 8.152067184448242, 0.09450002014636993, 0.04238780215382576, 0.014734809286892414, 0.998322069644928, 0.01654118485748768, 0.03199949860572815, -0.04019584134221077, 0.06792068481445312, 1.50146484375, 1.26708984375, 0.1136474609375, 1.494140625, 1.487548828125, 10.0, 1.445020318031311, 1.5, 1.445020318031311
12418, 11.215603828430176, 82.56246185302734, -10.208642959594727, 0.0, 0.0, -7.5664381980896, 0.0, 0.0, 0.3764152526855469, 0, 0, 0, 0, 0, 0, 9362.0, 30146.0, 35388.0, 9362.0, 8.152067184448242, 0.1583799570798874, -0.15331555902957916, -0.10942896455526352, 0.998322069644928, 0.01654118485748768, 0.03199949860572815, -0.04019584134221077, 0.06792068481445312, 1.50146484375, 1.45458984375, 0.11224365234375, 1.494140625, 1.2041015625, 10.0, 1.445020318031311, 1.5, 1.445020318031311
12428, 11.26289176940918, 82.57799530029297, -10.255127906799316, 0.0, 0.0, -7.558396816253662, 0.0, 0.0, 0.80413818359375, 0, 0, 0, 0, 0, 0, 9362.0, 30146.0, 35388.0, 9362.0, 8.152067184448242, 0.1583799570798874, -0.15331555902957916, -0.10942896455526352, 0.998322069644928, 0.01654118485748768, 0.03199949860572815, -0.04019584134221077, 0.06792068481445312, 1.50146484375, 1.508056640625, 0.211883544921875, 1.48974609375, 1.41357421875, 10.0, 1.445020318031311, 1.5, 1.445020318031311
12438, 11.277710914611816, 82.58831024169922, -10.26964282989502, 0.0, 0.0, -7.551156997680664, 0.0, 0.0, 0.7239818572998047, 0, 0, 0, 0, 0, 0, 9362.0, 30146.0, 35388.0, 9362.0, 8.152067184448242, 0.1583799570798874, -0.15331555902957916, -0.10942896455526352, 0.9991915225982666, 0.016871778294444084, 0.032207246869802475, -0.04019584134221077, 0.06792068481445312, 1.50146484375, 1.512451171875, 0.2209625244140625, 1.48974609375, 1.3623046875, 10.0, 1.445020318031311, 1.5, 1.445020318031311
12448, 11.325345993041992, 82.60250854492188, -10.315620422363281, 0.0, 0.0, -7.551156997680664, 0.0, 0.0, 0.7239818572998047, 0, 0, 0, 0, 0, 0, 9362.0, 30146.0, 35388.0, 9362.0, 8.152067184448242, 0.1583799570798874, -0.15331555902957916, -0.10942896455526352, 0.9991915225982666, 0.016871778294444084, 0.032207246869802475, -0.04019584134221077, 0.06792068481445312, 1.50146484375, 1.1630859375, 0.6321258544921875, 1.48974609375, 1.4296875, 10.0, 1.445020318031311, 1.5, 1.445020318031311
12458, 11.34970760345459, 82.61309814453125, -10.339323043823242, 0.0, 0.0, -7.546555042266846, 0.0, 0.0, 0.2181529998779297, 0, 0, 0, 0, 0, 0, 9362.0, 30146.0, 35388.0, 9362.0, 8.152067184448242, 0.10802335292100906, -0.22310468554496765, 0.03522290289402008, 0.9991915225982666, 0.016871778294444084, 0.032207246869802475, -0.03031805157661438, -0.14711761474609375, 1.48388671875, 1.51025390625, 0.2164154052734375, 1.48974609375, 1.4296875, 10.0, 1.445020318031311, 1.5, 1.445020318031311
12468, 11.39716625213623, 82.62835693359375, -10.388959884643555, 0.0, 0.0, -7.545679569244385, 0.0, 0.0, 0.08754730224609375, 0, 0, 0, 0, 0, 0, 9362.0, 30146.0, 35388.0, 9362.0, 8.152067184448242, 0.10802335292100906, -0.22310468554496765, 0.03522290289402008, 0.9991915225982666, 0.016871778294444084, 0.032207246869802475, -0.03031805157661438, -0.14711761474609375, 1.48388671875, 1.51025390625, 0.2164154052734375, 1.49267578125, 1.418701171875, 10.0, 1.445020318031311, 1.5, 1.445020318031311
12478, 11.412611961364746, 82.63851165771484, -10.404280662536621, 0.0, 0.0, -7.544887065887451, 0.0, 0.0, 0.07925033569335938, 0, 0, 0, 0, 0, 0, 9362.0, 30146.0, 35388.0, 9362.0, 8.152067184448242, 0.10802335292100906, -0.22310468554496765, 0.03522290289402008, 0.9991915225982666, 0.016871778294444084, 0.032207246869802475, -0.03031805157661438, -0.14711761474609375, 1.48388671875, 1.478759765625, 0.1546478271484375, 1.49267578125, 1.52197265625, 10.0, 1.4363009929656982, 1.5, 1.4363009929656982
12488, 11.466574668884277, 82.65320587158203, -10.458312034606934, 0.0, 0.0, -7.53952169418335, 0.0, 0.0, 0.5365371704101562, 0, 0, 0, 0, 0, 0, 9362.0, 30146.0, 35388.0, 9362.0, 8.152067184448242, -0.0021035310346633196, 0.1575736552476883, -0.14064881205558777, 0.9991915225982666, 0.016871778294444084, 0.032207246869802475, -0.03031805157661438, -0.14711761474609375, 1.48388671875, 1.478759765625, 0.1546478271484375, 1.493408203125, 1.52197265625, 10.0, 1.4363009929656982, 1.5, 1.4363009929656982
12498, 11.495940208435059, 82.66459655761719, -10.487186431884766, 0.0, 0.0, -7.534689903259277, 0.0, 0.0, 0.48317909240722656, 0, 0, 0, 0, 0, 0, 9362.0, 30146.0, 35388.0, 9362.0, 8.152067184448242, -0.0021035310346633196, 0.1575736552476883, -0.14064881205558777, 0.9994956851005554, 0.018573403358459473, 0.029679900035262108, -0.03031805157661438, -0.14711761474609375, 1.48388671875, 1.24658203125, 0.1746063232421875, 1.493408203125, 1.51611328125, 10.0, 1.4363009929656982, 1.5, 1.4363009929656982
12508, 11.52753734588623, 82.67969512939453, -10.517450332641602, 0.0, 0.0, -7.530883312225342, 0.0, 0.0, 0.3806591033935547, 0, 0, 0, 0, 0, 0, 9362.0, 30146.0, 35388.0, 9362.0, 8.152067184448242, -0.0021035310346633196, 0.1575736552476883, -0.14064881205558777, 0.998464822769165, 0.016830913722515106, 0.02970554493367672, -0.03031805157661438, -0.14711761474609375, 1.48388671875, 1.330078125, 0.0206298828125, 1.493408203125, 1.5, 10.0, 1.4363009929656982, 1.5, 1.4363009929656982
12518, 11.546271324157715, 82.68964385986328, -10.536615371704102, 0.0, 0.0, -7.527454376220703, 0.0, 0.0, 0.3428936004638672, 0, 0, 0, 0, 0, 0, 9362.0, 30146.0, 35388.0, 9362.0, 8.152067184448242, -0.13302168250083923, -0.18727782368659973, 0.06913311034440994, 0.998464822769165, 0.016830913722515106, 0.02970554493367672, -0.03031805157661438, -0.14711761474609375, 1.48388671875, 1.330078125, 0.0206298828125, 1.493408203125, 1.5, 10.0, 1.4363009929656982, 1.5, 1.4363009929656982
12528, 11.59882926940918, 82.70626068115234, -10.588789939880371, 0.0, 0.0, -7.519443988800049, 0.0, 0.0, 0.8010387420654297, 0, 0, 0, 0, 0, 0, 9362.0, 30146.0, 35388.0, 9362.0, 8.152067184448242, -0.13302168250083923, -0.18727782368659973, 0.06913311034440994, 0.9995956420898438, 0.016776833683252335, 0.03002345561981201, -0.03031805157661438, -0.14711761474609375, 1.48388671875, 1.48681640625, 0.1698150634765625, 1.493408203125, 1.538818359375, 10.0, 1.4363009929656982, 1.5, 1.4363009929656982
12538, 11.648611068725586, 82.71621704101562, -10.638327598571777, 0.0, 0.0, -7.512232303619385, 0.0, 0.0, 0.7211685180664062, 0, 0, 0, 0, 0, 0, 9362.0, 30146.0, 35388.0, 9362.0, 8.152067184448242, 0.06769656389951706, -0.03467883542180061, -0.23482993245124817, 0.9995956420898438, 0.016776833683252335, 0.03002345561981201, -0.03031805157661438, -0.14711761474609375, 1.48388671875, 1.12939453125, 0.9347991943359375, 1.493408203125, 1.538818359375, 10.0, 1.4363009929656982, 1.5, 1.4363009929656982
12548, 11.669853210449219, 82.72928619384766, -10.659850120544434, 0.0, 0.0, -7.509016990661621, 0.0, 0.0, 0.3215312957763672, 0, 0, 0, 0, 0, 0, 9362.0, 30146.0, 35388.0, 9362.0, 8.152067184448242, -0.16522552073001862, 0.1695791780948639, 0.21826110780239105, 0.9995956420898438, 0.016776833683252335, 0.03002345561981201, -0.03031805157661438, -0.14711761474609375, 1.48388671875, 1.5322265625, 0.2628021240234375, 1.48974609375, 1.538818359375, 10.0, 1.4363009929656982, 1.5, 1.4363009929656982
12558, 11.693611145019531, 82.74052429199219, -10.68458080291748, 0.0, 0.0, -7.506119251251221, 0.0, 0.0, 0.28977394104003906, 0, 0, 0, 0, 0, 0, 9362.0, 30146.0, 35388.0, 9362.0, 8.152067184448242, -0.16522552073001862, 0.1695791780948639, 0.21826110780239105, 0.9995956420898438, 0.016776833683252335, 0.03002345561981201, -0.031990665942430496, -0.05751800537109375, 1.4912109375, 1.386474609375, 0.028656005859375, 1.48974609375, 1.538818359375, 10.0, 1.4363009929656982, 1.5, 1.4363009929656982
12568, 11.704066276550293, 82.75399017333984, -10.695223808288574, 0.0, 0.0, -7.496944904327393, 0.0, 0.0, 0.9174346923828125, 0, 0, 0, 0, 0, 0, 9362.0, 30146.0, 35388.0, 9362.0, 8.152067184448242, -0.16522552073001862, 0.1695791780948639, 0.21826110780239105, 0.9979574680328369, 0.018026167526841164, 0.030280079692602158, -0.031990665942430496, -0.05751800537109375, 1.4912109375, 1.297119140625, 0.0532379150390625, 1.48974609375, 1.531494140625, 10.0, 1.4363009929656982, 1.5, 1.4363009929656982
