timeTick, roll, pitch, yaw, stateX, stateY, stateZ, stateVX, stateVY, stateVZ, otX0, otY0, otZ0, otRoll0, otPitch0, otYaw0, left wing, pitch motor, yaw motor, right wing, voltage, roll rate, pitch rate, yaw rate, A_x, A_y, A_z, current, i_raw, v_raw, airflow_voltage, airflow_speed, pot_Pitch, voltage_nKF, kFFx, volt_KF_vel, kP, volt_KF_pos
12454, -0.7198552489280701, -1.639291524887085, 0.6402304172515869, 0, 0, 0, 0, 0, 0, -0.8007144927978516, -0.9719263911247253, 0.06430678814649582, -0.42760657020982346, -0.6453773938051484, 1.1514864950189752, 0, 0, 0, 0, 0, 0, 0, 0, 0, 0, 0, 0, 0, 0, 0, 0, 0, 0, 0, 0, 0, 0
12464, -0.7202840447425842, -1.6405826807022095, 0.6394292712211609, 3.288988955318928e-05, 1.49151883306331e-05, -0.21766474843025208, 0.004429830703884363, 0.0020077514927834272, -0.04064149782061577, -0.8009273409843445, -0.971890926361084, 0.06436032801866531, -0.41313092619645597, -0.5855520370130876, 1.2085041351231944, 9362.0, 30146.0, 35388.0, 9362.0, 0, -0.013590537942945957, -0.07178318500518799, 0.0567755326628685, 0.0017364281229674816, -0.061392828822135925, 0.9978487491607666, 0, 0, 0, 0, 0, 0, 0, 0, 0, 0, 0
12474, -0.7205182909965515, -1.6386120319366455, 0.6385482549667358, 9.111122199101374e-05, 4.1294319089502096e-05, -0.21807274222373962, 0.007214446552097797, 0.003268034663051367, -0.040955666452646255, -0.8009102940559387, -0.9718918204307556, 0.0643460676074028, -0.4195134134964483, -0.5917374369260244, 1.1965266199600484, 9362.0, 30146.0, 35388.0, 9362.0, 0, -0.17469006776809692, 0.13848939538002014, -0.2461262047290802, 0.002756597939878702, -0.061659250408411026, 0.9996680021286011, 0, 0, 0, 1.36669921875, 0.01806640625, 0, 1.39453125, 10.0, 1.4323359727859497, 1.5, 1.4323359727859497
12484, -0.7207176089286804, -1.6381973028182983, 0.635887086391449, 0.0001772141404217109, 8.029089076444507e-05, -0.21848301589488983, 0.010006162337958813, 0.004531237296760082, -0.041098762303590775, -0.8009312152862549, -0.9719046950340271, 0.06436215341091156, -0.416586297774106, -0.5849572438352766, 1.2018825173202146, 9362.0, 30146.0, 35388.0, 9362.0, 0, 0.17343871295452118, -0.11550600081682205, -0.18915893137454987, 0.004650294780731201, -0.06082062050700188, 0.9999114274978638, 0, 0, 0, 1.431884765625, 0.07769775390625, 1.493408203125, 1.37109375, 10.0, 1.4323539733886719, 1.5, 1.4323539733886719
12494, -0.7200927734375, -1.6353802680969238, 0.6338907480239868, 0.00029122360865585506, 0.00013192389451432973, -0.21889451146125793, 0.01279579009860754, 0.0057952324859797955, -0.041198521852493286, -0.8007283210754395, -0.9719241261482239, 0.06430865824222565, -0.42447410290112375, -0.6453608690330555, 1.1452405331412123, 9362.0, 30146.0, 35388.0, 9362.0, 0, -0.22369302809238434, -0.15452522039413452, -0.1105700358748436, 0.0039835297502577305, -0.06215605512261391, 0.9999399185180664, 0, 0, 0, 1.423095703125, 0.06591796875, 1.493408203125, 1.39306640625, 10.0, 1.4323011636734009, 1.5, 1.4323011636734009
12504, -0.7192419767379761, -1.6333844661712646, 0.6325811743736267, 0.00043313688365742564, 0.0001962027745321393, -0.21930661797523499, 0.015586918219923973, 0.007060444913804531, -0.04122205823659897, -0.800847589969635, -0.9719144701957703, 0.06435203552246094, -0.4221465331180995, -0.5725587512518757, 1.1751334391239188, 9362.0, 30146.0, 35388.0, 9362.0, 0, 0.27782443165779114, -0.6008446216583252, -0.30993714928627014, 0.004020221531391144, -0.06044849753379822, 0.9994053244590759, 0, 0, 0, 1.42236328125, 0.0649566650390625, 1.4970703125, 1.431884765625, 10.0, 1.4321097135543823, 1.5, 1.4321097135543823
12514, -0.7188782691955566, -1.6330506801605225, 0.6326644420623779, 0.0006029327632859349, 0.0002731254498939961, -0.21971912682056427, 0.01837228611111641, 0.008324027061462402, -0.04127979278564453, -0.8008120656013489, -0.9719088673591614, 0.06430463492870331, -0.420662760238714, -0.6651848885151139, 1.1775820230555285, 9362.0, 30146.0, 35388.0, 9362.0, 0, -0.18824392557144165, 0.06110586225986481, 0.18901968002319336, 0.0026503524277359247, -0.06151324510574341, 0.9991377592086792, 0, 0, 0, 1.4033203125, 0.043182373046875, 1.4970703125, 1.4150390625, 10.0, 1.4319920539855957, 1.5, 1.4319920539855957
12524, -0.7175413370132446, -1.634875774383545, 0.6337241530418396, 0.0008005535928532481, 0.00036267077666707337, -0.22013263404369354, 0.021151883527636528, 0.009585046209394932, -0.04142113775014877, -0.8008149266242981, -0.9719108939170837, 0.06432481855154037, -0.4216013671790648, -0.6666155562676863, 1.1652924745467939, 9362.0, 30146.0, 35388.0, 9362.0, 0, 0.27307990193367004, 0.13967105746269226, 0.14725181460380554, 0.0022241452243179083, -0.062344908714294434, 0.9989661574363708, 0, 0, 0, 1.44580078125, 0.098236083984375, 1.48974609375, 1.404052734375, 10.0, 1.4319552183151245, 1.5, 1.4319552183151245
12534, -0.7163546085357666, -1.6324440240859985, 0.6330914497375488, 0.0010259784758090973, 0.0004648281028494239, -0.2205471694469452, 0.023933058604598045, 0.010846469551324844, -0.04148608818650246, -0.8008072376251221, -0.9718992114067078, 0.06431908160448074, -0.42221260922182213, -0.6676232337984516, 1.174702917233798, 9362.0, 30146.0, 35388.0, 9362.0, 0, 0.148675337433815, -0.11495637893676758, -0.1806408166885376, 0.0031327703036367893, -0.06278684735298157, 0.9976395964622498, 0, 0, 0, 1.402587890625, 0.0425262451171875, 1.48974609375, 1.45166015625, 10.0, 1.4318867921829224, 1.5, 1.4318867921829224
12544, -0.715740978717804, -1.6325567960739136, 0.6349471211433411, 0.001279207761399448, 0.0005795782781206071, -0.22096316516399384, 0.026712823659181595, 0.012103538028895855, -0.04171231389045715, -0.8009353280067444, -0.9718958735466003, 0.0643584281206131, -0.4132878071018383, -0.5863216491492551, 1.2079526009727068, 9362.0, 30146.0, 35388.0, 9362.0, 0, 0.01076161302626133, -0.176256000995636, 0.3821370303630829, 0.00432185223326087, -0.061065614223480225, 0.9964889883995056, 0, 0, 0, 1.405517578125, 0.0454254150390625, 1.496337890625, 1.42529296875, 10.0, 1.431796669960022, 1.5, 1.431796669960022
12554, -0.7167262434959412, -1.630906343460083, 0.6372296214103699, 0.0015601995401084423, 0.0007068819832056761, -0.22138193249702454, 0.029485495761036873, 0.013357304967939854, -0.04204133152961731, -0.8007235527038574, -0.9719244837760925, 0.06432051211595535, -0.42805341929080865, -0.650732137011687, 1.14760620158137, 9362.0, 30146.0, 35388.0, 9362.0, 8.370248794555664, -0.011839250102639198, -0.4697478413581848, -0.05338037386536598, 0.002722645178437233, -0.05927173048257828, 0.9982566833496094, 0, 0, 0, 1.354248046875, 0.0154266357421875, 1.496337890625, 1.39453125, 10.0, 1.431750774383545, 1.5, 1.431750774383545
12564, -0.7169098854064941, -1.6297303438186646, 0.6360995173454285, 0.001868918421678245, 0.0008467184379696846, -0.22180400788784027, 0.03225824236869812, 0.014610090292990208, -0.04237347096204758, -0.8009258508682251, -0.9719013571739197, 0.06436179578304291, -0.42256527081146134, -0.5820128158341902, 1.203401889354663, 9362.0, 30146.0, 35388.0, 9362.0, 8.370248794555664, -0.13203386962413788, 0.11539190262556076, 0.2635725140571594, 0.004112627357244492, -0.05962511524558067, 0.9979950189590454, -0.07372570782899857, 0.12168121337890625, 1.505859375, 1.40771484375, 0.0478363037109375, 1.493408203125, 1.4208984375, 10.0, 1.4316904544830322, 1.5, 1.4316904544830322
12574, -0.7176499366760254, -1.6278188228607178, 0.6366989612579346, 0.0022053690627217293, 0.0009991000406444073, -0.2222287356853485, 0.03503192588686943, 0.015866175293922424, -0.04257281869649887, -0.8007264137268066, -0.97193443775177, 0.064305379986763, -0.4305897346348438, -0.6528112735611558, 1.1499351969521756, 9362.0, 30146.0, 35388.0, 9362.0, 8.370248794555664, 0.16625268757343292, -0.21385522186756134, -0.1185450479388237, 0.004061229061335325, -0.060742903500795364, 0.998077929019928, -0.07372570782899857, 0.12168121337890625, 1.505859375, 1.42529296875, 0.0688018798828125, 1.493408203125, 1.44873046875, 10.0, 1.4315890073776245, 1.5, 1.4315890073776245
12584, -0.7183787822723389, -1.627469539642334, 0.6352507472038269, 0.0025695411022752523, 0.0011640412267297506, -0.22265565395355225, 0.037802476435899734, 0.01712208054959774, -0.04281119257211685, -0.8008477091789246, -0.971917986869812, 0.0643722414970398, -0.42046275047048043, -0.5663634563373705, 1.1763853690414117, 9362.0, 30146.0, 35388.0, 9362.0, 8.370248794555664, -0.18879902362823486, 0.16845549643039703, -0.012668272480368614, 0.004844960756599903, -0.05982623249292374, 0.999329149723053, -0.07372570782899857, 0.12168121337890625, 1.505859375, 1.411376953125, 0.05181884765625, 1.49267578125, 1.423828125, 10.0, 1.431660532951355, 1.5, 1.431660532951355
12594, -0.7192090749740601, -1.6285256147384644, 0.6369392275810242, 0.002961410442367196, 0.0013415514258667827, -0.22308467328548431, 0.040571440011262894, 0.01837989315390587, -0.04299115389585495, -0.8009350299835205, -0.9718900322914124, 0.06436049193143845, -0.41011193248565897, -0.5957474037125223, 1.205162836080854, 9362.0, 30146.0, 35388.0, 9362.0, 8.370248794555664, 0.03593576326966286, -0.020294969901442528, -0.03770780935883522, 0.004063543397933245, -0.059690654277801514, 0.9978057146072388, -0.07372570782899857, 0.12168121337890625, 1.505859375, 1.379150390625, 0.0238189697265625, 1.49267578125, 1.42822265625, 10.0, 1.4315299987792969, 1.5, 1.4315299987792969
12604, -0.7203193306922913, -1.6286555528640747, 0.6352231502532959, 0.003380965907126665, 0.0015316453063860536, -0.22351551055908203, 0.043339602649211884, 0.019638963043689728, -0.04317597299814224, -0.8007870316505432, -0.9719327092170715, 0.06445101648569107, -0.41652949791160043, -0.5463320198425663, 1.1688992246821768, 9362.0, 30146.0, 35388.0, 9362.0, 8.370248794555664, -0.2790127098560333, -0.1346650868654251, -0.028375644236803055, 0.00247784866951406, -0.06055627390742302, 0.9985864758491516, -0.07372570782899857, 0.12168121337890625, 1.505859375, 1.43994140625, 0.089324951171875, 1.493408203125, 1.426025390625, 10.0, 1.4313610792160034, 1.5, 1.4313610792160034
12614, -0.7208541631698608, -1.6312425136566162, 0.6351617574691772, 0.003828202374279499, 0.0017343333456665277, -0.22394852340221405, 0.04610774293541908, 0.020898548886179924, -0.04342631995677948, -0.8007492423057556, -0.9719011783599854, 0.0645437240600586, -0.4088622564664516, -0.5273209899560243, 1.1471328017970148, 9362.0, 30146.0, 35388.0, 9362.0, 8.370248794555664, -0.07181569188833237, 0.6541309356689453, -0.0039441571570932865, 0.003269210224971175, -0.06056926026940346, 0.9976183772087097, -0.07372570782899857, 0.12168121337890625, 1.505859375, 1.423828125, 0.066802978515625, 1.493408203125, 1.44580078125, 10.0, 1.4314600229263306, 1.5, 1.4314600229263306
12624, -0.721028745174408, -1.6321409940719604, 0.634739339351654, 0.004303126595914364, 0.001949628465808928, -0.2243838608264923, 0.048877060413360596, 0.022160477936267853, -0.04364204406738281, -0.8007864356040955, -0.9719321131706238, 0.06445709615945816, -0.41975686834028964, -0.539016115925449, 1.1577979126377709, 9362.0, 30146.0, 35388.0, 9362.0, 8.370248794555664, -0.06127030402421951, -0.027775662019848824, 0.054713185876607895, 0.004183709621429443, -0.06070736050605774, 0.9973328709602356, -0.07372570782899857, 0.12168121337890625, 1.505859375, 1.4208984375, 0.063079833984375, 1.48974609375, 1.42529296875, 10.0, 1.4313715696334839, 1.5, 1.4313715696334839
12634, -0.721345067024231, -1.634407877922058, 0.6366461515426636, 0.004805746488273144, 0.0021775388158857822, -0.2248220443725586, 0.05164695158600807, 0.023421594873070717, -0.04399404302239418, -0.8007530570030212, -0.971897304058075, 0.06451255083084106, -0.4059060256261319, -0.5282833083126945, 1.1515589322309847, 9362.0, 30146.0, 35388.0, 9362.0, 8.370248794555664, -0.046395137906074524, 0.004764019511640072, 0.22304897010326385, 0.0032731234095990658, -0.0628979280591011, 0.9997339248657227, -0.07372570782899857, 0.12168121337890625, 1.505859375, 1.412841796875, 0.0534515380859375, 1.48974609375, 1.42529296875, 10.0, 1.4313926696777344, 1.5, 1.4313926696777344
12644, -0.7221072912216187, -1.634082555770874, 0.6374467611312866, 0.005336100235581398, 0.0024180742911994457, -0.22526277601718903, 0.05442378669977188, 0.024685608223080635, -0.044153157621622086, -0.8007572293281555, -0.9719045758247375, 0.06451714038848877, -0.40469608471401397, -0.5266790395728265, 1.155517060921336, 9362.0, 30146.0, 35388.0, 9362.0, 8.370248794555664, 0.09142892807722092, 0.22557255625724792, -0.026827270165085793, 0.0038412678986787796, -0.05979519337415695, 0.9989243149757385, -0.07372570782899857, 0.12168121337890625, 1.505859375, 1.423828125, 0.066802978515625, 1.489013671875, 1.361572265625, 10.0, 1.4314355850219727, 1.5, 1.4314355850219727
12654, -0.7228792905807495, -1.6350111961364746, 0.6368756890296936, 0.005894246511161327, 0.002671255497261882, -0.22570493817329407, 0.0572054460644722, 0.025950681418180466, -0.04427855461835861, -0.8006764650344849, -0.9719445705413818, 0.0643840879201889, -0.42025895762215215, -0.6256911352143106, 1.1363102881289668, 9362.0, 30146.0, 35388.0, 9362.0, 8.370248794555664, -0.273242324590683, 0.14539603888988495, -0.08252409845590591, 0.003990466706454754, -0.06141282245516777, 0.9974165558815002, -0.07372570782899857, 0.12168121337890625, 1.505859375, 1.445068359375, 0.0970306396484375, 1.489013671875, 1.34326171875, 10.0, 1.4314807653427124, 1.5, 1.4314807653427124
12664, -0.7228233814239502, -1.6345423460006714, 0.6383891701698303, 0.006480194162577391, 0.0029370884876698256, -0.226148784160614, 0.05998404696583748, 0.02721588872373104, -0.04449162259697914, -0.8008009195327759, -0.971927285194397, 0.06445817649364471, -0.4185919177942912, -0.5419021631514909, 1.1569730282414876, 9362.0, 30146.0, 35388.0, 9362.0, 8.370248794555664, -0.10556117445230484, 0.06902376562356949, 0.2968119978904724, 0.0015548845985904336, -0.06200745701789856, 0.9980232119560242, -0.05560769513249397, -0.06647872924804688, 1.490478515625, 1.423828125, 0.066802978515625, 1.490478515625, 1.42822265625, 10.0, 1.431191086769104, 1.5, 1.431191086769104
12674, -0.7222274541854858, -1.6355501413345337, 0.6417322158813477, 0.007093925029039383, 0.00321557535789907, -0.22659513354301453, 0.06276211887598038, 0.028481559827923775, -0.04477783665060997, -0.8007389903068542, -0.9719207882881165, 0.06439172476530075, -0.42787224012117886, -0.5857027959485208, 1.1467070044967114, 9362.0, 30146.0, 35388.0, 9362.0, 8.370248794555664, 0.19047558307647705, -0.2456931471824646, 0.05965275317430496, 0.002299700863659382, -0.06148688867688179, 0.999468207359314, -0.05560769513249397, -0.06647872924804688, 1.490478515625, 1.41357421875, 0.0542449951171875, 1.490478515625, 1.399658203125, 10.0, 1.4312103986740112, 1.5, 1.4312103986740112
12684, -0.7207210659980774, -1.6366913318634033, 0.6404317021369934, 0.007735452614724636, 0.003506727982312441, -0.22704364359378815, 0.06554332375526428, 0.029749121516942978, -0.04492295905947685, -0.8007949590682983, -0.9719259142875671, 0.06446598470211029, -0.41915154609417976, -0.5445583277565049, 1.1660572944340937, 9362.0, 30146.0, 35388.0, 9362.0, 8.370248794555664, 0.07532265782356262, 0.05183044448494911, -0.02079305611550808, 0.003321319120004773, -0.061053600162267685, 0.9983312487602234, -0.05560769513249397, -0.06647872924804688, 1.490478515625, 1.388671875, 0.03033447265625, 1.4912109375, 1.36962890625, 10.0, 1.431280493736267, 1.5, 1.431280493736267
12694, -0.7199668288230896, -1.6388380527496338, 0.6390715837478638, 0.008404799737036228, 0.003810551716014743, -0.22749361395835876, 0.06832621246576309, 0.031015584245324135, -0.045070528984069824, -0.8007981181144714, -0.9719261527061462, 0.06446042656898499, -0.41311859880343405, -0.5427054312125961, 1.161901825480545, 9362.0, 30146.0, 35388.0, 9362.0, 8.370248794555664, 0.002685294020920992, 0.08819764852523804, -0.11348841339349747, 0.003344024298712611, -0.06007030978798866, 0.9991884231567383, -0.05560769513249397, -0.06647872924804688, 1.490478515625, 1.415771484375, 0.0568695068359375, 1.4912109375, 1.351318359375, 10.0, 1.4313381910324097, 1.5, 1.4313381910324097
12704, -0.7194976210594177, -1.6408653259277344, 0.6406152248382568, 0.009101981297135353, 0.00412702513858676, -0.2279452085494995, 0.07111021876335144, 0.03227902576327324, -0.04524946212768555, -0.800684928894043, -0.9719340801239014, 0.06438061594963074, -0.440541527543082, -0.576152085194451, 1.1491867854607218, 9362.0, 30146.0, 35388.0, 9362.0, 8.370248794555664, -0.02752257138490677, 0.12917368113994598, 0.28474849462509155, 0.004384680651128292, -0.059485435485839844, 0.9978097677230835, -0.05560769513249397, -0.06647872924804688, 1.490478515625, 1.4501953125, 0.1050872802734375, 1.493408203125, 1.40771484375, 10.0, 1.4314441680908203, 1.5, 1.4314441680908203
12714, -0.7198986411094666, -1.6409345865249634, 0.6402764320373535, 0.009827024303376675, 0.004456127528101206, -0.22839851677417755, 0.07389835268259048, 0.03354150801897049, -0.04541182145476341, -0.8006955981254578, -0.971936821937561, 0.06438276171684265, -0.41970623904649373, -0.6218971629928092, 1.1327830661700264, 9362.0, 30146.0, 35388.0, 9362.0, 8.370248794555664, 0.07781767845153809, -0.12275512516498566, 0.08397995680570602, 0.0033073979429900646, -0.061040133237838745, 0.997402548789978, -0.05560769513249397, -0.06647872924804688, 1.490478515625, 1.383544921875, 0.026611328125, 1.493408203125, 1.42236328125, 10.0, 1.4312760829925537, 1.5, 1.4312760829925537
12724, -0.7193796634674072, -1.6410727500915527, 0.6413901448249817, 0.010579953901469707, 0.004797845613211393, -0.22885388135910034, 0.07668749243021011, 0.03480208292603493, -0.04566142335534096, -0.800621747970581, -0.9719091057777405, 0.06447955965995789, -0.41530093845448746, -0.6035878536667099, 1.117045957664673, 9362.0, 30146.0, 35388.0, 9362.0, 8.370248794555664, 0.18409952521324158, -0.18254345655441284, -0.07699815183877945, 0.0036862529814243317, -0.060022592544555664, 0.9986457824707031, -0.05560769513249397, -0.06647872924804688, 1.490478515625, 1.43994140625, 0.089324951171875, 1.493408203125, 1.42529296875, 10.0, 1.4311667680740356, 1.5, 1.4311667680740356
12734, -0.7181134819984436, -1.6423105001449585, 0.6416182518005371, 0.0113607756793499, 0.0051521728746593, -0.2293117195367813, 0.07947682589292526, 0.036063455045223236, -0.04590704292058945, -0.8007425665855408, -0.9719141125679016, 0.06451572477817535, -0.4089241178346831, -0.5284868100404765, 1.145739703974015, 9362.0, 30146.0, 35388.0, 9362.0, 8.370248794555664, 0.050536610186100006, -0.05451703071594238, 0.07183507829904556, 0.004093957599252462, -0.061901502311229706, 0.9993748664855957, -0.05560769513249397, -0.06647872924804688, 1.490478515625, 1.38427734375, 0.027099609375, 1.493408203125, 1.43115234375, 10.0, 1.4308860301971436, 1.5, 1.4308860301971436
12744, -0.7172138094902039, -1.6409857273101807, 0.639962911605835, 0.012169507332146168, 0.005519116763025522, -0.2297714799642563, 0.08226950466632843, 0.03732534870505333, -0.046044010668992996, -0.800685703754425, -0.9719376564025879, 0.06438112258911133, -0.4215776092386229, -0.6259576716203696, 1.129961863630677, 9362.0, 30146.0, 35388.0, 9362.0, 8.370248794555664, 0.14750613272190094, -0.1213991716504097, -0.1331438571214676, 0.0038927998393774033, -0.06225544586777687, 0.9983854293823242, -0.05560769513249397, -0.06647872924804688, 1.490478515625, 1.395263671875, 0.035675048828125, 1.49560546875, 1.3916015625, 10.0, 1.4308336973190308, 1.5, 1.4308336973190308
12754, -0.7159904837608337, -1.6414854526519775, 0.6396170258522034, 0.013006174005568027, 0.005898667965084314, -0.23023267090320587, 0.08506397902965546, 0.03858485445380211, -0.04619437828660011, -0.8007993102073669, -0.971929669380188, 0.06444335728883743, -0.4138744206367816, -0.543988317572456, 1.158252569514215, 9362.0, 30146.0, 35388.0, 9362.0, 8.370248794555664, 0.2676571011543274, -0.04688837379217148, 0.047818198800086975, 0.0041016167961061, -0.061724092811346054, 0.9987847805023193, -0.05560769513249397, -0.06647872924804688, 1.490478515625, 1.349853515625, 0.015350341796875, 1.49560546875, 1.43701171875, 10.0, 1.430532455444336, 1.5, 1.430532455444336
12764, -0.7147219777107239, -1.6408939361572266, 0.6393958926200867, 0.013870768249034882, 0.006290803197771311, -0.23069559037685394, 0.08785492926836014, 0.03984219208359718, -0.04638991132378578, -0.8006733059883118, -0.971931517124176, 0.06436868757009506, -0.41816633124039476, -0.6295950617859774, 1.1225121906726983, 9362.0, 30146.0, 35388.0, 9362.0, 8.370248794555664, 0.053837407380342484, -0.10656628012657166, -0.05142563581466675, 0.004699133802205324, -0.06286954879760742, 0.9991909861564636, -0.09302663803100586, -0.11127853393554688, 1.48681640625, 1.468505859375, 0.13604736328125, 1.490478515625, 1.41796875, 10.0, 1.4303966760635376, 1.5, 1.4303966760635376
12774, -0.714985728263855, -1.6412113904953003, 0.6391028165817261, 0.014763286337256432, 0.0066955056972801685, -0.23116013407707214, 0.09064867347478867, 0.04109830781817436, -0.0465177521109581, -0.8008044362068176, -0.971930980682373, 0.06442626565694809, -0.4193028192062722, -0.536839745941279, 1.1639140620509292, 9362.0, 30146.0, 35388.0, 9362.0, 8.370248794555664, -0.12019537389278412, 0.05876883491873741, 0.09468761831521988, 0.0055680410005152225, -0.06124242767691612, 0.998505175113678, -0.09302663803100586, -0.11127853393554688, 1.48681640625, 1.351318359375, 0.0153350830078125, 1.490478515625, 1.40625, 10.0, 1.4303653240203857, 1.5, 1.4303653240203857
12804, -0.7141767144203186, -1.642303228378296, 0.6401552557945251, 0.017608432099223137, 0.007984890602529049, -0.23256146907806396, 0.09902948141098022, 0.04486175999045372, -0.04685947671532631, -0.8007494807243347, -0.9719128608703613, 0.06450331211090088, -0.4104413302853321, -0.5249356004749473, 1.152757894313433, 9362.0, 30146.0, 35388.0, 9362.0, 8.370248794555664, 0.03347128629684448, -0.1259516328573227, -0.1580030620098114, 0.005109929013997316, -0.059644218534231186, 1.0002800226211548, -0.09302663803100586, -0.11127853393554688, 1.48681640625, 1.351318359375, 0.0153350830078125, 1.490478515625, 1.4267578125, 10.0, 1.4301472902297974, 1.5, 1.4301472902297974
12824, -0.7143605351448059, -1.6397911310195923, 0.6375767588615417, 0.019644903019070625, 0.008907207287847996, -0.2335013896226883, 0.10461870580911636, 0.047369301319122314, -0.04711456596851349, -0.8007354140281677, -0.9719222784042358, 0.06438633799552917, -0.43731031942296, -0.5799408139231161, 1.1462980192148644, 9362.0, 30146.0, 35388.0, 9362.0, 8.370248794555664, -0.0020751869305968285, -0.03158451244235039, -0.1168096661567688, 0.005109929013997316, -0.059644218534231186, 1.0002800226211548, -0.09302663803100586, -0.11127853393554688, 1.48681640625, 1.351318359375, 0.0153350830078125, 1.490478515625, 1.36962890625, 10.0, 1.4299670457839966, 1.5, 1.4299670457839966
12834, -0.7145365476608276, -1.6390600204467773, 0.6373855471611023, 0.02070503681898117, 0.00938715785741806, -0.23397360742092133, 0.10740796476602554, 0.04862073063850403, -0.047327928245067596, -0.8008142113685608, -0.9719330072402954, 0.06444505602121353, -0.41900654769016454, -0.5336214531821497, 1.1603699043434321, 9362.0, 30146.0, 35388.0, 9362.0, 8.370248794555664, 0.09124945104122162, 0.1521623581647873, 0.03426641598343849, 0.003819019068032503, -0.05918976664543152, 0.9962261319160461, -0.09302663803100586, -0.11127853393554688, 1.48681640625, 1.351318359375, 0.0153350830078125, 1.490478515625, 1.402587890625, 10.0, 1.4299670457839966, 1.5, 1.4299670457839966
12854, -0.7141805291175842, -1.6365625858306885, 0.6379448175430298, 0.022908907383680344, 0.010384592227637768, -0.2349262535572052, 0.11297673732042313, 0.05112207308411598, -0.0479990690946579, -0.8008068203926086, -0.9719315767288208, 0.0644492655992508, -0.4195146099711248, -0.5415707385722612, 1.1625099605909206, 9362.0, 30146.0, 35388.0, 9362.0, 8.370248794555664, -0.28814956545829773, -0.21010509133338928, 0.012648242525756359, 0.0031325817108154297, -0.060554321855306625, 0.9964760541915894, -0.09302663803100586, -0.11127853393554688, 1.48681640625, 1.351318359375, 0.0153350830078125, 1.490478515625, 1.439208984375, 10.0, 1.4299670457839966, 1.5, 1.4299670457839966
12924, -0.7140750885009766, -1.6339365243911743, 0.6295011043548584, 0.03149900957942009, 0.014269725419580936, -0.23834195733070374, 0.1324518620967865, 0.059876006096601486, -0.04961736872792244, -0.8007522821426392, -0.9719164371490479, 0.06451114267110825, -0.4001070222520387, -0.5302230796244203, 1.165160952905235, 9362.0, 30146.0, 35388.0, 9362.0, 8.370248794555664, -0.19226236641407013, 0.036252737045288086, 0.2459859549999237, 0.003436367493122816, -0.062123872339725494, 0.9977530241012573, -0.09302663803100586, -0.11127853393554688, 1.48681640625, 1.461181640625, 0.1233062744140625, 1.49560546875, 1.41943359375, 10.0, 1.4293485879898071, 1.5, 1.4293485879898071
12974, -0.7109401226043701, -1.6322396993637085, 0.6282731890678406, 0.03846956416964531, 0.01742010936141014, -0.24083586037158966, 0.14636826515197754, 0.06613970547914505, -0.05019267275929451, -0.8007843494415283, -0.9719096422195435, 0.0644683986902237, -0.4016242093255941, -0.5219920974502656, 1.123331244462243, 9362.0, 30146.0, 35388.0, 9362.0, 8.370248794555664, 0.3069523870944977, -0.2742585837841034, -0.13806405663490295, 0.0036235626321285963, -0.05938250944018364, 0.9992665648460388, -0.06330954283475876, -0.10231781005859375, 1.487548828125, 1.461181640625, 0.1233062744140625, 1.493408203125, 1.4736328125, 10.0, 1.4293714761734009, 1.5, 1.4293714761734009
12984, -0.7103589773178101, -1.633237361907959, 0.6286728382110596, 0.03994714096188545, 0.01808774843811989, -0.24133868515491486, 0.14914700388908386, 0.06738791614770889, -0.05037178099155426, -0.8007233142852783, -0.9719001054763794, 0.06443130224943161, -0.41028284066054926, -0.5574096502837449, 1.121082236128848, 9362.0, 30146.0, 35388.0, 9362.0, 8.370248794555664, 0.03570444509387016, 0.0908118337392807, -0.39766812324523926, 0.0036235626321285963, -0.05938250944018364, 0.9992665648460388, -0.06330954283475876, -0.10231781005859375, 1.487548828125, 1.461181640625, 0.1233062744140625, 1.5, 1.4736328125, 10.0, 1.4293196201324463, 1.5, 1.4293196201324463
12994, -0.7107124924659729, -1.6324511766433716, 0.6286528706550598, 0.04145247861742973, 0.01876785047352314, -0.24184387922286987, 0.15192058682441711, 0.0686325803399086, -0.05066533014178276, -0.8006620407104492, -0.9719135165214539, 0.06445484608411789, -0.40374282075122975, -0.5956231456671617, 1.100020102399797, 9362.0, 30146.0, 35388.0, 9362.0, 8.370248794555664, -0.1477353721857071, -0.4047240614891052, -0.02517780289053917, 0.0036235626321285963, -0.05938250944018364, 0.9992665648460388, -0.06330954283475876, -0.10231781005859375, 1.487548828125, 1.461181640625, 0.1233062744140625, 1.5, 1.4326171875, 10.0, 1.4293196201324463, 1.5, 1.4293196201324463
13004, -0.7096602916717529, -1.6336579322814941, 0.628432035446167, 0.04145247861742973, 0.01876785047352314, -0.24184387922286987, 0.15192058682441711, 0.0686325803399086, -0.05066533014178276, -0.8007839918136597, -0.971920907497406, 0.06449538469314575, -0.3931919756831226, -0.5210989918064683, 1.1319634076094942, 9362.0, 30146.0, 35388.0, 9362.0, 8.370248794555664, 0.014775880612432957, 0.23952287435531616, 0.03710595890879631, 0.0036235626321285963, -0.05938250944018364, 0.9992665648460388, -0.06330954283475876, -0.10231781005859375, 1.487548828125, 1.461181640625, 0.1233062744140625, 1.496337890625, 1.370361328125, 10.0, 1.4293196201324463, 1.5, 1.4293196201324463
13044, -0.7105306386947632, -1.6343579292297363, 0.6254667043685913, 0.04939572885632515, 0.02235504984855652, -0.24440325796604156, 0.16581566631793976, 0.07485726475715637, -0.05153711885213852, -0.8007736802101135, -0.9719197750091553, 0.0644817128777504, -0.39825051837263886, -0.524143678230871, 1.1256038723787987, 9362.0, 30146.0, 35388.0, 9362.0, 8.370248794555664, 0.08826615661382675, -0.35978713631629944, -0.02154206484556198, 0.003681794973090291, -0.05958349257707596, 1.0003172159194946, -0.06330954283475876, -0.10231781005859375, 1.487548828125, 1.461181640625, 0.1233062744140625, 1.496337890625, 1.42236328125, 10.0, 1.4284684658050537, 1.5, 1.4284684658050537
13064, -0.7099312543869019, -1.6361912488937378, 0.6265121102333069, 0.0510677844285965, 0.02310984395444393, -0.24491989612579346, 0.16859564185142517, 0.07610135525465012, -0.051791250705718994, -0.8007871508598328, -0.9719105958938599, 0.06449969112873077, -0.3984210609919259, -0.5144130779011391, 1.130100797460346, 9362.0, 30146.0, 35388.0, 9362.0, 8.370248794555664, 0.1269812136888504, -0.3284420669078827, -0.07014283537864685, 0.004054897464811802, -0.05813400447368622, 0.9977609515190125, -0.06330954283475876, -0.10231781005859375, 1.487548828125, 1.461181640625, 0.1233062744140625, 1.496337890625, 1.363037109375, 10.0, 1.428584337234497, 1.5, 1.428584337234497
13124, -0.7116820812225342, -1.6404320001602173, 0.632193922996521, 0.06355081498622894, 0.028741901740431786, -0.24860577285289764, 0.18806985020637512, 0.08482170850038528, -0.05338747799396515, -0.8007032871246338, -0.9718953967094421, 0.06440387666225433, -0.4131782248023553, -0.5808792496746662, 1.1077569505414009, 9362.0, 30146.0, 35388.0, 9362.0, 8.370248794555664, 0.09400998800992966, -0.08324622362852097, -0.28390786051750183, 0.004402923863381147, -0.06176729500293732, 0.998583972454071, -0.06330954283475876, -0.10231781005859375, 1.487548828125, 1.461181640625, 0.1233062744140625, 1.48974609375, 1.411376953125, 10.0, 1.4283783435821533, 1.5, 1.4283783435821533
13164, -0.7115463614463806, -1.6371595859527588, 0.630990207195282, 0.07129659503698349, 0.03223453089594841, -0.25076037645339966, 0.19921647012233734, 0.08980803936719894, -0.05438503995537758, -0.801013708114624, -0.9718931913375854, 0.06427858769893646, -0.4203885083003095, -0.5676060249461443, 1.1899715519593705, 9362.0, 30146.0, 35388.0, 9362.0, 8.370248794555664, -0.26914292573928833, -0.10005208104848862, 0.0044416263699531555, 0.004620306193828583, -0.0612955316901207, 0.9970449209213257, -0.06330954283475876, -0.10231781005859375, 1.487548828125, 1.461181640625, 0.1233062744140625, 1.493408203125, 1.405517578125, 10.0, 1.4280918836593628, 1.5, 1.4280918836593628
13174, -0.7114913463592529, -1.6361703872680664, 0.6303941607475281, 0.07330268621444702, 0.033138833940029144, -0.25130560994148254, 0.20200194418430328, 0.09105222672224045, -0.054663024842739105, -0.8008222579956055, -0.9719178080558777, 0.06423932313919067, -0.42519884213772513, -0.6184108054368096, 1.1335592037876119, 9362.0, 30146.0, 35388.0, 9362.0, 8.370248794555664, 0.00789728481322527, 0.067081518471241, 0.07414214313030243, 0.004620306193828583, -0.0612955316901207, 0.9970449209213257, -0.06330954283475876, -0.10231781005859375, 1.487548828125, 1.461181640625, 0.1233062744140625, 1.493408203125, 1.37255859375, 10.0, 1.4280660152435303, 1.5, 1.4280660152435303
13304, -0.70670086145401, -1.6382040977478027, 0.6313936710357666, 0.10191217809915543, 0.046026986092329025, -0.2586248219013214, 0.2381274253129959, 0.10721271485090256, -0.057924121618270874, -0.8008841276168823, -0.9719030857086182, 0.06422923505306244, -0.42076029274511995, -0.6486828669615647, 1.165101809216889, 9362.0, 30146.0, 35388.0, 9362.0, 8.370248794555664, -0.16878944635391235, 0.35155805945396423, 0.1480276882648468, 0.0034801976289600134, -0.06006878986954689, 0.9969063401222229, -0.06330954283475876, -0.10231781005859375, 1.487548828125, 1.461181640625, 0.1233062744140625, 1.4970703125, 1.365966796875, 10.0, 1.4277015924453735, 1.5, 1.4277015924453735
13314, -0.7068268656730652, -1.6403305530548096, 0.6313682198524475, 0.10430733859539032, 0.047105301171541214, -0.25920596718788147, 0.2409040927886963, 0.10845007747411728, -0.058306608349084854, -0.8009273409843445, -0.9719160795211792, 0.06428056955337524, -0.42835179940817664, -0.5494625699003279, 1.1638829529087094, 9362.0, 30146.0, 35388.0, 9362.0, 8.370248794555664, -0.16878944635391235, 0.35155805945396423, 0.1480276882648468, 0.004055515863001347, -0.06035349890589714, 0.9975089430809021, -0.06330954283475876, -0.10231781005859375, 1.487548828125, 1.461181640625, 0.1233062744140625, 1.4970703125, 1.396728515625, 10.0, 1.4277844429016113, 1.5, 1.4277844429016113
13344, -0.7057688236236572, -1.6387163400650024, 0.630008339881897, 0.10918113589286804, 0.04929906874895096, -0.2603771388530731, 0.24647943675518036, 0.110927514731884, -0.05874735489487648, -0.8008762001991272, -0.9718990325927734, 0.06424126029014587, -0.4251117243640441, -0.643381441653105, 1.167661260769484, 9362.0, 30146.0, 35388.0, 9362.0, 8.370248794555664, 0.06282249838113785, 0.22635933756828308, -0.2479979246854782, 0.004063853062689304, -0.06070922315120697, 1.0002683401107788, -0.06330954283475876, -0.10231781005859375, 1.487548828125, 1.461181640625, 0.1233062744140625, 1.494140625, 1.41943359375, 10.0, 1.4276632070541382, 1.5, 1.4276632070541382
13364, -0.705747127532959, -1.6397976875305176, 0.6265732049942017, 0.11416652798652649, 0.051542460918426514, -0.2615528404712677, 0.2520594894886017, 0.11341110616922379, -0.058851584792137146, -0.8010130524635315, -0.9718868732452393, 0.06427416205406189, -0.4240865669559204, -0.5704894835368464, 1.1878239915951276, 9362.0, 30146.0, 35388.0, 9362.0, 8.370248794555664, -0.09147310256958008, -0.16304165124893188, 0.038055554032325745, 0.004764707759022713, -0.05966949090361595, 0.9991508722305298, -0.06267154216766357, -0.31735801696777344, 1.469970703125, 1.461181640625, 0.1233062744140625, 1.491943359375, 1.41943359375, 10.0, 1.427474021911621, 1.5, 1.427474021911621
13384, -0.7074478268623352, -1.6395305395126343, 0.626699686050415, 0.12185392528772354, 0.05500052124261856, -0.2633233070373535, 0.26043474674224854, 0.11712626367807388, -0.05919583514332771, -0.8009517192840576, -0.9718860387802124, 0.0642157793045044, -0.4382211403907421, -0.6057946749422172, 1.1824678515309341, 9362.0, 30146.0, 35388.0, 9362.0, 8.370248794555664, -0.19781062006950378, 0.1929454654455185, -0.07656720280647278, 0.002048637019470334, -0.06077519431710243, 0.9997248649597168, -0.06267154216766357, -0.31735801696777344, 1.469970703125, 1.461181640625, 0.1233062744140625, 1.491943359375, 1.4296875, 10.0, 1.427474021911621, 1.5, 1.427474021911621
13424, -0.7056210041046143, -1.6409636735916138, 0.6275859475135803, 0.13249441981315613, 0.05978471413254738, -0.26570650935173035, 0.2715839743614197, 0.1220802292227745, -0.06010909751057625, -0.8010026216506958, -0.9718892574310303, 0.06427238136529922, -0.4203081240906146, -0.5647619406908575, 1.1883518783656937, 9362.0, 30146.0, 35388.0, 9362.0, 8.370248794555664, -0.0009353909990750253, -0.28695008158683777, 0.09197693318128586, 0.003983932081609964, -0.060377173125743866, 0.9991748332977295, -0.06267154216766357, -0.31735801696777344, 1.469970703125, 1.461181640625, 0.1233062744140625, 1.496337890625, 1.421630859375, 10.0, 1.4269170761108398, 1.5, 1.4269170761108398
13434, -0.7065955996513367, -1.6393870115280151, 0.6266996264457703, 0.13522422313690186, 0.06101171299815178, -0.26630815863609314, 0.2743769586086273, 0.12331921607255936, -0.06022265553474426, -0.8009164333343506, -0.9719038009643555, 0.06429015100002289, -0.4273500308080178, -0.5489744484478649, 1.1642485619777794, 9362.0, 30146.0, 35388.0, 9362.0, 8.370248794555664, 0.034052398055791855, -0.026568783447146416, -0.21185052394866943, 0.003983932081609964, -0.060377173125743866, 0.9991748332977295, -0.06267154216766357, -0.31735801696777344, 1.469970703125, 1.461181640625, 0.1233062744140625, 1.496337890625, 1.3916015625, 10.0, 1.4269641637802124, 1.5, 1.4269641637802124
13474, -0.7050843238830566, -1.6383812427520752, 0.625857949256897, 0.14642249047756195, 0.06604349613189697, -0.26873284578323364, 0.28553760051727295, 0.12827177345752716, -0.06091795116662979, -0.8009157776832581, -0.9719113111495972, 0.06429406255483627, -0.4280132713716496, -0.5499145781851098, 1.1678653398718633, 9362.0, 30146.0, 35388.0, 9362.0, 8.370248794555664, -0.013577457517385483, 0.1239895224571228, -0.09082945436239243, 0.004118975251913071, -0.062418147921562195, 0.9995832443237305, -0.0832209512591362, -0.06647872924804688, 1.490478515625, 1.461181640625, 0.1233062744140625, 1.496337890625, 1.398193359375, 10.0, 1.4264622926712036, 1.5, 1.4264622926712036
13504, -0.7043687105178833, -1.6387263536453247, 0.6230864524841309, 0.15511411428451538, 0.06994731724262238, -0.2705671787261963, 0.2938988506793976, 0.13197843730449677, -0.06153348833322525, -0.8009375333786011, -0.9718666076660156, 0.06421045958995819, -0.4488040610979279, -0.6183888858345199, 1.1704785557153785, 9362.0, 30146.0, 35388.0, 9362.0, 8.370248794555664, -0.09769408404827118, 0.3267594277858734, -0.06140632927417755, 0.0032604311127215624, -0.060066767036914825, 0.9980137944221497, -0.0832209512591362, -0.06647872924804688, 1.490478515625, 1.461181640625, 0.1233062744140625, 1.490478515625, 1.351318359375, 10.0, 1.4264841079711914, 1.5, 1.4264841079711914
13544, -0.7032819986343384, -1.6395320892333984, 0.6218239068984985, 0.1670929491519928, 0.07532508671283722, -0.27304932475090027, 0.30504411458969116, 0.13690634071826935, -0.06269729137420654, -0.8008062243461609, -0.9719125032424927, 0.06422872841358185, -0.42926173856893607, -0.6275834168299639, 1.1236697450934745, 9362.0, 30146.0, 35388.0, 9362.0, 8.370248794555664, -0.10781893134117126, 0.33979907631874084, 0.3149310052394867, 0.002379404380917549, -0.06087834760546684, 0.9962589740753174, -0.0832209512591362, -0.06647872924804688, 1.490478515625, 1.461181640625, 0.1233062744140625, 1.490478515625, 1.423095703125, 10.0, 1.426003336906433, 1.5, 1.426003336906433
13554, -0.7030584812164307, -1.6421959400177002, 0.6242037415504456, 0.1701573133468628, 0.07670029252767563, -0.2736779749393463, 0.3078292906284332, 0.13813495635986328, -0.06303109973669052, -0.8009589910507202, -0.9718736410140991, 0.06422339379787445, -0.4338553012385872, -0.5996735029539195, 1.1724878512401422, 9362.0, 30146.0, 35388.0, 9362.0, 8.370248794555664, -0.03008364327251911, -0.06312952935695648, -0.009907273575663567, 0.002379404380917549, -0.06087834760546684, 0.9962589740753174, -0.0832209512591362, -0.06647872924804688, 1.490478515625, 1.461181640625, 0.1233062744140625, 1.490478515625, 1.3857421875, 10.0, 1.426058053970337, 1.5, 1.426058053970337
13584, -0.7038418054580688, -1.6397218704223633, 0.6223496794700623, 0.1795177459716797, 0.08089978992938995, -0.27557894587516785, 0.3162015974521637, 0.14183063805103302, -0.06373585760593414, -0.8009058833122253, -0.9718829989433289, 0.0642285868525505, -0.4309208711650017, -0.6398035919945926, 1.1519091243508377, 9362.0, 30146.0, 35388.0, 9362.0, 8.370248794555664, -0.27506157755851746, 0.17535875737667084, 0.2943480312824249, 0.0036419432144612074, -0.062487564980983734, 0.9997408390045166, -0.0832209512591362, -0.06647872924804688, 1.490478515625, 1.329345703125, 0.02105712890625, 1.493408203125, 1.423828125, 10.0, 1.425655722618103, 1.5, 1.425655722618103
13594, -0.7052736282348633, -1.640877604484558, 0.6231150031089783, 0.1795177459716797, 0.08089978992938995, -0.27557894587516785, 0.3162015974521637, 0.14183063805103302, -0.06373585760593414, -0.8010095953941345, -0.9718859791755676, 0.06429152190685272, -0.4217896936253194, -0.5672182698575057, 1.1932457645456127, 9362.0, 30146.0, 35388.0, 9362.0, 8.370248794555664, -0.10263985395431519, 0.19082283973693848, 0.15025381743907928, 0.0036419432144612074, -0.062487564980983734, 0.9997408390045166, -0.0832209512591362, -0.06647872924804688, 1.490478515625, 1.447265625, 0.1004791259765625, 1.493408203125, 1.423828125, 10.0, 1.4255809783935547, 1.5, 1.4255809783935547
13664, -0.702643871307373, -1.6330485343933105, 0.6195865273475647, 0.20570646226406097, 0.09264115244150162, -0.280738890171051, 0.33849284052848816, 0.15170300006866455, -0.06541911512613297, -0.8009232878684998, -0.9719184041023254, 0.06427429616451263, -0.4186767329860512, -0.547576530606193, 1.1650699214119147, 9362.0, 30146.0, 35388.0, 9362.0, 8.370248794555664, -0.025118635967373848, -0.0498831644654274, 0.37324830889701843, 0.00491347536444664, -0.060577839612960815, 0.9977037310600281, -0.0832209512591362, -0.06647872924804688, 1.490478515625, 1.447265625, 0.1004791259765625, 1.49267578125, 1.411376953125, 10.0, 1.425109624862671, 1.5, 1.425109624862671
13704, -0.7024117112159729, -1.6331822872161865, 0.6254832744598389, 0.2194683700799942, 0.09880784898996353, -0.28337278962135315, 0.3495994508266449, 0.15663211047649384, -0.06622523814439774, -0.8007990121841431, -0.9719266295433044, 0.06423672288656235, -0.4311326860212402, -0.6326473210517065, 1.130199086481412, 9362.0, 30146.0, 35388.0, 9362.0, 8.370248794555664, 0.015252353623509407, -0.1091247946023941, -0.0536273755133152, 0.001866866834461689, -0.06161137670278549, 0.9991126656532288, -0.0832209512591362, -0.06647872924804688, 1.490478515625, 1.447265625, 0.1004791259765625, 1.493408203125, 1.43115234375, 10.0, 1.4249790906906128, 1.5, 1.4249790906906128
13714, -0.7019046545028687, -1.6325792074203491, 0.6267992854118347, 0.22297827899456024, 0.10038033872842789, -0.28403565287590027, 0.3523831367492676, 0.15786510705947876, -0.06634540110826492, -0.8010140657424927, -0.971884548664093, 0.06427351385354996, -0.42041027836507006, -0.5763727881569594, 1.1914914344986585, 9362.0, 30146.0, 35388.0, 9362.0, 8.370248794555664, 0.13373038172721863, -0.07295659929513931, 0.16713181138038635, 0.001866866834461689, -0.06161137670278549, 0.9991126656532288, -0.0832209512591362, -0.06647872924804688, 1.490478515625, 1.447265625, 0.1004791259765625, 1.493408203125, 1.43115234375, 10.0, 1.4245264530181885, 1.5, 1.4245264530181885
13774, -0.7001563310623169, -1.6296906471252441, 0.628296971321106, 0.2446208894252777, 0.11007358878850937, -0.2880549728870392, 0.3690325617790222, 0.16523897647857666, -0.06765711307525635, -0.801002025604248, -0.9718896746635437, 0.06429047882556915, -0.41543236200375494, -0.5651213595387787, 1.195999466178559, 9362.0, 30146.0, 35388.0, 9362.0, 8.370248794555664, 0.05433914437890053, -0.08135288208723068, 0.12192114442586899, 0.0023892316967248917, -0.0584932304918766, 0.9993494749069214, -0.07096603512763977, 0.11272048950195312, 1.505126953125, 1.447265625, 0.1004791259765625, 1.491943359375, 1.342529296875, 10.0, 1.4244768619537354, 1.5, 1.4244768619537354
13784, -0.701138973236084, -1.6278611421585083, 0.6282170414924622, 0.24832509458065033, 0.111732117831707, -0.2887320816516876, 0.37180784344673157, 0.1664671003818512, -0.0677616074681282, -0.8009311556816101, -0.971903920173645, 0.06428778171539307, -0.4246184245229826, -0.5532476548002023, 1.1594003393015375, 9362.0, 30146.0, 35388.0, 9362.0, 8.370248794555664, 0.11114262789487839, -0.18331992626190186, -0.22430221736431122, 0.0023892316967248917, -0.0584932304918766, 0.9993494749069214, -0.07096603512763977, 0.11272048950195312, 1.505126953125, 1.447265625, 0.1004791259765625, 1.491943359375, 1.434814453125, 10.0, 1.4244768619537354, 1.5, 1.4244768619537354
13834, -0.701214075088501, -1.6280325651168823, 0.6246010661125183, 0.26726233959198, 0.12020918726921082, -0.2921243906021118, 0.38567718863487244, 0.17261315882205963, -0.06804779917001724, -0.8009291291236877, -0.9719142317771912, 0.06430430710315704, -0.42193590751099663, -0.547649552594919, 1.1636411210260988, 9362.0, 30146.0, 35388.0, 9362.0, 8.370248794555664, 0.014893235638737679, 0.008590363897383213, -0.1192331314086914, 0.004526546690613031, -0.0601004958152771, 0.9989286065101624, -0.07096603512763977, 0.11272048950195312, 1.505126953125, 1.447265625, 0.1004791259765625, 1.491943359375, 1.400390625, 10.0, 1.4238308668136597, 1.5, 1.4238308668136597
13864, -0.7005553841590881, -1.6303523778915405, 0.6226546764373779, 0.27503129839897156, 0.12368597835302353, -0.2934897541999817, 0.39121687412261963, 0.1750670075416565, -0.06849177181720734, -0.8009645938873291, -0.9718727469444275, 0.06422986835241318, -0.43516887407250493, -0.6083262151646807, 1.1792265586771806, 9362.0, 30146.0, 35388.0, 9362.0, 8.370248794555664, -0.22998346388339996, 0.4378979206085205, 0.11325728893280029, 0.0034208111464977264, -0.05917777866125107, 0.9987538456916809, -0.07481251657009125, 0.03208160400390625, 1.49853515625, 1.447265625, 0.1004791259765625, 1.493408203125, 1.36083984375, 10.0, 1.423759937286377, 1.5, 1.423759937286377
13914, -0.7020800709724426, -1.6315720081329346, 0.6202508807182312, 0.2990038990974426, 0.13441132009029388, -0.29762548208236694, 0.40787607431411743, 0.18244712054729462, -0.06924998015165329, -0.8009716868400574, -0.9718751311302185, 0.06424372643232346, -0.4314344807095159, -0.5924416437669322, 1.1702952073370703, 9362.0, 30146.0, 35388.0, 9362.0, 8.370248794555664, 0.09701668471097946, 0.3127143085002899, 0.3466397821903229, 0.005703852977603674, -0.06218761205673218, 0.9996943473815918, -0.07481251657009125, 0.03208160400390625, 1.49853515625, 1.447265625, 0.1004791259765625, 1.4912109375, 1.40478515625, 10.0, 1.423590064048767, 1.5, 1.423590064048767
13954, -0.7025501132011414, -1.6290150880813599, 0.6199933290481567, 0.3155408501625061, 0.14180757105350494, -0.3004191815853119, 0.4189704954624176, 0.18736641108989716, -0.07030623406171799, -0.8009461164474487, -0.971913754940033, 0.06429309397935867, -0.42703708150166597, -0.5450074823256728, 1.1621936531294934, 9362.0, 30146.0, 35388.0, 9362.0, 8.370248794555664, -0.19100376963615417, -0.1790415495634079, -0.20002587139606476, 0.0015942978207021952, -0.061104897409677505, 0.9985587000846863, -0.07481251657009125, 0.03208160400390625, 1.49853515625, 1.434814453125, 0.081787109375, 1.494140625, 1.383544921875, 10.0, 1.4234306812286377, 1.5, 1.4234306812286377
13964, -0.7023656964302063, -1.6285375356674194, 0.6205726265907288, 0.31974443793296814, 0.1436873972415924, -0.3011228144168854, 0.4217461347579956, 0.18859943747520447, -0.07041925936937332, -0.8008918166160583, -0.9718913435935974, 0.06426342576742172, -0.4205769734984786, -0.6425168411241202, 1.1553146696520127, 9362.0, 30146.0, 35388.0, 9362.0, 8.370248794555664, -0.15827900171279907, 0.0934629738330841, 0.0337531715631485, 0.0015942978207021952, -0.061104897409677505, 0.9985587000846863, -0.07481251657009125, 0.03208160400390625, 1.49853515625, 1.434814453125, 0.081787109375, 1.494140625, 1.458984375, 10.0, 1.4234306812286377, 1.5, 1.4234306812286377
13974, -0.7029855251312256, -1.6285631656646729, 0.6210386753082275, 0.32397574186325073, 0.14557954668998718, -0.30182817578315735, 0.4245162606239319, 0.18983009457588196, -0.07065079361200333, -0.8008831143379211, -0.9718872308731079, 0.064235620200634, -0.4249057459971278, -0.6412311854801658, 1.1642053439226865, 9362.0, 30146.0, 35388.0, 9362.0, 8.370248794555664, -0.0013372477842494845, -0.26739513874053955, 0.053360454738140106, 0.0015942978207021952, -0.061104897409677505, 0.9985587000846863, -0.07481251657009125, 0.03208160400390625, 1.49853515625, 1.434814453125, 0.081787109375, 1.494140625, 1.458984375, 10.0, 1.4234306812286377, 1.5, 1.4234306812286377
13984, -0.7027215361595154, -1.6233595609664917, 0.6206853985786438, 0.3282347321510315, 0.14748398959636688, -0.3025362491607666, 0.4272833466529846, 0.1910594403743744, -0.07096321880817413, -0.8009560704231262, -0.9718629717826843, 0.06424470990896225, -0.4365153493623628, -0.6033363262301918, 1.1743362586878097, 9362.0, 30146.0, 35388.0, 9362.0, 8.370248794555664, -0.1341894418001175, -0.4286562204360962, 0.2928310036659241, 0.0015942978207021952, -0.061104897409677505, 0.9985587000846863, -0.07481251657009125, 0.03208160400390625, 1.49853515625, 1.434814453125, 0.081787109375, 1.49267578125, 1.458984375, 10.0, 1.423446536064148, 1.5, 1.423446536064148
14004, -0.7007425427436829, -1.621711254119873, 0.6210871934890747, 0.336835652589798, 0.15132977068424225, -0.303962767124176, 0.43280625343322754, 0.19351854920387268, -0.07167326658964157, -0.8007906079292297, -0.9719058275222778, 0.06425914168357849, -0.4325714774501061, -0.6238990360043601, 1.1330419798183953, 9362.0, 30146.0, 35388.0, 9362.0, 8.370248794555664, -0.11800628900527954, 0.037592608481645584, -0.0375000536441803, 0.004427801351994276, -0.060976460576057434, 0.9984880685806274, -0.07481251657009125, 0.03208160400390625, 1.49853515625, 1.434814453125, 0.081787109375, 1.49267578125, 1.458251953125, 10.0, 1.4236282110214233, 1.5, 1.4236282110214233
14024, -0.7021641135215759, -1.620734453201294, 0.6203175783157349, 0.34554702043533325, 0.1552247405052185, -0.30539780855178833, 0.4383302330970764, 0.19597887992858887, -0.0718025490641594, -0.8010221719741821, -0.9718733429908752, 0.06429009884595871, -0.4276951334332332, -0.5638038227976097, 1.1916568938272143, 9362.0, 30146.0, 35388.0, 9362.0, 8.370248794555664, -0.03564002364873886, 0.12758973240852356, -0.16323894262313843, 0.004427801351994276, -0.060976460576057434, 0.9984880685806274, -0.07481251657009125, 0.03208160400390625, 1.49853515625, 1.434814453125, 0.081787109375, 1.49267578125, 1.3505859375, 10.0, 1.423719048500061, 1.5, 1.423719048500061
14044, -0.7031263709068298, -1.6244359016418457, 0.6163498163223267, 0.3543688654899597, 0.15916892886161804, -0.3068360984325409, 0.4438515603542328, 0.19844061136245728, -0.07206924259662628, -0.800901472568512, -0.9718785285949707, 0.06423555314540863, -0.4224624776605488, -0.6516202667629614, 1.1586541746090429, 9362.0, 30146.0, 35388.0, 9362.0, 8.370248794555664, 0.11893852800130844, 0.444184273481369, -0.02643401175737381, 0.004427801351994276, -0.060976460576057434, 0.9984880685806274, -0.07481251657009125, 0.03208160400390625, 1.49853515625, 1.434814453125, 0.081787109375, 1.496337890625, 1.352783203125, 10.0, 1.4238585233688354, 1.5, 1.4238585233688354
14094, -0.7026916146278381, -1.628775715827942, 0.6157564520835876, 0.376907080411911, 0.16924500465393066, -0.3104514479637146, 0.4576895833015442, 0.20459996163845062, -0.07250930368900299, -0.8010135889053345, -0.9718883037567139, 0.0643036738038063, -0.42413062953441877, -0.5657154763964627, 1.1904089662274424, 9362.0, 30146.0, 35388.0, 9362.0, 8.370248794555664, -0.11176776885986328, 0.005437611602246761, -0.04048629105091095, 0.003717827843502164, -0.0599820651113987, 0.9992528557777405, -0.08053268492221832, -0.07543754577636719, 1.48974609375, 1.434814453125, 0.081787109375, 1.49267578125, 1.41064453125, 10.0, 1.4230283498764038, 1.5, 1.4230283498764038
14124, -0.7026969790458679, -1.626341462135315, 0.6142342686653137, 0.3907626271247864, 0.17543838918209076, -0.31263241171836853, 0.46601638197898865, 0.2082960456609726, -0.07275097817182541, -0.8010202646255493, -0.9718873500823975, 0.06428919732570648, -0.41648333119279934, -0.5713667594278888, 1.190892223929877, 9362.0, 30146.0, 35388.0, 9362.0, 8.370248794555664, -0.04209897667169571, -0.1051531732082367, -0.2688811719417572, 0.004397539421916008, -0.060726191848516464, 0.9982218742370605, -0.08053268492221832, -0.07543754577636719, 1.48974609375, 1.434814453125, 0.081787109375, 1.490478515625, 1.430419921875, 10.0, 1.42304265499115, 1.5, 1.42304265499115
14144, -0.7030325531959534, -1.6259020566940308, 0.6129287481307983, 0.40013816952705383, 0.1796288639307022, -0.314096063375473, 0.47153913974761963, 0.2107514888048172, -0.07358552515506744, -0.8009684681892395, -0.9718760251998901, 0.0642622709274292, -0.4341152342631245, -0.6002945983444476, 1.1740253166437489, 9362.0, 30146.0, 35388.0, 9362.0, 8.370248794555664, -0.47093233466148376, -0.35537293553352356, -0.17967039346694946, 0.0061499751172959805, -0.0600261315703392, 0.9983928799629211, -0.08053268492221832, -0.07543754577636719, 1.48974609375, 1.434814453125, 0.081787109375, 1.490478515625, 1.385009765625, 10.0, 1.4225749969482422, 1.5, 1.4225749969482422
14154, -0.7036367058753967, -1.62662935256958, 0.6128326058387756, 0.40486741065979004, 0.18174253404140472, -0.31483185291290283, 0.47431036829948425, 0.21198390424251556, -0.07357180863618851, -0.8008123636245728, -0.9719029068946838, 0.06423485279083252, -0.4306713973679417, -0.6209766913855503, 1.1324230761689906, 9362.0, 30146.0, 35388.0, 9362.0, 8.370248794555664, 0.06565138697624207, 0.25205880403518677, -0.11309748142957687, 0.0061499751172959805, -0.0600261315703392, 0.9983928799629211, -0.08053268492221832, -0.07543754577636719, 1.48974609375, 1.434814453125, 0.081787109375, 1.490478515625, 1.409912109375, 10.0, 1.4225749969482422, 1.5, 1.4225749969482422
14164, -0.7040488123893738, -1.625771403312683, 0.6128741502761841, 0.4096243679523468, 0.18386854231357574, -0.31556740403175354, 0.4770828187465668, 0.21321827173233032, -0.07354001700878143, -0.8010181188583374, -0.9718848466873169, 0.06430457532405853, -0.421912643351313, -0.5710080876835093, 1.1966700722264525, 9362.0, 30146.0, 35388.0, 9362.0, 8.370248794555664, 0.10063636302947998, -0.05425858497619629, -0.012198015116155148, 0.0061499751172959805, -0.0600261315703392, 0.9983928799629211, -0.08053268492221832, -0.07543754577636719, 1.48974609375, 1.434814453125, 0.081787109375, 1.490478515625, 1.409912109375, 10.0, 1.422446846961975, 1.5, 1.422446846961975
14174, -0.7033193707466125, -1.623576045036316, 0.6131200194358826, 0.41440901160240173, 0.18600687384605408, -0.31630492210388184, 0.4798436164855957, 0.21444794535636902, -0.07396209239959717, -0.8009007573127747, -0.9718750715255737, 0.06423600018024445, -0.42459786483837414, -0.643103013890709, 1.1673046762157488, 9362.0, 30146.0, 35388.0, 9362.0, 8.370248794555664, 0.10373352468013763, -0.11570888757705688, -0.12671956419944763, 0.0061499751172959805, -0.0600261315703392, 0.9983928799629211, -0.08053268492221832, -0.07543754577636719, 1.48974609375, 1.434814453125, 0.081787109375, 1.490478515625, 1.40478515625, 10.0, 1.4223358631134033, 1.5, 1.4223358631134033
14194, -0.7041653394699097, -1.6251720190048218, 0.6119198799133301, 0.4240610599517822, 0.1903204321861267, -0.31779229640960693, 0.48536229133605957, 0.21690909564495087, -0.07467705756425858, -0.8010361790657043, -0.97188401222229, 0.06429886072874069, -0.4216077430507906, -0.553376457456352, 1.187341030690945, 9362.0, 30146.0, 35388.0, 9362.0, 8.370248794555664, -0.14013828337192535, -0.07206005603075027, -0.07845234870910645, 0.004656648263335228, -0.06141941249370575, 0.9991950392723083, -0.08053268492221832, -0.07543754577636719, 1.48974609375, 1.434814453125, 0.081787109375, 1.490478515625, 1.4326171875, 10.0, 1.4223358631134033, 1.5, 1.4223358631134033
14204, -0.7046422362327576, -1.6249463558197021, 0.6128004789352417, 0.4289284944534302, 0.1924956887960434, -0.31853988766670227, 0.48812705278396606, 0.21814091503620148, -0.07484084367752075, -0.8008389472961426, -0.9719153642654419, 0.06426657736301422, -0.42812985715019447, -0.6152371398855507, 1.1383314829688058, 9362.0, 30146.0, 35388.0, 9362.0, 8.370248794555664, 0.008792429231107235, 0.2293945848941803, 0.5981438159942627, 0.003686061827465892, -0.060852400958538055, 0.9972665309906006, -0.08053268492221832, -0.07543754577636719, 1.48974609375, 1.359375, 0.0160980224609375, 1.490478515625, 1.44140625, 10.0, 1.4223358631134033, 1.5, 1.4223358631134033
14224, -0.7044606804847717, -1.6250070333480835, 0.6165646910667419, 0.43874627351760864, 0.1968831568956375, -0.3200424611568451, 0.4936506152153015, 0.22060626745224, -0.07542484998703003, -0.8009104132652283, -0.9718843698501587, 0.06425429880619049, -0.41918010201338085, -0.6375333904816785, 1.1659085476447086, 9362.0, 30146.0, 35388.0, 9362.0, 8.370248794555664, -0.006227890029549599, -0.013642179779708385, 0.11384556442499161, 0.004732782952487469, -0.058199312537908554, 0.9981745481491089, -0.08053268492221832, -0.07543754577636719, 1.48974609375, 1.359375, 0.0160980224609375, 1.49267578125, 1.39306640625, 10.0, 1.4220789670944214, 1.5, 1.4220789670944214
14244, -0.705900251865387, -1.6231193542480469, 0.6180270910263062, 0.4486745297908783, 0.20131994783878326, -0.3215559124946594, 0.4991784691810608, 0.22307413816452026, -0.07584933936595917, -0.8009535670280457, -0.9718732237815857, 0.06423810124397278, -0.43460804334707726, -0.6017853885981879, 1.1794087643916893, 9362.0, 30146.0, 35388.0, 9362.0, 8.370248794555664, -0.1445961445569992, -0.3003666400909424, 0.42410746216773987, 0.004814822692424059, -0.060423463582992554, 0.9975538849830627, -0.08053268492221832, -0.07543754577636719, 1.48974609375, 1.39013671875, 0.0314483642578125, 1.494140625, 1.40625, 10.0, 1.4220139980316162, 1.5, 1.4220139980316162
14254, -0.707050621509552, -1.6221622228622437, 0.6196399331092834, 0.453680157661438, 0.2035568654537201, -0.32231491804122925, 0.5019479393959045, 0.22431057691574097, -0.07595150917768478, -0.8010096549987793, -0.9718937277793884, 0.06429345160722733, -0.4150951710255949, -0.5614791874207867, 1.1847789812543033, 9362.0, 30146.0, 35388.0, 9362.0, 8.370248794555664, -0.33062657713890076, -0.16446857154369354, 0.2872636616230011, 0.004814822692424059, -0.060423463582992554, 0.9975538849830627, -0.08053268492221832, -0.07543754577636719, 1.48974609375, 1.409912109375, 0.0501251220703125, 1.494140625, 1.42236328125, 10.0, 1.4219131469726562, 1.5, 1.4219131469726562
14274, -0.7067556977272034, -1.6225144863128662, 0.6197072863578796, 0.46377426385879517, 0.20806778967380524, -0.32384011149406433, 0.5074630379676819, 0.22678352892398834, -0.07653067260980606, -0.8010165095329285, -0.9718862175941467, 0.0643051415681839, -0.4171529118258877, -0.5627551904788959, 1.190293736041222, 9362.0, 30146.0, 35388.0, 9362.0, 8.370248794555664, -0.004436215851455927, -0.06768620759248734, -0.11878208070993423, 0.004814822692424059, -0.060423463582992554, 0.9975538849830627, -0.053797319531440735, -0.27255821228027344, 1.4736328125, 1.409912109375, 0.0501251220703125, 1.494140625, 1.364501953125, 10.0, 1.422008752822876, 1.5, 1.422008752822876
14324, -0.7066139578819275, -1.6241077184677124, 0.6187939047813416, 0.48949238657951355, 0.21956183016300201, -0.3276894986629486, 0.5212606191635132, 0.2329730987548828, -0.07774017006158829, -0.8007946014404297, -0.971907913684845, 0.06425267457962036, -0.43075295719615975, -0.6232351914964909, 1.1409753677448806, 9362.0, 30146.0, 35388.0, 9362.0, 8.370248794555664, -0.16921842098236084, -0.043582599610090256, 0.16802850365638733, 0.002138569252565503, -0.06154406815767288, 0.9972909688949585, -0.053797319531440735, -0.27255821228027344, 1.4736328125, 1.409912109375, 0.0501251220703125, 1.49267578125, 1.4150390625, 10.0, 1.4217711687088013, 1.5, 1.4217711687088013
14334, -0.7068938612937927, -1.6249452829360962, 0.617053210735321, 0.4947188198566437, 0.22189776599407196, -0.32846733927726746, 0.5240253210067749, 0.2342129647731781, -0.07782860845327377, -0.8009639978408813, -0.9718735814094543, 0.06425870209932327, -0.4332614319678745, -0.6029800230289766, 1.1796421635518852, 9362.0, 30146.0, 35388.0, 9362.0, 8.370248794555664, 0.04484144225716591, 0.23278191685676575, 0.04542148485779762, 0.002138569252565503, -0.06154406815767288, 0.9972909688949585, -0.053797319531440735, -0.27255821228027344, 1.4736328125, 1.409912109375, 0.0501251220703125, 1.49267578125, 1.4150390625, 10.0, 1.4218289852142334, 1.5, 1.4218289852142334
