timeTick, roll, pitch, yaw, stateX, stateY, stateZ, stateVX, stateVY, stateVZ, otX0, otY0, otZ0, otRoll0, otPitch0, otYaw0, left wing, pitch motor, yaw motor, right wing, voltage, roll rate, pitch rate, yaw rate, A_x, A_y, A_z, current, i_raw, v_raw, airflow_voltage, airflow_speed, pot_Pitch, voltage_nKF, kFFx, volt_KF_vel, kP, volt_KF_pos
19154, -1.1599985361099243, 4.530984401702881, -1.4263768196105957, 0, 0, 0, 0, 0, 0, -0.8020115494728088, -0.9448051452636719, 0.06441885232925415, 0.3894173076345858, 0.07797171631222, 0.5353229355465583, 0, 0, 0, 0, 0, 0, 0, 0, 0, 0, 0, 0, 0, 0, 0, 0, 0, 0, 0, 0, 0, 0
19164, -1.1601873636245728, 4.529382228851318, -1.4239592552185059, 5.61112210561987e-05, -1.588351369719021e-05, -1.0560131072998047, 0.0017732500564306974, -0.0005019704694859684, -0.12063344568014145, -0.802024245262146, -0.9448199272155762, 0.06446558237075806, 0.37766716441155207, 0.06975711849767663, 0.5396844901300392, 9362.0, 30146.0, 35388.0, 9362.0, 0, -0.05689868703484535, 0.2656518518924713, 0.3087834417819977, 0.01613432541489601, -0.04576510936021805, 0.9976113438606262, 0, 0, 0, 0, 0, 0, 0, 0, 0, 0, 0
19174, -1.160630226135254, 4.527750492095947, -1.4217355251312256, 3.5426321119302884e-05, -1.0030222256318666e-05, -1.0572218894958496, -0.0059103346429765224, 0.001672305166721344, -0.12112252414226532, -0.8020184636116028, -0.9448068141937256, 0.06446249783039093, 0.38801228859056075, 0.08816009191036756, 0.5352838008467695, 9362.0, 30146.0, 35388.0, 9362.0, 0, 0.07407227903604507, -0.14952929317951202, 0.09036310762166977, 0.014265713281929493, -0.04739203304052353, 0.9974589943885803, 0, 0, 0, 1.44287109375, 0.0936279296875, 0, 0.826171875, 10.0, 1.4705191850662231, 1.5, 1.4705191850662231
19184, -1.1606059074401855, 4.527917861938477, -1.4204888343811035, -6.206474790815264e-05, 1.7560818378115073e-05, -1.0584357976913452, -0.013587978668510914, 0.0038456071633845568, -0.12165318429470062, -0.8020060658454895, -0.9448150992393494, 0.06445883214473724, 0.3828426934226532, 0.08706249966172663, 0.5323209947785924, 9362.0, 30146.0, 35388.0, 9362.0, 0, 0.0831567645072937, 0.16198161244392395, 0.023486830294132233, 0.012499244883656502, -0.0462493970990181, 0.9993055462837219, 0, 0, 0, 1.36376953125, 0.017181396484375, 1.49267578125, 1.237060546875, 10.0, 1.4703717231750488, 1.5, 1.4703717231750488
19194, -1.1606146097183228, 4.527000427246094, -1.4197059869766235, -0.00023630687792319804, 6.688348366878927e-05, -1.0596551895141602, -0.021260494366288185, 0.0060187592171132565, -0.12221390753984451, -0.802078366279602, -0.9448099732398987, 0.06449400633573532, 0.39500099759482615, 0.050542824152927324, 0.5499725355353592, 9362.0, 30146.0, 35388.0, 9362.0, 0, 0.07139188051223755, -0.16928517818450928, -0.03303295373916626, 0.013358057476580143, -0.04682006314396858, 0.9996892213821411, 0, 0, 0, 1.00634765625, 2.84368896484375, 1.49267578125, 1.13671875, 10.0, 1.4693039655685425, 1.5, 1.4693039655685425
19204, -1.1604679822921753, 4.527524471282959, -1.4191795587539673, -0.0004873360740020871, 0.00013795372797176242, -1.0608793497085571, -0.028945373371243477, 0.008195183239877224, -0.12262138724327087, -0.801982045173645, -0.9448333382606506, 0.06448967754840851, 0.3764513790436453, 0.08890772795024304, 0.5585138100519514, 9362.0, 30146.0, 35388.0, 9362.0, 0, 0.10831800848245621, -0.3458760380744934, -0.09967954456806183, 0.013244960457086563, -0.045999739319086075, 0.9994330406188965, 0, 0, 0, 1.13525390625, 0.8764495849609375, 1.49560546875, 1.133056640625, 10.0, 1.468327522277832, 1.5, 1.468327522277832
19214, -1.1603220701217651, 4.5291218757629395, -1.4193363189697266, -0.0008152213413268328, 0.00023079177481122315, -1.0621074438095093, -0.036631688475608826, 0.01037235651165247, -0.12299097329378128, -0.8020104169845581, -0.9448214769363403, 0.06448598206043243, 0.3731536337344906, 0.07151718329390633, 0.5620541276416864, 9362.0, 30146.0, 35388.0, 9362.0, 0, 0.10347311198711395, 0.3004772961139679, 0.019947784021496773, 0.01281297579407692, -0.04726455733180046, 0.9978974461555481, 0, 0, 0, 1.663330078125, 0.5723114013671875, 1.49560546875, 0.89208984375, 10.0, 1.4684853553771973, 1.5, 1.4684853553771973
19224, -1.1605019569396973, 4.528162956237793, -1.419227957725525, -0.0012199812335893512, 0.0003454020188655704, -1.063339114189148, -0.044320281594991684, 0.012549715116620064, -0.12334325164556503, -0.8019973039627075, -0.9448239803314209, 0.0644441619515419, 0.371168035229576, 0.07636536635359903, 0.5635994849091028, 9362.0, 30146.0, 35388.0, 9362.0, 0, -0.15965886414051056, -0.37180325388908386, -0.023820511996746063, 0.014328033663332462, -0.0482107438147068, 0.9982060790061951, 0, 0, 0, 1.67724609375, 0.6079559326171875, 1.491943359375, 0.78369140625, 10.0, 1.469413161277771, 1.5, 1.469413161277771
19234, -1.1611967086791992, 4.530731201171875, -1.4191311597824097, -0.0017015822231769562, 0.00048176851123571396, -1.0645750761032104, -0.051999934017658234, 0.01472356915473938, -0.12384383380413055, -0.8020086884498596, -0.9448321461677551, 0.06446557492017746, 0.368295144627701, 0.06772737330885548, 0.5687020339021045, 9362.0, 30146.0, 35388.0, 9362.0, 0, 0.016542255878448486, -0.17334289848804474, -0.10293103754520416, 0.012663127854466438, -0.04836546257138252, 0.9991514682769775, 0, 0, 0, 1.6669921875, 0.5816650390625, 1.491943359375, 1.713134765625, 10.0, 1.4677283763885498, 1.5, 1.4677283763885498
19244, -1.1612517833709717, 4.530825614929199, -1.419101595878601, -0.002259960165247321, 0.000639871577732265, -1.0658161640167236, -0.05967563018202782, 0.016897035762667656, -0.12437373399734497, -0.8020071983337402, -0.9448413252830505, 0.06446421146392822, 0.3646948673608026, 0.06474201589111317, 0.5698472260926861, 9362.0, 30146.0, 35388.0, 9362.0, 0, -0.1883234828710556, -0.2528001368045807, -0.0777459368109703, 0.01252632588148117, -0.04782997444272041, 0.9979344606399536, 0, 0, 0, 1.65966796875, 0.5630340576171875, 1.49267578125, 1.446533203125, 10.0, 1.4684087038040161, 1.5, 1.4684087038040161
19254, -1.1630915403366089, 4.531065940856934, -1.4184094667434692, -0.0028951596468687057, 0.0008197278366424143, -1.0670620203018188, -0.06736425310373306, 0.01907421089708805, -0.12479497492313385, -0.8020141124725342, -0.9448143243789673, 0.06446190923452377, 0.37832098157094113, 0.07223526160692018, 0.532446064528368, 9362.0, 30146.0, 35388.0, 9362.0, 8.072728157043457, -0.13690486550331116, -0.1190529614686966, 0.23487161099910736, 0.014773466624319553, -0.045202963054180145, 0.9992952942848206, -0.07677848637104034, 0.06792068481445312, 1.50146484375, 1.594482421875, 0.4041595458984375, 1.49267578125, 1.6611328125, 10.0, 1.4688555002212524, 1.5, 1.4688555002212524
19264, -1.1638507843017578, 4.530792713165283, -1.4173870086669922, -0.003607208840548992, 0.0010213457280769944, -1.0683125257492065, -0.07504559308290482, 0.021249277517199516, -0.1253114640712738, -0.8019975423812866, -0.9448245763778687, 0.06445569545030594, 0.3742561703089946, 0.0719783850691158, 0.5720597294881636, 9362.0, 30146.0, 35388.0, 9362.0, 8.072728157043457, 0.1358051896095276, -0.3983142375946045, -0.1755376160144806, 0.015440408140420914, -0.04690416157245636, 0.9974863529205322, -0.07677848637104034, 0.06792068481445312, 1.50146484375, 1.680908203125, 0.6174774169921875, 1.494140625, 1.348388671875, 10.0, 1.4678781032562256, 1.5, 1.4678781032562256
19274, -1.162855863571167, 4.532685279846191, -1.4186804294586182, -0.004396114964038134, 0.0012447414919734001, -1.0695676803588867, -0.08273564279079437, 0.02342972718179226, -0.12572163343429565, -0.8020259737968445, -0.944834291934967, 0.06457211822271347, 0.37661709853706704, 0.03838700648478266, 0.6089514410861362, 9362.0, 30146.0, 35388.0, 9362.0, 8.072728157043457, 0.02338031306862831, 0.10151316970586777, 0.0700489729642868, 0.014102009125053883, -0.04545653983950615, 0.9971494078636169, -0.07677848637104034, 0.06792068481445312, 1.50146484375, 1.4208984375, 0.063079833984375, 1.494140625, 1.447265625, 10.0, 1.468585729598999, 1.5, 1.468585729598999
19284, -1.1627631187438965, 4.530601501464844, -1.4180986881256104, -0.005261879414319992, 0.001489936257712543, -1.0708274841308594, -0.09041722118854523, 0.025609394535422325, -0.12623243033885956, -0.801947832107544, -0.9448524713516235, 0.06455114483833313, 0.3674613045695893, 0.052843433395452166, 0.583083377146875, 9362.0, 30146.0, 35388.0, 9362.0, 8.072728157043457, 0.0020984644070267677, 0.03370041027665138, -0.011858439072966576, 0.016544412821531296, -0.04462549090385437, 0.9979143142700195, -0.07677848637104034, 0.06792068481445312, 1.50146484375, 0.908203125, 5.5896453857421875, 1.49560546875, 1.716796875, 10.0, 1.4666584730148315, 1.5, 1.4666584730148315
19294, -1.1622875928878784, 4.529281139373779, -1.4173997640609741, -0.00620443606749177, 0.0017569090705364943, -1.072092890739441, -0.0980941504240036, 0.027785098180174828, -0.12684433162212372, -0.8019285202026367, -0.9448515176773071, 0.0645490512251854, 0.37987137732587867, 0.05837000830521788, 0.5801691779637329, 9362.0, 30146.0, 35388.0, 9362.0, 8.072728157043457, -0.1186559721827507, 0.14046068489551544, 0.08890389651060104, 0.016232626512646675, -0.044952575117349625, 0.9974418878555298, -0.07677848637104034, 0.06792068481445312, 1.50146484375, 1.587158203125, 0.3869171142578125, 1.49560546875, 1.590087890625, 10.0, 1.4657597541809082, 1.5, 1.4657597541809082
19304, -1.162982702255249, 4.52825403213501, -1.4164414405822754, -0.007223785854876041, 0.002045649103820324, -1.0733639001846313, -0.10577581822872162, 0.0299628097563982, -0.12735117971897125, -0.8019304871559143, -0.9448412656784058, 0.06453978270292282, 0.3755848444739463, 0.05768474070990237, 0.585659557491721, 9362.0, 30146.0, 35388.0, 9362.0, 8.072728157043457, -0.012648556381464005, 0.057844772934913635, -0.12137504667043686, 0.014003763906657696, -0.04552259296178818, 0.9958345890045166, -0.07677848637104034, 0.06792068481445312, 1.50146484375, 1.6904296875, 0.642578125, 1.493408203125, 1.71240234375, 10.0, 1.4655439853668213, 1.5, 1.4655439853668213
19314, -1.1627781391143799, 4.527643203735352, -1.4174636602401733, -0.008319912478327751, 0.0023561532143503428, -1.0746402740478516, -0.1134495735168457, 0.03213789686560631, -0.12793061137199402, -0.8019511699676514, -0.9448518753051758, 0.06458477675914764, 0.3732273630426807, 0.06039095948597151, 0.5782534834359945, 9362.0, 30146.0, 35388.0, 9362.0, 8.072728157043457, 0.037899259477853775, 0.1527688205242157, -0.04709148034453392, 0.014054003171622753, -0.04477086290717125, 0.9976227283477783, -0.07677848637104034, 0.06792068481445312, 1.50146484375, 1.576171875, 0.361328125, 1.493408203125, 1.512451171875, 10.0, 1.463381052017212, 1.5, 1.463381052017212
19324, -1.1623096466064453, 4.527075290679932, -1.4174789190292358, -0.009492728859186172, 0.002688402310013771, -1.075922966003418, -0.12111365795135498, 0.03431204706430435, -0.12860935926437378, -0.801917552947998, -0.9448403120040894, 0.06454163044691086, 0.38280667830343434, 0.0586877620434052, 0.5727229015897635, 9362.0, 30146.0, 35388.0, 9362.0, 8.072728157043457, -0.03360786288976669, -0.19310253858566284, -0.13235096633434296, 0.015558441169559956, -0.04708368703722954, 0.9982390403747559, -0.07677848637104034, 0.06792068481445312, 1.50146484375, 1.60546875, 0.43011474609375, 1.497802734375, 1.54833984375, 10.0, 1.4617270231246948, 1.5, 1.4617270231246948
19334, -1.1629259586334229, 4.527883052825928, -1.4176361560821533, -0.010742218233644962, 0.0030424022115767, -1.0772119760513306, -0.12878425419330597, 0.03648796305060387, -0.12919248640537262, -0.8018889427185059, -0.9448562860488892, 0.06465525180101395, 0.38314748867405557, 0.07221852685728436, 0.5595006851309149, 9362.0, 30146.0, 35388.0, 9362.0, 8.072728157043457, 0.18651960790157318, -0.03662816062569618, -0.22807413339614868, 0.015891317278146744, -0.04665592685341835, 0.9972294569015503, -0.07677848637104034, 0.06792068481445312, 1.50146484375, 1.635498046875, 0.5028533935546875, 1.497802734375, 1.43994140625, 10.0, 1.4609248638153076, 1.5, 1.4609248638153076
19344, -1.162337064743042, 4.527780532836914, -1.419132113456726, -0.012068450450897217, 0.0034181689843535423, -1.078506350517273, -0.13646215200424194, 0.03866541013121605, -0.12967084348201752, -0.8018677234649658, -0.9448514580726624, 0.06462422013282776, 0.3845741539323893, 0.06920007126782934, 0.5565689381540937, 9362.0, 30146.0, 35388.0, 9362.0, 8.072728157043457, 0.054666899144649506, -0.04364316910505295, -0.17313866317272186, 0.017072146758437157, -0.0471939854323864, 0.997914731502533, -0.07677848637104034, 0.06792068481445312, 1.50146484375, 0.91552734375, 5.3381195068359375, 1.491943359375, 1.36669921875, 10.0, 1.4609488248825073, 1.5, 1.4609488248825073
19354, -1.1617155075073242, 4.528383255004883, -1.4210559129714966, -0.01347142830491066, 0.0038157044909894466, -1.0798059701919556, -0.14413341879844666, 0.040841903537511826, -0.13024945557117462, -0.8018834590911865, -0.9448668360710144, 0.06460733711719513, 0.3816526903508556, 0.07033594905314544, 0.5667416195162083, 9362.0, 30146.0, 35388.0, 9362.0, 8.072728157043457, -0.0036518899723887444, 0.03320682793855667, 0.328835666179657, 0.01574544794857502, -0.047299500554800034, 0.9994266033172607, -0.07476689666509628, 0.07688140869140625, 1.502197265625, 0.919189453125, 5.2154083251953125, 1.491943359375, 1.34619140625, 10.0, 1.4607343673706055, 1.5, 1.4607343673706055
19364, -1.1615633964538574, 4.528472423553467, -1.4191200733184814, -0.014951148070394993, 0.004235009662806988, -1.081110954284668, -0.15181049704551697, 0.04301934316754341, -0.13075193762779236, -0.801875114440918, -0.9448525309562683, 0.0646301731467247, 0.3843816139023496, 0.07516441108643335, 0.5650195451685117, 9362.0, 30146.0, 35388.0, 9362.0, 8.072728157043457, 0.1335434466600418, 0.024463627487421036, -0.14664340019226074, 0.016396988183259964, -0.046568647027015686, 0.9989138245582581, -0.07476689666509628, 0.07688140869140625, 1.502197265625, 1.70947265625, 0.693572998046875, 1.5, 1.5849609375, 10.0, 1.4612077474594116, 1.5, 1.4612077474594116
19374, -1.1610618829727173, 4.528687953948975, -1.4208883047103882, -0.016507672145962715, 0.0046760933473706245, -1.0824205875396729, -0.15949444472789764, 0.04519713297486305, -0.13118085265159607, -0.8018936514854431, -0.9448528289794922, 0.06464245170354843, 0.3831139514300439, 0.07471123832362991, 0.5611305708396648, 9362.0, 30146.0, 35388.0, 9362.0, 8.072728157043457, -0.05065865069627762, 0.06282353401184082, 0.0653766319155693, 0.01722678542137146, -0.04514199122786522, 0.9985726475715637, -0.07476689666509628, 0.07688140869140625, 1.502197265625, 1.66552734375, 0.5779266357421875, 1.5, 1.694091796875, 10.0, 1.4607981443405151, 1.5, 1.4607981443405151
19384, -1.1624252796173096, 4.5289306640625, -1.4211968183517456, -0.018141034990549088, 0.0051389518193900585, -1.0837345123291016, -0.16717809438705444, 0.04737478122115135, -0.13161545991897583, -0.8018771409988403, -0.9448474645614624, 0.06462819129228592, 0.38442579342376343, 0.08730437748243958, 0.5612693421291406, 9362.0, 30146.0, 35388.0, 9362.0, 8.072728157043457, -0.18677151203155518, 0.2701893448829651, 0.5384097695350647, 0.015002542175352573, -0.046478044241666794, 0.9995957016944885, -0.07476689666509628, 0.07688140869140625, 1.502197265625, 1.5205078125, 0.237762451171875, 1.496337890625, 1.24658203125, 10.0, 1.459934115409851, 1.5, 1.459934115409851
19394, -1.1644511222839355, 4.526693344116211, -1.4173141717910767, -0.01985122822225094, 0.005623581353574991, -1.0850529670715332, -0.17486059665679932, 0.049551207572221756, -0.13206857442855835, -0.8018730878829956, -0.944844126701355, 0.06466031074523926, 0.39291852458260024, 0.08621260531000985, 0.5630269777756999, 9362.0, 30146.0, 35388.0, 9362.0, 8.072728157043457, 0.0481807179749012, 0.014866029843688011, -0.035879433155059814, 0.01514588575810194, -0.046496860682964325, 0.9998257756233215, -0.07476689666509628, 0.07688140869140625, 1.502197265625, 1.130859375, 0.91998291015625, 1.496337890625, 1.546875, 10.0, 1.4606759548187256, 1.5, 1.4606759548187256
19404, -1.164560079574585, 4.525045871734619, -1.4177813529968262, -0.02163827233016491, 0.006129994057118893, -1.0863755941390991, -0.1825484186410904, 0.05173081159591675, -0.132461279630661, -0.8019385933876038, -0.9448345303535461, 0.06459080427885056, 0.40810823719454636, 0.08316566385244073, 0.5134538542865891, 9362.0, 30146.0, 35388.0, 9362.0, 8.072728157043457, 0.1457880437374115, 0.214300274848938, -0.19075284898281097, 0.015145341865718365, -0.044115450233221054, 0.9993650913238525, -0.07476689666509628, 0.07688140869140625, 1.502197265625, 0.9287109375, 4.90576171875, 1.496337890625, 1.707275390625, 10.0, 1.461124062538147, 1.5, 1.461124062538147
19414, -1.1639947891235352, 4.523691177368164, -1.4195443391799927, -0.023502185940742493, 0.0066582197323441505, -1.0877020359039307, -0.19023436307907104, 0.05391442030668259, -0.13282723724842072, -0.8019585609436035, -0.9448540806770325, 0.06455232948064804, 0.3916961938340064, 0.06565937143363954, 0.5612103724229102, 9362.0, 30146.0, 35388.0, 9362.0, 8.072728157043457, -0.0010488914558663964, 0.06229579076170921, 0.3166767358779907, 0.014526178129017353, -0.045100923627614975, 0.9982834458351135, -0.07476689666509628, 0.07688140869140625, 1.502197265625, 1.47802734375, 0.1532745361328125, 1.496337890625, 1.046630859375, 10.0, 1.4617187976837158, 1.5, 1.4617187976837158
19424, -1.163375973701477, 4.522472858428955, -1.4181394577026367, -0.02544294111430645, 0.007208281196653843, -1.0890321731567383, -0.19791662693023682, 0.056098148226737976, -0.13320359587669373, -0.8019947409629822, -0.9448332786560059, 0.06452354788780212, 0.39648051884531627, 0.0574179534835082, 0.5354932058449522, 9362.0, 30146.0, 35388.0, 9362.0, 8.072728157043457, -0.08712336421012878, -0.3087211549282074, -0.3292877972126007, 0.014881351962685585, -0.04656236618757248, 0.9973719120025635, -0.07476689666509628, 0.07688140869140625, 1.502197265625, 1.68310546875, 0.6232757568359375, 1.49853515625, 1.72119140625, 10.0, 1.460849642753601, 1.5, 1.460849642753601
19434, -1.1637901067733765, 4.523298740386963, -1.4202911853790283, -0.02746046893298626, 0.007780165411531925, -1.0903666019439697, -0.20558910071849823, 0.058278534561395645, -0.13367517292499542, -0.8019999861717224, -0.9448307156562805, 0.06453192234039307, 0.3907177835705936, 0.057184277420162744, 0.538917800454471, 9362.0, 30146.0, 35388.0, 9362.0, 8.072728157043457, 0.22895699739456177, -0.17659209668636322, 0.024411918595433235, 0.013028888031840324, -0.046292953193187714, 0.9983082413673401, -0.07476689666509628, 0.07688140869140625, 1.502197265625, 1.60546875, 0.43011474609375, 1.49853515625, 0.89501953125, 10.0, 1.4610426425933838, 1.5, 1.4610426425933838
19454, -1.1641169786453247, 4.526529788970947, -1.420910358428955, -0.02955467998981476, 0.008373837918043137, -1.0917061567306519, -0.2132532000541687, 0.06045631691813469, -0.13422688841819763, -0.8019837141036987, -0.9448246359825134, 0.06448515504598618, 0.3976742608666297, 0.0651718661149232, 0.5388932839254538, 9362.0, 30146.0, 35388.0, 9362.0, 8.072728157043457, -0.205163836479187, -0.41231635212898254, -0.08653322607278824, 0.014404754154384136, -0.044340431690216064, 0.9965466260910034, -0.07476689666509628, 0.07688140869140625, 1.502197265625, 1.2890625, 0.0663909912109375, 1.49853515625, 1.294921875, 10.0, 1.4610426425933838, 1.5, 1.4610426425933838
19464, -1.164656639099121, 4.526002407073975, -1.4202854633331299, -0.02955467998981476, 0.008373837918043137, -1.0917061567306519, -0.2132532000541687, 0.06045631691813469, -0.13422688841819763, -0.8020635843276978, -0.9448201060295105, 0.06452170014381409, 0.4007634222968841, 0.043732129299030476, 0.5760853166012619, 9362.0, 30146.0, 35388.0, 9362.0, 8.072728157043457, 0.01603269949555397, 0.3384856879711151, 0.008323867805302143, 0.014404754154384136, -0.044340431690216064, 0.9965466260910034, -0.07476689666509628, 0.07688140869140625, 1.502197265625, 1.2890625, 0.0663909912109375, 1.49853515625, 1.294921875, 10.0, 1.4623262882232666, 1.5, 1.4623262882232666
19474, -1.1637732982635498, 4.523644924163818, -1.4198365211486816, -0.02955467998981476, 0.008373837918043137, -1.0917061567306519, -0.2132532000541687, 0.06045631691813469, -0.13422688841819763, -0.8019859790802002, -0.9448162913322449, 0.06444919109344482, 0.36998383453846484, 0.08149655137819423, 0.5542822235618715, 9362.0, 30146.0, 35388.0, 9362.0, 8.072728157043457, 0.01603269949555397, 0.3384856879711151, 0.008323867805302143, 0.015810851007699966, -0.04782455414533615, 0.9988023042678833, -0.07476689666509628, 0.07688140869140625, 1.502197265625, 1.2890625, 0.0663909912109375, 1.49853515625, 1.294921875, 10.0, 1.4626164436340332, 1.5, 1.4626164436340332
19484, -1.1659820079803467, 4.525274753570557, -1.417375087738037, -0.02955467998981476, 0.008373837918043137, -1.0917061567306519, -0.2132532000541687, 0.06045631691813469, -0.13422688841819763, -0.8020505905151367, -0.9447976350784302, 0.06446489691734314, 0.3959501669276859, 0.060577284601095016, 0.5464745168936092, 9362.0, 30146.0, 35388.0, 9362.0, 8.072728157043457, 0.01603269949555397, 0.3384856879711151, 0.008323867805302143, 0.014462834224104881, -0.04565250128507614, 0.99875408411026, -0.07476689666509628, 0.07688140869140625, 1.502197265625, 1.2890625, 0.0663909912109375, 1.496337890625, 1.294921875, 10.0, 1.4624407291412354, 1.5, 1.4624407291412354
19494, -1.1670359373092651, 4.522858142852783, -1.4163179397583008, -0.02955467998981476, 0.008373837918043137, -1.0917061567306519, -0.2132532000541687, 0.06045631691813469, -0.13422688841819763, -0.802008330821991, -0.9447972774505615, 0.06443513929843903, 0.38744871243217793, 0.08394458355380152, 0.5367453881040972, 9362.0, 30146.0, 35388.0, 9362.0, 8.072728157043457, 0.01603269949555397, 0.3384856879711151, 0.008323867805302143, 0.013089250773191452, -0.045958057045936584, 0.9985669255256653, -0.07476689666509628, 0.07688140869140625, 1.502197265625, 1.2890625, 0.0663909912109375, 1.496337890625, 1.294921875, 10.0, 1.4617565870285034, 1.5, 1.4617565870285034
19534, -1.1668916940689087, 4.524170875549316, -1.413699746131897, -0.05185346305370331, 0.014697725884616375, -1.1040031909942627, -0.2822803556919098, 0.08008571714162827, -0.1389288753271103, -0.8019916415214539, -0.9448245763778687, 0.06447543948888779, 0.38413349784765594, 0.08662470827619018, 0.5333093431611398, 9362.0, 30146.0, 35388.0, 9362.0, 8.072728157043457, -0.07952253520488739, -0.12764805555343628, -0.0484875813126564, 0.012825744226574898, -0.04654309153556824, 0.9959210753440857, -0.07476689666509628, 0.07688140869140625, 1.502197265625, 1.2890625, 0.0663909912109375, 1.493408203125, 1.294921875, 10.0, 1.4619587659835815, 1.5, 1.4619587659835815
19544, -1.167379379272461, 4.524323463439941, -1.414117455482483, -0.05185346305370331, 0.014697725884616375, -1.1040031909942627, -0.2822803556919098, 0.08008571714162827, -0.1389288753271103, -0.8019883632659912, -0.944849967956543, 0.06450288742780685, 0.36692635395504514, 0.07707821053665498, 0.5569969789041043, 9362.0, 30146.0, 35388.0, 9362.0, 8.072728157043457, -0.07952253520488739, -0.12764805555343628, -0.0484875813126564, 0.015327182598412037, -0.046648286283016205, 0.9996837973594666, -0.07476689666509628, 0.07688140869140625, 1.502197265625, 1.2890625, 0.0663909912109375, 1.493408203125, 1.294921875, 10.0, 1.4610425233840942, 1.5, 1.4610425233840942
19594, -1.1668940782546997, 4.5229339599609375, -1.4141327142715454, -0.07017024606466293, 0.019895832985639572, -1.1124380826950073, -0.32829201221466064, 0.0931907445192337, -0.14201390743255615, -0.8020415902137756, -0.9448269605636597, 0.06453374028205872, 0.3836415789947718, 0.05595536097862919, 0.5761028691951497, 9362.0, 30146.0, 35388.0, 9362.0, 8.072728157043457, 0.08411683887243271, -0.06343279778957367, 0.10883956402540207, 0.014751340262591839, -0.045305829495191574, 1.0006321668624878, -0.07476689666509628, 0.07688140869140625, 1.502197265625, 1.2890625, 0.0663909912109375, 1.493408203125, 1.505859375, 10.0, 1.4575772285461426, 1.5, 1.4575772285461426
19664, -1.1678398847579956, 4.529099941253662, -1.4101730585098267, -0.09125002473592758, 0.025881126523017883, -1.1210265159606934, -0.3743714988231659, 0.10632190853357315, -0.14429502189159393, -0.8019828200340271, -0.9448265433311462, 0.06450806558132172, 0.37261595196637365, 0.0838635649056414, 0.5614229105573019, 9362.0, 30146.0, 35388.0, 9362.0, 8.072728157043457, -0.07173551619052887, -0.14720743894577026, 0.2169322967529297, 0.0150259118527174, -0.04735692963004112, 0.9966558218002319, -0.09423501789569855, -0.11127853393554688, 1.48681640625, 1.2890625, 0.0663909912109375, 1.494873046875, 1.2392578125, 10.0, 1.456601619720459, 1.5, 1.456601619720459
19674, -1.1678940057754517, 4.529994964599609, -1.4105331897735596, -0.09125002473592758, 0.025881126523017883, -1.1210265159606934, -0.3743714988231659, 0.10632190853357315, -0.14429502189159393, -0.8020010590553284, -0.944814920425415, 0.06446295231580734, 0.3800839610244955, 0.07512638162415897, 0.5392907706682344, 9362.0, 30146.0, 35388.0, 9362.0, 8.072728157043457, -0.07173551619052887, -0.14720743894577026, 0.2169322967529297, 0.01705719344317913, -0.04432504251599312, 0.9981275200843811, -0.09423501789569855, -0.11127853393554688, 1.48681640625, 1.2890625, 0.0663909912109375, 1.494873046875, 1.2392578125, 10.0, 1.4556699991226196, 1.5, 1.4556699991226196
19704, -1.170751690864563, 4.528606414794922, -1.4064631462097168, -0.11092834174633026, 0.031470540910959244, -1.1283034086227417, -0.4127715528011322, 0.11725478619337082, -0.146763414144516, -0.8019840717315674, -0.9448364973068237, 0.064500592648983, 0.37456746057145035, 0.08056900229476582, 0.5599356636483508, 9362.0, 30146.0, 35388.0, 9362.0, 8.072728157043457, -0.0048815528862178326, -0.1653936356306076, 0.3035803735256195, 0.014439661987125874, -0.0476270392537117, 0.9992873668670654, -0.09423501789569855, -0.11127853393554688, 1.48681640625, 1.2890625, 0.0663909912109375, 1.494873046875, 1.2392578125, 10.0, 1.453311800956726, 1.5, 1.453311800956726
19724, -1.1722508668899536, 4.530764102935791, -1.4050086736679077, -0.1193375363945961, 0.033859461545944214, -1.131246566772461, -0.42814409732818604, 0.12163694202899933, -0.14759482443332672, -0.801996111869812, -0.9448262453079224, 0.06448899954557419, 0.36939674984584864, 0.07659145346659102, 0.5693187387469866, 9362.0, 30146.0, 35388.0, 9362.0, 8.072728157043457, -0.0048815528862178326, -0.1653936356306076, 0.3035803735256195, 0.012720081023871899, -0.04673677310347557, 0.9997251629829407, -0.09423501789569855, -0.11127853393554688, 1.48681640625, 1.2890625, 0.0663909912109375, 1.494873046875, 1.708740234375, 10.0, 1.4541267156600952, 1.5, 1.4541267156600952
19784, -1.171294927597046, 4.524832725524902, -1.4056519269943237, -0.1464097648859024, 0.04155261442065239, -1.1401787996292114, -0.4742697775363922, 0.1348046511411667, -0.15001702308654785, -0.8019918203353882, -0.9448038935661316, 0.06445718556642532, 0.3866220184845432, 0.08761131856874727, 0.5320885400902086, 9362.0, 30146.0, 35388.0, 9362.0, 8.072728157043457, 0.023126209154725075, 0.051254741847515106, 0.39592990279197693, 0.011466576717793941, -0.044004689902067184, 0.9968575835227966, -0.08137153089046478, -0.10231781005859375, 1.487548828125, 1.2890625, 0.0663909912109375, 1.493408203125, 1.645751953125, 10.0, 1.4497061967849731, 1.5, 1.4497061967849731
19794, -1.171446681022644, 4.525765895843506, -1.4062423706054688, -0.1464097648859024, 0.04155261442065239, -1.1401787996292114, -0.4742697775363922, 0.1348046511411667, -0.15001702308654785, -0.8019699454307556, -0.9448291659355164, 0.06449715793132782, 0.3720859754628834, 0.07904621259376654, 0.5546992973286762, 9362.0, 30146.0, 35388.0, 9362.0, 8.072728157043457, 0.023126209154725075, 0.051254741847515106, 0.39592990279197693, 0.014584307558834553, -0.043924592435359955, 0.9978308081626892, -0.08137153089046478, -0.10231781005859375, 1.487548828125, 1.2890625, 0.0663909912109375, 1.493408203125, 1.645751953125, 10.0, 1.4482227563858032, 1.5, 1.4482227563858032
19844, -1.172276496887207, 4.526949882507324, -1.4012960195541382, -0.1710827499628067, 0.048566825687885284, -1.1477388143539429, -0.5126564502716064, 0.145763099193573, -0.1523471623659134, -0.8019993305206299, -0.9448195099830627, 0.06445979326963425, 0.36737615881779956, 0.06753940334630215, 0.5690679743165498, 9362.0, 30146.0, 35388.0, 9362.0, 8.072728157043457, 0.062051188200712204, -0.3171103894710541, -0.0415506511926651, 0.012371646240353584, -0.046330541372299194, 0.999275267124176, -0.08137153089046478, -0.10231781005859375, 1.487548828125, 1.2890625, 0.0663909912109375, 1.49560546875, 1.645751953125, 10.0, 1.4503636360168457, 1.5, 1.4503636360168457
19864, -1.1711738109588623, 4.53063440322876, -1.4001717567443848, -0.18148931860923767, 0.05152583867311478, -1.1507973670959473, -0.5280086398124695, 0.15014052391052246, -0.15340900421142578, -0.8020127415657043, -0.9448286294937134, 0.06448552012443542, 0.3830979300337309, 0.07405128190083587, 0.5305152330263331, 9362.0, 30146.0, 35388.0, 9362.0, 8.072728157043457, 0.062051188200712204, -0.3171103894710541, -0.0415506511926651, 0.013171466998755932, -0.04396088793873787, 0.9988712668418884, -0.08394742012023926, -0.15607833862304688, 1.483154296875, 1.2890625, 0.0663909912109375, 1.49560546875, 1.645751953125, 10.0, 1.4505568742752075, 1.5, 1.4505568742752075
19894, -1.1710803508758545, 4.530291557312012, -1.3970081806182861, -0.19767557084560394, 0.05612880364060402, -1.1554160118103027, -0.5510759353637695, 0.15672139823436737, -0.15454955399036407, -0.8019896745681763, -0.9448482394218445, 0.06449998915195465, 0.3707306667749369, 0.07778093213019588, 0.5571394612667157, 9362.0, 30146.0, 35388.0, 9362.0, 8.072728157043457, 0.09110657870769501, -0.28286275267601013, 0.04234413802623749, 0.01398471836000681, -0.04577238857746124, 0.9987190365791321, -0.08394742012023926, -0.15607833862304688, 1.483154296875, 1.2890625, 0.0663909912109375, 1.49560546875, 0.9375, 10.0, 1.4506299495697021, 1.5, 1.4506299495697021
19904, -1.170540690422058, 4.530789375305176, -1.3968591690063477, -0.19767557084560394, 0.05612880364060402, -1.1554160118103027, -0.5510759353637695, 0.15672139823436737, -0.15454955399036407, -0.8020076751708984, -0.9448230862617493, 0.06448255479335785, 0.38276380212890343, 0.08196530366018351, 0.5251617022280683, 9362.0, 30146.0, 35388.0, 9362.0, 8.072728157043457, 0.09110657870769501, -0.28286275267601013, 0.04234413802623749, 0.013673276640474796, -0.04391968995332718, 0.9994280338287354, -0.08394742012023926, -0.15607833862304688, 1.483154296875, 1.2890625, 0.0663909912109375, 1.4970703125, 0.9375, 10.0, 1.4506299495697021, 1.5, 1.4506299495697021
19914, -1.1711076498031616, 4.531391620635986, -1.3957664966583252, -0.19767557084560394, 0.05612880364060402, -1.1554160118103027, -0.5510759353637695, 0.15672139823436737, -0.15454955399036407, -0.8019747138023376, -0.9448283910751343, 0.0644913837313652, 0.37014420955386707, 0.07690789512793117, 0.5602561385617747, 9362.0, 30146.0, 35388.0, 9362.0, 8.072728157043457, -0.18268270790576935, 0.3119814395904541, 0.20164525508880615, 0.013673276640474796, -0.04391968995332718, 0.9994280338287354, -0.08394742012023926, -0.15607833862304688, 1.483154296875, 1.2890625, 0.0663909912109375, 1.4970703125, 0.9375, 10.0, 1.450311541557312, 1.5, 1.450311541557312
19964, -1.1762166023254395, 4.523548603057861, -1.3909947872161865, -0.23813331127166748, 0.06763575971126556, -1.1663525104522705, -0.604871392250061, 0.17205305397510529, -0.15771272778511047, -0.8019813299179077, -0.9448500871658325, 0.06449905782938004, 0.36860567312193104, 0.07726232760816742, 0.5590368184615327, 9362.0, 30146.0, 35388.0, 9362.0, 8.072728157043457, -0.1198875904083252, 0.2558625042438507, 0.2849644720554352, 0.016063425689935684, -0.04497494921088219, 0.9986146688461304, -0.053678300231695175, 0.0052013397216796875, 1.496337890625, 1.2890625, 0.0663909912109375, 1.494140625, 1.44287109375, 10.0, 1.4483143091201782, 1.5, 1.4483143091201782
19974, -1.1762851476669312, 4.5249247550964355, -1.389534831047058, -0.23813331127166748, 0.06763575971126556, -1.1663525104522705, -0.604871392250061, 0.17205305397510529, -0.15771272778511047, -0.8019858002662659, -0.9448504447937012, 0.06449329107999802, 0.3701826209357452, 0.08219614170454292, 0.5575948371757625, 9362.0, 30146.0, 35388.0, 9362.0, 8.072728157043457, -0.1198875904083252, 0.2558625042438507, 0.2849644720554352, 0.0121774235740304, -0.043783970177173615, 0.9981009364128113, -0.053678300231695175, 0.0052013397216796875, 1.496337890625, 1.2890625, 0.0663909912109375, 1.494140625, 1.7138671875, 10.0, 1.446298599243164, 1.5, 1.446298599243164
20004, -1.1773518323898315, 4.521384239196777, -1.3937162160873413, -0.2693372070789337, 0.07651310414075851, -1.1742854118347168, -0.6432650089263916, 0.18304292857646942, -0.15982405841350555, -0.8020117878913879, -0.9448229074478149, 0.0644533783197403, 0.38092434034395395, 0.07424317702569283, 0.5438433935579231, 9362.0, 30146.0, 35388.0, 9362.0, 8.072728157043457, -0.1198875904083252, 0.2558625042438507, 0.2849644720554352, 0.01597571186721325, -0.04695100709795952, 0.9971834421157837, -0.053678300231695175, 0.0052013397216796875, 1.496337890625, 1.2890625, 0.0663909912109375, 1.494140625, 1.7138671875, 10.0, 1.443464756011963, 1.5, 1.443464756011963
20034, -1.1766846179962158, 4.5200629234313965, -1.390392780303955, -0.2823559641838074, 0.08021796494722366, -1.177491307258606, -0.6586006879806519, 0.18744154274463654, -0.16085051000118256, -0.8019866943359375, -0.9448421597480774, 0.06450503319501877, 0.3718033559176981, 0.07542007299221609, 0.5529932877940451, 9362.0, 30146.0, 35388.0, 9362.0, 8.072728157043457, 0.0784030333161354, -0.03650801256299019, 0.1716163009405136, 0.013576039113104343, -0.044377975165843964, 0.9967260956764221, -0.053678300231695175, 0.0052013397216796875, 1.496337890625, 1.2890625, 0.0663909912109375, 1.494140625, 1.7138671875, 10.0, 1.443349003791809, 1.5, 1.443349003791809
20064, -1.1781349182128906, 4.519694805145264, -1.3859913349151611, -0.3093123733997345, 0.08789127320051193, -1.1839747428894043, -0.6892332434654236, 0.19622670114040375, -0.1631791889667511, -0.8019866347312927, -0.9448554515838623, 0.0645039975643158, 0.3745758905878738, 0.07583265889232393, 0.5571111367760828, 9362.0, 30146.0, 35388.0, 9362.0, 8.072728157043457, 0.020963463932275772, 0.0602341890335083, 0.1440361887216568, 0.01367602776736021, -0.04712871462106705, 0.9984952807426453, -0.053678300231695175, 0.0052013397216796875, 1.496337890625, 1.2890625, 0.0663909912109375, 1.497802734375, 1.59521484375, 10.0, 1.4416570663452148, 1.5, 1.4416570663452148
20084, -1.1792353391647339, 4.515382289886475, -1.3846325874328613, -0.3232503831386566, 0.09185981750488281, -1.187247633934021, -0.7045683264732361, 0.20062756538391113, -0.16409683227539062, -0.8020027875900269, -0.9448224306106567, 0.06449287384748459, 0.379348570559432, 0.08189495035014716, 0.5350094428313269, 9362.0, 30146.0, 35388.0, 9362.0, 8.072728157043457, -0.18493536114692688, 0.49002835154533386, 0.16991764307022095, 0.014101478271186352, -0.04698524996638298, 0.9962035417556763, -0.053678300231695175, 0.0052013397216796875, 1.496337890625, 1.2890625, 0.0663909912109375, 1.491943359375, 1.59521484375, 10.0, 1.4427331686019897, 1.5, 1.4427331686019897
20094, -1.1797142028808594, 4.5123443603515625, -1.3827990293502808, -0.3232503831386566, 0.09185981750488281, -1.187247633934021, -0.7045683264732361, 0.20062756538391113, -0.16409683227539062, -0.8019912838935852, -0.9448326826095581, 0.06446147710084915, 0.3699241843093468, 0.07363705589330038, 0.5589833893383206, 9362.0, 30146.0, 35388.0, 9362.0, 8.072728157043457, -0.18493536114692688, 0.49002835154533386, 0.16991764307022095, 0.015674510970711708, -0.04423239082098007, 0.9994742274284363, -0.053678300231695175, 0.0052013397216796875, 1.496337890625, 1.2890625, 0.0663909912109375, 1.491943359375, 1.4736328125, 10.0, 1.4427331686019897, 1.5, 1.4427331686019897
20104, -1.1782360076904297, 4.511416435241699, -1.3834233283996582, -0.3232503831386566, 0.09185981750488281, -1.187247633934021, -0.7045683264732361, 0.20062756538391113, -0.16409683227539062, -0.801994264125824, -0.9448199272155762, 0.06448014080524445, 0.3759630150690522, 0.07873373165617181, 0.528152134854456, 9362.0, 30146.0, 35388.0, 9362.0, 8.072728157043457, -0.18493536114692688, 0.49002835154533386, 0.16991764307022095, 0.011954201385378838, -0.04509272053837776, 0.9991484880447388, -0.053678300231695175, 0.0052013397216796875, 1.496337890625, 1.2890625, 0.0663909912109375, 1.496337890625, 1.4736328125, 10.0, 1.4444643259048462, 1.5, 1.4444643259048462
20134, -1.1783596277236938, 4.511910438537598, -1.3850655555725098, -0.35943499207496643, 0.10216600447893143, -1.1955255270004272, -0.7428128719329834, 0.21162088215351105, -0.1669054478406906, -0.8019934892654419, -0.9448326230049133, 0.06448038667440414, 0.3677020438845767, 0.07284373473339656, 0.5588128443163123, 9362.0, 30146.0, 35388.0, 9362.0, 8.072728157043457, -0.0083471043035388, -0.36078986525535583, -0.050565049052238464, 0.014141945168375969, -0.04608115553855896, 0.9964579343795776, -0.053678300231695175, 0.0052013397216796875, 1.496337890625, 1.2890625, 0.0663909912109375, 1.496337890625, 1.685302734375, 10.0, 1.4431123733520508, 1.5, 1.4431123733520508
20144, -1.179713249206543, 4.51457405090332, -1.384848952293396, -0.36690130829811096, 0.10429318249225616, -1.1971980333328247, -0.7504504919052124, 0.213815376162529, -0.16759814321994781, -0.8019911646842957, -0.9448361992835999, 0.06446509808301926, 0.3658157120954394, 0.07459307653243741, 0.5618202118355239, 9362.0, 30146.0, 35388.0, 9362.0, 8.072728157043457, -0.0083471043035388, -0.36078986525535583, -0.050565049052238464, 0.013524085283279419, -0.04637737199664116, 0.9993510246276855, -0.053678300231695175, 0.0052013397216796875, 1.496337890625, 1.2890625, 0.0663909912109375, 1.496337890625, 1.685302734375, 10.0, 1.4432897567749023, 1.5, 1.4432897567749023
20164, -1.1812750101089478, 4.516507148742676, -1.3845614194869995, -0.36690130829811096, 0.10429318249225616, -1.1971980333328247, -0.7504504919052124, 0.213815376162529, -0.16759814321994781, -0.8019993901252747, -0.9448299407958984, 0.06450589001178741, 0.36644242370044644, 0.0810098053828483, 0.5562800950044237, 9362.0, 30146.0, 35388.0, 9362.0, 8.072728157043457, -0.0083471043035388, -0.36078986525535583, -0.050565049052238464, 0.012009917758405209, -0.04451103135943413, 0.9999834895133972, -0.07487909495830536, -0.19191741943359375, 1.480224609375, 1.2890625, 0.0663909912109375, 1.496337890625, 1.713134765625, 10.0, 1.4426188468933105, 1.5, 1.4426188468933105
20194, -1.1816450357437134, 4.517312049865723, -1.3811521530151367, -0.4053816795349121, 0.11525949835777283, -1.2056266069412231, -0.788768470287323, 0.2248399704694748, -0.16957607865333557, -0.8019816279411316, -0.9448153376579285, 0.0644724890589714, 0.35360843596579344, 0.0781469906816028, 0.5695311869174362, 9362.0, 30146.0, 35388.0, 9362.0, 8.072728157043457, -0.04282470420002937, 0.10806780308485031, 0.1931491196155548, 0.015958258882164955, -0.04381059110164642, 0.9991796612739563, -0.07487909495830536, -0.19191741943359375, 1.480224609375, 1.2890625, 0.0663909912109375, 1.49267578125, 1.153564453125, 10.0, 1.4405797719955444, 1.5, 1.4405797719955444
20224, -1.1801835298538208, 4.513767242431641, -1.3829712867736816, -0.4213102459907532, 0.1198003888130188, -1.2090280055999756, -0.8040911555290222, 0.22925052046775818, -0.17052483558654785, -0.801990807056427, -0.9448225498199463, 0.06448901444673538, 0.3565722841223217, 0.08289603523840583, 0.5584167018936224, 9362.0, 30146.0, 35388.0, 9362.0, 8.072728157043457, -0.04282470420002937, 0.10806780308485031, 0.1931491196155548, 0.01679426245391369, -0.044878698885440826, 0.9976328015327454, -0.07487909495830536, -0.19191741943359375, 1.480224609375, 1.2890625, 0.0663909912109375, 1.49267578125, 1.153564453125, 10.0, 1.4401711225509644, 1.5, 1.4401711225509644
20264, -1.1819100379943848, 4.512693405151367, -1.3807264566421509, -0.45408740639686584, 0.12914684414863586, -1.2158793210983276, -0.83474200963974, 0.23806755244731903, -0.17228074371814728, -0.801980197429657, -0.9447999000549316, 0.06449544429779053, 0.3609795630526179, 0.08528549517077977, 0.5534130117070734, 9362.0, 30146.0, 35388.0, 9362.0, 8.072728157043457, -0.04282470420002937, 0.10806780308485031, 0.1931491196155548, 0.012644094415009022, -0.04589041322469711, 0.9988802075386047, -0.08263882994651794, -0.01271820068359375, 1.494873046875, 1.2890625, 0.0663909912109375, 1.4970703125, 1.66845703125, 10.0, 1.437152624130249, 1.5, 1.437152624130249
20274, -1.1823121309280396, 4.513948917388916, -1.382639765739441, -0.45408740639686584, 0.12914684414863586, -1.2158793210983276, -0.83474200963974, 0.23806755244731903, -0.17228074371814728, -0.8019846677780151, -0.9447991847991943, 0.06447921693325043, 0.3622377152353017, 0.08078666309953064, 0.5641443757163882, 9362.0, 30146.0, 35388.0, 9362.0, 8.072728157043457, -0.04282470420002937, 0.10806780308485031, 0.1931491196155548, 0.012644094415009022, -0.04589041322469711, 0.9988802075386047, -0.08263882994651794, -0.01271820068359375, 1.494873046875, 1.2890625, 0.0663909912109375, 1.4970703125, 1.66845703125, 10.0, 1.4373197555541992, 1.5, 1.4373197555541992
20334, -1.182388424873352, 4.520506858825684, -1.379759430885315, -0.5233157277107239, 0.14889760315418243, -1.229828953742981, -0.8959933519363403, 0.25570619106292725, -0.1763821244239807, -0.8019950985908508, -0.9448380470275879, 0.06450500339269638, 0.3632526439897492, 0.08623315639670182, 0.5680991806785446, 9362.0, 30146.0, 35388.0, 9362.0, 8.072728157043457, 0.05477367714047432, 0.19237898290157318, -0.11414501816034317, 0.015253505669534206, -0.04522223770618439, 0.9993369579315186, -0.08263882994651794, -0.01271820068359375, 1.494873046875, 1.2890625, 0.0663909912109375, 1.494140625, 1.66845703125, 10.0, 1.4390814304351807, 1.5, 1.4390814304351807
20374, -1.182726502418518, 4.521397113800049, -1.3778636455535889, -0.5597692131996155, 0.1593024730682373, -1.2369190454483032, -0.9266849160194397, 0.2645382583141327, -0.17808067798614502, -0.8019777536392212, -0.9448258876800537, 0.06448596715927124, 0.37897709881619174, 0.07662461574639678, 0.5585920798110671, 9362.0, 30146.0, 35388.0, 9362.0, 8.072728157043457, -0.03478391095995903, -0.05380447208881378, 0.14911726117134094, 0.014726542867720127, -0.04471259564161301, 0.9971753358840942, -0.08263882994651794, -0.01271820068359375, 1.494873046875, 1.2890625, 0.0663909912109375, 1.496337890625, 1.2509765625, 10.0, 1.439821481704712, 1.5, 1.439821481704712
20394, -1.1826269626617432, 4.522656440734863, -1.3793528079986572, -0.5597692131996155, 0.1593024730682373, -1.2369190454483032, -0.9266849160194397, 0.2645382583141327, -0.17808067798614502, -0.8019906282424927, -0.9448436498641968, 0.06449315696954727, 0.37749415102312533, 0.08609143274185271, 0.5582278667546456, 9362.0, 30146.0, 35388.0, 9362.0, 8.072728157043457, 0.12154947966337204, -0.026724472641944885, -0.10599363595247269, 0.013844677247107029, -0.0453467071056366, 0.9986031651496887, -0.08263882994651794, -0.01271820068359375, 1.494873046875, 1.2890625, 0.0663909912109375, 1.496337890625, 1.53369140625, 10.0, 1.4395651817321777, 1.5, 1.4395651817321777
20444, -1.1882364749908447, 4.523830413818359, -1.3830804824829102, -0.6265149116516113, 0.17836059629917145, -1.2495197057724, -0.9803747534751892, 0.2799876928329468, -0.18154430389404297, -0.802036702632904, -0.9448114037513733, 0.06453091651201248, 0.36683856808539944, 0.06576705622558165, 0.5774781479855285, 9362.0, 30146.0, 35388.0, 9362.0, 8.072728157043457, -0.34225988388061523, -0.1175047755241394, 0.010764965787529945, 0.015509308315813541, -0.04599476978182793, 1.0011045932769775, -0.08263882994651794, -0.01271820068359375, 1.494873046875, 1.2890625, 0.0663909912109375, 1.49267578125, 1.263427734375, 10.0, 1.443243384361267, 1.5, 1.443243384361267
20464, -1.193810224533081, 4.523177146911621, -1.3832838535308838, -0.6363570690155029, 0.18117155134677887, -1.2513370513916016, -0.9880577325820923, 0.28220197558403015, -0.1819278448820114, -0.8020085096359253, -0.9448257684707642, 0.06450292468070984, 0.35819731529062937, 0.0822120277682643, 0.5576405181126083, 9362.0, 30146.0, 35388.0, 9362.0, 8.072728157043457, -0.08473707735538483, -0.40596431493759155, -0.09741586446762085, 0.014295206405222416, -0.04656988009810448, 0.9994248151779175, -0.0911097377538681, 0.0052013397216796875, 1.496337890625, 1.2890625, 0.0663909912109375, 1.496337890625, 1.263427734375, 10.0, 1.4445860385894775, 1.5, 1.4445860385894775
20474, -1.1957712173461914, 4.527010917663574, -1.3846174478530884, -0.6562711596488953, 0.18685981631278992, -1.2549914121627808, -1.0033544301986694, 0.28662803769111633, -0.18347498774528503, -0.8020169138908386, -0.9447709918022156, 0.06445644050836563, 0.37217683098182835, 0.09416762957269498, 0.5387880083746873, 9362.0, 30146.0, 35388.0, 9362.0, 8.072728157043457, -0.08473707735538483, -0.40596431493759155, -0.09741586446762085, 0.014261080883443356, -0.04549314081668854, 0.9987736344337463, -0.0911097377538681, 0.0052013397216796875, 1.496337890625, 1.2890625, 0.0663909912109375, 1.496337890625, 1.74462890625, 10.0, 1.4449020624160767, 1.5, 1.4449020624160767
20484, -1.1964529752731323, 4.530444145202637, -1.3858088254928589, -0.6562711596488953, 0.18685981631278992, -1.2549914121627808, -1.0033544301986694, 0.28662803769111633, -0.18347498774528503, -0.8020209074020386, -0.9447782039642334, 0.06444660574197769, 0.3608737533165261, 0.0859238148934196, 0.5388949848181537, 9362.0, 30146.0, 35388.0, 9362.0, 8.072728157043457, -0.3065521717071533, -0.1895596981048584, 0.04669733718037605, 0.016164567321538925, -0.04580420255661011, 0.9993529319763184, -0.0911097377538681, 0.0052013397216796875, 1.496337890625, 1.2890625, 0.0663909912109375, 1.49560546875, 1.74462890625, 10.0, 1.4450089931488037, 1.5, 1.4450089931488037
20494, -1.1982160806655884, 4.532400608062744, -1.3851561546325684, -0.6764917969703674, 0.19263695180416107, -1.2586696147918701, -1.018709659576416, 0.29108697175979614, -0.18435004353523254, -0.8020000457763672, -0.9448047280311584, 0.06447935849428177, 0.356948353247544, 0.09426297098880809, 0.5603069387431409, 9362.0, 30146.0, 35388.0, 9362.0, 8.072728157043457, -0.3065521717071533, -0.1895596981048584, 0.04669733718037605, 0.01671706512570381, -0.04828815907239914, 0.9987746477127075, -0.0911097377538681, 0.0052013397216796875, 1.496337890625, 1.2890625, 0.0663909912109375, 1.49560546875, 1.716796875, 10.0, 1.444097876548767, 1.5, 1.444097876548767
20514, -1.201024055480957, 4.5321946144104, -1.385371208190918, -0.6764917969703674, 0.19263695180416107, -1.2586696147918701, -1.018709659576416, 0.29108697175979614, -0.18435004353523254, -0.8020007610321045, -0.9448058009147644, 0.0644616037607193, 0.35731918513841976, 0.08022757392029689, 0.5643019734802611, 9362.0, 30146.0, 35388.0, 9362.0, 8.072728157043457, -0.1520756483078003, -0.05200839787721634, 0.09607639163732529, 0.013332823291420937, -0.04661569371819496, 0.99989253282547, -0.0911097377538681, 0.0052013397216796875, 1.496337890625, 1.2890625, 0.0663909912109375, 1.4970703125, 0.807861328125, 10.0, 1.4446766376495361, 1.5, 1.4446766376495361
20524, -1.202286958694458, 4.531549453735352, -1.3837043046951294, -0.6764917969703674, 0.19263695180416107, -1.2586696147918701, -1.018709659576416, 0.29108697175979614, -0.18435004353523254, -0.8019866347312927, -0.9447939991950989, 0.06446615606546402, 0.36576378175530566, 0.08403170499323664, 0.5706796011492695, 9362.0, 30146.0, 35388.0, 9362.0, 8.072728157043457, -0.1520756483078003, -0.05200839787721634, 0.09607639163732529, 0.013954018242657185, -0.04740434139966965, 1.0019022226333618, -0.0911097377538681, 0.0052013397216796875, 1.496337890625, 1.2890625, 0.0663909912109375, 1.4970703125, 0.807861328125, 10.0, 1.445415735244751, 1.5, 1.445415735244751
20534, -1.2013064622879028, 4.529543876647949, -1.380898118019104, -0.6764917969703674, 0.19263695180416107, -1.2586696147918701, -1.018709659576416, 0.29108697175979614, -0.18435004353523254, -0.8019932508468628, -0.9447944164276123, 0.06445037573575974, 0.3673138421598371, 0.08461351082718238, 0.5594053939516476, 9362.0, 30146.0, 35388.0, 9362.0, 8.072728157043457, -0.008940466679632664, 0.005073145963251591, 0.23161157965660095, 0.013954018242657185, -0.04740434139966965, 1.0019022226333618, -0.0911097377538681, 0.0052013397216796875, 1.496337890625, 1.2890625, 0.0663909912109375, 1.4970703125, 1.65234375, 10.0, 1.445879578590393, 1.5, 1.445879578590393
20544, -1.2010103464126587, 4.527773857116699, -1.3790993690490723, -0.6764917969703674, 0.19263695180416107, -1.2586696147918701, -1.018709659576416, 0.29108697175979614, -0.18435004353523254, -0.8019875884056091, -0.9448187351226807, 0.06448302417993546, 0.36294521384836487, 0.08288204877683825, 0.562965627726583, 9362.0, 30146.0, 35388.0, 9362.0, 8.072728157043457, -0.008940466679632664, 0.005073145963251591, 0.23161157965660095, 0.014604545198380947, -0.04578978568315506, 0.9976198673248291, -0.0911097377538681, 0.0052013397216796875, 1.496337890625, 1.2890625, 0.0663909912109375, 1.49853515625, 1.65234375, 10.0, 1.4439480304718018, 1.5, 1.4439480304718018
20584, -1.1915528774261475, 4.5242791175842285, -1.3750272989273071, -0.7712901830673218, 0.2197413444519043, -1.275422215461731, -1.0878679752349854, 0.311226487159729, -0.18837891519069672, -0.8019858598709106, -0.9448205828666687, 0.064460888504982, 0.37592413366971666, 0.07831913355477127, 0.5627426098314373, 9362.0, 30146.0, 35388.0, 9362.0, 8.072728157043457, 0.5926240086555481, 0.26848796010017395, 0.3645283579826355, 0.015241019427776337, -0.04686674103140831, 0.9996447563171387, -0.0911097377538681, 0.0052013397216796875, 1.496337890625, 1.2890625, 0.0663909912109375, 1.49853515625, 1.75634765625, 10.0, 1.4453405141830444, 1.5, 1.4453405141830444
20594, -1.1912670135498047, 4.523341178894043, -1.3734482526779175, -0.7712901830673218, 0.2197413444519043, -1.275422215461731, -1.0878679752349854, 0.311226487159729, -0.18837891519069672, -0.8020399212837219, -0.94482421875, 0.06452358514070511, 0.38322924267175823, 0.049583945019264775, 0.5778343049463335, 9362.0, 30146.0, 35388.0, 9362.0, 8.072728157043457, 0.5926240086555481, 0.26848796010017395, 0.3645283579826355, 0.01528806984424591, -0.04681809991598129, 0.9999338984489441, -0.0911097377538681, 0.0052013397216796875, 1.496337890625, 1.2890625, 0.0663909912109375, 1.49853515625, 1.68896484375, 10.0, 1.4435564279556274, 1.5, 1.4435564279556274
20644, -1.1893192529678345, 4.522279262542725, -1.36636483669281, -0.8379439115524292, 0.2388150542974472, -1.2868093252182007, -1.1339198350906372, 0.32455161213874817, -0.19117775559425354, -0.8019858002662659, -0.9448127746582031, 0.06449781358242035, 0.3664060028179782, 0.08707341105539967, 0.5641650823020694, 9362.0, 30146.0, 35388.0, 9362.0, 8.072728157043457, -0.26233789324760437, 0.4782164990901947, 0.2917105257511139, 0.015022999607026577, -0.04426183924078941, 0.9977731704711914, -0.0911097377538681, 0.0052013397216796875, 1.496337890625, 1.8486328125, 1.16552734375, 1.49560546875, 1.657470703125, 10.0, 1.4412620067596436, 1.5, 1.4412620067596436
20664, -1.1917154788970947, 4.523958683013916, -1.3664562702178955, -0.8607755899429321, 0.24535033106803894, -1.2906447649002075, -1.1492493152618408, 0.32897812128067017, -0.19233739376068115, -0.8019991517066956, -0.9448258876800537, 0.06449494510889053, 0.36044530875068553, 0.08984599800115234, 0.552235185028585, 9362.0, 30146.0, 35388.0, 9362.0, 8.072728157043457, -0.2259882688522339, 0.060631901025772095, -0.24785581231117249, 0.013149000704288483, -0.04482069984078407, 0.9982917308807373, -0.0911097377538681, 0.0052013397216796875, 1.496337890625, 1.8486328125, 1.16552734375, 1.4912109375, 1.532958984375, 10.0, 1.4385840892791748, 1.5, 1.4385840892791748
20744, -1.2078136205673218, 4.5309906005859375, -1.3600965738296509, -0.9551709294319153, 0.27238020300865173, -1.306190013885498, -1.2106752395629883, 0.3468177020549774, -0.19596736133098602, -0.8019886612892151, -0.9447982311248779, 0.06449563056230545, 0.3611864563195922, 0.08770083167166831, 0.5544232752225832, 9362.0, 30146.0, 35388.0, 9362.0, 8.072728157043457, -0.3158704936504364, 0.3992539048194885, 0.23520997166633606, 0.012350236065685749, -0.04558729752898216, 0.9967927932739258, -0.0911097377538681, 0.0052013397216796875, 1.496337890625, 1.8486328125, 1.16552734375, 1.491943359375, 1.4150390625, 10.0, 1.4356231689453125, 1.5, 1.4356231689453125
20824, -1.2048492431640625, 4.520227432250977, -1.3476299047470093, -1.0417977571487427, 0.2972075641155243, -1.3200501203536987, -1.2643520832061768, 0.36253416538238525, -0.19997665286064148, -0.8019794821739197, -0.9448289275169373, 0.06448107212781906, 0.36918488564881285, 0.08098731124732694, 0.5633124941970447, 9362.0, 30146.0, 35388.0, 9362.0, 8.072728157043457, -0.2789018154144287, -0.2792368531227112, 0.1669389009475708, 0.013523219153285027, -0.04751092195510864, 0.9990102648735046, -0.08562994003295898, -0.09335899353027344, 1.48828125, 1.8486328125, 1.16552734375, 1.494873046875, 0.897216796875, 10.0, 1.439259648323059, 1.5, 1.439259648323059
20834, -1.2014468908309937, 4.516350269317627, -1.346244215965271, -1.0417977571487427, 0.2972075641155243, -1.3200501203536987, -1.2643520832061768, 0.36253416538238525, -0.19997665286064148, -0.8019900321960449, -0.9448453783988953, 0.06447258591651917, 0.3742810475929364, 0.07623317133257501, 0.5624869405989907, 9362.0, 30146.0, 35388.0, 9362.0, 8.072728157043457, -0.2789018154144287, -0.2792368531227112, 0.1669389009475708, 0.013523219153285027, -0.04751092195510864, 0.9990102648735046, -0.08562994003295898, -0.09335899353027344, 1.48828125, 1.8486328125, 1.16552734375, 1.494873046875, 0.8203125, 10.0, 1.4384222030639648, 1.5, 1.4384222030639648
20884, -1.1903955936431885, 4.512318134307861, -1.3508580923080444, -1.1321799755096436, 0.3231334686279297, -1.334172010421753, -1.3179765939712524, 0.3781733512878418, -0.2034720629453659, -0.8019869923591614, -0.944840669631958, 0.06446508318185806, 0.3750117706083715, 0.08658703274971913, 0.5548601548441993, 9362.0, 30146.0, 35388.0, 9362.0, 8.072728157043457, 0.2635500729084015, 0.34250950813293457, -0.06431081891059875, 0.013631320558488369, -0.04497550427913666, 1.0020159482955933, -0.08562994003295898, -0.09335899353027344, 1.48828125, 1.8486328125, 1.16552734375, 1.494873046875, 1.5087890625, 10.0, 1.4380109310150146, 1.5, 1.4380109310150146
20904, -1.1909184455871582, 4.5118818283081055, -1.3510991334915161, -1.1586925983428955, 0.3307413160800934, -1.3382514715194702, -1.333298683166504, 0.3826129734516144, -0.20425450801849365, -0.8020057082176208, -0.9448162913322449, 0.06445008516311646, 0.37409299190085743, 0.09280466612079863, 0.5344767588235358, 9362.0, 30146.0, 35388.0, 9362.0, 8.072728157043457, 0.2635500729084015, 0.34250950813293457, -0.06431081891059875, 0.014623919501900673, -0.04324885830283165, 0.9962288737297058, -0.08562994003295898, -0.09335899353027344, 1.48828125, 1.8486328125, 1.16552734375, 1.491943359375, 1.20703125, 10.0, 1.438326120376587, 1.5, 1.438326120376587
20914, -1.1933375597000122, 4.513146877288818, -1.3517675399780273, -1.1586925983428955, 0.3307413160800934, -1.3382514715194702, -1.333298683166504, 0.3826129734516144, -0.20425450801849365, -0.8019757270812988, -0.9448195099830627, 0.06448300182819366, 0.36180621729619855, 0.08246333042961851, 0.5611378122757381, 9362.0, 30146.0, 35388.0, 9362.0, 8.072728157043457, 0.2635500729084015, 0.34250950813293457, -0.06431081891059875, 0.014337077736854553, -0.04404744505882263, 0.9997324347496033, -0.08562994003295898, -0.09335899353027344, 1.48828125, 1.8486328125, 1.16552734375, 1.491943359375, 1.20703125, 10.0, 1.438326120376587, 1.5, 1.438326120376587
20924, -1.1944092512130737, 4.516700267791748, -1.3524630069732666, -1.1586925983428955, 0.3307413160800934, -1.3382514715194702, -1.333298683166504, 0.3826129734516144, -0.20425450801849365, -0.8019937872886658, -0.9448255300521851, 0.06447907537221909, 0.3627723826008633, 0.0901955515194004, 0.5626376169577662, 9362.0, 30146.0, 35388.0, 9362.0, 8.072728157043457, -0.3863198161125183, -0.3759472370147705, -0.3839714229106903, 0.012121682055294514, -0.045003537088632584, 0.9992750287055969, -0.08562994003295898, -0.09335899353027344, 1.48828125, 1.8486328125, 1.16552734375, 1.4970703125, 1.20703125, 10.0, 1.4394352436065674, 1.5, 1.4394352436065674
20944, -1.1994609832763672, 4.517430305480957, -1.3536297082901, -1.212637186050415, 0.3462233245372772, -1.3464570045471191, -1.363933801651001, 0.3914930820465088, -0.20604251325130463, -0.8019914031028748, -0.944817841053009, 0.06449530273675919, 0.3597539246313257, 0.08911136782336371, 0.5584608341654073, 9362.0, 30146.0, 35388.0, 9362.0, 8.072728157043457, -0.46090245246887207, -0.5131537318229675, -0.09150917083024979, 0.01496962457895279, -0.045676346868276596, 0.997752845287323, -0.08562994003295898, -0.09335899353027344, 1.48828125, 1.8486328125, 1.16552734375, 1.49560546875, 1.20703125, 10.0, 1.4395900964736938, 1.5, 1.4395900964736938
20964, -1.2050740718841553, 4.523420810699463, -1.3549612760543823, -1.2400693893432617, 0.3540978729724884, -1.3505834341049194, -1.3792818784713745, 0.3959600329399109, -0.20673015713691711, -0.8019972443580627, -0.9448099136352539, 0.06446601450443268, 0.3578682821435447, 0.07965902282262505, 0.5613839381747913, 9362.0, 30146.0, 35388.0, 9362.0, 8.072728157043457, -0.33648717403411865, -0.7960691452026367, -0.05985800921916962, 0.015788335353136063, -0.04578665271401405, 0.9972736835479736, -0.06349413841962814, -0.2098369598388672, 1.478759765625, 0.989501953125, 3.225860595703125, 1.49560546875, 1.53076171875, 10.0, 1.4386833906173706, 1.5, 1.4386833906173706
20994, -1.210810899734497, 4.528151988983154, -1.3540911674499512, -1.281792402267456, 0.36607733368873596, -1.3568146228790283, -1.4022799730300903, 0.40267953276634216, -0.20848152041435242, -0.8020046353340149, -0.9448190331459045, 0.06447842717170715, 0.3578974997561302, 0.08974253934025, 0.5614873420077952, 9362.0, 30146.0, 35388.0, 9362.0, 8.072728157043457, -0.14811281859874725, -0.0587165467441082, -0.1031779795885086, 0.016442852094769478, -0.04677548632025719, 0.9974485635757446, -0.06349413841962814, -0.2098369598388672, 1.478759765625, 1.65673828125, 0.55560302734375, 1.49560546875, 1.53076171875, 10.0, 1.4412363767623901, 1.5, 1.4412363767623901
21064, -1.2086039781570435, 4.521660804748535, -1.3388854265213013, -1.367311954498291, 0.39064329862594604, -1.3694108724594116, -1.4483836889266968, 0.41618815064430237, -0.21125446259975433, -0.8019905686378479, -0.9448158144950867, 0.06447294354438782, 0.3679767596649119, 0.07379066029025694, 0.5706501520300126, 9362.0, 30146.0, 35388.0, 9362.0, 8.072728157043457, 0.21685805916786194, 0.309037446975708, 0.28603649139404297, 0.014588288962841034, -0.04773931950330734, 0.9994415044784546, -0.077320896089077, 0.05896186828613281, 1.500732421875, 1.513916015625, 0.224029541015625, 1.48828125, 1.0634765625, 10.0, 1.4397541284561157, 1.5, 1.4397541284561157
