timeTick, roll, pitch, yaw, stateX, stateY, stateZ, stateVX, stateVY, stateVZ, otX0, otY0, otZ0, otRoll0, otPitch0, otYaw0, left wing, pitch motor, yaw motor, right wing, voltage, roll rate, pitch rate, yaw rate, A_x, A_y, A_z, current, i_raw, v_raw, airflow_voltage, airflow_speed, pot_Pitch, voltage_nKF, kFFx, volt_KF_vel, kP, volt_KF_pos
27719, -2.0780744552612305, -5.248924732208252, 3.6414072513580322, 0, 0, 0, 0, 0, 0, -0.8290485739707947, -0.9676697850227356, 0.0555785670876503, -0.5828469896635337, 0.3129437319674935, 0.12926549375653135, 0, 0, 0, 0, 0, 0, 0, 0, 0, 0, 0, 0, 0, 0, 0, 0, 0, 0, 0, 0, 0, 0
27729, -2.077854633331299, -5.248688220977783, 3.6405892372131348, -0.00017762143397703767, -8.384681132156402e-05, -3.2444214820861816, -0.013407716527581215, -0.006329357624053955, -0.24814341962337494, -0.8290433883666992, -0.9676720499992371, 0.05555799975991249, -0.5735166812642658, 0.3088182779656279, 0.12832449495290404, 9362.0, 30146.0, 35388.0, 9362.0, 0, 0.18646842241287231, -0.07774221897125244, -0.22901825606822968, 0.0020965593867003918, -0.05956193432211876, 0.9986222386360168, 0, 0, 0, 0, 0, 0, 0, 0, 0, 0, 0
27739, -2.0770459175109863, -5.247530460357666, 3.6392884254455566, -0.00026810384588316083, -0.00012655531463678926, -3.246905565261841, -0.004688703920692205, -0.0022124680690467358, -0.24868136644363403, -0.8290468454360962, -0.96767258644104, 0.055562905967235565, -0.5757701909165713, 0.3059266272803143, 0.13236033823458276, 9362.0, 30146.0, 35388.0, 9362.0, 0, 0.09564108401536942, 0.23237502574920654, 0.009426794946193695, 0.002637123689055443, -0.06065816804766655, 0.9960286617279053, 0, 0, 0, 1.48388671875, 0.1642303466796875, 0, 1.47509765625, 10.0, 1.412774920463562, 1.5, 1.412774920463562
27749, -2.076230525970459, -5.249389171600342, 3.6383941173553467, -0.0002714191214181483, -0.00012810766929760575, -3.2493953704833984, 0.004025754984468222, 0.0019017996964976192, -0.24926692247390747, -0.8290475606918335, -0.9676677584648132, 0.05558105558156967, -0.5785865674652847, 0.3173166268875889, 0.1306040442757476, 9362.0, 30146.0, 35388.0, 9362.0, 0, 0.02246532402932644, 0.1687876433134079, -0.16403773427009583, 0.0016887375386431813, -0.059492647647857666, 0.9982395172119141, 0, 0, 0, 1.22607421875, 0.2537689208984375, 1.4912109375, 1.6904296875, 10.0, 1.4128283262252808, 1.5, 1.4128283262252808
27759, -2.0757341384887695, -5.25106143951416, 3.637535810470581, -0.00018768321024253964, -8.856572094373405e-05, -3.251891851425171, 0.012721479870378971, 0.006006450857967138, -0.2500418722629547, -0.8290392160415649, -0.9676633477210999, 0.05561590567231178, -0.577421310427473, 0.3126832683209102, 0.13175330626965262, 9362.0, 30146.0, 35388.0, 9362.0, 0, 0.02256939932703972, 0.2726740539073944, 0.1188582330942154, 0.0030026836320757866, -0.05933600291609764, 0.9977339506149292, 0, 0, 0, 1.57763671875, 0.3647918701171875, 1.4912109375, 0.944091796875, 10.0, 1.412497639656067, 1.5, 1.412497639656067
27769, -2.07433819770813, -5.252954006195068, 3.6375792026519775, -1.695656101219356e-05, -7.975897460710257e-06, -3.2543959617614746, 0.021423891186714172, 0.010111385025084019, -0.2507791221141815, -0.8290443420410156, -0.9676616787910461, 0.05556156486272812, -0.5789001427053195, 0.3180421704112746, 0.13111862894234647, 9362.0, 30146.0, 35388.0, 9362.0, 0, 0.06759350746870041, 0.14432549476623535, -0.06418129056692123, 0.00238947756588459, -0.061268433928489685, 0.997268557548523, 0, 0, 0, 1.320556640625, 0.02685546875, 1.48974609375, 1.566650390625, 10.0, 1.4124895334243774, 1.5, 1.4124895334243774
27779, -2.073535203933716, -5.254122734069824, 3.6374948024749756, 0.0002408489235676825, 0.00011367813567630947, -3.2569069862365723, 0.030137185007333755, 0.01421942189335823, -0.2514272630214691, -0.8290449976921082, -0.9676699638366699, 0.05558949336409569, -0.5816727872723388, 0.31195145653077816, 0.1305885753304438, 9362.0, 30146.0, 35388.0, 9362.0, 0, -0.039891116321086884, -0.25999951362609863, -0.10002250224351883, 0.002763251541182399, -0.059459950774908066, 1.0007681846618652, 0, 0, 0, 1.27587890625, 0.092620849609375, 1.48974609375, 1.6318359375, 10.0, 1.413175106048584, 1.5, 1.413175106048584
27789, -2.073092222213745, -5.2530059814453125, 3.6365816593170166, 0.0005857623764313757, 0.0002763819647952914, -3.259424924850464, 0.0388454906642437, 0.01832132786512375, -0.2521691620349884, -0.8290573954582214, -0.967644989490509, 0.05558701232075691, -0.5761329998306011, 0.3096560393512675, 0.12200964447987528, 9362.0, 30146.0, 35388.0, 9362.0, 0, -0.10505539923906326, 0.0861857607960701, 0.24550238251686096, 0.002881940919905901, -0.059770748019218445, 1.000344157218933, 0, 0, 0, 1.4208984375, 0.063079833984375, 1.48974609375, 1.289794921875, 10.0, 1.413490891456604, 1.5, 1.413490891456604
27799, -2.073837995529175, -5.254988193511963, 3.6385419368743896, 0.001017877133563161, 0.00048014940693974495, -3.261949062347412, 0.047577545046806335, 0.022432023659348488, -0.2526695430278778, -0.8290441632270813, -0.9676495790481567, 0.05559369921684265, -0.570417371415317, 0.3095663288410151, 0.1225172349830312, 9362.0, 30146.0, 35388.0, 9362.0, 0, -0.04776277765631676, 0.14719288051128387, -0.07925903797149658, 0.001352340797893703, -0.06149565055966377, 0.9995028972625732, 0, 0, 0, 1.59228515625, 0.3989715576171875, 1.48974609375, 1.452392578125, 10.0, 1.4141987562179565, 1.5, 1.4141987562179565
27809, -2.074211359024048, -5.257232666015625, 3.6391241550445557, 0.001537321601063013, 0.0007250272901728749, -3.2644779682159424, 0.056311193853616714, 0.02654384821653366, -0.253129780292511, -0.8290489912033081, -0.9676702618598938, 0.0555945560336113, -0.5776323248046841, 0.3100632423653167, 0.131311715051408, 9362.0, 30146.0, 35388.0, 9362.0, 0, -0.10306950658559799, 0.009544946253299713, -0.03474771976470947, 0.0027573476545512676, -0.060358546674251556, 1.0007102489471436, 0, 0, 0, 1.396728515625, 0.0370025634765625, 1.49267578125, 1.720458984375, 10.0, 1.4140812158584595, 1.5, 1.4140812158584595
27819, -2.074385643005371, -5.257948398590088, 3.638432264328003, 0.0021441010758280754, 0.0010110242292284966, -3.267011880874634, 0.06504464149475098, 0.030655620619654655, -0.25362908840179443, -0.8290437459945679, -0.9676437377929688, 0.055604998022317886, -0.5717813555154597, 0.30885014213262707, 0.12909910730244883, 9362.0, 30146.0, 35388.0, 9362.0, 8.152067184448242, -0.14749102294445038, 0.44910740852355957, -0.1949053704738617, 0.0020354115404188633, -0.060252998024225235, 0.9969474673271179, -0.061939965933561325, -0.03959846496582031, 1.49267578125, 1.285400390625, 0.0730438232421875, 1.49267578125, 1.528564453125, 10.0, 1.4133327007293701, 1.5, 1.4133327007293701
27829, -2.0758609771728516, -5.26070499420166, 3.636855363845825, 0.0028382516466081142, 0.0013381520984694362, -3.2695505619049072, 0.07378549873828888, 0.034769851714372635, -0.254088431596756, -0.8290422558784485, -0.9676550030708313, 0.05557906627655029, -0.5747512467692917, 0.3098732801040285, 0.12217191890565075, 9362.0, 30146.0, 35388.0, 9362.0, 8.152067184448242, 0.053951896727085114, -0.2114015817642212, -0.001036807894706726, 0.0029372069984674454, -0.060254111886024475, 0.9971620440483093, -0.061939965933561325, -0.03959846496582031, 1.49267578125, 1.0517578125, 1.971160888671875, 1.489013671875, 1.59521484375, 10.0, 1.4122257232666016, 1.5, 1.4122257232666016
27839, -2.076310157775879, -5.259439468383789, 3.6379096508026123, 0.0036197113804519176, 0.0017063739942386746, -3.272094964981079, 0.08250652998685837, 0.03887427970767021, -0.25478407740592957, -0.82905113697052, -0.9676534533500671, 0.055569931864738464, -0.5777000201070197, 0.31396064216025366, 0.12990277413817475, 9362.0, 30146.0, 35388.0, 9362.0, 8.152067184448242, 0.07084079086780548, 0.12443071603775024, 0.109718918800354, 1.7742911950335838e-05, -0.06150983273983002, 0.9953681230545044, -0.061939965933561325, -0.03959846496582031, 1.49267578125, 0.98876953125, 3.2432861328125, 1.489013671875, 1.4208984375, 10.0, 1.411739706993103, 1.5, 1.411739706993103
27849, -2.076007843017578, -5.260071277618408, 3.6379024982452393, 0.004488364327698946, 0.002115634037181735, -3.274646759033203, 0.09122402220964432, 0.04297791048884392, -0.25556913018226624, -0.8290371298789978, -0.9676552414894104, 0.055580705404281616, -0.5786875332083837, 0.31540270577394836, 0.1323688165250336, 9362.0, 30146.0, 35388.0, 9362.0, 8.152067184448242, 0.06883246451616287, 0.21572299301624298, -0.022227691486477852, 0.0002698942262213677, -0.060978420078754425, 0.9974691867828369, -0.061939965933561325, -0.03959846496582031, 1.49267578125, 1.5029296875, 0.201446533203125, 1.4912109375, 1.078857421875, 10.0, 1.4122265577316284, 1.5, 1.4122265577316284
27859, -2.0757248401641846, -5.2605509757995605, 3.6375694274902344, 0.00544413598254323, 0.0025659133680164814, -3.2772068977355957, 0.09993031620979309, 0.04707792401313782, -0.2564546763896942, -0.8290454745292664, -0.9676648378372192, 0.055570393800735474, -0.5816962917607862, 0.31564522776250215, 0.12670630649579237, 9362.0, 30146.0, 35388.0, 9362.0, 8.152067184448242, -0.012781604193150997, -0.16192282736301422, -0.03080037049949169, 0.0019373458344489336, -0.06202927231788635, 0.9973090291023254, -0.061939965933561325, -0.03959846496582031, 1.49267578125, 1.44873046875, 0.102813720703125, 1.4912109375, 1.065673828125, 10.0, 1.4131003618240356, 1.5, 1.4131003618240356
27869, -2.075929641723633, -5.259164810180664, 3.6369495391845703, 0.006487010046839714, 0.003057206282392144, -3.279775381088257, 0.10864449292421341, 0.051180627197027206, -0.25726479291915894, -0.8290454149246216, -0.9676518440246582, 0.055578626692295074, -0.5788977664279319, 0.30683738829810636, 0.13416688451906914, 9362.0, 30146.0, 35388.0, 9362.0, 8.152067184448242, 0.11843495815992355, 0.031602002680301666, 0.2776763141155243, 0.0025923692155629396, -0.06016997992992401, 0.9978581070899963, -0.061939965933561325, -0.03959846496582031, 1.49267578125, 1.21435546875, 0.3079071044921875, 1.493408203125, 1.581298828125, 10.0, 1.4138927459716797, 1.5, 1.4138927459716797
27879, -2.0751802921295166, -5.259654521942139, 3.6386964321136475, 0.007617080584168434, 0.0035895477049052715, -3.282351493835449, 0.1173696294426918, 0.055287543684244156, -0.2579624652862549, -0.8290369510650635, -0.9676551222801208, 0.0555780790746212, -0.5789054006562379, 0.3172728235710167, 0.13157501372449132, 9362.0, 30146.0, 35388.0, 9362.0, 8.152067184448242, 0.029341183602809906, -0.22765181958675385, 0.03237300366163254, 0.0026238071732223034, -0.05923968181014061, 0.9964243769645691, -0.061939965933561325, -0.03959846496582031, 1.49267578125, 1.319091796875, 0.0279998779296875, 1.493408203125, 1.63037109375, 10.0, 1.413248896598816, 1.5, 1.413248896598816
27889, -2.0741512775421143, -5.259002685546875, 3.6398208141326904, 0.008834396488964558, 0.00416296161711216, -3.2849345207214355, 0.12609338760375977, 0.059395454823970795, -0.2586473822593689, -0.8290347456932068, -0.967655599117279, 0.055577971041202545, -0.575894014013128, 0.3206233000881866, 0.13991754688491823, 9362.0, 30146.0, 35388.0, 9362.0, 8.152067184448242, -0.23104260861873627, -0.05893725901842117, 0.32735028862953186, 0.0021222701761871576, -0.06333582103252411, 0.9997140169143677, -0.061939965933561325, -0.03959846496582031, 1.49267578125, 1.090576171875, 1.3882598876953125, 1.49267578125, 1.458251953125, 10.0, 1.412676453590393, 1.5, 1.412676453590393
27899, -2.075199604034424, -5.258335113525391, 3.641916513442993, 0.010138886980712414, 0.0047774179838597775, -3.287525177001953, 0.1348046362400055, 0.06349602341651917, -0.259481281042099, -0.8290437459945679, -0.9676621556282043, 0.05556930974125862, -0.5734415211035592, 0.3141600733668781, 0.13343275693770304, 9362.0, 30146.0, 35388.0, 9362.0, 8.152067184448242, 0.009872046299278736, -0.0058865961618721485, 0.19127056002616882, 0.0033200012985616922, -0.06135045737028122, 0.9963399171829224, -0.061939965933561325, -0.03959846496582031, 1.49267578125, 1.292724609375, 0.060089111328125, 1.49267578125, 1.58935546875, 10.0, 1.412790298461914, 1.5, 1.412790298461914
27909, -2.076270341873169, -5.256955146789551, 3.64259934425354, 0.011530587449669838, 0.005432920530438423, -3.2901229858398438, 0.1435353308916092, 0.06760478019714355, -0.2600853741168976, -0.8290330767631531, -0.967656672000885, 0.055595818907022476, -0.5800245943575466, 0.31458260599185905, 0.13862086654663996, 9362.0, 30146.0, 35388.0, 9362.0, 8.152067184448242, -0.1971258819103241, -0.04381415247917175, 0.16066230833530426, 0.0039396509528160095, -0.06211686506867409, 0.9986052513122559, -0.061939965933561325, -0.03959846496582031, 1.49267578125, 1.692626953125, 0.648193359375, 1.489013671875, 1.689697265625, 10.0, 1.4118214845657349, 1.5, 1.4118214845657349
27919, -2.078425407409668, -5.2570600509643555, 3.643787145614624, 0.013009538874030113, 0.006129497662186623, -3.292727470397949, 0.15225496888160706, 0.07171076536178589, -0.2607981860637665, -0.8290689587593079, -0.9676622748374939, 0.05559279024600983, -0.5683933217742207, 0.32833321568506335, 0.1413577019077894, 9362.0, 30146.0, 35388.0, 9362.0, 8.17190170288086, 0.019054293632507324, -0.14391463994979858, -0.05324912816286087, 0.00140357983764261, -0.06158175319433212, 0.9969504475593567, -0.040181756019592285, 0.03208160400390625, 1.49853515625, 1.516845703125, 0.23004150390625, 1.489013671875, 1.65087890625, 10.0, 1.4116142988204956, 1.5, 1.4116142988204956
27929, -2.0785772800445557, -5.256816864013672, 3.6438660621643066, 0.014575667679309845, 0.006867140531539917, -3.2953391075134277, 0.1609707921743393, 0.0758180245757103, -0.26152506470680237, -0.8290485143661499, -0.967653214931488, 0.05557244271039963, -0.5782258665834435, 0.31004327693403866, 0.1330946806163135, 9362.0, 30146.0, 35388.0, 9362.0, 8.17190170288086, -0.09091699868440628, -0.014374472200870514, -0.06436149030923843, 0.00111285294406116, -0.0640232115983963, 0.9980467557907104, -0.040181756019592285, 0.03208160400390625, 1.49853515625, 1.03125, 2.3380126953125, 1.49267578125, 1.7373046875, 10.0, 1.4125038385391235, 1.5, 1.4125038385391235
27939, -2.079373359680176, -5.257623672485352, 3.643352508544922, 0.01622898504137993, 0.007645889651030302, -3.2979576587677, 0.16969269514083862, 0.07993187010288239, -0.26218387484550476, -0.8290348052978516, -0.9676454663276672, 0.05555802583694458, -0.5691786678103786, 0.3126447698265622, 0.12878419863824378, 9362.0, 30146.0, 35388.0, 9362.0, 8.17190170288086, -0.0251180287450552, 0.10644631087779999, 0.25011271238327026, 0.00196742732077837, -0.060397546738386154, 0.9978230595588684, -0.040181756019592285, 0.03208160400390625, 1.49853515625, 1.405517578125, 0.0454254150390625, 1.49267578125, 1.587158203125, 10.0, 1.4130460023880005, 1.5, 1.4130460023880005
27949, -2.0799906253814697, -5.257684230804443, 3.6436550617218018, 0.017969496548175812, 0.008465767838060856, -3.3005831241607666, 0.17840944230556488, 0.08404361456632614, -0.26289549469947815, -0.8290414810180664, -0.9676575660705566, 0.0555742047727108, -0.5782910067316731, 0.31342453481315147, 0.1308472872983456, 9362.0, 30146.0, 35388.0, 9362.0, 8.17190170288086, -0.12273918837308884, -0.1619230955839157, -0.08571198582649231, 0.003089224686846137, -0.062358416616916656, 0.9975408911705017, -0.040181756019592285, 0.03208160400390625, 1.49853515625, 1.599609375, 0.416259765625, 1.493408203125, 1.65234375, 10.0, 1.4140188694000244, 1.5, 1.4140188694000244
27959, -2.081447124481201, -5.256137847900391, 3.6432132720947266, 0.019797183573246002, 0.009326770901679993, -3.303215503692627, 0.1871277540922165, 0.08815700560808182, -0.26360324025154114, -0.8290466070175171, -0.9676365852355957, 0.05557888746261597, -0.5815985960049772, 0.309233684800688, 0.12520907534007658, 9362.0, 30146.0, 35388.0, 9362.0, 8.17190170288086, 0.2902323305606842, -0.1322169452905655, 0.0036451511550694704, 0.0038343053311109543, -0.06022763252258301, 0.9981561303138733, -0.040181756019592285, 0.03208160400390625, 1.49853515625, 1.53515625, 0.2692413330078125, 1.493408203125, 1.166015625, 10.0, 1.414230227470398, 1.5, 1.414230227470398
27969, -2.080453634262085, -5.254899024963379, 3.642946481704712, 0.021712051704525948, 0.010228912346065044, -3.3058550357818604, 0.1958457976579666, 0.09227121621370316, -0.26431530714035034, -0.8290634155273438, -0.9676640033721924, 0.055616214871406555, -0.571369156222591, 0.32919120199071017, 0.1375881891657882, 9362.0, 30146.0, 35388.0, 9362.0, 8.17190170288086, -0.030449748039245605, 0.056524671614170074, 0.25097814202308655, 0.0021824990399181843, -0.06066829338669777, 0.9983924627304077, -0.040181756019592285, 0.03208160400390625, 1.49853515625, 0.823974609375, 9.1236572265625, 1.48828125, 1.666259765625, 10.0, 1.4148340225219727, 1.5, 1.4148340225219727
27979, -2.0809712409973145, -5.254720211029053, 3.6438634395599365, 0.023714104667305946, 0.011172215454280376, -3.3085014820098877, 0.2045646607875824, 0.09638939052820206, -0.26498696208000183, -0.8290457725524902, -0.9676480889320374, 0.05556350201368332, -0.5800768402429239, 0.30478477360750844, 0.1314675732910779, 9362.0, 30146.0, 35388.0, 9362.0, 8.17190170288086, 0.11297024041414261, -0.35554230213165283, -0.22506195306777954, 0.002301955595612526, -0.05954355746507645, 0.9973969459533691, -0.040181756019592285, 0.03208160400390625, 1.49853515625, 1.6376953125, 0.5082244873046875, 1.48828125, 1.47802734375, 10.0, 1.4151815176010132, 1.5, 1.4151815176010132
27989, -2.0809273719787598, -5.253201007843018, 3.6425106525421143, 0.02580336295068264, 0.012156704440712929, -3.311154365539551, 0.21328705549240112, 0.10050853341817856, -0.26559582352638245, -0.8290287256240845, -0.9676448702812195, 0.055603817105293274, -0.5759752067358135, 0.3095720144567906, 0.12483825503141109, 9362.0, 30146.0, 35388.0, 9362.0, 8.17190170288086, -0.13996441662311554, 0.04564787074923515, 0.4552622437477112, 0.0028851728420704603, -0.06102697551250458, 1.0001729726791382, -0.040181756019592285, 0.03208160400390625, 1.49853515625, 1.245849609375, 0.1771087646484375, 1.4912109375, 1.58642578125, 10.0, 1.4146376848220825, 1.5, 1.4146376848220825
27999, -2.081505060195923, -5.253170967102051, 3.6453490257263184, 0.02797979675233364, 0.013182367198169231, -3.3138139247894287, 0.22199973464012146, 0.10462384670972824, -0.2663109600543976, -0.8290446996688843, -0.9676511883735657, 0.055595025420188904, -0.5661547727306258, 0.31438845135679117, 0.12584073009768654, 9362.0, 30146.0, 35388.0, 9362.0, 8.17190170288086, -0.03659750521183014, -0.16202791035175323, 0.24418431520462036, 0.0016927956603467464, -0.05998801440000534, 0.9996899366378784, -0.040181756019592285, 0.03208160400390625, 1.49853515625, 1.5791015625, 0.368133544921875, 1.4912109375, 1.56884765625, 10.0, 1.4154667854309082, 1.5, 1.4154667854309082
28009, -2.081211566925049, -5.253584384918213, 3.6467132568359375, 0.03024342656135559, 0.014249219559133053, -3.3164796829223633, 0.2307259887456894, 0.10874710977077484, -0.26684194803237915, -0.8290414810180664, -0.9676409363746643, 0.05558382347226143, -0.5753308445113628, 0.31547367215668487, 0.12848088482988076, 9362.0, 30146.0, 35388.0, 9362.0, 8.17190170288086, 0.051537252962589264, 0.0006724483682774007, 0.04304962605237961, 0.0019643669947981834, -0.0582779161632061, 0.9978081583976746, -0.040181756019592285, 0.03208160400390625, 1.49853515625, 1.34326171875, 0.01605224609375, 1.489013671875, 1.1806640625, 10.0, 1.415340542793274, 1.5, 1.415340542793274
28019, -2.0815250873565674, -5.2537841796875, 3.646873950958252, 0.032594334334135056, 0.01535731926560402, -3.319150686264038, 0.2394552379846573, 0.11287306994199753, -0.26733773946762085, -0.8290340900421143, -0.9676470160484314, 0.055605631321668625, -0.5773164824834842, 0.31066176334738316, 0.1363401552850072, 9362.0, 30146.0, 35388.0, 9362.0, 8.152067184448242, -0.03966799005866051, -0.047277506440877914, -0.09302673488855362, 0.0023836141917854548, -0.060629766434431076, 0.9971699118614197, -0.07007892429828644, 0.05000114440917969, 1.5, 0.7646484375, 12.421798706054688, 1.489013671875, 1.69189453125, 10.0, 1.415797472000122, 1.5, 1.415797472000122
28029, -2.0827651023864746, -5.252051830291748, 3.645820379257202, 0.03503246605396271, 0.01650664396584034, -3.3218274116516113, 0.24817097187042236, 0.11699186265468597, -0.2679930329322815, -0.8290463089942932, -0.9676505327224731, 0.05559421703219414, -0.5765965334751993, 0.31194707545256506, 0.12939678464463214, 9362.0, 30146.0, 35388.0, 9362.0, 8.152067184448242, -0.12653875350952148, -0.22597025334835052, -0.24996189773082733, 0.0030129505321383476, -0.06218623369932175, 0.9990549683570862, -0.07007892429828644, 0.05000114440917969, 1.5, 1.64794921875, 0.533660888671875, 1.48974609375, 1.518310546875, 10.0, 1.4164842367172241, 1.5, 1.4164842367172241
28039, -2.083313226699829, -5.25037145614624, 3.6447205543518066, 0.03755771368741989, 0.01769714057445526, -3.3245110511779785, 0.25687870383262634, 0.12110710889101028, -0.2687412202358246, -0.8290338516235352, -0.9676406979560852, 0.05557699501514435, -0.5748946917849662, 0.32173941810157203, 0.12819030864111433, 9362.0, 30146.0, 35388.0, 9362.0, 8.152067184448242, 0.01776144653558731, 0.17615264654159546, -0.2060673087835312, 0.0041622864082455635, -0.06102430075407028, 0.9994139671325684, -0.07007892429828644, 0.05000114440917969, 1.5, 1.11474609375, 1.0919036865234375, 1.48974609375, 1.60546875, 10.0, 1.4157512187957764, 1.5, 1.4157512187957764
28049, -2.0830800533294678, -5.251347541809082, 3.642796754837036, 0.04017007350921631, 0.01892882026731968, -3.3272016048431396, 0.26559337973594666, 0.12522877752780914, -0.26937881112098694, -0.8290584087371826, -0.9676512479782104, 0.05561012774705887, -0.5777429381717692, 0.30429635328360405, 0.13879585734617939, 9362.0, 30146.0, 35388.0, 9362.0, 8.152067184448242, 0.25610169768333435, -0.19648905098438263, -0.1910545527935028, 0.0041622864082455635, -0.06102430075407028, 0.9994139671325684, -0.07007892429828644, 0.05000114440917969, 1.5, 1.640625, 0.5154571533203125, 1.494873046875, 1.57470703125, 10.0, 1.4162437915802002, 1.5, 1.4162437915802002
28059, -2.0821938514709473, -5.250402927398682, 3.642178535461426, 0.04017007350921631, 0.01892882026731968, -3.3272016048431396, 0.26559337973594666, 0.12522877752780914, -0.26937881112098694, -0.8290452361106873, -0.9676339626312256, 0.055594123899936676, -0.5822522829675552, 0.30966004216918463, 0.13541320825450442, 9362.0, 30146.0, 35388.0, 9362.0, 8.152067184448242, 0.25610169768333435, -0.19648905098438263, -0.1910545527935028, 0.0041622864082455635, -0.06102430075407028, 0.9994139671325684, -0.07007892429828644, 0.05000114440917969, 1.5, 1.640625, 0.5154571533203125, 1.494873046875, 1.57470703125, 10.0, 1.416096568107605, 1.5, 1.416096568107605
28069, -2.08310604095459, -5.250442028045654, 3.6413803100585938, 0.04017007350921631, 0.01892882026731968, -3.3272016048431396, 0.26559337973594666, 0.12522877752780914, -0.26937881112098694, -0.8290548324584961, -0.9676380157470703, 0.055578432977199554, -0.5703847689107712, 0.3197109161740741, 0.12925378291148393, 9362.0, 30146.0, 35388.0, 9362.0, 8.152067184448242, -0.2635158896446228, -0.30169937014579773, 0.25113996863365173, 0.0041622864082455635, -0.06102430075407028, 0.9994139671325684, -0.07007892429828644, 0.05000114440917969, 1.5, 1.640625, 0.5154571533203125, 1.494873046875, 1.60986328125, 10.0, 1.416096568107605, 1.5, 1.416096568107605
28079, -2.0838847160339355, -5.248167037963867, 3.6429901123046875, 0.0485299751162529, 0.02287118323147297, -3.3353111743927, 0.2917248606681824, 0.13758978247642517, -0.2713598906993866, -0.8290390372276306, -0.9676477313041687, 0.05556681007146835, -0.569774309181, 0.3196611661284692, 0.12981580990892794, 9362.0, 30146.0, 35388.0, 9362.0, 8.152067184448242, -0.06362380087375641, 0.6520966291427612, 0.16769792139530182, 0.0041622864082455635, -0.06102430075407028, 0.9994139671325684, -0.07007892429828644, 0.05000114440917969, 1.5, 1.640625, 0.5154571533203125, 1.494873046875, 1.60986328125, 10.0, 1.416874647140503, 1.5, 1.416874647140503
28089, -2.0843074321746826, -5.251759052276611, 3.6441609859466553, 0.0485299751162529, 0.02287118323147297, -3.3353111743927, 0.2917248606681824, 0.13758978247642517, -0.2713598906993866, -0.8290468454360962, -0.9676365852355957, 0.05557854473590851, -0.5810811474877223, 0.3065130654697725, 0.13670961222713054, 9362.0, 30146.0, 35388.0, 9362.0, 8.152067184448242, 0.009164533577859402, -0.05092703923583031, 0.003667737590149045, 0.0019172453321516514, -0.06004508212208748, 0.9967989325523376, -0.07007892429828644, 0.05000114440917969, 1.5, 1.640625, 0.5154571533203125, 1.494873046875, 1.578369140625, 10.0, 1.416246771812439, 1.5, 1.416246771812439
28099, -2.0844006538391113, -5.251665115356445, 3.6427724361419678, 0.0485299751162529, 0.02287118323147297, -3.3353111743927, 0.2917248606681824, 0.13758978247642517, -0.2713598906993866, -0.8290362358093262, -0.9676412343978882, 0.05557817220687866, -0.5776123860700672, 0.3100718127001585, 0.12555621388878474, 9362.0, 30146.0, 35388.0, 9362.0, 8.152067184448242, 0.003495197743177414, 0.2740338146686554, 0.11173738539218903, 0.002852695994079113, -0.06089465320110321, 0.9980227947235107, -0.07007892429828644, 0.05000114440917969, 1.5, 1.640625, 0.5154571533203125, 1.494873046875, 1.25390625, 10.0, 1.416246771812439, 1.5, 1.416246771812439
28109, -2.084897994995117, -5.253250598907471, 3.6434977054595947, 0.057674165815114975, 0.027184603735804558, -3.343475580215454, 0.31788110733032227, 0.1499691754579544, -0.2730245292186737, -0.8291100859642029, -0.967681884765625, 0.05561662092804909, -0.5764182106517322, 0.286320603832678, 0.18785365036398663, 9362.0, 30146.0, 35388.0, 9362.0, 8.152067184448242, 0.007621562108397484, -0.18965275585651398, -0.14410163462162018, 0.0011538672260940075, -0.06043165922164917, 0.9976573586463928, -0.07007892429828644, 0.05000114440917969, 1.5, 1.640625, 0.5154571533203125, 1.494873046875, 1.25390625, 10.0, 1.4160284996032715, 1.5, 1.4160284996032715
28129, -2.0850863456726074, -5.252201080322266, 3.6449553966522217, 0.06420595198869705, 0.0302664153277874, -3.348950147628784, 0.3352992832660675, 0.15821298956871033, -0.2744363844394684, -0.8290372490882874, -0.9676459431648254, 0.05556553974747658, -0.5721248152771427, 0.3207559627253147, 0.1265576641707107, 9362.0, 30146.0, 35388.0, 9362.0, 8.152067184448242, 0.016240285709500313, 0.15899336338043213, -0.14731885492801666, 0.0011538672260940075, -0.06043165922164917, 0.9976573586463928, -0.047499869018793106, -0.11127853393554688, 1.48681640625, 1.640625, 0.5154571533203125, 1.494873046875, 1.6494140625, 10.0, 1.4154635667800903, 1.5, 1.4154635667800903
28139, -2.0852322578430176, -5.253473281860352, 3.644125461578369, 0.06420595198869705, 0.0302664153277874, -3.348950147628784, 0.3352992832660675, 0.15821298956871033, -0.2744363844394684, -0.8290494084358215, -0.9676415920257568, 0.0555708073079586, -0.5783237514797331, 0.31752854406343545, 0.128765466482959, 9362.0, 30146.0, 35388.0, 9362.0, 8.152067184448242, 0.07433535903692245, -0.15102919936180115, 0.04259413108229637, 0.0018448970513418317, -0.061911068856716156, 0.9977901577949524, -0.047499869018793106, -0.11127853393554688, 1.48681640625, 1.640625, 0.5154571533203125, 1.494873046875, 1.55419921875, 10.0, 1.4138435125350952, 1.5, 1.4138435125350952
28149, -2.084031581878662, -5.252972602844238, 3.6451563835144043, 0.06420595198869705, 0.0302664153277874, -3.348950147628784, 0.3352992832660675, 0.15821298956871033, -0.2744363844394684, -0.829037070274353, -0.9676367044448853, 0.0555853545665741, -0.5764974551932295, 0.3208275546954553, 0.12106797523660022, 9362.0, 30146.0, 35388.0, 9362.0, 8.152067184448242, -0.06446333974599838, 0.29328250885009766, 0.10509362071752548, 0.0018448970513418317, -0.061911068856716156, 0.9977901577949524, -0.047499869018793106, -0.11127853393554688, 1.48681640625, 1.640625, 0.5154571533203125, 1.49267578125, 1.26416015625, 10.0, 1.4132298231124878, 1.5, 1.4132298231124878
28159, -2.084571599960327, -5.253134250640869, 3.6454172134399414, 0.0746566653251648, 0.035198237746953964, -3.3572165966033936, 0.3614151179790497, 0.1705755591392517, -0.27668318152427673, -0.8290419578552246, -0.9676385521888733, 0.055574797093868256, -0.5749554566970003, 0.3180131984525758, 0.12734048305221307, 9362.0, 30146.0, 35388.0, 9362.0, 8.152067184448242, 0.12167339026927948, -0.08463438600301743, -0.41527634859085083, 0.0018448970513418317, -0.061911068856716156, 0.9977901577949524, -0.047499869018793106, -0.11127853393554688, 1.48681640625, 1.640625, 0.5154571533203125, 1.49267578125, 1.26416015625, 10.0, 1.413975477218628, 1.5, 1.413975477218628
28169, -2.084489107131958, -5.250949859619141, 3.641880989074707, 0.07831443101167679, 0.03692463040351868, -3.3599863052368164, 0.3701377511024475, 0.1747027337551117, -0.2772468328475952, -0.8290349245071411, -0.9676584601402283, 0.055596671998500824, -0.571566324212157, 0.3205184179222158, 0.13428221651669195, 9362.0, 30146.0, 35388.0, 9362.0, 8.152067184448242, 0.18711678683757782, -0.22423423826694489, 0.04545125737786293, 0.0018448970513418317, -0.061911068856716156, 0.9977901577949524, -0.047499869018793106, -0.11127853393554688, 1.48681640625, 1.640625, 0.5154571533203125, 1.49267578125, 1.40771484375, 10.0, 1.413975477218628, 1.5, 1.413975477218628
28179, -2.0834805965423584, -5.248491287231445, 3.6414501667022705, 0.08205939829349518, 0.03869228437542915, -3.362761974334717, 0.3788556754589081, 0.17882785201072693, -0.27786874771118164, -0.8290504813194275, -0.9676553606987, 0.05555699020624161, -0.5769949823500629, 0.31883105443699833, 0.1265614577897124, 9362.0, 30146.0, 35388.0, 9362.0, 8.152067184448242, -0.011959915049374104, 0.18569672107696533, 0.1340726763010025, 0.0018448970513418317, -0.061911068856716156, 0.9977901577949524, -0.047499869018793106, -0.11127853393554688, 1.48681640625, 1.640625, 0.5154571533203125, 1.49267578125, 1.40771484375, 10.0, 1.4139012098312378, 1.5, 1.4139012098312378
28199, -2.082524061203003, -5.2540411949157715, 3.6434242725372314, 0.08981075882911682, 0.042351316660642624, -3.3683319091796875, 0.3962812125682831, 0.1870759278535843, -0.2790988087654114, -0.8290322422981262, -0.9676381349563599, 0.055560529232025146, -0.5770831230918546, 0.3202153009875133, 0.12168245877594233, 9362.0, 30146.0, 35388.0, 9362.0, 8.152067184448242, 0.07299327850341797, 0.2355991005897522, 0.22673454880714417, 0.0012509138323366642, -0.06296369433403015, 0.9997708201408386, -0.047499869018793106, -0.11127853393554688, 1.48681640625, 1.640625, 0.5154571533203125, 1.49267578125, 1.64501953125, 10.0, 1.4135698080062866, 1.5, 1.4135698080062866
28209, -2.0820419788360596, -5.256916046142578, 3.6448047161102295, 0.08981075882911682, 0.042351316660642624, -3.3683319091796875, 0.3962812125682831, 0.1870759278535843, -0.2790988087654114, -0.8290241956710815, -0.9676592946052551, 0.05556865409016609, -0.5810907376006851, 0.32166654286317, 0.1265144030142538, 9362.0, 30146.0, 35388.0, 9362.0, 8.152067184448242, 0.07299327850341797, 0.2355991005897522, 0.22673454880714417, 0.003906969912350178, -0.06033700332045555, 0.9977142810821533, -0.047499869018793106, -0.11127853393554688, 1.48681640625, 1.640625, 0.5154571533203125, 1.493408203125, 1.64501953125, 10.0, 1.4134703874588013, 1.5, 1.4134703874588013
28229, -2.0813815593719482, -5.257761478424072, 3.644495725631714, 0.08981075882911682, 0.042351316660642624, -3.3683319091796875, 0.3962812125682831, 0.1870759278535843, -0.2790988087654114, -0.8290375471115112, -0.967655599117279, 0.055566076189279556, -0.578582614758022, 0.317504311632149, 0.1349233452799675, 9362.0, 30146.0, 35388.0, 9362.0, 8.152067184448242, -0.06945524364709854, 0.17593738436698914, 0.028073282912373543, 0.003906969912350178, -0.06033700332045555, 0.9977142810821533, -0.05907299369573593, -0.09335899353027344, 1.48828125, 1.640625, 0.5154571533203125, 1.496337890625, 1.603271484375, 10.0, 1.414311408996582, 1.5, 1.414311408996582
28239, -2.081960916519165, -5.25886344909668, 3.6440162658691406, 0.08981075882911682, 0.042351316660642624, -3.3683319091796875, 0.3962812125682831, 0.1870759278535843, -0.2790988087654114, -0.8290356993675232, -0.967647135257721, 0.05556677654385567, -0.5769670729549032, 0.3128355454925611, 0.13168378979100756, 9362.0, 30146.0, 35388.0, 9362.0, 8.152067184448242, 0.07036823034286499, 0.1972626894712448, 0.11664582043886185, 0.001944670220836997, -0.06303376704454422, 0.9999487400054932, -0.05907299369573593, -0.09335899353027344, 1.48828125, 1.640625, 0.5154571533203125, 1.496337890625, 1.603271484375, 10.0, 1.4142489433288574, 1.5, 1.4142489433288574
28249, -2.082275629043579, -5.260491847991943, 3.645233392715454, 0.1107148751616478, 0.052220482379198074, -3.3823628425598145, 0.4398803114891052, 0.20768040418624878, -0.2823139727115631, -0.8290355205535889, -0.9676470756530762, 0.05556492507457733, -0.5795116678488514, 0.3189829718118915, 0.12099205162843694, 9362.0, 30146.0, 35388.0, 9362.0, 8.152067184448242, 0.09619203209877014, 0.08949393779039383, -0.01744168810546398, 0.001944670220836997, -0.06303376704454422, 0.9999487400054932, -0.05907299369573593, -0.09335899353027344, 1.48828125, 1.640625, 0.5154571533203125, 1.496337890625, 1.603271484375, 10.0, 1.414801836013794, 1.5, 1.414801836013794
28259, -2.0818634033203125, -5.2610602378845215, 3.644591808319092, 0.115157350897789, 0.054317906498909, -3.3851888179779053, 0.44861385226249695, 0.21180495619773865, -0.282871276140213, -0.8290436863899231, -0.9676409363746643, 0.05556999519467354, -0.5829633029132218, 0.3118376179479583, 0.12996752594668398, 9362.0, 30146.0, 35388.0, 9362.0, 8.152067184448242, 0.08587276935577393, -0.1242251917719841, 0.05380227789282799, 0.0021632397547364235, -0.06197960674762726, 0.9984065890312195, -0.05907299369573593, -0.09335899353027344, 1.48828125, 1.640625, 0.5154571533203125, 1.496337890625, 1.603271484375, 10.0, 1.4147309064865112, 1.5, 1.4147309064865112
28269, -2.0810811519622803, -5.261035919189453, 3.6443214416503906, 0.11968719959259033, 0.05645659938454628, -3.3880200386047363, 0.45735666155815125, 0.2159331887960434, -0.2833564579486847, -0.8290290236473083, -0.9676480889320374, 0.05556352809071541, -0.5837704155165214, 0.3114794782320871, 0.12197639126775907, 9362.0, 30146.0, 35388.0, 9362.0, 8.152067184448242, 0.14736759662628174, 0.033678822219371796, 0.07127686589956284, 0.0021133767440915108, -0.062224581837654114, 0.9997168779373169, -0.05907299369573593, -0.09335899353027344, 1.48828125, 1.594482421875, 0.4041595458984375, 1.4912109375, 1.603271484375, 10.0, 1.4148590564727783, 1.5, 1.4148590564727783
28279, -2.0806968212127686, -5.261028289794922, 3.6449408531188965, 0.12430442124605179, 0.058636538684368134, -3.3908567428588867, 0.4660879671573639, 0.22005484998226166, -0.2839811146259308, -0.829047441482544, -0.9676564335823059, 0.05557167902588844, -0.5852727358879046, 0.3098699903294744, 0.12673281675819517, 9362.0, 30146.0, 35388.0, 9362.0, 8.152067184448242, -0.047911204397678375, -0.14189015328884125, 0.05470701679587364, 0.0035441748332232237, -0.06093374639749527, 0.9998440146446228, -0.05907299369573593, -0.09335899353027344, 1.48828125, 1.16455078125, 0.620697021484375, 1.4912109375, 1.42822265625, 10.0, 1.4156643152236938, 1.5, 1.4156643152236938
28289, -2.0804309844970703, -5.261991024017334, 3.645798921585083, 0.12430442124605179, 0.058636538684368134, -3.3908567428588867, 0.4660879671573639, 0.22005484998226166, -0.2839811146259308, -0.8290476202964783, -0.9676467180252075, 0.05557136610150337, -0.5764899683674005, 0.32450665193931627, 0.13312651743711967, 9362.0, 30146.0, 35388.0, 9362.0, 8.152067184448242, -0.001310483319684863, -0.2612026333808899, -0.07905127853155136, 0.0020929353777319193, -0.06180892512202263, 1.0007190704345703, -0.05907299369573593, -0.09335899353027344, 1.48828125, 1.260498046875, 0.1313934326171875, 1.4912109375, 1.27294921875, 10.0, 1.4164232015609741, 1.5, 1.4164232015609741
28299, -2.079615354537964, -5.262156963348389, 3.6451287269592285, 0.12430442124605179, 0.058636538684368134, -3.3908567428588867, 0.4660879671573639, 0.22005484998226166, -0.2839811146259308, -0.829060435295105, -0.9676470756530762, 0.055560383945703506, -0.5751827074966417, 0.3190340241197873, 0.13253949673522364, 9362.0, 30146.0, 35388.0, 9362.0, 8.152067184448242, 0.251045823097229, -0.024296367540955544, 0.030765555799007416, 0.0030752962920814753, -0.06367287039756775, 0.9981334209442139, -0.05907299369573593, -0.09335899353027344, 1.48828125, 1.260498046875, 0.1313934326171875, 1.4912109375, 1.27294921875, 10.0, 1.4171079397201538, 1.5, 1.4171079397201538
28309, -2.0782206058502197, -5.262353897094727, 3.645869016647339, 0.12430442124605179, 0.058636538684368134, -3.3908567428588867, 0.4660879671573639, 0.22005484998226166, -0.2839811146259308, -0.8290488123893738, -0.9676464200019836, 0.05556188151240349, -0.577367764428357, 0.3119766564652764, 0.11607350189202559, 9362.0, 30146.0, 35388.0, 9362.0, 8.152067184448242, -0.052837226539850235, 0.2921709418296814, 0.08355411142110825, 0.0030752962920814753, -0.06367287039756775, 0.9981334209442139, -0.05907299369573593, -0.09335899353027344, 1.48828125, 1.029052734375, 2.3798828125, 1.493408203125, 1.527099609375, 10.0, 1.4158711433410645, 1.5, 1.4158711433410645
28329, -2.0789029598236084, -5.260538101196289, 3.6476593017578125, 0.14870138466358185, 0.07015471905469894, -3.4051220417022705, 0.5097838640213013, 0.24066434800624847, -0.28673532605171204, -0.8290361762046814, -0.9676445126533508, 0.05557027459144592, -0.5802024199645124, 0.32265932096709093, 0.13363940701111102, 9362.0, 30146.0, 35388.0, 9362.0, 8.152067184448242, -0.12602585554122925, -0.3435959219932556, -0.3349769115447998, 0.0024527874775230885, -0.05973855406045914, 0.9982960820198059, -0.06325584650039673, -0.030637741088867188, 1.493408203125, 1.24072265625, 0.1952667236328125, 1.493408203125, 1.648681640625, 10.0, 1.4160300493240356, 1.5, 1.4160300493240356
28339, -2.0794155597686768, -5.2586822509765625, 3.646608829498291, 0.14870138466358185, 0.07015471905469894, -3.4051220417022705, 0.5097838640213013, 0.24066434800624847, -0.28673532605171204, -0.8290507793426514, -0.9676452279090881, 0.055582910776138306, -0.5802792494192403, 0.3187680468094243, 0.13381510958105824, 9362.0, 30146.0, 35388.0, 9362.0, 8.152067184448242, 0.1510748714208603, -0.10923449695110321, 0.1502671092748642, 0.00275331805460155, -0.062138017266988754, 0.9973864555358887, -0.06325584650039673, -0.030637741088867188, 1.493408203125, 1.24072265625, 0.1952667236328125, 1.493408203125, 1.48974609375, 10.0, 1.4151967763900757, 1.5, 1.4151967763900757
28349, -2.0788729190826416, -5.257506847381592, 3.647413969039917, 0.15907149016857147, 0.0750502273440361, -3.410871982574463, 0.527230441570282, 0.24888914823532104, -0.28819015622138977, -0.8290467858314514, -0.9676359295845032, 0.055588748306035995, -0.5822408559689647, 0.3238357578156297, 0.1271866129286061, 9362.0, 30146.0, 35388.0, 9362.0, 8.152067184448242, 0.2166392207145691, 0.0434085987508297, 0.060928311198949814, 0.004472306463867426, -0.061308372765779495, 0.9974348545074463, -0.06325584650039673, -0.030637741088867188, 1.493408203125, 1.24072265625, 0.1952667236328125, 1.493408203125, 1.620849609375, 10.0, 1.4155200719833374, 1.5, 1.4155200719833374
28359, -2.0782363414764404, -5.2593560218811035, 3.648881196975708, 0.15907149016857147, 0.0750502273440361, -3.410871982574463, 0.527230441570282, 0.24888914823532104, -0.28819015622138977, -0.8290571570396423, -0.9676408767700195, 0.05557062104344368, -0.5777401932398567, 0.3177492318175723, 0.13109085227219333, 9362.0, 30146.0, 35388.0, 9362.0, 8.152067184448242, -0.13820263743400574, 0.11479011178016663, -0.17839965224266052, 0.0028261642437428236, -0.0593150295317173, 0.998214066028595, -0.06325584650039673, -0.030637741088867188, 1.493408203125, 1.008544921875, 2.7962646484375, 1.493408203125, 0.9228515625, 10.0, 1.4151023626327515, 1.5, 1.4151023626327515
28369, -2.079375982284546, -5.2590155601501465, 3.6489601135253906, 0.16979046165943146, 0.08011027425527573, -3.4166502952575684, 0.5446657538414001, 0.2571154832839966, -0.2896329164505005, -0.8290418386459351, -0.9676412343978882, 0.05558924376964569, -0.5823714909740378, 0.31877619486300546, 0.13044188670152795, 9362.0, 30146.0, 35388.0, 9362.0, 8.152067184448242, -0.13820263743400574, 0.11479011178016663, -0.17839965224266052, 0.001949542318470776, -0.060925643891096115, 0.9974578619003296, -0.06325584650039673, -0.030637741088867188, 1.493408203125, 1.008544921875, 2.7962646484375, 1.493408203125, 1.503662109375, 10.0, 1.4143853187561035, 1.5, 1.4143853187561035
28379, -2.079500198364258, -5.26066780090332, 3.6499555110931396, 0.17528074979782104, 0.08270200341939926, -3.4195499420166016, 0.553392231464386, 0.2612304985523224, -0.29027998447418213, -0.8290878534317017, -0.9676527976989746, 0.05562962591648102, -0.5765619235723894, 0.31820690077228164, 0.13922344013981858, 9362.0, 30146.0, 35388.0, 9362.0, 8.152067184448242, 0.02417973056435585, -0.06806855648756027, -0.08484534174203873, 0.002057400532066822, -0.05981205776333809, 0.9982115626335144, -0.06325584650039673, -0.030637741088867188, 1.493408203125, 1.008544921875, 2.7962646484375, 1.493408203125, 1.693359375, 10.0, 1.4153424501419067, 1.5, 1.4153424501419067
28389, -2.0806937217712402, -5.260127544403076, 3.6495883464813232, 0.18085826933383942, 0.08533487468957901, -3.4224562644958496, 0.5621109008789062, 0.2653442919254303, -0.2910056412220001, -0.829058051109314, -0.9676216244697571, 0.055573802441358566, -0.5844318343036011, 0.3166334851070758, 0.1270216558472434, 9362.0, 30146.0, 35388.0, 9362.0, 8.152067184448242, -0.006455389317125082, 0.07082855701446533, -0.06194991245865822, 0.0023847895208746195, -0.06076278164982796, 0.9999029040336609, -0.06325584650039673, -0.030637741088867188, 1.493408203125, 1.008544921875, 2.7962646484375, 1.49267578125, 1.693359375, 10.0, 1.4155889749526978, 1.5, 1.4155889749526978
28399, -2.0810511112213135, -5.26003360748291, 3.6489336490631104, 0.18652302026748657, 0.08800891041755676, -3.4253695011138916, 0.570840060710907, 0.26946207880973816, -0.2916452884674072, -0.8290515542030334, -0.9676405787467957, 0.05557108670473099, -0.5799049889210749, 0.31637016576434007, 0.1349100607605594, 9362.0, 30146.0, 35388.0, 9362.0, 8.152067184448242, 0.13313081860542297, -0.11839861422777176, -0.2827201783657074, 0.0023847895208746195, -0.06076278164982796, 0.9999029040336609, -0.06325584650039673, -0.030637741088867188, 1.493408203125, 1.008544921875, 2.7962646484375, 1.49267578125, 1.681640625, 10.0, 1.4141743183135986, 1.5, 1.4141743183135986
28409, -2.0802001953125, -5.2593817710876465, 3.647325038909912, 0.19227512180805206, 0.0907241553068161, -3.428288459777832, 0.5795789957046509, 0.2735867500305176, -0.2921654284000397, -0.8290466666221619, -0.9676395654678345, 0.05559123307466507, -0.5773493782770988, 0.3142707985492166, 0.13959115112393344, 9362.0, 30146.0, 35388.0, 9362.0, 8.152067184448242, -0.0685826912522316, 0.40524572134017944, 0.11306951940059662, 0.0031075829174369574, -0.0622396245598793, 0.9976063966751099, -0.06325584650039673, -0.030637741088867188, 1.493408203125, 1.207763671875, 0.341400146484375, 1.49267578125, 1.6259765625, 10.0, 1.4122854471206665, 1.5, 1.4122854471206665
28419, -2.0810470581054688, -5.260685920715332, 3.6480820178985596, 0.19227512180805206, 0.0907241553068161, -3.428288459777832, 0.5795789957046509, 0.2735867500305176, -0.2921654284000397, -0.8290420770645142, -0.967635452747345, 0.055574916303157806, -0.5826401909310799, 0.3132150594979919, 0.13003480056894123, 9362.0, 30146.0, 35388.0, 9362.0, 8.152067184448242, -0.0685826912522316, 0.40524572134017944, 0.11306951940059662, 0.0022744969464838505, -0.06336939334869385, 0.9992465972900391, -0.06325584650039673, -0.030637741088867188, 1.493408203125, 1.207763671875, 0.341400146484375, 1.49267578125, 1.6259765625, 10.0, 1.4129902124404907, 1.5, 1.4129902124404907
28429, -2.081345319747925, -5.262643814086914, 3.6492722034454346, 0.20404136180877686, 0.09627833217382431, -3.434143304824829, 0.5970408916473389, 0.28182849287986755, -0.29336920380592346, -0.8290435075759888, -0.9676323533058167, 0.05559187009930611, -0.5788702801806302, 0.30947542486867974, 0.11825412118917507, 9362.0, 30146.0, 35388.0, 9362.0, 8.152067184448242, -0.0027135913260281086, 0.2791580259799957, -0.010225954465568066, 0.0012463750317692757, -0.06364627182483673, 0.9991626739501953, -0.06325584650039673, -0.030637741088867188, 1.493408203125, 1.207763671875, 0.341400146484375, 1.49267578125, 1.68310546875, 10.0, 1.4140187501907349, 1.5, 1.4140187501907349
28439, -2.0806987285614014, -5.264606952667236, 3.6486551761627197, 0.20404136180877686, 0.09627833217382431, -3.434143304824829, 0.5970408916473389, 0.28182849287986755, -0.29336920380592346, -0.8290438652038574, -0.9676465392112732, 0.055597852915525436, -0.5730349063230106, 0.32237577622049685, 0.12623027660490188, 9362.0, 30146.0, 35388.0, 9362.0, 8.152067184448242, -0.25865206122398376, 0.03523234650492668, -0.12187822163105011, 0.0012463750317692757, -0.06364627182483673, 0.9991626739501953, -0.06325584650039673, -0.030637741088867188, 1.493408203125, 1.207763671875, 0.341400146484375, 1.49267578125, 1.6259765625, 10.0, 1.414290189743042, 1.5, 1.414290189743042
28449, -2.0813190937042236, -5.26426362991333, 3.6480891704559326, 0.21615687012672424, 0.10199734568595886, -3.4400224685668945, 0.614510178565979, 0.2900734841823578, -0.29456284642219543, -0.8290601372718811, -0.9676374197006226, 0.05558977276086807, -0.5819179627565565, 0.3180744948427616, 0.13051163967073948, 9362.0, 30146.0, 35388.0, 9362.0, 8.152067184448242, -0.25865206122398376, 0.03523234650492668, -0.12187822163105011, 0.0012463750317692757, -0.06364627182483673, 0.9991626739501953, -0.06325584650039673, -0.030637741088867188, 1.493408203125, 1.207763671875, 0.341400146484375, 1.49267578125, 1.6259765625, 10.0, 1.4143619537353516, 1.5, 1.4143619537353516
28469, -2.0809996128082275, -5.266583442687988, 3.6481473445892334, 0.22862203419208527, 0.1078813374042511, -3.4459238052368164, 0.6320028901100159, 0.2983248233795166, -0.2956024408340454, -0.8290759921073914, -0.9676516056060791, 0.05562518909573555, -0.5746246276663868, 0.32546835875106694, 0.1431856876236169, 9362.0, 30146.0, 35388.0, 9362.0, 8.152067184448242, -0.13439418375492096, -0.046074070036411285, 0.08957930654287338, 0.002907626796513796, -0.061379384249448776, 0.9962143898010254, -0.06325584650039673, -0.030637741088867188, 1.493408203125, 1.207763671875, 0.341400146484375, 1.49267578125, 1.661865234375, 10.0, 1.4155830144882202, 1.5, 1.4155830144882202
28479, -2.0815365314483643, -5.2658915519714355, 3.649571418762207, 0.22862203419208527, 0.1078813374042511, -3.4459238052368164, 0.6320028901100159, 0.2983248233795166, -0.2956024408340454, -0.8290271162986755, -0.9676249623298645, 0.055587686598300934, -0.5752952538914129, 0.3187910900027475, 0.13128193419804998, 9362.0, 30146.0, 35388.0, 9362.0, 8.152067184448242, -0.13439418375492096, -0.046074070036411285, 0.08957930654287338, 0.0022749570198357105, -0.061465874314308167, 0.9980661869049072, -0.06325584650039673, -0.030637741088867188, 1.493408203125, 1.207763671875, 0.341400146484375, 1.49267578125, 1.661865234375, 10.0, 1.4139902591705322, 1.5, 1.4139902591705322
28489, -2.0817818641662598, -5.264932155609131, 3.6480438709259033, 0.22862203419208527, 0.1078813374042511, -3.4459238052368164, 0.6320028901100159, 0.2983248233795166, -0.2956024408340454, -0.8290484547615051, -0.9676311016082764, 0.05557958781719208, -0.5803800301661675, 0.314788592766007, 0.13273528528596035, 9362.0, 30146.0, 35388.0, 9362.0, 8.152067184448242, -0.1958622932434082, -0.090999074280262, -0.09520744532346725, 0.0022749570198357105, -0.061465874314308167, 0.9980661869049072, -0.06325584650039673, -0.030637741088867188, 1.493408203125, 1.207763671875, 0.341400146484375, 1.49267578125, 1.65380859375, 10.0, 1.4139902591705322, 1.5, 1.4139902591705322
28499, -2.0823047161102295, -5.264458179473877, 3.648024320602417, 0.22862203419208527, 0.1078813374042511, -3.4459238052368164, 0.6320028901100159, 0.2983248233795166, -0.2956024408340454, -0.8290482759475708, -0.967636227607727, 0.055590108036994934, -0.5799018976553669, 0.32417007093957295, 0.12494432056416126, 9362.0, 30146.0, 35388.0, 9362.0, 8.152067184448242, 0.03837442770600319, 0.1695520281791687, 0.018425002694129944, 0.0022749570198357105, -0.061465874314308167, 0.9980661869049072, -0.06325584650039673, -0.030637741088867188, 1.493408203125, 1.207763671875, 0.341400146484375, 1.49267578125, 1.65380859375, 10.0, 1.4154258966445923, 1.5, 1.4154258966445923
28509, -2.0813214778900146, -5.266223430633545, 3.647411346435547, 0.22862203419208527, 0.1078813374042511, -3.4459238052368164, 0.6320028901100159, 0.2983248233795166, -0.2956024408340454, -0.8290492296218872, -0.9676395058631897, 0.055592238903045654, -0.5800044244654546, 0.32382301043600137, 0.12540684575862185, 9362.0, 30146.0, 35388.0, 9362.0, 8.152067184448242, 0.17297737300395966, -0.4467141330242157, 0.2722868025302887, 0.0022749570198357105, -0.061465874314308167, 0.9980661869049072, -0.06325584650039673, -0.030637741088867188, 1.493408203125, 1.207763671875, 0.341400146484375, 1.49267578125, 1.641357421875, 10.0, 1.4148650169372559, 1.5, 1.4148650169372559
28529, -2.0806825160980225, -5.263599395751953, 3.6485395431518555, 0.26811254024505615, 0.1265215426683426, -3.463801860809326, 0.6843605637550354, 0.32302314043045044, -0.3001821041107178, -0.8290468454360962, -0.967636227607727, 0.055603861808776855, -0.5762022364435783, 0.3121460650700101, 0.12994754224741448, 9362.0, 30146.0, 35388.0, 9362.0, 8.152067184448242, -0.04587359353899956, -0.2848004400730133, 0.09678645431995392, 0.0025593533646315336, -0.060492053627967834, 0.9984561204910278, -0.06325584650039673, -0.030637741088867188, 1.493408203125, 1.207763671875, 0.341400146484375, 1.49267578125, 1.449462890625, 10.0, 1.4135205745697021, 1.5, 1.4135205745697021
28549, -2.080573081970215, -5.260554790496826, 3.648639440536499, 0.2819744944572449, 0.1330644190311432, -3.469817876815796, 0.7018354535102844, 0.3312646150588989, -0.30140599608421326, -0.8290390372276306, -0.9676317572593689, 0.05558859556913376, -0.5857198126982497, 0.31641978785859237, 0.12125857799511545, 9362.0, 30146.0, 35388.0, 9362.0, 8.152067184448242, 0.003927154466509819, -0.006997763179242611, -0.15014556050300598, 0.0021827942691743374, -0.06191970407962799, 0.9970058798789978, -0.06325584650039673, -0.030637741088867188, 1.493408203125, 1.207763671875, 0.341400146484375, 1.49267578125, 1.449462890625, 10.0, 1.4126813411712646, 1.5, 1.4126813411712646
28569, -2.0797119140625, -5.256540298461914, 3.6494719982147217, 0.296185702085495, 0.13977202773094177, -3.475860118865967, 0.7192846536636353, 0.33949777483940125, -0.3028034567832947, -0.8290525674819946, -0.9676280617713928, 0.05558600649237633, -0.5787808830482198, 0.31600708899256347, 0.12387358510850875, 9362.0, 30146.0, 35388.0, 9362.0, 8.152067184448242, -0.037754226475954056, 0.2534137964248657, 0.0857980027794838, 0.0007640941184945405, -0.060315560549497604, 0.9992163181304932, -0.06325584650039673, -0.030637741088867188, 1.493408203125, 1.207763671875, 0.341400146484375, 1.49267578125, 1.449462890625, 10.0, 1.4124674797058105, 1.5, 1.4124674797058105
28579, -2.078701972961426, -5.257345199584961, 3.6495919227600098, 0.296185702085495, 0.13977202773094177, -3.475860118865967, 0.7192846536636353, 0.33949777483940125, -0.3028034567832947, -0.8290480375289917, -0.9676472544670105, 0.055588409304618835, -0.5816155927078532, 0.316019574237572, 0.13232269013929868, 9362.0, 30146.0, 35388.0, 9362.0, 8.152067184448242, -0.037754226475954056, 0.2534137964248657, 0.0857980027794838, 0.0035148048773407936, -0.060755614191293716, 0.9988718032836914, -0.06325584650039673, -0.030637741088867188, 1.493408203125, 1.207763671875, 0.341400146484375, 1.49267578125, 1.2978515625, 10.0, 1.4112129211425781, 1.5, 1.4112129211425781
28589, -2.078669309616089, -5.2546610832214355, 3.6497647762298584, 0.296185702085495, 0.13977202773094177, -3.475860118865967, 0.7192846536636353, 0.33949777483940125, -0.3028034567832947, -0.8290433883666992, -0.9676409363746643, 0.05558708682656288, -0.576460891028529, 0.31852446853949345, 0.13269650008184738, 9362.0, 30146.0, 35388.0, 9362.0, 8.152067184448242, 0.11978153884410858, -0.22039061784744263, -0.23635812103748322, 0.002489605452865362, -0.057561274617910385, 0.9992822408676147, -0.06325584650039673, -0.030637741088867188, 1.493408203125, 1.207763671875, 0.341400146484375, 1.49267578125, 1.2978515625, 10.0, 1.4118725061416626, 1.5, 1.4118725061416626
28599, -2.0792622566223145, -5.251918792724609, 3.6488139629364014, 0.31815701723098755, 0.1501423418521881, -3.484971284866333, 0.745468020439148, 0.3518548309803009, -0.30460357666015625, -0.8290395736694336, -0.9676254391670227, 0.05558745190501213, -0.5810457802392213, 0.32284802427363957, 0.12346558643874352, 9362.0, 30146.0, 35388.0, 9362.0, 8.152067184448242, -0.06103440001606941, 0.16105803847312927, 0.1680152267217636, 0.0018668838310986757, -0.05933685228228569, 0.9977036118507385, -0.06325584650039673, -0.030637741088867188, 1.493408203125, 1.207763671875, 0.341400146484375, 1.49267578125, 1.2978515625, 10.0, 1.411852478981018, 1.5, 1.411852478981018
28609, -2.079742908477783, -5.25191593170166, 3.6500651836395264, 0.31815701723098755, 0.1501423418521881, -3.484971284866333, 0.745468020439148, 0.3518548309803009, -0.30460357666015625, -0.8290497064590454, -0.9676467180252075, 0.05560256168246269, -0.5853349604674529, 0.31163843555279414, 0.11766987290404017, 9362.0, 30146.0, 35388.0, 9362.0, 8.152067184448242, 0.03464571759104729, -0.18939197063446045, -0.5293999314308167, 0.003038808237761259, -0.06140368804335594, 0.9978280067443848, -0.06325584650039673, -0.030637741088867188, 1.493408203125, 1.207763671875, 0.341400146484375, 1.493408203125, 1.2978515625, 10.0, 1.4122464656829834, 1.5, 1.4122464656829834
28629, -2.0795493125915527, -5.248610496520996, 3.6478071212768555, 0.3409135043621063, 0.16088327765464783, -3.494136095046997, 0.7716189622879028, 0.3642052114009857, -0.3064858615398407, -0.8290511965751648, -0.9676281213760376, 0.05560041218996048, -0.5812111697721396, 0.3137612899630824, 0.1333640519686853, 9362.0, 30146.0, 35388.0, 9362.0, 8.152067184448242, -0.2503381073474884, -0.042895298451185226, -0.10668900609016418, 0.0029839477501809597, -0.06073008477687836, 0.9968218207359314, -0.06325584650039673, -0.030637741088867188, 1.493408203125, 1.207763671875, 0.341400146484375, 1.5, 1.6494140625, 10.0, 1.4118247032165527, 1.5, 1.4118247032165527
28639, -2.0808889865875244, -5.2477030754089355, 3.647264003753662, 0.3486732244491577, 0.16454589366912842, -3.497204542160034, 0.7803230881690979, 0.3683183491230011, -0.3072076737880707, -0.8290562629699707, -0.9676263332366943, 0.05557461082935333, -0.5817282006373615, 0.32466736218941605, 0.12077520243036076, 9362.0, 30146.0, 35388.0, 9362.0, 8.152067184448242, 0.07430500537157059, -0.03784056752920151, -0.1781117469072342, 0.003203934757038951, -0.06074671074748039, 0.9987891912460327, -0.06325584650039673, -0.030637741088867188, 1.493408203125, 1.207763671875, 0.341400146484375, 1.5, 1.664794921875, 10.0, 1.4111665487289429, 1.5, 1.4111665487289429
28649, -2.0801634788513184, -5.246971607208252, 3.6462552547454834, 0.3486732244491577, 0.16454589366912842, -3.497204542160034, 0.7803230881690979, 0.3683183491230011, -0.3072076737880707, -0.8290531635284424, -0.9676374197006226, 0.05560789257287979, -0.5847751917158157, 0.32026397578238175, 0.12531507671224307, 9362.0, 30146.0, 35388.0, 9362.0, 8.152067184448242, -0.04283713549375534, 0.26130396127700806, -0.16216503083705902, 0.0018962541362270713, -0.059762634336948395, 0.9970862865447998, -0.06325584650039673, -0.030637741088867188, 1.493408203125, 1.65234375, 0.5445709228515625, 1.493408203125, 1.664794921875, 10.0, 1.4111665487289429, 1.5, 1.4111665487289429
28659, -2.080213785171509, -5.249702453613281, 3.646925210952759, 0.3486732244491577, 0.16454589366912842, -3.497204542160034, 0.7803230881690979, 0.3683183491230011, -0.3072076737880707, -0.8290374279022217, -0.9676183462142944, 0.05559678003191948, -0.5822390686082466, 0.32213950491620835, 0.12312601701671187, 9362.0, 30146.0, 35388.0, 9362.0, 8.152067184448242, -0.24255488812923431, -0.24088817834854126, 0.187318816781044, 0.0006247117416933179, -0.06318742036819458, 0.9969412684440613, -0.06325584650039673, -0.030637741088867188, 1.493408203125, 1.65234375, 0.5445709228515625, 1.493408203125, 1.374755859375, 10.0, 1.4124618768692017, 1.5, 1.4124618768692017
28679, -2.081806182861328, -5.249729156494141, 3.649130344390869, 0.38058266043663025, 0.17960794270038605, -3.509544849395752, 0.815139889717102, 0.38477981090545654, -0.309938907623291, -0.8290453553199768, -0.967634916305542, 0.05557629093527794, -0.581341947235918, 0.3240731264704948, 0.13018823841590182, 9362.0, 30146.0, 35388.0, 9362.0, 8.152067184448242, -0.009183838032186031, 0.012484638020396233, 0.08060789853334427, 0.0022248656023293734, -0.06134161353111267, 0.9966552257537842, -0.06325584650039673, -0.030637741088867188, 1.493408203125, 1.65234375, 0.5445709228515625, 1.493408203125, 1.54541015625, 10.0, 1.4119154214859009, 1.5, 1.4119154214859009
28689, -2.082139015197754, -5.25040864944458, 3.649921417236328, 0.3887775242328644, 0.1834762990474701, -3.512648344039917, 0.8238344192504883, 0.38889279961586, -0.310748428106308, -0.8290432095527649, -0.9676247239112854, 0.055596284568309784, -0.5817420773043503, 0.32047028488213414, 0.1287120409201849, 9362.0, 30146.0, 35388.0, 9362.0, 8.152067184448242, -0.33473828434944153, -0.13373886048793793, -0.1772831529378891, 0.0022248656023293734, -0.06134161353111267, 0.9966552257537842, -0.06325584650039673, -0.030637741088867188, 1.493408203125, 1.65234375, 0.5445709228515625, 1.493408203125, 1.6494140625, 10.0, 1.4098833799362183, 1.5, 1.4098833799362183
28699, -2.082951784133911, -5.249776363372803, 3.649864673614502, 0.39705947041511536, 0.18738584220409393, -3.515758514404297, 0.8325517773628235, 0.39301663637161255, -0.31130725145339966, -0.8290479183197021, -0.9676163792610168, 0.0555761456489563, -0.580426636873624, 0.3207142106393519, 0.13236368357597753, 9362.0, 30146.0, 35388.0, 9362.0, 8.152067184448242, 0.1795521080493927, 0.2966770827770233, 0.019070951268076897, 0.0019615597557276487, -0.05824767425656319, 0.997715175151825, -0.06325584650039673, -0.030637741088867188, 1.493408203125, 1.65234375, 0.5445709228515625, 1.493408203125, 1.6494140625, 10.0, 1.4098395109176636, 1.5, 1.4098395109176636
28709, -2.0821645259857178, -5.25178861618042, 3.65044903755188, 0.39705947041511536, 0.18738584220409393, -3.515758514404297, 0.8325517773628235, 0.39301663637161255, -0.31130725145339966, -0.8290601372718811, -0.9676339030265808, 0.05558575689792633, -0.5815039333989599, 0.32114613264621994, 0.12872806056321662, 9362.0, 30146.0, 35388.0, 9362.0, 8.152067184448242, 0.1795521080493927, 0.2966770827770233, 0.019070951268076897, 0.0018020765855908394, -0.05939643830060959, 0.9988707304000854, -0.06325584650039673, -0.030637741088867188, 1.493408203125, 1.65234375, 0.5445709228515625, 1.494140625, 1.306640625, 10.0, 1.4099113941192627, 1.5, 1.4099113941192627
