timeTick, roll, pitch, yaw, stateX, stateY, stateZ, stateVX, stateVY, stateVZ, otX0, otY0, otZ0, otRoll0, otPitch0, otYaw0, left wing, pitch motor, yaw motor, right wing, voltage, roll rate, pitch rate, yaw rate, A_x, A_y, A_z, current, i_raw, v_raw, airflow_voltage, airflow_speed, pot_Pitch, voltage_nKF, kFFx, state_vel, State_vel, volt_KF_vel
52669, -1.763022780418396, 0.6446707248687744, -0.5941318273544312, 0, 0, 0, 0, 0, 0, 0, 0, 0, 0, 0, 0, 0, 0, 0, 0, 0, 0, 0, 0, 0, 0, 0, 0, 0, 0, 0, 0, 0, 0, 0, 0, 0, 0
52679, -1.763992428779602, 0.6491144299507141, -0.5848308801651001, 0.0, 0.0, -16.651987075805664, 0.0, 0.0, -0.28362274169921875, 0, 0, 0, 0, 0, 0, 9362.0, 30146.0, 35388.0, 9362.0, 0, -0.154300257563591, -0.3153325915336609, 0.9448189735412598, 0.010689346119761467, -0.03151853755116463, 0.9980282187461853, 0, 0, 0, 1.01953125, 2.5674285888671875, 0, 0, 0, 0, 0, 0
52689, -1.7660497426986694, 0.6470253467559814, -0.581016480922699, 0.0, 0.0, -16.654541015625, 0.0, 0.0, -0.25539398193359375, 0, 0, 0, 0, 0, 0, 9362.0, 30146.0, 35388.0, 9362.0, 0, -0.331728994846344, 0.08074139803647995, 0.41206178069114685, 0.00849103182554245, -0.030529718846082687, 0.9967747330665588, 0, 0, 0, 1.998046875, 2.1412506103515625, 0, 1.30810546875, 10.0, 1.0, 10.0, 1.4351089000701904
52699, -1.7674193382263184, 0.6331627368927002, -0.5777435302734375, 0.0, 0.0, -16.639341354370117, 0.0, 0.0, 1.5199661254882812, 0, 0, 0, 0, 0, 0, 9362.0, 30146.0, 35388.0, 9362.0, 0, -0.2044304460287094, 1.0465549230575562, 0.37131908535957336, 0.007636819500476122, -0.0283823162317276, 0.996942400932312, 0, 0, 0, 1.4560546875, 0.1147003173828125, 1.493408203125, 0.2021484375, 10.0, 1.0, 10.0, 1.4368863105773926
52709, -1.7684680223464966, 0.6180289387702942, -0.5775895714759827, 0.0, 0.0, -16.625661849975586, 0.0, 0.0, 1.367950439453125, 0, 0, 0, 0, 0, 0, 9362.0, 30146.0, 35388.0, 9362.0, 0, -0.17112243175506592, 1.8560420274734497, 0.08853138238191605, 0.007393552456051111, -0.029357850551605225, 1.0011194944381714, 0, 0, 0, 0.659912109375, 20.238601684570312, 1.493408203125, 2.068359375, 10.0, 1.0, 10.0, 1.4369468688964844
52719, -1.768277645111084, 0.5977027416229248, -0.5830965042114258, 0.0, 0.0, -16.615537643432617, 0.0, 0.0, 1.012420654296875, 0, 0, 0, 0, 0, 0, 9362.0, 30146.0, 35388.0, 9362.0, 0, -0.015269752591848373, 1.6730817556381226, -0.4326304495334625, 0.009857868775725365, -0.02967660501599312, 1.0036605596542358, 0, 0, 0, 1.32861328125, 0.0214385986328125, 1.49560546875, 1.528564453125, 10.0, 1.0, 10.0, 1.4344935417175293
52729, -1.7690777778625488, 0.5904597043991089, -0.5859573483467102, 0.0, 0.0, -16.60642433166504, 0.0, 0.0, 0.9113311767578125, 0, 0, 0, 0, 0, 0, 9362.0, 30146.0, 35388.0, 9362.0, 0, -0.22889451682567596, 0.9292406439781189, -0.2713569402694702, 0.014197778888046741, -0.028768321499228477, 1.00247061252594, 0, 0, 0, 0.0087890625, 169.32025146484375, 1.49560546875, 0.708984375, 10.0, 1.0, 10.0, 1.434159278869629
52739, -1.7703489065170288, 0.5903568267822266, -0.5879616141319275, 0.0, 0.0, -16.589200973510742, 0.0, 0.0, 1.7223358154296875, 0, 0, 0, 0, 0, 0, 9362.0, 30146.0, 35388.0, 9362.0, 0, -0.21528448164463043, -0.03128994628787041, -0.1122388020157814, 0.01722373254597187, -0.028030363842844963, 1.002332329750061, 0, 0, 0, 0.0, 173.0907745361328, 1.4970703125, 0.000732421875, 10.0, 1.0, 10.0, 1.4296588897705078
52749, -1.771780014038086, 0.5994879007339478, -0.5898589491844177, 0.0, 0.0, -16.573699951171875, 0.0, 0.0, 1.5501022338867188, 0, 0, 0, 0, 0, 0, 9362.0, 30146.0, 35388.0, 9362.0, 0, -0.08843585848808289, -0.9707819223403931, -0.26058709621429443, 0.013867325149476528, -0.03306670859456062, 1.0034785270690918, 0, 0, 0, 0.015380859375, 166.53282165527344, 1.4970703125, 0.052734375, 10.0, 1.0, 10.0, 1.4251450300216675
52759, -1.77301025390625, 0.6217066645622253, -0.5866515636444092, 0.0, 0.0, -16.560569763183594, 0.0, 0.0, 1.313018798828125, 0, 0, 0, 0, 0, 0, 9362.0, 30146.0, 35388.0, 9362.0, 0, -0.018752293661236763, -1.7851954698562622, 0.16434626281261444, 0.01302832830697298, -0.030953001230955124, 1.0022002458572388, 0, 0, 0, 0.53173828125, 34.09422302246094, 1.49560546875, 0.018310546875, 10.0, 1.0, 10.0, 1.4206939935684204
52769, -1.77414071559906, 0.635522186756134, -0.5832295417785645, 0.0, 0.0, -16.548751831054688, 0.0, 0.0, 1.181793212890625, 0, 0, 0, 0, 0, 0, 9362.0, 30146.0, 35388.0, 9362.0, 8.33057975769043, -0.25561073422431946, -1.7638779878616333, 0.33886587619781494, 0.012593240477144718, -0.029338164255023003, 0.9988681674003601, -0.00944864097982645, 0.13064002990722656, 1.506591796875, 2.009033203125, 2.2476043701171875, 1.49560546875, 0.0087890625, 10.0, 1.0, 10.0, 1.4178872108459473
52779, -1.7734774351119995, 0.6441563367843628, -0.5770981907844543, 0.0, 0.0, -16.54987144470215, 0.0, 0.0, -0.11196136474609375, 0, 0, 0, 0, 0, 0, 9362.0, 30146.0, 35388.0, 9362.0, 8.33057975769043, 0.11994027346372604, -0.6500304937362671, 0.5857060551643372, 0.011505050584673882, -0.029799075797200203, 0.9982690215110779, -0.00944864097982645, 0.13064002990722656, 1.506591796875, 1.03271484375, 2.3103179931640625, 1.500732421875, 1.6875, 10.0, 1.0, 10.0, 1.4197536706924438
52789, -1.7731510400772095, 0.645905077457428, -0.5770095586776733, 0.0, 0.0, -16.550880432128906, 0.0, 0.0, -0.10089874267578125, 0, 0, 0, 0, 0, 0, 9362.0, 30146.0, 35388.0, 9362.0, 8.33057975769043, 0.18464946746826172, -0.2705148160457611, -0.0795321986079216, 0.010407887399196625, -0.03330275043845177, 0.9966826438903809, -0.00944864097982645, 0.13064002990722656, 1.506591796875, 2.252197265625, 6.893341064453125, 1.500732421875, 0.75439453125, 10.0, 1.0, 10.0, 1.4185316562652588
52799, -1.7747530937194824, 0.6370827555656433, -0.5762518644332886, 0.0, 0.0, -16.552608489990234, 0.0, 0.0, -0.1728057861328125, 0, 0, 0, 0, 0, 0, 9362.0, 30146.0, 35388.0, 9362.0, 8.33057975769043, -0.21392662823200226, 0.7554015517234802, 0.09285709261894226, 0.00834512896835804, -0.031220825389027596, 0.9978166222572327, -0.00944864097982645, 0.13064002990722656, 1.506591796875, 0.4833984375, 40.793914794921875, 1.5, 1.62158203125, 10.0, 1.0, 10.0, 1.42116379737854
52809, -1.7743843793869019, 0.625317394733429, -0.5816269516944885, 0.0, 0.0, -16.554162979125977, 0.0, 0.0, -0.15544891357421875, 0, 0, 0, 0, 0, 0, 9362.0, 30146.0, 35388.0, 9362.0, 8.33057975769043, 0.06675602495670319, 1.4112905263900757, -0.7185766100883484, 0.008783356286585331, -0.0314633771777153, 0.9978651404380798, -0.00944864097982645, 0.13064002990722656, 1.506591796875, 2.04931640625, 2.6938629150390625, 1.5, 0.88037109375, 10.0, 1.0, 10.0, 1.4182029962539673
52819, -1.7770944833755493, 0.6086394190788269, -0.5897695422172546, 0.0, 0.0, -16.564857482910156, 0.0, 0.0, -1.0694503784179688, 0, 0, 0, 0, 0, 0, 9362.0, 30146.0, 35388.0, 9362.0, 8.33057975769043, -0.16644719243049622, 1.4080575704574585, -0.7376083731651306, 0.010704948566854, -0.03429416939616203, 0.9976495504379272, -0.00944864097982645, 0.13064002990722656, 1.506591796875, 1.51171875, 0.21942138671875, 1.494873046875, 2.23828125, 10.0, 1.0, 10.0, 1.4201955795288086
52829, -1.7783782482147217, 0.5991337299346924, -0.5935499668121338, 0.0, 0.0, -16.57448387145996, 0.0, 0.0, -0.9626388549804688, 0, 0, 0, 0, 0, 0, 9362.0, 30146.0, 35388.0, 9362.0, 8.33057975769043, -0.20759744942188263, 1.2850217819213867, -0.508463442325592, 0.014042263850569725, -0.032716065645217896, 1.0006035566329956, -0.00944864097982645, 0.13064002990722656, 1.506591796875, 2.127685546875, 3.869842529296875, 1.494873046875, 1.34912109375, 10.0, 1.0, 10.0, 1.4204845428466797
52839, -1.7804919481277466, 0.5957706570625305, -0.5971548557281494, 0.0, 0.0, -16.57849884033203, 0.0, 0.0, -0.40149688720703125, 0, 0, 0, 0, 0, 0, 9362.0, 30146.0, 35388.0, 9362.0, 8.33057975769043, -0.08399882167577744, 0.4609711468219757, -0.2581619918346405, 0.015560351312160492, -0.030063804239034653, 1.0028775930404663, -0.00944864097982645, 0.13064002990722656, 1.506591796875, 1.012939453125, 2.7031097412109375, 1.49560546875, 2.045654296875, 10.0, 1.0, 10.0, 1.4227174520492554
52849, -1.7817392349243164, 0.6005244255065918, -0.5982493758201599, 0.0, 0.0, -16.582111358642578, 0.0, 0.0, -0.3612518310546875, 0, 0, 0, 0, 0, 0, 9362.0, 30146.0, 35388.0, 9362.0, 8.33057975769043, -0.05598637834191322, -0.3876345157623291, -0.08186459541320801, 0.01638302206993103, -0.030255800113081932, 1.0025383234024048, -0.00944864097982645, 0.13064002990722656, 1.506591796875, 2.20751953125, 5.6132354736328125, 1.49560546875, 0.86279296875, 10.0, 1.0, 10.0, 1.4214236736297607
52859, -1.7805906534194946, 0.6166629791259766, -0.5961681604385376, 0.0, 0.0, -16.580442428588867, 0.0, 0.0, 0.16689300537109375, 0, 0, 0, 0, 0, 0, 9362.0, 30146.0, 35388.0, 9362.0, 8.33057975769043, 0.2186077982187271, -1.2681630849838257, 0.28887107968330383, 0.01362090464681387, -0.028668899089097977, 1.0012383460998535, -0.00944864097982645, 0.13064002990722656, 1.506591796875, 1.456787109375, 0.115966796875, 1.493408203125, 0.673828125, 10.0, 1.0, 10.0, 1.423905611038208
52869, -1.7792150974273682, 0.6280201077461243, -0.5953671932220459, 0.0, 0.0, -16.578941345214844, 0.0, 0.0, 0.15010833740234375, 0, 0, 0, 0, 0, 0, 9362.0, 30146.0, 35388.0, 9362.0, 8.33057975769043, 0.09129881858825684, -1.4027297496795654, -0.026441026479005814, 0.011442489922046661, -0.029020944610238075, 1.0001739263534546, -0.02328881062567234, 0.06792068481445312, 1.50146484375, 0.144287109375, 118.58419799804688, 1.493408203125, 1.65673828125, 10.0, 1.0, 10.0, 1.4240094423294067
52879, -1.7771342992782593, 0.6430506706237793, -0.5945999026298523, 0.0, 0.0, -16.577861785888672, 0.0, 0.0, 0.1079559326171875, 0, 0, 0, 0, 0, 0, 9362.0, 30146.0, 35388.0, 9362.0, 8.33057975769043, 0.028926314786076546, -1.2277613878250122, -0.12445420771837234, 0.012690624222159386, -0.03206968680024147, 0.9974372982978821, -0.02328881062567234, 0.06792068481445312, 1.50146484375, 1.93212890625, 1.6175994873046875, 1.4912109375, 1.79296875, 10.0, 1.0, 10.0, 1.4199689626693726
52889, -1.7742371559143066, 0.648776113986969, -0.5928918719291687, 0.0, 0.0, -16.57689094543457, 0.0, 0.0, 0.09708404541015625, 0, 0, 0, 0, 0, 0, 9362.0, 30146.0, 35388.0, 9362.0, 8.33057975769043, 0.5192962884902954, -0.7353266477584839, 0.270601749420166, 0.010867249220609665, -0.03180449828505516, 0.9978120923042297, -0.02328881062567234, 0.06792068481445312, 1.50146484375, 1.64208984375, 0.519073486328125, 1.4912109375, 2.066162109375, 10.0, 1.0, 10.0, 1.421586036682129
52899, -1.7687742710113525, 0.6436198353767395, -0.5905594229698181, 0.0, 0.0, -16.572463989257812, 0.0, 0.0, 0.44269561767578125, 0, 0, 0, 0, 0, 0, 9362.0, 30146.0, 35388.0, 9362.0, 8.33057975769043, 0.6300804615020752, 0.7506293058395386, 0.22700423002243042, 0.010793846100568771, -0.03139498457312584, 0.9977120757102966, -0.02328881062567234, 0.06792068481445312, 1.50146484375, 0.734619140625, 14.384719848632812, 1.49560546875, 1.00341796875, 10.0, 1.0, 10.0, 1.4222822189331055
52909, -1.7659735679626465, 0.6366180181503296, -0.5919002890586853, 0.0, 0.0, -16.568479537963867, 0.0, 0.0, 0.39844512939453125, 0, 0, 0, 0, 0, 0, 9362.0, 30146.0, 35388.0, 9362.0, 8.33057975769043, 0.3457949459552765, 0.8228698372840881, -0.12096353620290756, 0.008348898962140083, -0.03172515332698822, 0.9964534044265747, -0.02328881062567234, 0.06792068481445312, 1.50146484375, 1.97314453125, 1.9217987060546875, 1.49560546875, 1.11474609375, 10.0, 1.0, 10.0, 1.420111060142517
52919, -1.7626532316207886, 0.6188380122184753, -0.5935621857643127, 0.0, 0.0, -16.56844711303711, 0.0, 0.0, 0.00324249267578125, 0, 0, 0, 0, 0, 0, 9362.0, 30146.0, 35388.0, 9362.0, 8.33057975769043, 0.34349679946899414, 1.430794358253479, 0.04152880236506462, 0.008866786025464535, -0.03328412026166916, 0.9961310029029846, -0.02328881062567234, 0.06792068481445312, 1.50146484375, 1.970947265625, 1.90380859375, 1.4912109375, 1.635498046875, 10.0, 1.0, 10.0, 1.4218571186065674
52929, -1.762010097503662, 0.6101943850517273, -0.5959303975105286, 0.0, 0.0, -16.568418502807617, 0.0, 0.0, 0.00286102294921875, 0, 0, 0, 0, 0, 0, 9362.0, 30146.0, 35388.0, 9362.0, 8.33057975769043, 0.07550561428070068, 0.9961027503013611, -0.278965026140213, 0.011203108355402946, -0.03210221603512764, 0.9991129636764526, -0.02328881062567234, 0.06792068481445312, 1.50146484375, 0.750732421875, 13.305496215820312, 1.4912109375, 2.041259765625, 10.0, 1.0, 10.0, 1.4235907793045044
52939, -1.7632495164871216, 0.6007058024406433, -0.598099946975708, 0.0, 0.0, -16.56155776977539, 0.0, 0.0, 0.6860733032226562, 0, 0, 0, 0, 0, 0, 9362.0, 30146.0, 35388.0, 9362.0, 8.33057975769043, -0.14462192356586456, 0.9181559085845947, -0.24045783281326294, 0.012381254695355892, -0.02997066080570221, 1.0038529634475708, -0.02328881062567234, 0.06792068481445312, 1.50146484375, 0.542724609375, 32.69248962402344, 1.49560546875, 0.99462890625, 10.0, 1.0, 10.0, 1.42146635055542
52949, -1.7656967639923096, 0.6025173664093018, -0.5997904539108276, 0.0, 0.0, -16.555381774902344, 0.0, 0.0, 0.6175994873046875, 0, 0, 0, 0, 0, 0, 9362.0, 30146.0, 35388.0, 9362.0, 8.33057975769043, -0.32402747869491577, -0.17429885268211365, -0.19594264030456543, 0.014389587566256523, -0.030620627105236053, 1.0012837648391724, -0.02328881062567234, 0.06792068481445312, 1.50146484375, 2.064697265625, 2.890106201171875, 1.49560546875, 0.816650390625, 10.0, 1.0, 10.0, 1.418691873550415
52959, -1.7701489925384521, 0.6124823093414307, -0.5992864966392517, 0.0, 0.0, -16.54572296142578, 0.0, 0.0, 0.96588134765625, 0, 0, 0, 0, 0, 0, 9362.0, 30146.0, 35388.0, 9362.0, 8.33057975769043, -0.3698119521141052, -0.6689847111701965, 0.10558227449655533, 0.014127440750598907, -0.03096720576286316, 0.9997550845146179, -0.02328881062567234, 0.06792068481445312, 1.50146484375, 1.809814453125, 1.009002685546875, 1.49267578125, 2.091064453125, 10.0, 1.0, 10.0, 1.420731544494629
52969, -1.7730381488800049, 0.6230059266090393, -0.5987268686294556, 0.0, 0.0, -16.537031173706055, 0.0, 0.0, 0.8691787719726562, 0, 0, 0, 0, 0, 0, 9362.0, 30146.0, 35388.0, 9362.0, 8.33057975769043, -0.3691079318523407, -1.156075119972229, 0.05766879394650459, 0.012903103604912758, -0.02905861847102642, 1.0001627206802368, -0.021435393020510674, 0.06792068481445312, 1.50146484375, 1.869140625, 1.259857177734375, 1.49267578125, 1.31396484375, 10.0, 1.0, 10.0, 1.4219599962234497
52979, -1.7741947174072266, 0.6384403109550476, -0.5933901071548462, 0.0, 0.0, -16.536588668823242, 0.0, 0.0, 0.04425048828125, 0, 0, 0, 0, 0, 0, 9362.0, 30146.0, 35388.0, 9362.0, 8.33057975769043, -0.13406048715114594, -1.26377272605896, 0.570638120174408, 0.01233316957950592, -0.027145925909280777, 1.0011842250823975, -0.021435393020510674, 0.06792068481445312, 1.50146484375, 1.97607421875, 1.9461822509765625, 1.496337890625, 2.120361328125, 10.0, 1.0, 10.0, 1.4233719110488892
52989, -1.7732787132263184, 0.6448174715042114, -0.5901037454605103, 0.0, 0.0, -16.536191940307617, 0.0, 0.0, 0.0396728515625, 0, 0, 0, 0, 0, 0, 9362.0, 30146.0, 35388.0, 9362.0, 8.33057975769043, 0.11588282138109207, -0.7312549948692322, 0.3283225893974304, 0.010946483351290226, -0.026912933215498924, 1.0011075735092163, -0.021435393020510674, 0.06792068481445312, 1.50146484375, 1.82958984375, 1.085296630859375, 1.496337890625, 1.795166015625, 10.0, 1.0, 10.0, 1.425117015838623
52999, -1.7709429264068604, 0.645076334476471, -0.5839221477508545, 0.0, 0.0, -16.526538848876953, 0.0, 0.0, 0.9653091430664062, 0, 0, 0, 0, 0, 0, 9362.0, 30146.0, 35388.0, 9362.0, 8.33057975769043, 0.1685858964920044, 0.03930382430553436, 0.6383273601531982, 0.008379618637263775, -0.02934221737086773, 0.9984672665596008, -0.021435393020510674, 0.06792068481445312, 1.50146484375, 0.421875, 50.66917419433594, 1.4970703125, 1.40771484375, 10.0, 1.0, 10.0, 1.4263941049575806
53009, -1.7672271728515625, 0.6386240124702454, -0.5839026570320129, 0.0, 0.0, -16.517850875854492, 0.0, 0.0, 0.8687973022460938, 0, 0, 0, 0, 0, 0, 9362.0, 30146.0, 35388.0, 9362.0, 8.33057975769043, 0.5421983003616333, 0.7690308690071106, -0.030066052451729774, 0.006955596152693033, -0.031885869801044464, 0.995918333530426, -0.021435393020510674, 0.06792068481445312, 1.50146484375, 1.97900390625, 1.97076416015625, 1.4970703125, 1.14111328125, 10.0, 1.0, 10.0, 1.423222541809082
53029, -1.76313316822052, 0.61308354139328, -0.5902005434036255, 0.0, 0.0, -16.502473831176758, 0.0, 0.0, 0.7284164428710938, 0, 0, 0, 0, 0, 0, 9362.0, 30146.0, 35388.0, 9362.0, 8.33057975769043, 0.1634553223848343, 1.523112177848816, -0.2986117899417877, 0.012083726935088634, -0.03296975418925285, 1.0012537240982056, -0.021435393020510674, 0.06792068481445312, 1.50146484375, 0.427734375, 49.65959930419922, 1.49560546875, 1.14111328125, 10.0, 1.0, 10.0, 1.4218286275863647
53039, -1.7643629312515259, 0.6041157841682434, -0.5933488607406616, 0.0, 0.0, -16.497013092041016, 0.0, 0.0, 0.5460739135742188, 0, 0, 0, 0, 0, 0, 9362.0, 30146.0, 35388.0, 9362.0, 8.33057975769043, 0.06117580085992813, 0.7790018916130066, -0.0651940107345581, 0.012083726935088634, -0.03296975418925285, 1.0012537240982056, -0.021435393020510674, 0.06792068481445312, 1.50146484375, 2.04931640625, 2.6938629150390625, 1.49560546875, 1.14111328125, 10.0, 1.0, 10.0, 1.4218286275863647
53049, -1.7693997621536255, 0.6024014949798584, -0.5916723608970642, 0.0, 0.0, -16.492097854614258, 0.0, 0.0, 0.49152374267578125, 0, 0, 0, 0, 0, 0, 9362.0, 30146.0, 35388.0, 9362.0, 8.33057975769043, -0.581336498260498, 0.23466695845127106, 0.28161492943763733, 0.012083726935088634, -0.03296975418925285, 1.0012537240982056, -0.021435393020510674, 0.06792068481445312, 1.50146484375, 1.777587890625, 0.89666748046875, 1.49560546875, 1.14111328125, 10.0, 1.0, 10.0, 1.4218286275863647
53069, -1.780644178390503, 0.6142556071281433, -0.5888303518295288, 0.0, 0.0, -16.481094360351562, 0.0, 0.0, 0.5212783813476562, 0, 0, 0, 0, 0, 0, 9362.0, 30146.0, 35388.0, 9362.0, 8.33057975769043, -0.581336498260498, 0.23466695845127106, 0.28161492943763733, 0.01570703461766243, -0.034081265330314636, 1.0014582872390747, -0.03188562020659447, -0.03959846496582031, 1.49267578125, 0.511962890625, 36.72822570800781, 1.49560546875, 1.14111328125, 10.0, 1.0, 10.0, 1.4241900444030762
53079, -1.7842535972595215, 0.6247431635856628, -0.5861614942550659, 0.0, 0.0, -16.477224349975586, 0.0, 0.0, 0.38700103759765625, 0, 0, 0, 0, 0, 0, 9362.0, 30146.0, 35388.0, 9362.0, 8.33057975769043, -0.29495295882225037, -0.8955928087234497, 0.2716846764087677, 0.01570703461766243, -0.034081265330314636, 1.0014582872390747, -0.03188562020659447, -0.03959846496582031, 1.49267578125, 1.86474609375, 1.2387542724609375, 1.49560546875, 1.14111328125, 10.0, 1.0, 10.0, 1.4241900444030762
53109, -1.7773371934890747, 0.6321696043014526, -0.5856138467788696, 0.0, 0.0, -16.492719650268555, 0.0, 0.0, -0.8989334106445312, 0, 0, 0, 0, 0, 0, 9362.0, 30146.0, 35388.0, 9362.0, 8.33057975769043, 0.49078235030174255, 0.44504138827323914, -0.22485961019992828, 0.010494504123926163, -0.028928186744451523, 0.9967983365058899, -0.03188562020659447, -0.03959846496582031, 1.49267578125, 1.953369140625, 1.7668304443359375, 1.496337890625, 1.14111328125, 10.0, 1.0, 10.0, 1.4243146181106567
53149, -1.7597163915634155, 0.5964598059654236, -0.5948783159255981, 0.0, 0.0, -16.53440284729004, 0.0, 0.0, -0.5573272705078125, 0, 0, 0, 0, 0, 0, 9362.0, 30146.0, 35388.0, 9362.0, 8.33057975769043, 0.26122352480888367, 0.7197927236557007, -0.05473952740430832, 0.013494757004082203, -0.03287382423877716, 0.9995821118354797, -0.03188562020659447, -0.03959846496582031, 1.49267578125, 2.02294921875, 2.3914642333984375, 1.49560546875, 1.14111328125, 10.0, 1.0, 10.0, 1.4203338623046875
53169, -1.7655173540115356, 0.6060529351234436, -0.596104085445404, 0.0, 0.0, -16.53925895690918, 0.0, 0.0, -0.2300262451171875, 0, 0, 0, 0, 0, 0, 9362.0, 30146.0, 35388.0, 9362.0, 8.33057975769043, -0.03725949674844742, -0.21101972460746765, 0.025667551904916763, 0.01538633182644844, -0.033746689558029175, 1.0010974407196045, -0.015699287876486778, 0.1485614776611328, 1.508056640625, 1.17626953125, 0.534088134765625, 1.49560546875, 1.14111328125, 10.0, 1.0, 10.0, 1.4222365617752075
53179, -1.7687609195709229, 0.6190962195396423, -0.5951365232467651, 0.0, 0.0, -16.53148651123047, 0.0, 0.0, 0.7772445678710938, 0, 0, 0, 0, 0, 0, 9362.0, 30146.0, 35388.0, 9362.0, 8.33057975769043, -0.1463809758424759, -1.0376416444778442, 0.15857623517513275, 0.010864214040338993, -0.030089592561125755, 1.001249074935913, -0.015699287876486778, 0.1485614776611328, 1.508056640625, 1.51611328125, 0.2286224365234375, 1.49560546875, 1.14111328125, 10.0, 1.0, 10.0, 1.4222365617752075
53209, -1.769997239112854, 0.6285195350646973, -0.5887033939361572, 0.0, 0.0, -16.509410858154297, 0.0, 0.0, 0.7143020629882812, 0, 0, 0, 0, 0, 0, 9362.0, 30146.0, 35388.0, 9362.0, 8.33057975769043, 0.3591015636920929, 0.4138883650302887, 0.1918218582868576, 0.007200675085186958, -0.02798355370759964, 1.000260353088379, -0.015699287876486778, 0.1485614776611328, 1.508056640625, 2.0009765625, 2.1691131591796875, 1.49560546875, 1.14111328125, 10.0, 1.0, 10.0, 1.423418641090393
53229, -1.7612245082855225, 0.6116955876350403, -0.5940394401550293, 0.0, 0.0, -16.501352310180664, 0.0, 0.0, 0.38166046142578125, 0, 0, 0, 0, 0, 0, 9362.0, 30146.0, 35388.0, 9362.0, 8.33057975769043, 0.6281355023384094, 1.0453616380691528, -0.41811618208885193, 0.010492870584130287, -0.028633730486035347, 0.9972782731056213, -0.015699287876486778, 0.1485614776611328, 1.508056640625, 1.54833984375, 0.298126220703125, 1.49560546875, 1.14111328125, 10.0, 1.0, 10.0, 1.423418641090393
53249, -1.7559319734573364, 0.5922062397003174, -0.5999289751052856, 0.0, 0.0, -16.487552642822266, 0.0, 0.0, 0.6536483764648438, 0, 0, 0, 0, 0, 0, 9362.0, 30146.0, 35388.0, 9362.0, 8.33057975769043, 0.1188136413693428, 0.6051304936408997, -0.39286255836486816, 0.011827103793621063, -0.030482251197099686, 1.0019007921218872, -0.015699287876486778, 0.1485614776611328, 1.508056640625, 0.69873046875, 17.01556396484375, 1.49560546875, 1.14111328125, 10.0, 1.0, 10.0, 1.4216769933700562
53259, -1.7586771249771118, 0.5936211347579956, -0.6027069091796875, 0.0, 0.0, -16.4852237701416, 0.0, 0.0, 0.23288726806640625, 0, 0, 0, 0, 0, 0, 9362.0, 30146.0, 35388.0, 9362.0, 8.33057975769043, -0.03870660811662674, -0.07324420660734177, -0.23698405921459198, 0.011827103793621063, -0.030482251197099686, 1.0019007921218872, -0.015699287876486778, 0.1485614776611328, 1.508056640625, 1.98486328125, 2.0216064453125, 1.49560546875, 1.14111328125, 10.0, 1.0, 10.0, 1.4216769933700562
53279, -1.7689659595489502, 0.6111148595809937, -0.6021957397460938, 0.0, 0.0, -16.47850799560547, 0.0, 0.0, 0.4619598388671875, 0, 0, 0, 0, 0, 0, 9362.0, 30146.0, 35388.0, 9362.0, 8.33057975769043, -0.2222871631383896, -0.6441628336906433, -0.2012258619070053, 0.014051858335733414, -0.03272173926234245, 1.0006836652755737, -0.007622541394084692, -0.030637741088867188, 1.493408203125, 1.810546875, 1.0117950439453125, 1.4970703125, 1.14111328125, 10.0, 1.0, 10.0, 1.4216769933700562
53289, -1.7731815576553345, 0.6190043687820435, -0.6001723408699036, 0.0, 0.0, -16.47850799560547, 0.0, 0.0, 0.4619598388671875, 0, 0, 0, 0, 0, 0, 9362.0, 30146.0, 35388.0, 9362.0, 8.33057975769043, -0.48488011956214905, -1.080905795097351, 0.2666088044643402, 0.014051858335733414, -0.03272173926234245, 1.0006836652755737, -0.007622541394084692, -0.030637741088867188, 1.493408203125, 1.484619140625, 0.1656646728515625, 1.4970703125, 1.14111328125, 10.0, 1.0, 10.0, 1.4216769933700562
53309, -1.7771538496017456, 0.6280192136764526, -0.5985608696937561, 0.0, 0.0, -16.46360206604004, 0.0, 0.0, 0.5090713500976562, 0, 0, 0, 0, 0, 0, 9362.0, 30146.0, 35388.0, 9362.0, 8.33057975769043, -0.08913619816303253, -0.3514735996723175, -0.19964338839054108, 0.01079105120152235, -0.029283147305250168, 0.9974563121795654, -0.007622541394084692, -0.030637741088867188, 1.493408203125, 0.837158203125, 8.486984252929688, 1.4970703125, 1.14111328125, 10.0, 1.0, 10.0, 1.4205548763275146
53359, -1.7627532482147217, 0.5971907377243042, -0.5992332696914673, 0.0, 0.0, -16.42414093017578, 0.0, 0.0, 0.8909225463867188, 0, 0, 0, 0, 0, 0, 9362.0, 30146.0, 35388.0, 9362.0, 8.33057975769043, 0.20117786526679993, 0.16252905130386353, -0.2903095483779907, 0.01283051073551178, -0.030768465250730515, 1.0004019737243652, -0.007622541394084692, -0.030637741088867188, 1.493408203125, 1.981201171875, 1.9897918701171875, 1.494873046875, 0.756591796875, 10.0, 1.0, 10.0, 1.4059244394302368
53369, -1.7629786729812622, 0.5994150042533875, -0.5990283489227295, 0.0, 0.0, -16.42397117614746, 0.0, 0.0, 0.0080108642578125, 0, 0, 0, 0, 0, 0, 9362.0, 30146.0, 35388.0, 9362.0, 8.33057975769043, 0.028984449803829193, -0.28716951608657837, -0.04387708753347397, 0.01283051073551178, -0.030768465250730515, 1.0004019737243652, -0.026805315166711807, -0.030637741088867188, 1.493408203125, 1.981201171875, 1.9897918701171875, 1.494873046875, 0.756591796875, 10.0, 1.0, 10.0, 1.4059244394302368
53399, -1.7714946269989014, 0.6198598146438599, -0.5931751132011414, 0.0, 0.0, -16.429738998413086, 0.0, 0.0, -0.019073486328125, 0, 0, 0, 0, 0, 0, 9362.0, 30146.0, 35388.0, 9362.0, 8.33057975769043, -0.16777706146240234, -0.24207068979740143, 0.1919858157634735, 0.012739520519971848, -0.032996468245983124, 0.9997871518135071, -0.026805315166711807, -0.030637741088867188, 1.493408203125, 1.69189453125, 0.6463165283203125, 1.494873046875, 0.756591796875, 10.0, 1.0, 10.0, 1.4069138765335083
53409, -1.7736660242080688, 0.6198285818099976, -0.5916769504547119, 0.0, 0.0, -16.42991065979004, 0.0, 0.0, -0.0171661376953125, 0, 0, 0, 0, 0, 0, 9362.0, 30146.0, 35388.0, 9362.0, 8.33057975769043, -0.3590892553329468, 0.031623806804418564, 0.20107315480709076, 0.012739520519971848, -0.032996468245983124, 0.9997871518135071, -0.026805315166711807, -0.030637741088867188, 1.493408203125, 1.60107421875, 0.4197540283203125, 1.494873046875, 0.756591796875, 10.0, 1.0, 10.0, 1.4069138765335083
53419, -1.772542119026184, 0.6160470843315125, -0.5943613648414612, 0.0, 0.0, -16.41721534729004, 0.0, 0.0, 1.26953125, 0, 0, 0, 0, 0, 0, 9362.0, 30146.0, 35388.0, 9362.0, 8.33057975769043, 0.12184074521064758, 0.4366244971752167, -0.40403494238853455, 0.012739520519971848, -0.032996468245983124, 0.9997871518135071, -0.026805315166711807, -0.030637741088867188, 1.493408203125, 1.35791015625, 0.015869140625, 1.494873046875, 0.756591796875, 10.0, 1.0, 10.0, 1.4069138765335083
53439, -1.7652225494384766, 0.5970306396484375, -0.6001008749008179, 0.0, 0.0, -16.41721534729004, 0.0, 0.0, 1.26953125, 0, 0, 0, 0, 0, 0, 9362.0, 30146.0, 35388.0, 9362.0, 8.33057975769043, 0.2969890832901001, 1.3194215297698975, -0.4695371985435486, 0.011173213832080364, -0.027976348996162415, 1.0021940469741821, -0.026805315166711807, -0.030637741088867188, 1.493408203125, 0.254150390625, 86.5715103149414, 1.494873046875, 1.18505859375, 10.0, 1.0, 10.0, 1.4069138765335083
53459, -1.7588508129119873, 0.5867735743522644, -0.6070942282676697, 0.0, 0.0, -16.388330459594727, 0.0, 0.0, 0.8270263671875, 0, 0, 0, 0, 0, 0, 9362.0, 30146.0, 35388.0, 9362.0, 8.33057975769043, 0.20718568563461304, 0.366677850484848, -0.17396482825279236, 0.011822176165878773, -0.028661105781793594, 1.0020331144332886, -0.026805315166711807, -0.030637741088867188, 1.493408203125, 2.020751953125, 2.3679656982421875, 1.49267578125, 1.18505859375, 10.0, 1.0, 10.0, 1.4069138765335083
53479, -1.7592321634292603, 0.6003379225730896, -0.6115882396697998, 0.0, 0.0, -16.37974739074707, 0.0, 0.0, -0.0885009765625, 0, 0, 0, 0, 0, 0, 9362.0, 30146.0, 35388.0, 9362.0, 8.33057975769043, -0.0962565690279007, -0.7873520851135254, -0.38741961121559143, 0.013014722615480423, -0.030887845903635025, 1.0033124685287476, -0.026805315166711807, -0.030637741088867188, 1.493408203125, 1.97900390625, 1.97076416015625, 1.49267578125, 1.18505859375, 10.0, 1.0, 10.0, 1.4069138765335083
53499, -1.765345811843872, 0.6190180778503418, -0.6094368696212769, 0.0, 0.0, -16.37974739074707, 0.0, 0.0, -0.0885009765625, 0, 0, 0, 0, 0, 0, 9362.0, 30146.0, 35388.0, 9362.0, 8.33057975769043, -0.32675832509994507, -0.7916936874389648, 0.14809346199035645, 0.012593484483659267, -0.0309438556432724, 0.9978258609771729, -0.026805315166711807, -0.030637741088867188, 1.493408203125, 2.04052734375, 2.5884857177734375, 1.48974609375, 1.89111328125, 10.0, 1.0, 10.0, 1.4069138765335083
53519, -1.7689130306243896, 0.626831591129303, -0.6101433634757996, 0.0, 0.0, -16.36787986755371, 0.0, 0.0, 0.5998611450195312, 0, 0, 0, 0, 0, 0, 9362.0, 30146.0, 35388.0, 9362.0, 8.33057975769043, -0.058541763573884964, -0.13718606531620026, 0.0009377329261042178, 0.010388136841356754, -0.02884417586028576, 0.9957468509674072, -0.026805315166711807, -0.030637741088867188, 1.493408203125, 2.04638671875, 2.6583099365234375, 1.491943359375, 1.89111328125, 10.0, 1.0, 10.0, 1.4069619178771973
53549, -1.7665326595306396, 0.6049333214759827, -0.6120975017547607, 0.0, 0.0, -16.341693878173828, 0.0, 0.0, 0.5823135375976562, 0, 0, 0, 0, 0, 0, 9362.0, 30146.0, 35388.0, 9362.0, 8.33057975769043, 0.21193015575408936, 0.8295982480049133, -0.17060673236846924, 0.011778008192777634, -0.03474340960383415, 0.9997645616531372, -0.026805315166711807, -0.030637741088867188, 1.493408203125, 0.626220703125, 23.379318237304688, 1.49560546875, 1.89111328125, 10.0, 1.0, 10.0, 1.407245397567749
53569, -1.7644474506378174, 0.601756751537323, -0.6158132553100586, 0.0, 0.0, -16.33745002746582, 0.0, 0.0, 0.2010345458984375, 0, 0, 0, 0, 0, 0, 9362.0, 30146.0, 35388.0, 9362.0, 8.33057975769043, -0.03980955854058266, -0.024042999371886253, -0.20173701643943787, 0.011778008192777634, -0.03474340960383415, 0.9997645616531372, -0.026805315166711807, -0.030637741088867188, 1.493408203125, 1.581298828125, 0.3732147216796875, 1.49560546875, 1.89111328125, 10.0, 1.0, 10.0, 1.408155083656311
53599, -1.766779899597168, 0.6272352933883667, -0.6128758788108826, 0.0, 0.0, -16.33633041381836, 0.0, 0.0, -0.0240325927734375, 0, 0, 0, 0, 0, 0, 9362.0, 30146.0, 35388.0, 9362.0, 8.33057975769043, -0.1609818935394287, -1.041946291923523, 0.08251291513442993, 0.013145219534635544, -0.0319250151515007, 0.9993854761123657, -0.026805315166711807, -0.030637741088867188, 1.493408203125, 0.788818359375, 10.989120483398438, 1.493408203125, 1.89111328125, 10.0, 1.0, 10.0, 1.4077366590499878
53619, -1.7678828239440918, 0.6341277360916138, -0.6120731830596924, 0.0, 0.0, -16.3405704498291, 0.0, 0.0, -0.40225982666015625, 0, 0, 0, 0, 0, 0, 9362.0, 30146.0, 35388.0, 9362.0, 8.33057975769043, 0.04727928712964058, -0.23198238015174866, -0.11278171092271805, 0.011538535356521606, -0.033081311732530594, 0.998836100101471, -0.026805315166711807, -0.030637741088867188, 1.493408203125, 0.797607421875, 10.499130249023438, 1.493408203125, 1.89111328125, 10.0, 1.0, 10.0, 1.4016400575637817
53639, -1.763005018234253, 0.6226122379302979, -0.6115762591362, 0.0, 0.0, -16.34717559814453, 0.0, 0.0, -0.29850006103515625, 0, 0, 0, 0, 0, 0, 9362.0, 30146.0, 35388.0, 9362.0, 8.33057975769043, 0.5009056925773621, 0.4781174957752228, -0.059704896062612534, 0.009751446545124054, -0.030062420293688774, 0.9978572130203247, -0.026805315166711807, -0.030637741088867188, 1.493408203125, 0.74267578125, 13.83746337890625, 1.493408203125, 1.89111328125, 10.0, 1.0, 10.0, 1.3959808349609375
53649, -1.7617772817611694, 0.6146831512451172, -0.6124769449234009, 0.0, 0.0, -16.34986114501953, 0.0, 0.0, -0.2685546875, 0, 0, 0, 0, 0, 0, 9362.0, 30146.0, 35388.0, 9362.0, 8.33057975769043, 0.14006701111793518, 1.0967001914978027, 0.021398276090621948, 0.009751446545124054, -0.030062420293688774, 0.9978572130203247, -0.026805315166711807, -0.030637741088867188, 1.493408203125, 1.449462890625, 0.103973388671875, 1.493408203125, 1.89111328125, 10.0, 1.0, 10.0, 1.3959808349609375
53659, -1.7596845626831055, 0.6051182150840759, -0.6143174767494202, 0.0, 0.0, -16.352279663085938, 0.0, 0.0, -0.241851806640625, 0, 0, 0, 0, 0, 0, 9362.0, 30146.0, 35388.0, 9362.0, 8.33057975769043, 0.2489636391401291, 0.734801709651947, -0.19571198523044586, 0.009598813019692898, -0.02924569696187973, 1.0009299516677856, -0.026805315166711807, -0.030637741088867188, 1.493408203125, 0.984375, 3.3490142822265625, 1.493408203125, 1.89111328125, 10.0, 1.0, 10.0, 1.3959808349609375
53689, -1.7604341506958008, 0.6173568964004517, -0.6192439198493958, 0.0, 0.0, -16.334800720214844, 0.0, 0.0, 0.9309768676757812, 0, 0, 0, 0, 0, 0, 9362.0, 30146.0, 35388.0, 9362.0, 8.33057975769043, 0.05904550850391388, -0.696012020111084, -0.3154067397117615, 0.013830301351845264, -0.03129950165748596, 1.001199722290039, -0.026805315166711807, -0.030637741088867188, 1.493408203125, 1.8251953125, 1.0677947998046875, 1.499267578125, 1.89111328125, 10.0, 1.0, 10.0, 1.3825398683547974
53699, -1.762290358543396, 0.6294017434120178, -0.6178261637687683, 0.0, 0.0, -16.338178634643555, 0.0, 0.0, -0.33779144287109375, 0, 0, 0, 0, 0, 0, 9362.0, 30146.0, 35388.0, 9362.0, 8.33057975769043, -0.0655110701918602, -1.0247057676315308, 0.04852036386728287, 0.013830301351845264, -0.03129950165748596, 1.001199722290039, -0.026805315166711807, -0.030637741088867188, 1.493408203125, 1.745361328125, 0.7959136962890625, 1.499267578125, 1.89111328125, 10.0, 1.0, 10.0, 1.3825398683547974
53709, -1.763047695159912, 0.6362273693084717, -0.616046667098999, 0.0, 0.0, -16.341218948364258, 0.0, 0.0, -0.3040313720703125, 0, 0, 0, 0, 0, 0, 9362.0, 30146.0, 35388.0, 9362.0, 8.33057975769043, -0.0072529371827840805, -0.8977179527282715, 0.10888568311929703, 0.013830301351845264, -0.03129950165748596, 1.001199722290039, -0.026805315166711807, -0.030637741088867188, 1.493408203125, 0.62548828125, 23.451324462890625, 1.499267578125, 1.89111328125, 10.0, 1.0, 10.0, 1.3850786685943604
53729, -1.7644476890563965, 0.6399234533309937, -0.6140934824943542, 0.0, 0.0, -16.348493576049805, 0.0, 0.0, -0.34465789794921875, 0, 0, 0, 0, 0, 0, 9362.0, 30146.0, 35388.0, 9362.0, 8.33057975769043, 0.11031536757946014, -0.04047819972038269, -0.03159620985388756, 0.010680911131203175, -0.032400865107774734, 0.9997954368591309, -0.026805315166711807, -0.030637741088867188, 1.493408203125, 1.957763671875, 1.8000335693359375, 1.490478515625, 1.89111328125, 10.0, 1.0, 10.0, 1.3805533647537231
53739, -1.7631858587265015, 0.6287781596183777, -0.6157702803611755, 0.0, 0.0, -16.35679054260254, 0.0, 0.0, -0.8296966552734375, 0, 0, 0, 0, 0, 0, 9362.0, 30146.0, 35388.0, 9362.0, 8.33057975769043, 0.20266881585121155, 0.9090986251831055, -0.06909873336553574, 0.010680911131203175, -0.032400865107774734, 0.9997954368591309, -0.026805315166711807, -0.030637741088867188, 1.493408203125, 1.4560546875, 0.1147003173828125, 1.490478515625, 1.89111328125, 10.0, 1.0, 10.0, 1.3805533647537231
53759, -1.7640002965927124, 0.6148114800453186, -0.6211163401603699, 0.0, 0.0, -16.35679054260254, 0.0, 0.0, -0.8296966552734375, 0, 0, 0, 0, 0, 0, 9362.0, 30146.0, 35388.0, 9362.0, 8.33057975769043, 0.10715752094984055, 0.8449072241783142, -0.7127757668495178, 0.01367160864174366, -0.03298893943428993, 0.9997466206550598, -0.026805315166711807, -0.030637741088867188, 1.493408203125, 0.747802734375, 13.497177124023438, 1.49853515625, 1.89111328125, 10.0, 1.0, 10.0, 1.3806041479110718
53769, -1.7637574672698975, 0.6098698377609253, -0.6231700778007507, 0.0, 0.0, -16.380661010742188, 0.0, 0.0, -0.7770538330078125, 0, 0, 0, 0, 0, 0, 9362.0, 30146.0, 35388.0, 9362.0, 8.33057975769043, 0.20398254692554474, 0.5035359859466553, -0.25060325860977173, 0.01367160864174366, -0.03298893943428993, 0.9997466206550598, -0.029011743143200874, -0.2187976837158203, 1.47802734375, 0.747802734375, 13.497177124023438, 1.49853515625, 1.89111328125, 10.0, 1.0, 10.0, 1.378009557723999
53809, -1.769935131072998, 0.631410539150238, -0.6190771460533142, 0.0, 0.0, -16.398799896240234, 0.0, 0.0, -0.18062591552734375, 0, 0, 0, 0, 0, 0, 9362.0, 30146.0, 35388.0, 9362.0, 8.33057975769043, -0.08214518427848816, -0.6253239512443542, 0.44934484362602234, 0.012206709012389183, -0.031011367216706276, 0.9991558194160461, -0.029011743143200874, -0.2187976837158203, 1.47802734375, 0.72216796875, 15.261199951171875, 1.49853515625, 1.89111328125, 10.0, 1.0, 10.0, 1.3776555061340332
53819, -1.7691584825515747, 0.6361808180809021, -0.6175948977470398, 0.0, 0.0, -16.394683837890625, 0.0, 0.0, 0.4116058349609375, 0, 0, 0, 0, 0, 0, 9362.0, 30146.0, 35388.0, 9362.0, 8.33057975769043, 0.13656102120876312, -0.5771884918212891, 0.13344085216522217, 0.012206709012389183, -0.031011367216706276, 0.9991558194160461, -0.029011743143200874, -0.2187976837158203, 1.47802734375, 0.72216796875, 15.261199951171875, 1.49853515625, 1.89111328125, 10.0, 1.0, 10.0, 1.3776555061340332
53829, -1.7689969539642334, 0.6365989446640015, -0.6179627776145935, 0.0, 0.0, -16.394683837890625, 0.0, 0.0, 0.4116058349609375, 0, 0, 0, 0, 0, 0, 9362.0, 30146.0, 35388.0, 9362.0, 8.33057975769043, 0.04936244711279869, -0.06591001152992249, -0.07417329400777817, 0.012206709012389183, -0.031011367216706276, 0.9991558194160461, -0.029011743143200874, -0.2187976837158203, 1.47802734375, 1.92041015625, 1.541900634765625, 1.49853515625, 1.89111328125, 10.0, 1.0, 10.0, 1.3795446157455444
53859, -1.7640899419784546, 0.6163626909255981, -0.6199213862419128, 0.0, 0.0, -16.385684967041016, 0.0, 0.0, 0.25081634521484375, 0, 0, 0, 0, 0, 0, 9362.0, 30146.0, 35388.0, 9362.0, 8.33057975769043, 0.0648050606250763, 0.7671847343444824, -0.22571125626564026, 0.011234020814299583, -0.03059779480099678, 0.9993419051170349, -0.029011743143200874, -0.2187976837158203, 1.47802734375, 2.09619140625, 3.342376708984375, 1.493408203125, 1.89111328125, 10.0, 1.0, 10.0, 1.3795446157455444
53869, -1.7641416788101196, 0.6132388710975647, -0.6218369007110596, 0.0, 0.0, -16.37360191345215, 0.0, 0.0, 0.5723953247070312, 0, 0, 0, 0, 0, 0, 9362.0, 30146.0, 35388.0, 9362.0, 8.33057975769043, 0.0648050606250763, 0.7671847343444824, -0.22571125626564026, 0.012140095233917236, -0.032670602202415466, 0.9991698861122131, -0.018109751865267754, -0.05751800537109375, 1.4912109375, 2.09619140625, 3.342376708984375, 1.493408203125, 1.89111328125, 10.0, 1.0, 10.0, 1.3795446157455444
53879, -1.764647364616394, 0.6135448217391968, -0.6218277812004089, 0.0, 0.0, -16.375558853149414, 0.0, 0.0, -0.1956939697265625, 0, 0, 0, 0, 0, 0, 9362.0, 30146.0, 35388.0, 9362.0, 8.33057975769043, 0.0648050606250763, 0.7671847343444824, -0.22571125626564026, 0.013560190796852112, -0.03151778504252434, 0.999455451965332, -0.018109751865267754, -0.05751800537109375, 1.4912109375, 1.935791015625, 1.6420135498046875, 1.493408203125, 1.89111328125, 10.0, 1.0, 10.0, 1.3795446157455444
53909, -1.7677167654037476, 0.6284533739089966, -0.6191079616546631, 0.0, 0.0, -16.383970260620117, 0.0, 0.0, -0.31490325927734375, 0, 0, 0, 0, 0, 0, 9362.0, 30146.0, 35388.0, 9362.0, 8.33057975769043, 0.0939548909664154, -1.0671824216842651, -0.026317697018384933, 0.012681184336543083, -0.030052876099944115, 1.0005197525024414, -0.018109751865267754, -0.05751800537109375, 1.4912109375, 0.533203125, 33.90480041503906, 1.494873046875, 1.89111328125, 10.0, 1.0, 10.0, 1.3798725605010986
53919, -1.768912672996521, 0.6355599164962769, -0.6173568367958069, 0.0, 0.0, -16.383970260620117, 0.0, 0.0, -0.31490325927734375, 0, 0, 0, 0, 0, 0, 9362.0, 30146.0, 35388.0, 9362.0, 8.33057975769043, -0.1285044401884079, -0.7363383173942566, -0.008584318682551384, 0.012681184336543083, -0.030052876099944115, 1.0005197525024414, -0.018109751865267754, -0.05751800537109375, 1.4912109375, 0.482666015625, 40.90234375, 1.496337890625, 1.89111328125, 10.0, 1.0, 10.0, 1.3798725605010986
53979, -1.7653254270553589, 0.6151171922683716, -0.6271269917488098, 0.0, 0.0, -16.396547317504883, 0.0, 0.0, -0.2056121826171875, 0, 0, 0, 0, 0, 0, 9362.0, 30146.0, 35388.0, 9362.0, 8.33057975769043, -0.03396886959671974, -0.12864185869693756, -0.4029140770435333, 0.01323196105659008, -0.031163327395915985, 1.0015984773635864, -0.018109751865267754, -0.05751800537109375, 1.4912109375, 1.7138671875, 0.7057647705078125, 1.5, 1.89111328125, 10.0, 1.0, 10.0, 1.3683394193649292
53999, -1.766926884651184, 0.6246497631072998, -0.6278366446495056, 0.0, 0.0, -16.396547317504883, 0.0, 0.0, -0.2056121826171875, 0, 0, 0, 0, 0, 0, 9362.0, 30146.0, 35388.0, 9362.0, 8.33057975769043, -0.12799255549907684, -0.6102008819580078, -0.09349658340215683, 0.014808939769864082, -0.030536461621522903, 1.00077486038208, -0.018109751865267754, -0.05751800537109375, 1.4912109375, 1.7607421875, 0.842681884765625, 1.49560546875, 1.89111328125, 10.0, 1.0, 10.0, 1.368436336517334
54029, -1.7707364559173584, 0.640607476234436, -0.6275920867919922, 0.0, 0.0, -16.399723052978516, 0.0, 0.0, 0.133514404296875, 0, 0, 0, 0, 0, 0, 9362.0, 30146.0, 35388.0, 9362.0, 8.33057975769043, 0.04021745175123215, -0.4993717670440674, -0.30372804403305054, 0.013757685199379921, -0.02985471673309803, 0.9990003108978271, -0.018109751865267754, -0.05751800537109375, 1.4912109375, 1.98486328125, 2.0216064453125, 1.496337890625, 1.89111328125, 10.0, 1.0, 10.0, 1.368436336517334
54109, -1.7703230381011963, 0.6239900588989258, -0.6292594075202942, 0.0, 0.0, -16.420236587524414, 0.0, 0.0, -0.33721923828125, 0, 0, 0, 0, 0, 0, 9362.0, 30146.0, 35388.0, 9362.0, 8.33057975769043, 0.1589757204055786, -0.5397981405258179, -0.13356047868728638, 0.012660825625061989, -0.03201168030500412, 1.0021281242370605, -0.018109751865267754, -0.05751800537109375, 1.4912109375, 0.8056640625, 10.06402587890625, 1.4912109375, 0.8642578125, 10.0, 1.0, 10.0, 1.3552547693252563
54149, -1.770257830619812, 0.6311800479888916, -0.6220186948776245, 0.0, 0.0, -16.414915084838867, 0.0, 0.0, 0.180816650390625, 0, 0, 0, 0, 0, 0, 9362.0, 30146.0, 35388.0, 9362.0, 8.33057975769043, 0.09993112832307816, 0.17574092745780945, -0.07185474783182144, 0.009926063008606434, -0.02898910455405712, 1.0003223419189453, -0.018109751865267754, -0.05751800537109375, 1.4912109375, 1.5966796875, 0.409210205078125, 1.49267578125, 0.8642578125, 10.0, 1.0, 10.0, 1.35045325756073
54179, -1.76786208152771, 0.6130459904670715, -0.6274784207344055, 0.0, 0.0, -16.405071258544922, 0.0, 0.0, 0.46634674072265625, 0, 0, 0, 0, 0, 0, 9362.0, 30146.0, 35388.0, 9362.0, 8.33057975769043, 0.09165719151496887, 0.1945381760597229, -0.41865435242652893, 0.012005028314888477, -0.03190361335873604, 0.998632550239563, -0.018109751865267754, -0.05751800537109375, 1.4912109375, 1.191650390625, 0.4329986572265625, 1.5, 0.8642578125, 10.0, 1.0, 10.0, 1.3512306213378906
54189, -1.7665067911148071, 0.6112983822822571, -0.6302028894424438, 0.0, 0.0, -16.39398193359375, 0.0, 0.0, 0.5252838134765625, 0, 0, 0, 0, 0, 0, 9362.0, 30146.0, 35388.0, 9362.0, 8.33057975769043, 0.24745899438858032, 0.2038218230009079, -0.3373104929924011, 0.012005028314888477, -0.03190361335873604, 0.998632550239563, -0.018109751865267754, -0.05751800537109375, 1.4912109375, 2.041259765625, 2.5971221923828125, 1.5, 0.8642578125, 10.0, 1.0, 10.0, 1.3512306213378906
54229, -1.7723212242126465, 0.6303009390830994, -0.6267653107643127, 0.0, 0.0, -16.380762100219727, 0.0, 0.0, -0.16841888427734375, 0, 0, 0, 0, 0, 0, 9362.0, 30146.0, 35388.0, 9362.0, 8.33057975769043, -0.222592294216156, -0.8835422992706299, 0.21832430362701416, 0.010797576047480106, -0.029618307948112488, 1.0005266666412354, -0.018109751865267754, -0.05751800537109375, 1.4912109375, 1.4970703125, 0.18975830078125, 1.497802734375, 0.8642578125, 10.0, 1.0, 10.0, 1.3450384140014648
54269, -1.771887183189392, 0.6218745708465576, -0.6311922073364258, 0.0, 0.0, -16.365339279174805, 0.0, 0.0, 0.5716323852539062, 0, 0, 0, 0, 0, 0, 9362.0, 30146.0, 35388.0, 9362.0, 8.33057975769043, 0.0442785806953907, 0.8683621287345886, 0.07960916310548782, 0.009742788970470428, -0.03392031788825989, 0.9980087876319885, -0.018109751865267754, -0.05751800537109375, 1.4912109375, 0.339111328125, 66.61326599121094, 1.493408203125, 0.8642578125, 10.0, 1.0, 10.0, 1.339255928993225
54329, -1.775839924812317, 0.6260599493980408, -0.6345389485359192, 0.0, 0.0, -16.31265640258789, 0.0, 0.0, 0.7457733154296875, 0, 0, 0, 0, 0, 0, 9362.0, 30146.0, 35388.0, 9362.0, 8.33057975769043, 0.12937656044960022, -0.5496035218238831, -0.023452267050743103, 0.012361281551420689, -0.03144732490181923, 0.9996011853218079, -0.018109751865267754, -0.05751800537109375, 1.4912109375, 1.45458984375, 0.11224365234375, 1.496337890625, 0.8642578125, 10.0, 1.0, 10.0, 1.3299468755722046
54359, -1.7705652713775635, 0.6280077695846558, -0.6326764822006226, 0.0, 0.0, -16.30094337463379, 0.0, 0.0, 0.5548477172851562, 0, 0, 0, 0, 0, 0, 9362.0, 30146.0, 35388.0, 9362.0, 8.33057975769043, 0.24168525636196136, 0.28536391258239746, -0.0807945504784584, 0.011111900210380554, -0.029470637440681458, 1.0005770921707153, -0.018109751865267754, -0.05751800537109375, 1.4912109375, 0.772705078125, 11.930068969726562, 1.4970703125, 0.8642578125, 10.0, 1.0, 10.0, 1.330215573310852
54379, -1.768386960029602, 0.6210254430770874, -0.6379516124725342, 0.0, 0.0, -16.29665184020996, 0.0, 0.0, 0.2033233642578125, 0, 0, 0, 0, 0, 0, 9362.0, 30146.0, 35388.0, 9362.0, 8.33057975769043, 0.13434256613254547, 0.507997453212738, -0.4125095009803772, 0.010164830833673477, -0.029553063213825226, 0.9990648031234741, -0.018109751865267754, -0.05751800537109375, 1.4912109375, 2.00830078125, 2.2403564453125, 1.496337890625, 0.8642578125, 10.0, 1.0, 10.0, 1.3306068181991577
54399, -1.769305944442749, 0.616397500038147, -0.6395033001899719, 0.0, 0.0, -16.295772552490234, 0.0, 0.0, 0.0415802001953125, 0, 0, 0, 0, 0, 0, 9362.0, 30146.0, 35388.0, 9362.0, 8.33057975769043, -0.1228085532784462, 0.2910831570625305, 0.35685089230537415, 0.012982971966266632, -0.03315731883049011, 1.0024833679199219, -0.018109751865267754, -0.05751800537109375, 1.4912109375, 2.029541015625, 2.4633331298828125, 1.49267578125, 0.8642578125, 10.0, 1.0, 10.0, 1.3305273056030273
54409, -1.7680665254592896, 0.6209913492202759, -0.638794481754303, 0.0, 0.0, -16.287267684936523, 0.0, 0.0, 0.40283203125, 0, 0, 0, 0, 0, 0, 9362.0, 30146.0, 35388.0, 9362.0, 8.33057975769043, 0.21200820803642273, -0.5486539602279663, 0.09267167001962662, 0.01332397572696209, -0.029604174196720123, 1.0014528036117554, -0.018109751865267754, -0.05751800537109375, 1.4912109375, 2.029541015625, 2.4633331298828125, 1.49267578125, 0.8642578125, 10.0, 1.0, 10.0, 1.3327343463897705
54419, -1.7717080116271973, 0.6251083612442017, -0.638512909412384, 0.0, 0.0, -16.284461975097656, 0.0, 0.0, 0.28057098388671875, 0, 0, 0, 0, 0, 0, 9362.0, 30146.0, 35388.0, 9362.0, 8.33057975769043, -0.2924891412258148, -0.29874375462532043, -0.17268794775009155, 0.01332397572696209, -0.029604174196720123, 1.0014528036117554, -0.018109751865267754, -0.05751800537109375, 1.4912109375, 2.189208984375, 5.156219482421875, 1.49267578125, 0.8642578125, 10.0, 1.0, 10.0, 1.3346291780471802
54429, -1.7720099687576294, 0.6276519298553467, -0.6379317045211792, 0.0, 0.0, -16.281936645507812, 0.0, 0.0, 0.252532958984375, 0, 0, 0, 0, 0, 0, 9362.0, 30146.0, 35388.0, 9362.0, 8.33057975769043, 0.01437121257185936, -0.23991651833057404, 0.08150672912597656, 0.01332397572696209, -0.029604174196720123, 1.0014528036117554, -0.018109751865267754, -0.05751800537109375, 1.4912109375, 1.821533203125, 1.0536346435546875, 1.49267578125, 0.8642578125, 10.0, 1.0, 10.0, 1.3346291780471802
54449, -1.7726554870605469, 0.6345948576927185, -0.6317732334136963, 0.0, 0.0, -16.278139114379883, 0.0, 0.0, 0.17986297607421875, 0, 0, 0, 0, 0, 0, 9362.0, 30146.0, 35388.0, 9362.0, 8.33057975769043, -0.12354177981615067, -0.291198194026947, 0.18850289285182953, 0.01332397572696209, -0.029604174196720123, 1.0014528036117554, -0.018109751865267754, -0.05751800537109375, 1.4912109375, 1.631103515625, 0.49212646484375, 1.49267578125, 1.4267578125, 10.0, 1.0, 10.0, 1.3346291780471802
54459, -1.7714529037475586, 0.6318042874336243, -0.6328884959220886, 0.0, 0.0, -16.27788734436035, 0.0, 0.0, 0.025177001953125, 0, 0, 0, 0, 0, 0, 9362.0, 30146.0, 35388.0, 9362.0, 8.33057975769043, 0.02662917599081993, 0.4380413293838501, -0.08643490821123123, 0.01332397572696209, -0.029604174196720123, 1.0014528036117554, -0.018109751865267754, -0.05751800537109375, 1.4912109375, 0.59765625, 26.309982299804688, 1.49267578125, 1.4267578125, 10.0, 1.0, 10.0, 1.3346291780471802
54479, -1.7682210206985474, 0.62443608045578, -0.635455846786499, 0.0, 0.0, -16.28046417236328, 0.0, 0.0, -0.2803802490234375, 0, 0, 0, 0, 0, 0, 9362.0, 30146.0, 35388.0, 9362.0, 8.33057975769043, 0.20709609985351562, 0.3673122227191925, -0.16536538302898407, 0.011160423047840595, -0.030932871624827385, 1.000685691833496, -0.018109751865267754, -0.05751800537109375, 1.4912109375, 2.12841796875, 3.8832550048828125, 1.49267578125, 1.4267578125, 10.0, 1.0, 10.0, 1.3346291780471802
54499, -1.7678965330123901, 0.6170864105224609, -0.6377018690109253, 0.0, 0.0, -16.2888126373291, 0.0, 0.0, -0.5825042724609375, 0, 0, 0, 0, 0, 0, 9362.0, 30146.0, 35388.0, 9362.0, 8.33057975769043, 0.03451903536915779, 0.35272324085235596, -0.30806148052215576, 0.011467362754046917, -0.03178097680211067, 1.0005563497543335, -0.018109751865267754, -0.05751800537109375, 1.4912109375, 1.859619140625, 1.2147979736328125, 1.49267578125, 1.4267578125, 10.0, 1.0, 10.0, 1.3390133380889893
54539, -1.773457407951355, 0.6365175247192383, -0.6385353803634644, 0.0, 0.0, -16.29990005493164, 0.0, 0.0, -0.276947021484375, 0, 0, 0, 0, 0, 0, 9362.0, 30146.0, 35388.0, 9362.0, 8.33057975769043, -0.25398173928260803, -0.2618098855018616, 0.20161186158657074, 0.011147656477987766, -0.030895812436938286, 1.0022224187850952, -0.018109751865267754, -0.05751800537109375, 1.4912109375, 1.628173828125, 0.484893798828125, 1.49267578125, 1.4267578125, 10.0, 1.0, 10.0, 1.3389248847961426
54559, -1.7728986740112305, 0.6359914541244507, -0.6382848620414734, 0.0, 0.0, -16.29990005493164, 0.0, 0.0, -0.276947021484375, 0, 0, 0, 0, 0, 0, 9362.0, 30146.0, 35388.0, 9362.0, 8.33057975769043, -0.1479756087064743, -0.010824693366885185, 0.12516988813877106, 0.010409164242446423, -0.028971310704946518, 0.999057948589325, -0.018109751865267754, -0.05751800537109375, 1.4912109375, 1.093505859375, 1.349761962890625, 1.494873046875, 1.4267578125, 10.0, 1.0, 10.0, 1.3390604257583618
54589, -1.7666034698486328, 0.6202353239059448, -0.6406770944595337, 0.0, 0.0, -16.288259506225586, 0.0, 0.0, 0.9304046630859375, 0, 0, 0, 0, 0, 0, 9362.0, 30146.0, 35388.0, 9362.0, 8.33057975769043, 0.33396032452583313, 0.8560299277305603, -0.21015003323554993, 0.010409164242446423, -0.028971310704946518, 0.999057948589325, -0.018109751865267754, -0.05751800537109375, 1.4912109375, 2.117431640625, 3.6892547607421875, 1.494873046875, 1.4267578125, 10.0, 1.0, 10.0, 1.3390604257583618
54599, -1.7655125856399536, 0.6191423535346985, -0.6399456262588501, 0.0, 0.0, -16.27863883972168, 0.0, 0.0, 0.1247406005859375, 0, 0, 0, 0, 0, 0, 9362.0, 30146.0, 35388.0, 9362.0, 8.33057975769043, 0.12996689975261688, 0.05932312458753586, 0.06998935341835022, 0.010409164242446423, -0.028971310704946518, 0.999057948589325, -0.018109751865267754, -0.05751800537109375, 1.4912109375, 1.716796875, 0.7138519287109375, 1.494873046875, 1.4267578125, 10.0, 1.0, 10.0, 1.3390604257583618
54629, -1.7675726413726807, 0.6222718358039856, -0.6402304768562317, 0.0, 0.0, -16.2781925201416, 0.0, 0.0, -0.03204345703125, 0, 0, 0, 0, 0, 0, 9362.0, 30146.0, 35388.0, 9362.0, 8.33057975769043, -0.16048330068588257, -0.6010910272598267, -0.06979481130838394, 0.012457064352929592, -0.03199925646185875, 1.0019402503967285, -0.018109751865267754, -0.05751800537109375, 1.4912109375, 0.01025390625, 168.69784545898438, 1.497802734375, 1.4267578125, 10.0, 1.0, 10.0, 1.3447383642196655
54639, -1.7690095901489258, 0.6288580894470215, -0.6418216824531555, 0.0, 0.0, -16.2781925201416, 0.0, 0.0, -0.03204345703125, 0, 0, 0, 0, 0, 0, 9362.0, 30146.0, 35388.0, 9362.0, 8.33057975769043, -0.14573529362678528, -0.6733205914497375, -0.2663513123989105, 0.011118670925498009, -0.02964053489267826, 0.9999048709869385, -0.018109751865267754, -0.05751800537109375, 1.4912109375, 0.012451171875, 167.76742553710938, 1.49853515625, 1.4267578125, 10.0, 1.0, 10.0, 1.3405249118804932
54649, -1.7694861888885498, 0.6310535073280334, -0.6406311988830566, 0.0, 0.0, -16.291728973388672, 0.0, 0.0, -0.6412506103515625, 0, 0, 0, 0, 0, 0, 9362.0, 30146.0, 35388.0, 9362.0, 8.33057975769043, -0.05165203660726547, -0.3685072958469391, 0.13040710985660553, 0.009939049370586872, -0.030539141967892647, 1.0006752014160156, -0.018109751865267754, -0.05751800537109375, 1.4912109375, 0.01171875, 168.07713317871094, 1.49853515625, 0.0146484375, 10.0, 1.0, 10.0, 1.3363317251205444
54659, -1.7703601121902466, 0.6328113675117493, -0.6413477659225464, 0.0, 0.0, -16.303787231445312, 0.0, 0.0, -1.2058258056640625, 0, 0, 0, 0, 0, 0, 9362.0, 30146.0, 35388.0, 9362.0, 8.33057975769043, 0.0489998534321785, -0.277719110250473, -0.2017565667629242, 0.009919853881001472, -0.028790632262825966, 0.9978586435317993, -0.018109751865267754, -0.05751800537109375, 1.4912109375, 0.0263671875, 161.96331787109375, 1.493408203125, 0.0146484375, 10.0, 1.0, 10.0, 1.3321495056152344
54679, -1.7681589126586914, 0.6236393451690674, -0.6430500149726868, 0.0, 0.0, -16.326595306396484, 0.0, 0.0, -1.195526123046875, 0, 0, 0, 0, 0, 0, 9362.0, 30146.0, 35388.0, 9362.0, 8.33057975769043, 0.023380771279335022, 0.7092265486717224, -0.13547424972057343, 0.011466561816632748, -0.03174259886145592, 0.9992766976356506, -0.004175254609435797, 0.0052013397216796875, 1.496337890625, 0.01171875, 168.07713317871094, 1.494140625, 0.01171875, 10.0, 1.0, 10.0, 1.3280267715454102
54689, -1.7660493850708008, 0.6202376484870911, -0.6462104916572571, 0.0, 0.0, -16.33735466003418, 0.0, 0.0, -1.0759353637695312, 0, 0, 0, 0, 0, 0, 9362.0, 30146.0, 35388.0, 9362.0, 8.33057975769043, 0.2466210573911667, 0.49859997630119324, -0.4439429044723511, 0.011466561816632748, -0.03174259886145592, 0.9992766976356506, -0.004175254609435797, 0.0052013397216796875, 1.496337890625, 0.04541015625, 154.26512145996094, 1.494140625, 0.01171875, 10.0, 1.0, 10.0, 1.319711685180664
54699, -1.763929843902588, 0.6171663999557495, -0.6445425748825073, 0.0, 0.0, -16.33735466003418, 0.0, 0.0, -1.0759353637695312, 0, 0, 0, 0, 0, 0, 9362.0, 30146.0, 35388.0, 9362.0, 8.33057975769043, 0.017657704651355743, 0.5037862658500671, 0.47360852360725403, 0.011466561816632748, -0.03174259886145592, 0.9992766976356506, -0.004175254609435797, 0.0052013397216796875, 1.496337890625, 2.5458984375, 23.643844604492188, 1.49267578125, 0.01171875, 10.0, 1.0, 10.0, 1.3156882524490356
54739, -1.7738943099975586, 0.6285883784294128, -0.6438480615615845, 0.0, 0.0, -16.38240623474121, 0.0, 0.0, -1.2132644653320312, 0, 0, 0, 0, 0, 0, 9362.0, 30146.0, 35388.0, 9362.0, 8.33057975769043, -0.36194345355033875, -0.15928618609905243, 0.3473663926124573, 0.012156243436038494, -0.03134918212890625, 1.0010815858840942, -0.004175254609435797, 0.0052013397216796875, 1.496337890625, 2.23388671875, 6.3389739990234375, 1.49560546875, 0.01171875, 10.0, 1.0, 10.0, 1.318151831626892
54759, -1.7775213718414307, 0.6327589750289917, -0.6418725252151489, 0.0, 0.0, -16.386022567749023, 0.0, 0.0, 0.10280609130859375, 0, 0, 0, 0, 0, 0, 9362.0, 30146.0, 35388.0, 9362.0, 8.33057975769043, 0.009603247977793217, -0.21627861261367798, -0.06826063990592957, 0.012220919132232666, -0.02975015714764595, 0.9976460337638855, -0.004175254609435797, 0.0052013397216796875, 1.496337890625, 1.472900390625, 0.1439361572265625, 1.496337890625, 0.01171875, 10.0, 1.0, 10.0, 1.318151831626892
54789, -1.7739787101745605, 0.6165130734443665, -0.6414816975593567, 0.0, 0.0, -16.3819580078125, 0.0, 0.0, 0.148773193359375, 0, 0, 0, 0, 0, 0, 9362.0, 30146.0, 35388.0, 9362.0, 8.33057975769043, -0.09091245383024216, 0.6046004891395569, -0.18491555750370026, 0.011092355474829674, -0.03126761317253113, 0.999889612197876, -0.01621903106570244, -0.1739978790283203, 1.481689453125, 1.99072265625, 2.0738525390625, 1.496337890625, 0.01171875, 10.0, 1.0, 10.0, 1.323927402496338
54799, -1.7715595960617065, 0.6109780073165894, -0.6425322890281677, 0.0, 0.0, -16.377338409423828, 0.0, 0.0, 0.4619598388671875, 0, 0, 0, 0, 0, 0, 9362.0, 30146.0, 35388.0, 9362.0, 8.33057975769043, 0.17010696232318878, 0.546808660030365, -0.13877606391906738, 0.011697749607264996, -0.033267199993133545, 0.9994184374809265, -0.01621903106570244, -0.1739978790283203, 1.481689453125, 1.82373046875, 1.062164306640625, 1.496337890625, 0.01171875, 10.0, 1.0, 10.0, 1.323927402496338
54829, -1.77181875705719, 0.6094047427177429, -0.6425471305847168, 0.0, 0.0, -16.376461029052734, 0.0, 0.0, -0.15544891357421875, 0, 0, 0, 0, 0, 0, 9362.0, 30146.0, 35388.0, 9362.0, 8.33057975769043, 0.03105003945529461, -0.06207573413848877, -0.03589147329330444, 0.011761635541915894, -0.03133707493543625, 0.9983048439025879, -0.01621903106570244, -0.1739978790283203, 1.481689453125, 2.105712890625, 3.4935760498046875, 1.500732421875, 0.01171875, 10.0, 1.0, 10.0, 1.324564814567566
54849, -1.77413010597229, 0.61606764793396, -0.6422871947288513, 0.0, 0.0, -16.37444305419922, 0.0, 0.0, 0.09555816650390625, 0, 0, 0, 0, 0, 0, 9362.0, 30146.0, 35388.0, 9362.0, 8.33057975769043, -0.10657717287540436, -0.6696289777755737, -0.18401962518692017, 0.011090682819485664, -0.0321485698223114, 1.0017024278640747, -0.01621903106570244, -0.1739978790283203, 1.481689453125, 2.07275390625, 2.999237060546875, 1.500732421875, 0.01171875, 10.0, 1.0, 10.0, 1.3270152807235718
54859, -1.7750561237335205, 0.6169292330741882, -0.642649233341217, 0.0, 0.0, -16.37444305419922, 0.0, 0.0, 0.09555816650390625, 0, 0, 0, 0, 0, 0, 9362.0, 30146.0, 35388.0, 9362.0, 8.33057975769043, 0.009267554618418217, -0.11691296100616455, -0.17957158386707306, 0.011090682819485664, -0.0321485698223114, 1.0017024278640747, -0.01621903106570244, -0.1739978790283203, 1.481689453125, 2.1240234375, 3.804473876953125, 1.497802734375, 0.01171875, 10.0, 1.0, 10.0, 1.3270152807235718
54869, -1.774847388267517, 0.6179834604263306, -0.6424851417541504, 0.0, 0.0, -16.377483367919922, 0.0, 0.0, -0.14400482177734375, 0, 0, 0, 0, 0, 0, 9362.0, 30146.0, 35388.0, 9362.0, 8.33057975769043, 0.15697966516017914, -0.09964095056056976, 0.04783041030168533, 0.011090682819485664, -0.0321485698223114, 1.0017024278640747, -0.035363759845495224, -0.11127853393554688, 1.48681640625, 2.1240234375, 3.804473876953125, 1.497802734375, 0.01171875, 10.0, 1.0, 10.0, 1.3270152807235718
54879, -1.7751539945602417, 0.6143391132354736, -0.6433969736099243, 0.0, 0.0, -16.382061004638672, 0.0, 0.0, -0.457763671875, 0, 0, 0, 0, 0, 0, 9362.0, 30146.0, 35388.0, 9362.0, 8.33057975769043, -0.008748609572649002, 0.20425811409950256, -0.21040800213813782, 0.011090682819485664, -0.0321485698223114, 1.0017024278640747, -0.035363759845495224, -0.11127853393554688, 1.48681640625, 1.66845703125, 0.5852813720703125, 1.497802734375, 0.01171875, 10.0, 1.0, 10.0, 1.3270152807235718
54919, -1.7706352472305298, 0.6073096990585327, -0.6486019492149353, 0.0, 0.0, -16.39582061767578, 0.0, 0.0, -0.4566192626953125, 0, 0, 0, 0, 0, 0, 9362.0, 30146.0, 35388.0, 9362.0, 8.33057975769043, 0.128543421626091, 0.16099314391613007, -0.10730676352977753, 0.011160891503095627, -0.031067634001374245, 1.0010963678359985, -0.035363759845495224, -0.11127853393554688, 1.48681640625, 2.0302734375, 2.471435546875, 1.4912109375, 1.4267578125, 10.0, 1.0, 10.0, 1.333579659461975
