timeTick, roll, pitch, yaw, stateX, stateY, stateZ, stateVX, stateVY, stateVZ, otX0, otY0, otZ0, otRoll0, otPitch0, otYaw0, left wing, pitch motor, yaw motor, right wing, voltage, roll rate, pitch rate, yaw rate, A_x, A_y, A_z, current, i_raw, v_raw, airflow_voltage, airflow_speed, pot_Pitch, voltage_nKF, kFFx, state_vel, State_vel, volt_KF_vel
17041, 2.147803783416748, 0.5200921297073364, -0.42821794748306274, 0, 0, 0, 0, 0, 0, -0.8302759528160095, -0.9707972407341003, 0.056119855493307114, -0.2579355505040052, 0.36852764861046694, 0.07368217979869984, 0, 0, 0, 0, 0, 0, 0, 0, 0, 0, 0, 0, 0, 0, 0, 0, 0, 0, 0, 0, 0, 0
17051, 2.148174285888672, 0.5186575651168823, -0.428351491689682, 6.064190165488981e-05, 0.00024190667318180203, -3.249145746231079, 0.002115412149578333, 0.008431101217865944, -0.421379417181015, -0.8303358554840088, -0.970779538154602, 0.05618094652891159, -0.2400422302980344, 0.3823997061558373, 0.08822419756352506, 9362.0, 30146.0, 35388.0, 9362.0, 0, 0, 0, 0, 0, 0, 0, 0, 0, 0, 0, 0, 0, 0, 0, 0, 0, 0
17061, 2.1486737728118896, 0.5165725946426392, -0.42874956130981445, 7.722000009380281e-05, 0.0003079107264056802, -3.2533609867095947, 0.0012001931900158525, 0.004769711755216122, -0.4216762185096741, -0.8302863240242004, -0.9707663655281067, 0.055987872183322906, -0.2150204120127623, 0.4073990276514792, 0.0709050377894451, 9362.0, 30146.0, 35388.0, 9362.0, 0, 0.03197822347283363, 0.12162232398986816, -0.2619912922382355, 0.010055000893771648, -0.062087636440992355, 0.9979261755943298, 0, 0, 0, 1.41064453125, 0.0509490966796875, 0, 1.41650390625, 10.0, 1.0, 5.0, 1.4028964042663574
17071, 2.148540735244751, 0.5162389874458313, -0.42887434363365173, 8.465704013360664e-05, 0.00033729340066201985, -3.2575790882110596, 0.0002871802425943315, 0.0011068332241848111, -0.42195039987564087, -0.8303331732749939, -0.9707814455032349, 0.05620614439249039, -0.24014351066607317, 0.37604114574500613, 0.08607449668667151, 9362.0, 30146.0, 35388.0, 9362.0, 0, -0.07709810137748718, 0.0026333737187087536, 0.2301712930202484, 0.009747459553182125, -0.06085100397467613, 0.9972542524337769, 0, 0, 0, 1.431884765625, 0.07769775390625, 1.49560546875, 1.40771484375, 10.0, 1.0, 5.0, 1.4027637243270874
17081, 2.150468587875366, 0.5146750807762146, -0.42718252539634705, 8.298331522382796e-05, 0.0003300498938187957, -3.2618000507354736, -0.0006219341303221881, -0.0025555298198014498, -0.4222617745399475, -0.8302950859069824, -0.9707582592964172, 0.05601607263088226, -0.22832207133999052, 0.4202149223928586, 0.08492836474953945, 9362.0, 30146.0, 35388.0, 9362.0, 0, 0.002678388264030218, 0.1579061597585678, 0.1331452578306198, 0.008598027750849724, -0.060196537524461746, 0.998439371585846, 0, 0, 0, 1.3623046875, 0.0167999267578125, 1.49560546875, 1.437744140625, 10.0, 1.0, 5.0, 1.402914047241211
17091, 2.150712251663208, 0.5136054158210754, -0.42638012766838074, 7.221930718515068e-05, 0.00028617598582059145, -3.266024112701416, -0.0015307647408917546, -0.006219266913831234, -0.4225311577320099, -0.8303333520889282, -0.9707810282707214, 0.05619489774107933, -0.2485145420410079, 0.3767784023783065, 0.08247066755020462, 9362.0, 30146.0, 35388.0, 9362.0, 0, 0.09136532247066498, 0.08148417621850967, -0.019000742584466934, 0.00771502498537302, -0.06100332736968994, 0.9990436434745789, 0, 0, 0, 1.420166015625, 0.0621337890625, 1.49267578125, 1.411376953125, 10.0, 1.0, 5.0, 1.402905821800232
17101, 2.1493782997131348, 0.5137196779251099, -0.42625945806503296, 5.237883306108415e-05, 0.00020564018632285297, -3.2702505588531494, -0.0024372830521315336, -0.00988790299743414, -0.42275869846343994, -0.8302924036979675, -0.9707967638969421, 0.05613844841718674, -0.26395944998392057, 0.3783277520898025, 0.07341061849003062, 9362.0, 30146.0, 35388.0, 9362.0, 0, 0.05462327599525452, 0.3183586001396179, 0.02711566910147667, 0.006974560208618641, -0.05997590348124504, 0.9987500905990601, 0, 0, 0, 1.373291015625, 0.0207366943359375, 1.49267578125, 1.4091796875, 10.0, 1.0, 5.0, 1.402899980545044
17111, 2.1495778560638428, 0.5145382881164551, -0.427164763212204, 2.3480000891140662e-05, 8.840546797728166e-05, -3.2744789123535156, -0.0033424764405936003, -0.013559049926698208, -0.4229307770729065, -0.8302508592605591, -0.9707974195480347, 0.0561051070690155, -0.25799791779612374, 0.37135301629547257, 0.09983655303356631, 9362.0, 30146.0, 35388.0, 9362.0, 0, 0.14254990220069885, -0.10987990349531174, -0.23995867371559143, 0.008596452884376049, -0.060559000819921494, 0.9987730979919434, 0, 0, 0, 1.43408203125, 0.080810546875, 1.49267578125, 1.426025390625, 10.0, 1.0, 5.0, 1.4028223752975464
17121, 2.1487205028533936, 0.514116644859314, -0.42869555950164795, -1.4471826943918131e-05, -6.553014827659354e-05, -3.2787091732025146, -0.004247944802045822, -0.017228055745363235, -0.42309874296188354, -0.8302853107452393, -0.9707540273666382, 0.055975139141082764, -0.2302647458610241, 0.4131896567632225, 0.07351164100431708, 9362.0, 30146.0, 35388.0, 9362.0, 0, -0.07352941483259201, 0.002814637031406164, 0.019462529569864273, 0.008813891559839249, -0.06093853339552879, 0.9984572529792786, 0, 0, 0, 1.427490234375, 0.0716400146484375, 1.49267578125, 1.423095703125, 10.0, 1.0, 5.0, 1.4028478860855103
17131, 2.149245262145996, 0.5127931833267212, -0.4290087819099426, -6.148415559437126e-05, -0.000256151455687359, -3.2829411029815674, -0.005154619924724102, -0.020896174013614655, -0.42329850792884827, -0.8302592039108276, -0.9707945585250854, 0.05614125728607178, -0.25704996955504306, 0.3682714013796158, 0.09629646165306008, 9362.0, 30146.0, 35388.0, 9362.0, 0, 0.21442389488220215, 0.4872632920742035, 0.30386385321617126, 0.008268575184047222, -0.06093906983733177, 0.9978665709495544, 0, 0, 0, 1.39453125, 0.035003662109375, 1.49267578125, 1.44580078125, 10.0, 1.0, 5.0, 1.4028781652450562
17141, 2.148533821105957, 0.5126150846481323, -0.4278511703014374, -0.00011755462037399411, -0.0004834244609810412, -3.2871756553649902, -0.006059498991817236, -0.02455841191112995, -0.42361608147621155, -0.8303214907646179, -0.9707871079444885, 0.05616087466478348, -0.24017128047407701, 0.36738554099858334, 0.10582354475783697, 9362.0, 30146.0, 35388.0, 9362.0, 8.132232666015625, -0.06943295150995255, -0.000683335296344012, 0.07670962810516357, 0.008409181609749794, -0.05995013192296028, 0.9987597465515137, 0, 0, 0, 1.431884765625, 0.07769775390625, 1.49267578125, 1.40478515625, 10.0, 1.0, 5.0, 1.4029297828674316
17151, 2.1484310626983643, 0.5162369608879089, -0.4264201521873474, -0.00018266847473569214, -0.000747347716242075, -3.291412830352783, -0.006963198538869619, -0.028226260095834732, -0.4238089323043823, -0.8302653431892395, -0.9707921147346497, 0.05609460920095444, -0.2479510449555133, 0.37601193586942827, 0.07938944012413114, 9362.0, 30146.0, 35388.0, 9362.0, 8.132232666015625, -0.0489354208111763, -0.4557606875896454, 0.07942622900009155, 0.010150319896638393, -0.06087565794587135, 0.9976558685302734, -0.033590931445360184, 0.1485614776611328, 1.508056640625, 1.408447265625, 0.0485382080078125, 1.487548828125, 1.40771484375, 10.0, 1.0, 5.0, 1.4029239416122437
17161, 2.146911859512329, 0.5165159702301025, -0.42479366064071655, -0.0002568149648141116, -0.0010479337070137262, -3.295652151107788, -0.007865994237363338, -0.031890951097011566, -0.4240540564060211, -0.8302732706069946, -0.9708035588264465, 0.056096985936164856, -0.26074629447147096, 0.3618325054841023, 0.0859068967470124, 9362.0, 30146.0, 35388.0, 9362.0, 8.132232666015625, -0.6406458020210266, 0.16225026547908783, 0.27108415961265564, 0.01004004292190075, -0.059319060295820236, 0.9984058141708374, -0.033590931445360184, 0.1485614776611328, 1.508056640625, 1.42236328125, 0.0649566650390625, 1.487548828125, 1.428955078125, 10.0, 1.0, 5.0, 1.4029611349105835
17171, 2.1458470821380615, 0.5149332880973816, -0.42383599281311035, -0.00034001810126937926, -0.0013851585099473596, -3.299894094467163, -0.008774532936513424, -0.03555403649806976, -0.424337238073349, -0.830282986164093, -0.9707885384559631, 0.055961232632398605, -0.1978759138858164, 0.4258892162320649, 0.08866303918046081, 9362.0, 30146.0, 35388.0, 9362.0, 8.132232666015625, -0.19618350267410278, -0.07781261950731277, 0.08697248250246048, 0.0073662712238729, -0.06012694165110588, 0.9998630881309509, -0.033590931445360184, 0.1485614776611328, 1.508056640625, 1.420166015625, 0.0621337890625, 1.4912109375, 1.411376953125, 10.0, 1.0, 5.0, 1.4028834104537964
17181, 2.145432710647583, 0.5167829990386963, -0.4252684414386749, -0.00043231667950749397, -0.0017590345814824104, -3.304137945175171, -0.009685124270617962, -0.03922118991613388, -0.42444220185279846, -0.8302726745605469, -0.9708075523376465, 0.05613837391138077, -0.2557105413234008, 0.3623577262414699, 0.09189726489396341, 9362.0, 30146.0, 35388.0, 9362.0, 8.132232666015625, 0.08725427091121674, -0.20486705005168915, -0.14897970855236053, 0.007854549214243889, -0.06095686927437782, 0.9980013370513916, -0.033590931445360184, 0.1485614776611328, 1.508056640625, 1.41943359375, 0.0612945556640625, 1.4912109375, 1.430419921875, 10.0, 1.0, 5.0, 1.4027892351150513
17191, 2.1454925537109375, 0.517692506313324, -0.4261464476585388, -0.000533701095264405, -0.002169548301026225, -3.3083834648132324, -0.010591842234134674, -0.04288153350353241, -0.42468056082725525, -0.8302615284919739, -0.9708243608474731, 0.05612869933247566, -0.2518624535512048, 0.37221492064514905, 0.09773285277809335, 9362.0, 30146.0, 35388.0, 9362.0, 8.132232666015625, -0.03396696597337723, -0.19507600367069244, 0.012922575697302818, 0.006903520785272121, -0.06132078915834427, 0.9985243082046509, -0.033590931445360184, 0.1485614776611328, 1.508056640625, 1.442138671875, 0.0926361083984375, 1.49267578125, 1.377685546875, 10.0, 1.0, 5.0, 1.4028817415237427
17201, 2.1469333171844482, 0.5189926028251648, -0.4270198941230774, -0.0006441701552830637, -0.0026166667230427265, -3.312631368637085, -0.011502021923661232, -0.046542126685380936, -0.4248923659324646, -0.8302689790725708, -0.9708123207092285, 0.05610949546098709, -0.25479517047953576, 0.3634237413223502, 0.0891528793778935, 9362.0, 30146.0, 35388.0, 9362.0, 8.132232666015625, 0.2129867523908615, 0.19084493815898895, 0.04372778534889221, 0.007884863764047623, -0.060368333011865616, 0.9988844990730286, -0.033590931445360184, 0.1485614776611328, 1.508056640625, 1.415771484375, 0.0568695068359375, 1.49267578125, 1.387939453125, 10.0, 1.0, 5.0, 1.4029762744903564
17211, 2.1475653648376465, 0.5174437165260315, -0.42682573199272156, -0.0007637483067810535, -0.003100388217717409, -3.3168814182281494, -0.012413657270371914, -0.050202179700136185, -0.4251207113265991, -0.8302777409553528, -0.9707970023155212, 0.05613777041435242, -0.2628602674005841, 0.36326852202523696, 0.07722587247088025, 9362.0, 30146.0, 35388.0, 9362.0, 8.132232666015625, 0.05983405560255051, 0.05132833123207092, 0.12703648209571838, 0.0076943617314100266, -0.061313919723033905, 0.9997416138648987, -0.033590931445360184, 0.1485614776611328, 1.508056640625, 1.4326171875, 0.0786895751953125, 1.494873046875, 1.35498046875, 10.0, 1.0, 5.0, 1.4029582738876343
17221, 2.1483936309814453, 0.5166419148445129, -0.4276091754436493, -0.0008924611029215157, -0.003620749805122614, -3.3211331367492676, -0.01332888938486576, -0.05387014523148537, -0.4252028167247772, -0.83027583360672, -0.9708086252212524, 0.05610430985689163, -0.24704180423242272, 0.36648607361556174, 0.08938512715513189, 9362.0, 30146.0, 35388.0, 9362.0, 8.132232666015625, 0.06356308609247208, 0.12496861815452576, -0.08463508635759354, 0.007925186306238174, -0.06143508851528168, 0.9997950196266174, -0.033590931445360184, 0.1485614776611328, 1.508056640625, 1.3623046875, 0.0167999267578125, 1.494873046875, 1.428955078125, 10.0, 1.0, 5.0, 1.4030120372772217
17231, 2.1477761268615723, 0.5168881416320801, -0.427264928817749, -0.001030309242196381, -0.004177781753242016, -3.3253860473632812, -0.014240782707929611, -0.05753621086478233, -0.4253652095794678, -0.8303183913230896, -0.9707531332969666, 0.056041501462459564, -0.19986100532470574, 0.4234675323222632, 0.10477342909481575, 9362.0, 30146.0, 35388.0, 9362.0, 8.132232666015625, -0.09070548415184021, 0.08856963366270065, 0.16511929035186768, 0.008453990332782269, -0.06007998064160347, 0.99912428855896, -0.033590931445360184, 0.1485614776611328, 1.508056640625, 1.43994140625, 0.089324951171875, 1.490478515625, 1.41064453125, 10.0, 1.0, 5.0, 1.402989149093628
17241, 2.147958993911743, 0.5180512070655823, -0.42713606357574463, -0.0011772738071158528, -0.004771498031914234, -3.3296401500701904, -0.015152120031416416, -0.06120702624320984, -0.42543864250183105, -0.8302626609802246, -0.9707947373390198, 0.05611397698521614, -0.25423126975493204, 0.3731546021674035, 0.09735167264210931, 9362.0, 30146.0, 35388.0, 9362.0, 8.132232666015625, 0.02393960952758789, -0.33817264437675476, -0.051029521971940994, 0.007857248187065125, -0.058987949043512344, 0.997255802154541, -0.033590931445360184, 0.1485614776611328, 1.508056640625, 1.42236328125, 0.0649566650390625, 1.490478515625, 1.412109375, 10.0, 1.0, 5.0, 1.403083324432373
17251, 2.1481330394744873, 0.5155633687973022, -0.42559245228767395, -0.0013333464739844203, -0.005401887930929661, -3.333895683288574, -0.016062403097748756, -0.0648709386587143, -0.4256684184074402, -0.8302628993988037, -0.9708139300346375, 0.0561135858297348, -0.2579674105766962, 0.36726681161266583, 0.09446011555317452, 9362.0, 30146.0, 35388.0, 9362.0, 8.132232666015625, -0.23322896659374237, 0.3837646245956421, 0.3937098979949951, 0.007442771457135677, -0.05803088843822479, 0.9987788796424866, -0.034726083278656006, -0.12023735046386719, 1.486083984375, 1.41357421875, 0.0542449951171875, 1.48974609375, 1.423095703125, 10.0, 1.0, 5.0, 1.4031389951705933
17261, 2.1472554206848145, 0.5139330625534058, -0.42435702681541443, -0.0014985259622335434, -0.006068894173949957, -3.3381540775299072, -0.016973404213786125, -0.06853038817644119, -0.42602601647377014, -0.8302690386772156, -0.970802903175354, 0.05614970624446869, -0.26334202692387226, 0.3784451661661308, 0.09646467192943342, 9362.0, 30146.0, 35388.0, 9362.0, 8.132232666015625, 0.2168807089328766, 0.10045819729566574, -0.043621256947517395, 0.006426590029150248, -0.06092988699674606, 1.0001013278961182, -0.034726083278656006, -0.12023735046386719, 1.486083984375, 1.4326171875, 0.0786895751953125, 1.48974609375, 1.358642578125, 10.0, 1.0, 5.0, 1.4032325744628906
17271, 2.146934747695923, 0.5127943158149719, -0.42530882358551025, -0.0016728057526051998, -0.006772545166313648, -3.3424148559570312, -0.01788247562944889, -0.07219988107681274, -0.42612457275390625, -0.830272912979126, -0.9707966446876526, 0.056131768971681595, -0.2715208154950406, 0.3594650894741278, 0.07835323631324788, 9362.0, 30146.0, 35388.0, 9362.0, 8.132232666015625, -0.09233700484037399, 0.23818252980709076, 0.029025591909885406, 0.006647900212556124, -0.06126457080245018, 0.9968000650405884, -0.034726083278656006, -0.12023735046386719, 1.486083984375, 1.385009765625, 0.0276336669921875, 1.487548828125, 1.402587890625, 10.0, 1.0, 5.0, 1.4033807516098022
17281, 2.14695405960083, 0.5128018856048584, -0.42659905552864075, -0.0018561549950391054, -0.007512856274843216, -3.346677303314209, -0.018787432461977005, -0.07586228847503662, -0.4263724386692047, -0.8302540183067322, -0.970800518989563, 0.05609665811061859, -0.24822269645723616, 0.36969561978921206, 0.09033238969460611, 9362.0, 30146.0, 35388.0, 9362.0, 8.132232666015625, 0.07978881150484085, 0.024793634191155434, 0.00919293612241745, 0.007529158610850573, -0.06223975867033005, 0.9977585077285767, -0.034726083278656006, -0.12023735046386719, 1.486083984375, 1.44873046875, 0.102813720703125, 1.487548828125, 1.4267578125, 10.0, 1.0, 5.0, 1.4032303094863892
17291, 2.146186590194702, 0.5124519467353821, -0.4249034821987152, -0.002048539463430643, -0.008289769291877747, -3.350942850112915, -0.019689545035362244, -0.07952019572257996, -0.42672550678253174, -0.8303094506263733, -0.9707858562469482, 0.0561799630522728, -0.23620103972890655, 0.38334528681042457, 0.10418980356738898, 9362.0, 30146.0, 35388.0, 9362.0, 8.132232666015625, -0.1551501750946045, 0.04426557198166847, 0.22861576080322266, 0.00807240977883339, -0.05970524251461029, 0.9976821541786194, -0.034726083278656006, -0.12023735046386719, 1.486083984375, 1.442138671875, 0.0926361083984375, 1.4912109375, 1.370361328125, 10.0, 1.0, 5.0, 1.4032782316207886
17301, 2.144566774368286, 0.5119165182113647, -0.4238980710506439, -0.002249951008707285, -0.009103283286094666, -3.3552112579345703, -0.020592663437128067, -0.08318266272544861, -0.4269588887691498, -0.8302909135818481, -0.97078937292099, 0.05616045743227005, -0.27318810766526236, 0.36497060969750805, 0.07328303943040176, 9362.0, 30146.0, 35388.0, 9362.0, 8.132232666015625, 0.05005316063761711, 0.33897316455841064, 0.15042781829833984, 0.00861551333218813, -0.06009448319673538, 0.9974159598350525, -0.034726083278656006, -0.12023735046386719, 1.486083984375, 1.405517578125, 0.0454254150390625, 1.4912109375, 1.379150390625, 10.0, 1.0, 5.0, 1.4033617973327637
17311, 2.1453795433044434, 0.5115779638290405, -0.42259660363197327, -0.002460386138409376, -0.009953399188816547, -3.359482526779175, -0.021494325250387192, -0.08684062212705612, -0.4272780120372772, -0.8302636742591858, -0.9707786440849304, 0.05594620853662491, -0.21456485747261464, 0.4162665147603377, 0.09329267090330431, 9362.0, 30146.0, 35388.0, 9362.0, 8.132232666015625, 0.23011215031147003, -0.09510793536901474, 0.06158612668514252, 0.009402904659509659, -0.06123141571879387, 0.9964200854301453, -0.034726083278656006, -0.12023735046386719, 1.486083984375, 1.431884765625, 0.07769775390625, 1.49560546875, 1.35791015625, 10.0, 1.0, 5.0, 1.4033759832382202
17321, 2.1452724933624268, 0.5116550922393799, -0.42221882939338684, -0.0026798327453434467, -0.010840080678462982, -3.3637568950653076, -0.022394934669137, -0.09049569815397263, -0.4276007115840912, -0.8302637934684753, -0.9707754850387573, 0.05598729848861694, -0.2110435647429632, 0.41579129328982845, 0.0936879596709311, 9362.0, 30146.0, 35388.0, 9362.0, 8.132232666015625, 0.025373071432113647, 0.014961592853069305, -0.0691336840391159, 0.007466050796210766, -0.06041244789958, 0.9957185983657837, -0.034726083278656006, -0.12023735046386719, 1.486083984375, 1.392333984375, 0.03314208984375, 1.49560546875, 1.44580078125, 10.0, 1.0, 5.0, 1.4034591913223267
17331, 2.1465468406677246, 0.5122785568237305, -0.4224534332752228, -0.0029082740657031536, -0.011763286776840687, -3.368035316467285, -0.02329332008957863, -0.09414555132389069, -0.4281008243560791, -0.8302624225616455, -0.9707900285720825, 0.05609457194805145, -0.26463640808027716, 0.35589374695334186, 0.09583016393493604, 9362.0, 30146.0, 35388.0, 9362.0, 8.132232666015625, 0.05202576145529747, -0.05159978196024895, -0.07389074563980103, 0.006692660041153431, -0.06042289733886719, 0.9986994862556458, -0.034726083278656006, -0.12023735046386719, 1.486083984375, 1.40478515625, 0.0446624755859375, 1.493408203125, 1.45458984375, 10.0, 1.0, 5.0, 1.4034658670425415
17381, 2.147867441177368, 0.515634298324585, -0.41831696033477783, -0.004185616970062256, -0.016927937045693398, -3.389477491378784, -0.027802689000964165, -0.11244577169418335, -0.4295296370983124, -0.8302550315856934, -0.970798909664154, 0.05613115802407265, -0.25894434260165505, 0.3681605359230673, 0.07490239143384207, 9362.0, 30146.0, 35388.0, 9362.0, 8.132232666015625, 0.07826337218284607, -0.3284403085708618, -0.06520430743694305, 0.006264466792345047, -0.060315486043691635, 0.9975357055664062, -0.034726083278656006, -0.12023735046386719, 1.486083984375, 1.404052734375, 0.04400634765625, 1.48974609375, 1.4208984375, 10.0, 1.0, 5.0, 1.4034881591796875
17391, 2.148332357406616, 0.5157299637794495, -0.41875171661376953, -0.004468160681426525, -0.01807071454823017, -3.3937740325927734, -0.028706008568406105, -0.11610978841781616, -0.42975980043411255, -0.8302662372589111, -0.9707797765731812, 0.05612754449248314, -0.27811965817455503, 0.36565698941254254, 0.0803119907120974, 9362.0, 30146.0, 35388.0, 9362.0, 8.132232666015625, 0.07826337218284607, -0.3284403085708618, -0.06520430743694305, 0.006264466792345047, -0.060315486043691635, 0.9975357055664062, -0.034726083278656006, -0.12023735046386719, 1.486083984375, 1.374755859375, 0.021392822265625, 1.48681640625, 1.4208984375, 10.0, 1.0, 5.0, 1.4034881591796875
17401, 2.147899866104126, 0.5164031386375427, -0.4181685745716095, -0.004468160681426525, -0.01807071454823017, -3.3937740325927734, -0.028706008568406105, -0.11610978841781616, -0.42975980043411255, -0.8303276896476746, -0.9707401394844055, 0.05605043098330498, -0.19983423441946335, 0.41647904542898573, 0.08269049161320553, 9362.0, 30146.0, 35388.0, 9362.0, 8.132232666015625, -0.0812411904335022, 0.28789567947387695, 0.21871867775917053, 0.006264466792345047, -0.060315486043691635, 0.9975357055664062, -0.034726083278656006, -0.12023735046386719, 1.486083984375, 1.4033203125, 0.043182373046875, 1.48681640625, 1.4296875, 10.0, 1.0, 5.0, 1.4034881591796875
17411, 2.1481900215148926, 0.5141211152076721, -0.4183163344860077, -0.004468160681426525, -0.01807071454823017, -3.3937740325927734, -0.028706008568406105, -0.11610978841781616, -0.42975980043411255, -0.8302615880966187, -0.9707849025726318, 0.05612983927130699, -0.27631750366477, 0.36911728296126967, 0.0759081267650659, 9362.0, 30146.0, 35388.0, 9362.0, 8.132232666015625, 0.010553763248026371, 0.17121586203575134, -0.1203504130244255, 0.006264466792345047, -0.060315486043691635, 0.9975357055664062, -0.034726083278656006, -0.12023735046386719, 1.486083984375, 1.385009765625, 0.0276336669921875, 1.48681640625, 1.40771484375, 10.0, 1.0, 5.0, 1.4034881591796875
17451, 2.1464643478393555, 0.5195664763450623, -0.4183447062969208, -0.006016853265464306, -0.024334032088518143, -3.415297031402588, -0.033241625875234604, -0.1344260424375534, -0.43108487129211426, -0.8303039073944092, -0.9708172678947449, 0.05616515129804611, -0.2606614363360985, 0.3804700344208243, 0.07239977488795858, 9362.0, 30146.0, 35388.0, 9362.0, 8.132232666015625, -0.03723420202732086, -0.058734096586704254, 0.10544950515031815, 0.006264466792345047, -0.060315486043691635, 0.9975357055664062, -0.034726083278656006, -0.12023735046386719, 1.486083984375, 1.41943359375, 0.0612945556640625, 1.490478515625, 1.440673828125, 10.0, 1.0, 5.0, 1.4036660194396973
17561, 2.1464109420776367, 0.5100926160812378, -0.4244673252105713, -0.010224285535514355, -0.04133429750800133, -3.4629080295562744, -0.04324629157781601, -0.17465487122535706, -0.434749573469162, -0.830345869064331, -0.9707666039466858, 0.05621013790369034, -0.24833671275404548, 0.37431921785974964, 0.08777773640681377, 9362.0, 30146.0, 35388.0, 9362.0, 8.132232666015625, -0.21875536441802979, 0.19472432136535645, 0.26486736536026, 0.006264466792345047, -0.060315486043691635, 0.9975357055664062, -0.034726083278656006, -0.12023735046386719, 1.486083984375, 1.426025390625, 0.069732666015625, 1.4912109375, 1.37841796875, 10.0, 1.0, 5.0, 1.4039700031280518
17571, 2.1464550495147705, 0.5124366879463196, -0.424050897359848, -0.010224285535514355, -0.04133429750800133, -3.4629080295562744, -0.04324629157781601, -0.17465487122535706, -0.434749573469162, -0.8303118944168091, -0.970784068107605, 0.0561806745827198, -0.2334993719072714, 0.3848528467746064, 0.10972063874893007, 9362.0, 30146.0, 35388.0, 9362.0, 8.132232666015625, 0.21189004182815552, -0.5428125858306885, 0.10144181549549103, 0.006264466792345047, -0.060315486043691635, 0.9975357055664062, -0.034726083278656006, -0.12023735046386719, 1.486083984375, 1.426025390625, 0.069732666015625, 1.4912109375, 1.426025390625, 10.0, 1.0, 5.0, 1.4039700031280518
17581, 2.146519899368286, 0.5104129314422607, -0.4243570566177368, -0.010224285535514355, -0.04133429750800133, -3.4629080295562744, -0.04324629157781601, -0.17465487122535706, -0.434749573469162, -0.8302789926528931, -0.9707846641540527, 0.05611749365925789, -0.26965547555886266, 0.37468244867969247, 0.08333078973804794, 9362.0, 30146.0, 35388.0, 9362.0, 8.132232666015625, -0.03969529643654823, -0.04645391181111336, -0.18453195691108704, 0.006264466792345047, -0.060315486043691635, 0.9975357055664062, -0.034726083278656006, -0.12023735046386719, 1.486083984375, 1.39013671875, 0.0314483642578125, 1.4912109375, 1.387939453125, 10.0, 1.0, 5.0, 1.4039700031280518
17611, 2.1473023891448975, 0.5081382393836975, -0.4239782691001892, -0.012981690466403961, -0.05247215926647186, -3.489043951034546, -0.04865984246134758, -0.1966184377670288, -0.4361838400363922, -0.8302674889564514, -0.9707919955253601, 0.056104011833667755, -0.255627316532806, 0.35535492334616947, 0.09599167811953352, 9362.0, 30146.0, 35388.0, 9362.0, 8.132232666015625, 0.2106127142906189, 0.178524449467659, 0.11299391835927963, 0.006264466792345047, -0.060315486043691635, 0.9975357055664062, -0.034726083278656006, -0.12023735046386719, 1.486083984375, 1.409912109375, 0.0501251220703125, 1.493408203125, 1.41796875, 10.0, 1.0, 5.0, 1.4038102626800537
17631, 2.149233102798462, 0.5122054815292358, -0.4258887767791748, -0.013972846791148186, -0.056477807462215424, -3.4977707862854004, -0.0504540354013443, -0.20394645631313324, -0.4365357458591461, -0.830276608467102, -0.9707249999046326, 0.05595780909061432, -0.22058018566439813, 0.40236265835332574, 0.06059998828491732, 9362.0, 30146.0, 35388.0, 9362.0, 8.132232666015625, -0.005490113515406847, -0.49000030755996704, -0.2274523824453354, 0.006264466792345047, -0.060315486043691635, 0.9975357055664062, -0.034726083278656006, -0.12023735046386719, 1.486083984375, 1.37109375, 0.0197906494140625, 1.493408203125, 1.43994140625, 10.0, 1.0, 5.0, 1.4040130376815796
17661, 2.148728609085083, 0.5094299912452698, -0.42352378368377686, -0.015526930801570415, -0.06276106089353561, -3.5108802318573, -0.05315576121211052, -0.2149384766817093, -0.43736132979393005, -0.8302499651908875, -0.9708048701286316, 0.05611936002969742, -0.26094496224332986, 0.36484728642432174, 0.09709172057645378, 9362.0, 30146.0, 35388.0, 9362.0, 8.132232666015625, 0.21215860545635223, 0.06152486428618431, 0.12731018662452698, 0.006264466792345047, -0.060315486043691635, 0.9975357055664062, -0.034726083278656006, -0.12023735046386719, 1.486083984375, 1.35205078125, 0.015380859375, 1.493408203125, 1.4267578125, 10.0, 1.0, 5.0, 1.4040130376815796
17701, 2.14967942237854, 0.5052521824836731, -0.41873979568481445, -0.016607994213700294, -0.0671331137418747, -3.51963210105896, -0.054949380457401276, -0.22226259112358093, -0.43795475363731384, -0.8302800059318542, -0.9707531332969666, 0.055961258709430695, -0.22949262510018348, 0.41430113193379725, 0.0710011968009416, 9362.0, 30146.0, 35388.0, 9362.0, 8.132232666015625, 0.04166684299707413, 0.10503634065389633, 0.26022788882255554, 0.006264466792345047, -0.060315486043691635, 0.9975357055664062, -0.034726083278656006, -0.12023735046386719, 1.486083984375, 1.37109375, 0.0197906494140625, 1.48974609375, 1.41650390625, 10.0, 1.0, 5.0, 1.4039736986160278
17751, 2.151165723800659, 0.4976139962673187, -0.42203488945961, -0.019466878846287727, -0.0787036120891571, -3.541585683822632, -0.05940103158354759, -0.24056465923786163, -0.4400225877761841, -0.8303183913230896, -0.9707310795783997, 0.05606299638748169, -0.20636985612411313, 0.41559675462693235, 0.07789394691093786, 9362.0, 30146.0, 35388.0, 9362.0, 8.132232666015625, 0.16514275968074799, -0.01317793782800436, -0.04348820075392723, 0.006264466792345047, -0.060315486043691635, 0.9975357055664062, -0.034726083278656006, -0.12023735046386719, 1.486083984375, 1.40185546875, 0.0417938232421875, 1.4912109375, 1.423095703125, 10.0, 1.0, 5.0, 1.4038938283920288
17771, 2.1510496139526367, 0.4976860284805298, -0.42066916823387146, -0.019466878846287727, -0.0787036120891571, -3.541585683822632, -0.05940103158354759, -0.24056465923786163, -0.4400225877761841, -0.830267071723938, -0.9707459807395935, 0.05598628520965576, -0.22725231055183612, 0.41406267083709736, 0.07742854590034587, 9362.0, 30146.0, 35388.0, 9362.0, 8.132232666015625, -0.015491870231926441, 0.3702795207500458, 0.3838781714439392, 0.006264466792345047, -0.060315486043691635, 0.9975357055664062, -0.034726083278656006, -0.12023735046386719, 1.486083984375, 1.3828125, 0.0261077880859375, 1.4912109375, 1.3974609375, 10.0, 1.0, 5.0, 1.4038938283920288
17781, 2.150545358657837, 0.49736955761909485, -0.42194756865501404, -0.019466878846287727, -0.0787036120891571, -3.541585683822632, -0.05940103158354759, -0.24056465923786163, -0.4400225877761841, -0.8302760720252991, -0.9707990884780884, 0.05611151456832886, -0.266396799561648, 0.37316965803137236, 0.07582137386494787, 9362.0, 30146.0, 35388.0, 9362.0, 8.132232666015625, 0.035853639245033264, -0.03540355712175369, -0.05371910333633423, 0.006264466792345047, -0.060315486043691635, 0.9975357055664062, -0.034726083278656006, -0.12023735046386719, 1.486083984375, 1.400390625, 0.04034423828125, 1.4912109375, 1.44140625, 10.0, 1.0, 5.0, 1.4037750959396362
17801, 2.1512413024902344, 0.4940014183521271, -0.42378219962120056, -0.02384069561958313, -0.09644167870283127, -3.572451114654541, -0.06555694341659546, -0.2662520408630371, -0.44153207540512085, -0.830287754535675, -0.9707837700843811, 0.05612264946103096, -0.2580509683869599, 0.3614434233271311, 0.0724383921710259, 9362.0, 30146.0, 35388.0, 9362.0, 8.132232666015625, 0.22982540726661682, 0.09678684920072556, -0.019389815628528595, 0.006264466792345047, -0.060315486043691635, 0.9975357055664062, -0.034726083278656006, -0.12023735046386719, 1.486083984375, 1.40625, 0.04620361328125, 1.490478515625, 1.412109375, 10.0, 1.0, 5.0, 1.4038335084915161
17821, 2.1518187522888184, 0.49456340074539185, -0.42365989089012146, -0.0251692533493042, -0.10183995217084885, -3.5812900066375732, -0.06729728728532791, -0.2735741436481476, -0.4424247443675995, -0.8303332924842834, -0.970778226852417, 0.05619862675666809, -0.24385251450890258, 0.3762782264255691, 0.07650540401551166, 9362.0, 30146.0, 35388.0, 9362.0, 8.132232666015625, -0.03268011659383774, -0.29696986079216003, -0.18284402787685394, 0.006264466792345047, -0.060315486043691635, 0.9975357055664062, -0.034726083278656006, -0.12023735046386719, 1.486083984375, 1.368896484375, 0.01885986328125, 1.490478515625, 1.39306640625, 10.0, 1.0, 5.0, 1.403723120689392
17831, 2.1507160663604736, 0.49429377913475037, -0.422618567943573, -0.0251692533493042, -0.10183995217084885, -3.5812900066375732, -0.06729728728532791, -0.2735741436481476, -0.4424247443675995, -0.830321729183197, -0.9707719683647156, 0.056199491024017334, -0.2545762600011839, 0.37521458184343714, 0.08347364230002499, 9362.0, 30146.0, 35388.0, 9362.0, 8.132232666015625, -0.07677809149026871, 0.0969046950340271, 0.15959498286247253, 0.006264466792345047, -0.060315486043691635, 0.9975357055664062, -0.034726083278656006, -0.12023735046386719, 1.486083984375, 1.40185546875, 0.0417938232421875, 1.49267578125, 1.39306640625, 10.0, 1.0, 5.0, 1.4036186933517456
17851, 2.1511971950531006, 0.4941968619823456, -0.42369160056114197, -0.027227435261011124, -0.11021240055561066, -3.594571113586426, -0.06991486996412277, -0.284591406583786, -0.4429187774658203, -0.8302807807922363, -0.9707818627357483, 0.056094929575920105, -0.27218756837248037, 0.3661260202796939, 0.07936159425582931, 9362.0, 30146.0, 35388.0, 9362.0, 8.132232666015625, 0.055177368223667145, -0.07942436635494232, -0.05767904594540596, 0.006264466792345047, -0.060315486043691635, 0.9975357055664062, -0.05119136720895767, -0.2098369598388672, 1.478759765625, 1.39892578125, 0.0390167236328125, 1.49267578125, 1.3564453125, 10.0, 1.0, 5.0, 1.4036186933517456
17871, 2.154041290283203, 0.4903591573238373, -0.42764902114868164, -0.02864314429461956, -0.11597760766744614, -3.6034348011016846, -0.07165657728910446, -0.2919292151927948, -0.44344037771224976, -0.8302754163742065, -0.9707934856414795, 0.05611325055360794, -0.2642630868717139, 0.3648942121009213, 0.07626913800794476, 9362.0, 30146.0, 35388.0, 9362.0, 8.132232666015625, -0.04831216111779213, 0.08861425518989563, -0.2587185502052307, 0.006264466792345047, -0.060315486043691635, 0.9975357055664062, -0.05119136720895767, -0.2098369598388672, 1.478759765625, 1.400390625, 0.04034423828125, 1.49267578125, 1.414306640625, 10.0, 1.0, 5.0, 1.4036186933517456
17881, 2.153914451599121, 0.4869326949119568, -0.4276861846446991, -0.02864314429461956, -0.11597760766744614, -3.6034348011016846, -0.07165657728910446, -0.2919292151927948, -0.44344037771224976, -0.8302779197692871, -0.970766544342041, 0.055991873145103455, -0.22428929313326132, 0.41770426079565937, 0.07201911303311383, 9362.0, 30146.0, 35388.0, 9362.0, 8.132232666015625, -0.04831216111779213, 0.08861425518989563, -0.2587185502052307, 0.006264466792345047, -0.060315486043691635, 0.9975357055664062, -0.05119136720895767, -0.2098369598388672, 1.478759765625, 1.43115234375, 0.0766143798828125, 1.49267578125, 1.423095703125, 10.0, 1.0, 5.0, 1.4036186933517456
17891, 2.1525144577026367, 0.4865967929363251, -0.4273050129413605, -0.02864314429461956, -0.11597760766744614, -3.6034348011016846, -0.07165657728910446, -0.2919292151927948, -0.44344037771224976, -0.8303260207176208, -0.9707602858543396, 0.05618787556886673, -0.24239084372314115, 0.37467182606775395, 0.08545701924824804, 9362.0, 30146.0, 35388.0, 9362.0, 8.132232666015625, -0.18395759165287018, 0.21500572562217712, 0.08982864022254944, 0.006264466792345047, -0.060315486043691635, 0.9975357055664062, -0.05119136720895767, -0.2098369598388672, 1.478759765625, 1.373291015625, 0.0207366943359375, 1.49267578125, 1.435546875, 10.0, 1.0, 5.0, 1.4036186933517456
17901, 2.1544806957244873, 0.4866080582141876, -0.42916157841682434, -0.02864314429461956, -0.11597760766744614, -3.6034348011016846, -0.07165657728910446, -0.2919292151927948, -0.44344037771224976, -0.8302386403083801, -0.9707902073860168, 0.056097012013196945, -0.25533745179761247, 0.36865892776179976, 0.0885077144205944, 9362.0, 30146.0, 35388.0, 9362.0, 8.132232666015625, 0.3580913841724396, 0.10654816031455994, -0.20379914343357086, 0.006264466792345047, -0.060315486043691635, 0.9975357055664062, -0.05119136720895767, -0.2098369598388672, 1.478759765625, 1.36962890625, 0.01910400390625, 1.49267578125, 1.435546875, 10.0, 1.0, 5.0, 1.4035260677337646
17911, 2.1541709899902344, 0.48511049151420593, -0.42831674218177795, -0.03157851845026016, -0.12794852256774902, -3.6211962699890137, -0.07510358095169067, -0.30661147832870483, -0.4447265863418579, -0.8302582502365112, -0.9708138704299927, 0.05612742528319359, -0.25065472568631364, 0.37390829444305496, 0.08982699068434008, 9362.0, 30146.0, 35388.0, 9362.0, 8.132232666015625, 0.3580913841724396, 0.10654816031455994, -0.20379914343357086, 0.006264466792345047, -0.060315486043691635, 0.9975357055664062, -0.05119136720895767, -0.2098369598388672, 1.478759765625, 1.36962890625, 0.01910400390625, 1.4912109375, 1.37841796875, 10.0, 1.0, 5.0, 1.4035260677337646
17991, 2.1526920795440674, 0.48450878262519836, -0.4261937439441681, -0.03623896464705467, -0.14700686931610107, -3.6479179859161377, -0.08024095743894577, -0.32865676283836365, -0.44623902440071106, -0.8302751779556274, -0.9707813262939453, 0.05612684041261673, -0.2780600372300888, 0.3699520684047286, 0.07907488600821434, 9362.0, 30146.0, 35388.0, 9362.0, 8.132232666015625, 0.04617030546069145, -0.17947623133659363, -0.030704671517014503, 0.006264466792345047, -0.060315486043691635, 0.9975357055664062, -0.05119136720895767, -0.2098369598388672, 1.478759765625, 1.43994140625, 0.089324951171875, 1.49560546875, 1.4091796875, 10.0, 1.0, 5.0, 1.4037137031555176
18011, 2.153291940689087, 0.48441267013549805, -0.42486944794654846, -0.03951680287718773, -0.1604468673467636, -3.665792465209961, -0.08365488052368164, -0.3433477580547333, -0.44728100299835205, -0.8303222060203552, -0.97076416015625, 0.05620896816253662, -0.25732487915976615, 0.36762274966653763, 0.09282295306874197, 9362.0, 30146.0, 35388.0, 9362.0, 8.132232666015625, -0.11171183735132217, 0.17749793827533722, 0.29633381962776184, 0.006264466792345047, -0.060315486043691635, 0.9975357055664062, -0.05119136720895767, -0.2098369598388672, 1.478759765625, 1.36669921875, 0.01806640625, 1.49560546875, 1.44580078125, 10.0, 1.0, 5.0, 1.4036972522735596
18021, 2.152987003326416, 0.48277172446250916, -0.42519426345825195, -0.03951680287718773, -0.1604468673467636, -3.665792465209961, -0.08365488052368164, -0.3433477580547333, -0.44728100299835205, -0.8302506804466248, -0.9708026647567749, 0.056089818477630615, -0.24447182359813024, 0.3710317294145682, 0.09014185837458778, 9362.0, 30146.0, 35388.0, 9362.0, 8.132232666015625, 0.13192413747310638, -0.008079171180725098, -0.15277071297168732, 0.006264466792345047, -0.060315486043691635, 0.9975357055664062, -0.05119136720895767, -0.2098369598388672, 1.478759765625, 1.41943359375, 0.0612945556640625, 1.49560546875, 1.431884765625, 10.0, 1.0, 5.0, 1.4036972522735596
18031, 2.1542470455169678, 0.4832085371017456, -0.42563027143478394, -0.04120701551437378, -0.16738732159137726, -3.6747419834136963, -0.08536534011363983, -0.35069599747657776, -0.44772854447364807, -0.8302622437477112, -0.9707688689231873, 0.055965207517147064, -0.20974858687888978, 0.40934452696043877, 0.08139023371766077, 9362.0, 30146.0, 35388.0, 9362.0, 8.132232666015625, 0.12967857718467712, -0.11382123082876205, -0.28519824147224426, 0.006264466792345047, -0.060315486043691635, 0.9975357055664062, -0.05119136720895767, -0.2098369598388672, 1.478759765625, 1.39013671875, 0.0314483642578125, 1.49267578125, 1.377685546875, 10.0, 1.0, 5.0, 1.403831958770752
18051, 2.152064085006714, 0.483642578125, -0.4240315556526184, -0.04206492751836777, -0.17091263830661774, -3.679220676422119, -0.08621692657470703, -0.35436755418777466, -0.44800350069999695, -0.8302440643310547, -0.9707894921302795, 0.056084562093019485, -0.25978838684397765, 0.36288702422106667, 0.08302089443057806, 9362.0, 30146.0, 35388.0, 9362.0, 8.132232666015625, 0.20361773669719696, -0.11864249408245087, 0.0998622253537178, 0.006264466792345047, -0.060315486043691635, 0.9975357055664062, -0.05119136720895767, -0.2098369598388672, 1.478759765625, 1.42236328125, 0.0649566650390625, 1.49267578125, 1.449462890625, 10.0, 1.0, 5.0, 1.4038774967193604
18061, 2.1519880294799805, 0.48307061195373535, -0.42493733763694763, -0.04206492751836777, -0.17091263830661774, -3.679220676422119, -0.08621692657470703, -0.35436755418777466, -0.44800350069999695, -0.8302531242370605, -0.9707985520362854, 0.05610937625169754, -0.26573718100953214, 0.3705959409028594, 0.08702774319743797, 9362.0, 30146.0, 35388.0, 9362.0, 8.132232666015625, 0.03331436961889267, 0.3914874494075775, 0.10149720311164856, 0.006264466792345047, -0.060315486043691635, 0.9975357055664062, -0.05119136720895767, -0.2098369598388672, 1.478759765625, 1.42236328125, 0.0649566650390625, 1.49267578125, 1.39599609375, 10.0, 1.0, 5.0, 1.4038774967193604
18071, 2.152064323425293, 0.4838131070137024, -0.4245213270187378, -0.04206492751836777, -0.17091263830661774, -3.679220676422119, -0.08621692657470703, -0.35436755418777466, -0.44800350069999695, -0.830244779586792, -0.9708120822906494, 0.05609792843461037, -0.25674973518456984, 0.36058626435172414, 0.08690158886510657, 9362.0, 30146.0, 35388.0, 9362.0, 8.132232666015625, 0.13202618062496185, -0.17922072112560272, -0.07999452948570251, 0.006264466792345047, -0.060315486043691635, 0.9975357055664062, -0.05119136720895767, -0.2098369598388672, 1.478759765625, 1.414306640625, 0.05517578125, 1.49267578125, 1.43115234375, 10.0, 1.0, 5.0, 1.4038774967193604
18111, 2.151960611343384, 0.4891756772994995, -0.42557254433631897, -0.04739154130220413, -0.19283580780029297, -3.706141948699951, -0.09133852273225784, -0.37640640139579773, -0.4493018388748169, -0.8302684426307678, -0.9707754254341125, 0.055966801941394806, -0.20357181004830505, 0.41276110518731457, 0.08289437954503166, 9362.0, 30146.0, 35388.0, 9362.0, 8.132232666015625, -0.012632441706955433, -0.44558635354042053, 0.1031048446893692, 0.0077069285325706005, -0.0612713024020195, 0.9971668720245361, -0.05119136720895767, -0.2098369598388672, 1.478759765625, 1.405517578125, 0.0454254150390625, 1.48974609375, 1.376220703125, 10.0, 1.0, 5.0, 1.4039678573608398
18121, 2.1523237228393555, 0.4893921911716461, -0.424863338470459, -0.04739154130220413, -0.19283580780029297, -3.706141948699951, -0.09133852273225784, -0.37640640139579773, -0.4493018388748169, -0.8302748203277588, -0.9708057045936584, 0.05611896514892578, -0.25397333917652226, 0.3740602309122494, 0.091399612588725, 9362.0, 30146.0, 35388.0, 9362.0, 8.132232666015625, 0.08554738014936447, -0.15192487835884094, 0.2700794041156769, 0.0077069285325706005, -0.0612713024020195, 0.9971668720245361, -0.05119136720895767, -0.2098369598388672, 1.478759765625, 1.443603515625, 0.0948486328125, 1.48974609375, 1.43701171875, 10.0, 1.0, 5.0, 1.4039678573608398
18131, 2.151845693588257, 0.49151501059532166, -0.4249107539653778, -0.04739154130220413, -0.19283580780029297, -3.706141948699951, -0.09133852273225784, -0.37640640139579773, -0.4493018388748169, -0.8302584886550903, -0.9708059430122375, 0.05610843375325203, -0.266694996316622, 0.3750367032185977, 0.08520859538687171, 9362.0, 30146.0, 35388.0, 9362.0, 8.132232666015625, -0.006006286013871431, 0.022966409102082253, -0.16142185032367706, 0.0077069285325706005, -0.0612713024020195, 0.9971668720245361, -0.05119136720895767, -0.2098369598388672, 1.478759765625, 1.423828125, 0.066802978515625, 1.48974609375, 1.44873046875, 10.0, 1.0, 5.0, 1.4039678573608398
18181, 2.1502883434295654, 0.48679688572883606, -0.42352011799812317, -0.05497485026717186, -0.2241230458021164, -3.742164134979248, -0.09826038032770157, -0.40577396750450134, -0.45120489597320557, -0.8302838802337646, -0.9707866311073303, 0.05612960457801819, -0.2666771705499382, 0.3651762161752856, 0.08096601890535034, 9362.0, 30146.0, 35388.0, 9362.0, 8.132232666015625, 0.21224719285964966, 0.1252145916223526, -0.013962301425635815, 0.0074527147226035595, -0.0613895058631897, 0.998792290687561, -0.014881658367812634, -0.10231781005859375, 1.487548828125, 1.396728515625, 0.0370025634765625, 1.49267578125, 1.40478515625, 10.0, 1.0, 5.0, 1.404086947441101
18191, 2.150803565979004, 0.48627790808677673, -0.4233741760253906, -0.05497485026717186, -0.2241230458021164, -3.742164134979248, -0.09826038032770157, -0.40577396750450134, -0.45120489597320557, -0.8302435874938965, -0.9708074331283569, 0.0561024509370327, -0.25015459390414335, 0.361581856052112, 0.08230032464299876, 9362.0, 30146.0, 35388.0, 9362.0, 8.132232666015625, 0.07831117510795593, -0.18534445762634277, -9.974560089176521e-05, 0.0074527147226035595, -0.0613895058631897, 0.998792290687561, -0.014881658367812634, -0.10231781005859375, 1.487548828125, 1.404052734375, 0.04400634765625, 1.49267578125, 1.439208984375, 10.0, 1.0, 5.0, 1.404086947441101
18211, 2.1505305767059326, 0.4837034046649933, -0.424960732460022, -0.05497485026717186, -0.2241230458021164, -3.742164134979248, -0.09826038032770157, -0.40577396750450134, -0.45120489597320557, -0.8302621245384216, -0.9707897305488586, 0.05608145892620087, -0.2545837270943829, 0.36698179678313636, 0.08657575307569253, 9362.0, 30146.0, 35388.0, 9362.0, 8.132232666015625, 0.02016519196331501, 0.446992963552475, 0.006211219355463982, 0.0074527147226035595, -0.0613895058631897, 0.998792290687561, -0.014881658367812634, -0.10231781005859375, 1.487548828125, 1.389404296875, 0.03082275390625, 1.487548828125, 1.41064453125, 10.0, 1.0, 5.0, 1.404086947441101
18251, 2.150622844696045, 0.4831826984882355, -0.4290020763874054, -0.06206327676773071, -0.2534258961677551, -3.7738089561462402, -0.10425594449043274, -0.43145430088043213, -0.4527469575405121, -0.830258309841156, -0.9707686305046082, 0.05596192181110382, -0.21575708596285925, 0.4174422446961614, 0.09148292177771256, 9362.0, 30146.0, 35388.0, 9362.0, 8.132232666015625, -0.05342930555343628, 0.18684813380241394, -0.053724609315395355, 0.0074527147226035595, -0.0613895058631897, 0.998792290687561, -0.014881658367812634, -0.10231781005859375, 1.487548828125, 1.39306640625, 0.0337982177734375, 1.494873046875, 1.43408203125, 10.0, 1.0, 5.0, 1.4042845964431763
18261, 2.1504368782043457, 0.48220083117485046, -0.42783793807029724, -0.06206327676773071, -0.2534258961677551, -3.7738089561462402, -0.10425594449043274, -0.43145430088043213, -0.4527469575405121, -0.8302541971206665, -0.9707586169242859, 0.055942993611097336, -0.20886391069625854, 0.4058331004291631, 0.08081661750480534, 9362.0, 30146.0, 35388.0, 9362.0, 8.132232666015625, 0.03488575667142868, -0.22086703777313232, -0.09536423534154892, 0.0074527147226035595, -0.0613895058631897, 0.998792290687561, -0.014881658367812634, -0.10231781005859375, 1.487548828125, 1.3740234375, 0.0210723876953125, 1.494873046875, 1.43408203125, 10.0, 1.0, 5.0, 1.4044239521026611
18301, 2.1508517265319824, 0.4752779006958008, -0.4262356758117676, -0.06522934883832932, -0.26653456687927246, -3.7874021530151367, -0.1068122386932373, -0.4424515664577484, -0.45364120602607727, -0.8303292989730835, -0.9707754850387573, 0.05620871111750603, -0.23654415949331728, 0.3746999742045318, 0.0904297239923233, 9362.0, 30146.0, 35388.0, 9362.0, 8.132232666015625, -0.10374172031879425, 0.2902730107307434, 0.16174446046352386, 0.0074527147226035595, -0.0613895058631897, 0.998792290687561, -0.014881658367812634, -0.10231781005859375, 1.487548828125, 1.373291015625, 0.0207366943359375, 1.493408203125, 1.453125, 10.0, 1.0, 5.0, 1.4045904874801636
18311, 2.1493754386901855, 0.47430911660194397, -0.423845112323761, -0.06522934883832932, -0.26653456687927246, -3.7874021530151367, -0.1068122386932373, -0.4424515664577484, -0.45364120602607727, -0.8303275108337402, -0.9707754850387573, 0.05616874247789383, -0.23870932147476495, 0.36828495830206975, 0.08591944115008136, 9362.0, 30146.0, 35388.0, 9362.0, 8.132232666015625, -0.1147126629948616, 0.12394068390130997, 0.1007055938243866, 0.0074527147226035595, -0.0613895058631897, 0.998792290687561, -0.014881658367812634, -0.10231781005859375, 1.487548828125, 1.3798828125, 0.0243377685546875, 1.493408203125, 1.43701171875, 10.0, 1.0, 5.0, 1.4045904874801636
18351, 2.148796319961548, 0.4727630913257599, -0.42475685477256775, -0.07178989797830582, -0.2937411367893219, -3.814685344696045, -0.11185985803604126, -0.46444419026374817, -0.45551133155822754, -0.8303160667419434, -0.9707615375518799, 0.05616757273674011, -0.23766063030107829, 0.37685696055748963, 0.08267435909873615, 9362.0, 30146.0, 35388.0, 9362.0, 8.132232666015625, 0.07379551231861115, -0.07032523304224014, 0.156316339969635, 0.0074527147226035595, -0.0613895058631897, 0.998792290687561, -0.0370858870446682, -0.07543754577636719, 1.48974609375, 1.44580078125, 0.098236083984375, 1.4912109375, 1.426025390625, 10.0, 1.0, 5.0, 1.4047117233276367
18361, 2.1485655307769775, 0.4734186828136444, -0.42264318466186523, -0.07178989797830582, -0.2937411367893219, -3.814685344696045, -0.11185985803604126, -0.46444419026374817, -0.45551133155822754, -0.8302557468414307, -0.9707987308502197, 0.05610349774360657, -0.2568524314836158, 0.37324439119873887, 0.09478072797986427, 9362.0, 30146.0, 35388.0, 9362.0, 8.132232666015625, -0.21502017974853516, -0.03762184455990791, 0.30019864439964294, 0.0074527147226035595, -0.0613895058631897, 0.998792290687561, -0.0370858870446682, -0.07543754577636719, 1.48974609375, 1.40771484375, 0.0478363037109375, 1.4912109375, 1.423828125, 10.0, 1.0, 5.0, 1.4047117233276367
18371, 2.147871971130371, 0.47180601954460144, -0.42289748787879944, -0.07178989797830582, -0.2937411367893219, -3.814685344696045, -0.11185985803604126, -0.46444419026374817, -0.45551133155822754, -0.830265462398529, -0.9707924723625183, 0.056128185242414474, -0.26928315465979974, 0.3583715450630507, 0.0739546900412933, 9362.0, 30146.0, 35388.0, 9362.0, 8.132232666015625, -0.15960034728050232, 0.04785886034369469, -0.1828751415014267, 0.0074527147226035595, -0.0613895058631897, 0.998792290687561, -0.0370858870446682, -0.07543754577636719, 1.48974609375, 1.388671875, 0.03033447265625, 1.4912109375, 1.452392578125, 10.0, 1.0, 5.0, 1.4047117233276367
18381, 2.1479790210723877, 0.472309947013855, -0.42247670888900757, -0.07178989797830582, -0.2937411367893219, -3.814685344696045, -0.11185985803604126, -0.46444419026374817, -0.45551133155822754, -0.8302603960037231, -0.9708220362663269, 0.05609465390443802, -0.25711966643987155, 0.3638893674718986, 0.09300786925715544, 9362.0, 30146.0, 35388.0, 9362.0, 8.132232666015625, -0.0383138470351696, -0.11717039346694946, 0.23065567016601562, 0.0074527147226035595, -0.0613895058631897, 0.998792290687561, -0.0370858870446682, -0.07543754577636719, 1.48974609375, 1.431884765625, 0.07769775390625, 1.4912109375, 1.443603515625, 10.0, 1.0, 5.0, 1.4047117233276367
18481, 2.14674711227417, 0.4760785698890686, -0.4186404347419739, -0.08703586459159851, -0.3572114109992981, -3.8742125034332275, -0.12269599735736847, -0.5120227336883545, -0.460027277469635, -0.830278217792511, -0.9707741737365723, 0.05610974133014679, -0.26448595771154687, 0.3561664417121051, 0.0757318567511757, 9362.0, 30146.0, 35388.0, 9362.0, 8.132232666015625, -0.16137520968914032, -0.1886448711156845, 0.05584270879626274, 0.0074527147226035595, -0.0613895058631897, 0.998792290687561, -0.03539961948990822, -0.14711761474609375, 1.48388671875, 1.408447265625, 0.0485382080078125, 1.491943359375, 1.43408203125, 10.0, 1.0, 5.0, 1.4059066772460938
18491, 2.147919178009033, 0.4752792716026306, -0.4179845452308655, -0.08950652927160263, -0.3675251305103302, -3.883417844772339, -0.12436894327402115, -0.5193488597869873, -0.4604882001876831, -0.8302510976791382, -0.9708078503608704, 0.056096918880939484, -0.25541427193823507, 0.36518575340545567, 0.08629702481341764, 9362.0, 30146.0, 35388.0, 9362.0, 8.132232666015625, -0.16137520968914032, -0.1886448711156845, 0.05584270879626274, 0.0074527147226035595, -0.0613895058631897, 0.998792290687561, -0.03539961948990822, -0.14711761474609375, 1.48388671875, 1.374755859375, 0.021392822265625, 1.48974609375, 1.43408203125, 10.0, 1.0, 5.0, 1.4059066772460938
18501, 2.1471869945526123, 0.471958190202713, -0.4154130518436432, -0.08950652927160263, -0.3675251305103302, -3.883417844772339, -0.12436894327402115, -0.5193488597869873, -0.4604882001876831, -0.8302735090255737, -0.9707908630371094, 0.05609232187271118, -0.2693561788286087, 0.3695547823219556, 0.07661425593258929, 9362.0, 30146.0, 35388.0, 9362.0, 8.132232666015625, -0.13830766081809998, 0.1833215057849884, 0.27037519216537476, 0.0074527147226035595, -0.0613895058631897, 0.998792290687561, -0.03539961948990822, -0.14711761474609375, 1.48388671875, 1.411376953125, 0.05181884765625, 1.48974609375, 1.43408203125, 10.0, 1.0, 5.0, 1.4059066772460938
18521, 2.147573709487915, 0.4669792056083679, -0.41513144969940186, -0.09327530860900879, -0.3832703232765198, -3.897246837615967, -0.12687760591506958, -0.530329167842865, -0.46146726608276367, -0.8302596807479858, -0.9708012938499451, 0.05609753727912903, -0.25651908967077114, 0.369476471738551, 0.08790528920810313, 9362.0, 30146.0, 35388.0, 9362.0, 8.132232666015625, 0.18238215148448944, 0.18470078706741333, -0.05167340859770775, 0.0074527147226035595, -0.0613895058631897, 0.998792290687561, -0.03539961948990822, -0.14711761474609375, 1.48388671875, 1.41943359375, 0.0612945556640625, 1.493408203125, 1.43408203125, 10.0, 1.0, 5.0, 1.4060343503952026
18561, 2.148195505142212, 0.4639448821544647, -0.4204777181148529, -0.09582942724227905, -0.3939502239227295, -3.9064791202545166, -0.12853184342384338, -0.5376612544059753, -0.46177777647972107, -0.8302642703056335, -0.9707925915718079, 0.056108422577381134, -0.2640652820211282, 0.3544570824276718, 0.07384083400994697, 9362.0, 30146.0, 35388.0, 9362.0, 8.132232666015625, -0.04379499331116676, 0.09861395508050919, -0.32010629773139954, 0.0074527147226035595, -0.0613895058631897, 0.998792290687561, -0.0376586839556694, 0.014162063598632812, 1.4970703125, 1.352783203125, 0.015350341796875, 1.490478515625, 1.440673828125, 10.0, 1.0, 5.0, 1.4063003063201904
18571, 2.1469650268554688, 0.46574896574020386, -0.4222804307937622, -0.09582942724227905, -0.3939502239227295, -3.9064791202545166, -0.12853184342384338, -0.5376612544059753, -0.46177777647972107, -0.8302459120750427, -0.9707967042922974, 0.056125521659851074, -0.2689869794230154, 0.35900494430481444, 0.07976160086628088, 9362.0, 30146.0, 35388.0, 9362.0, 8.132232666015625, -0.1055535227060318, -0.16629163920879364, -0.03432966768741608, 0.0074527147226035595, -0.0613895058631897, 0.998792290687561, -0.0376586839556694, 0.014162063598632812, 1.4970703125, 1.3857421875, 0.0280914306640625, 1.48974609375, 1.393798828125, 10.0, 1.0, 5.0, 1.4063003063201904
18621, 2.1464576721191406, 0.47055545449256897, -0.42386990785598755, -0.1063750609755516, -0.4381352663040161, -3.943500280380249, -0.13511155545711517, -0.5669682621955872, -0.46357592940330505, -0.8302891850471497, -0.9708161354064941, 0.056164953857660294, -0.259185605463445, 0.37099407096869186, 0.07175158008642435, 9362.0, 30146.0, 35388.0, 9362.0, 8.132232666015625, 0.028313953429460526, -0.1590937227010727, -0.29791465401649475, 0.0074527147226035595, -0.0613895058631897, 0.998792290687561, -0.0376586839556694, 0.014162063598632812, 1.4970703125, 1.423095703125, 0.06591796875, 1.49267578125, 1.45751953125, 10.0, 1.0, 5.0, 1.406662940979004
18631, 2.14748477935791, 0.46934929490089417, -0.42305731773376465, -0.1063750609755516, -0.4381352663040161, -3.943500280380249, -0.13511155545711517, -0.5669682621955872, -0.46357592940330505, -0.830275297164917, -0.9707910418510437, 0.056119635701179504, -0.2631905653057204, 0.37002446870798167, 0.08353164688863235, 9362.0, 30146.0, 35388.0, 9362.0, 8.132232666015625, 0.21359314024448395, -0.10142406821250916, 0.24529682099819183, 0.0074527147226035595, -0.0613895058631897, 0.998792290687561, -0.0376586839556694, 0.014162063598632812, 1.4970703125, 1.423095703125, 0.06591796875, 1.49267578125, 1.440673828125, 10.0, 1.0, 5.0, 1.406662940979004
18661, 2.1468894481658936, 0.47306618094444275, -0.42168834805488586, -0.11046578735113144, -0.45530909299850464, -3.9574196338653564, -0.13760343194007874, -0.5779620409011841, -0.46416229009628296, -0.8302647471427917, -0.9707808494567871, 0.056106895208358765, -0.2704732494468341, 0.36115290119542465, 0.07330752103716795, 9362.0, 30146.0, 35388.0, 9362.0, 8.132232666015625, 0.2543056309223175, 0.20492945611476898, -0.09855329990386963, 0.0074527147226035595, -0.0613895058631897, 0.998792290687561, -0.03324466571211815, 0.03208160400390625, 1.49853515625, 1.417236328125, 0.058624267578125, 1.486083984375, 1.464111328125, 10.0, 1.0, 5.0, 1.4067435264587402
18671, 2.145880699157715, 0.47451546788215637, -0.42094385623931885, -0.11046578735113144, -0.45530909299850464, -3.9574196338653564, -0.13760343194007874, -0.5779620409011841, -0.46416229009628296, -0.8303349614143372, -0.9707777500152588, 0.05619833618402481, -0.25446576906466795, 0.37445692272854103, 0.0950257213671162, 9362.0, 30146.0, 35388.0, 9362.0, 8.132232666015625, -0.10097409039735794, 0.05820416286587715, 0.39452439546585083, 0.0074527147226035595, -0.0613895058631897, 0.998792290687561, -0.03324466571211815, 0.03208160400390625, 1.49853515625, 1.43408203125, 0.080810546875, 1.486083984375, 1.455322265625, 10.0, 1.0, 5.0, 1.4067435264587402
18691, 2.147829055786133, 0.47205212712287903, -0.42284661531448364, -0.11046578735113144, -0.45530909299850464, -3.9574196338653564, -0.13760343194007874, -0.5779620409011841, -0.46416229009628296, -0.8302778601646423, -0.9707942605018616, 0.056104741990566254, -0.26427715073815045, 0.37286302102327795, 0.07238222852923125, 9362.0, 30146.0, 35388.0, 9362.0, 8.132232666015625, 0.10492444783449173, 0.014034963212907314, -0.2739197015762329, 0.0074527147226035595, -0.0613895058631897, 0.998792290687561, -0.03324466571211815, 0.03208160400390625, 1.49853515625, 1.3974609375, 0.03759765625, 1.486083984375, 1.44580078125, 10.0, 1.0, 5.0, 1.406691312789917
18711, 2.14695143699646, 0.4695125222206116, -0.4232816994190216, -0.11887196451425552, -0.49064525961875916, -3.985333204269409, -0.1426067352294922, -0.5999176502227783, -0.4661346971988678, -0.8302679061889648, -0.9707521796226501, 0.055969685316085815, -0.21907822526291518, 0.4077465887876599, 0.07094461057794353, 9362.0, 30146.0, 35388.0, 9362.0, 8.132232666015625, -0.03543158993124962, 0.08898518979549408, -0.0897868350148201, 0.0074527147226035595, -0.0613895058631897, 0.998792290687561, -0.03324466571211815, 0.03208160400390625, 1.49853515625, 1.426025390625, 0.069732666015625, 1.4912109375, 1.386474609375, 10.0, 1.0, 5.0, 1.406691312789917
18721, 2.1455299854278564, 0.4684997797012329, -0.4238875210285187, -0.11887196451425552, -0.49064525961875916, -3.985333204269409, -0.1426067352294922, -0.5999176502227783, -0.4661346971988678, -0.8302796483039856, -0.9707882404327393, 0.0561017245054245, -0.2752753514445138, 0.3710825211061888, 0.07736248743082598, 9362.0, 30146.0, 35388.0, 9362.0, 8.132232666015625, 0.11418475955724716, 0.2199888378381729, -0.12991277873516083, 0.0074527147226035595, -0.0613895058631897, 0.998792290687561, -0.03324466571211815, 0.03208160400390625, 1.49853515625, 1.435546875, 0.0829315185546875, 1.4912109375, 1.414306640625, 10.0, 1.0, 5.0, 1.406691312789917
18781, 2.146890163421631, 0.4636029601097107, -0.4269707500934601, -0.12757734954357147, -0.5272983908653259, -4.013373851776123, -0.14756284654140472, -0.6218538284301758, -0.4683959186077118, -0.83026522397995, -0.9707611203193665, 0.05595443770289421, -0.2106679827190271, 0.4190541255847222, 0.08316382820300174, 9362.0, 30146.0, 35388.0, 9362.0, 8.132232666015625, -0.13978134095668793, 0.036710504442453384, 0.2569834887981415, 0.0074527147226035595, -0.0613895058631897, 0.998792290687561, -0.03324466571211815, 0.03208160400390625, 1.49853515625, 1.395263671875, 0.035675048828125, 1.496337890625, 1.434814453125, 10.0, 1.0, 5.0, 1.4073187112808228
18791, 2.146313428878784, 0.4649154245853424, -0.42968475818634033, -0.12757734954357147, -0.5272983908653259, -4.013373851776123, -0.14756284654140472, -0.6218538284301758, -0.4683959186077118, -0.8303164839744568, -0.9707814455032349, 0.05614784359931946, -0.2298836405556397, 0.3812223745688925, 0.09848797045224596, 9362.0, 30146.0, 35388.0, 9362.0, 8.132232666015625, -0.03967207670211792, -0.03766446188092232, -0.4244433045387268, 0.0074527147226035595, -0.0613895058631897, 0.998792290687561, -0.03324466571211815, 0.03208160400390625, 1.49853515625, 1.395263671875, 0.035675048828125, 1.496337890625, 1.4326171875, 10.0, 1.0, 5.0, 1.4073187112808228
18821, 2.1469390392303467, 0.45965084433555603, -0.4282878041267395, -0.13505811989307404, -0.5588488578796387, -4.036822319030762, -0.15166695415973663, -0.6401724219322205, -0.46933630108833313, -0.8302680253982544, -0.9707657694816589, 0.0559791699051857, -0.22049709076281926, 0.413943889765676, 0.07159447230350963, 9362.0, 30146.0, 35388.0, 9362.0, 8.132232666015625, -0.09869146347045898, 0.5407536029815674, 0.17479710280895233, 0.0074527147226035595, -0.0613895058631897, 0.998792290687561, -0.03324466571211815, 0.03208160400390625, 1.49853515625, 1.3857421875, 0.0280914306640625, 1.496337890625, 1.44140625, 10.0, 1.0, 5.0, 1.4073776006698608
