timeTick, roll, pitch, yaw, stateX, stateY, stateZ, stateVX, stateVY, stateVZ, otX0, otY0, otZ0, otRoll0, otPitch0, otYaw0, left wing, pitch motor, yaw motor, right wing, voltage, roll rate, pitch rate, yaw rate, A_x, A_y, A_z, current, i_raw, v_raw, airflow_voltage, airflow_speed, pot_Pitch, voltage_nKF, kFFx, volt_KF_vel, kP, volt_KF_pos
23563, 1.3217542171478271, -6.1549272537231445, -2.287966251373291, 0, 0, 0, 0, 0, 0, -0.8338069319725037, -0.9713521003723145, 0.05552910640835762, -0.39109638541047503, 0.2504010352332955, 4.920271358909553, 0, 0, 0, 0, 0, 0, 0, 0, 0, 0, 0, 0, 0, 0, 0, 0, 0, 0, 0, 0, 0, 0
23573, 1.3220096826553345, -6.152984142303467, -2.2894845008850098, -0.0005937215755693614, 0.00015279915533028543, -6.669867038726807, -0.05418047308921814, 0.01394355483353138, -0.605318546295166, -0.8337852358818054, -0.9713500738143921, 0.05554935336112976, -0.3914702634377803, 0.25812768896972216, 4.927665616871395, 9362.0, 30146.0, 35388.0, 9362.0, 0, -0.0428067222237587, 0.043732523918151855, -0.15557049214839935, 0.004248567391186953, -0.05743125081062317, 0.9980970621109009, 0, 0, 0, 0, 0, 0, 0, 0, 0, 0, 0
23583, 1.3215277194976807, -6.153525352478027, -2.2918310165405273, -0.0010835871798917651, 0.00027886737370863557, -6.675924301147461, -0.04379269853234291, 0.01126981433480978, -0.606177806854248, -0.8337955474853516, -0.9713521003723145, 0.05551232025027275, -0.3931127673046442, 0.2577555368823994, 4.910954113997766, 9362.0, 30146.0, 35388.0, 9362.0, 0, 0.196624293923378, 0.21128153800964355, -0.013938742689788342, 0.002516745124012232, -0.05591743066906929, 0.9988285303115845, 0, 0, 0, 1.399658203125, 0.0396575927734375, 0, 1.40771484375, 10.0, 1.3585141897201538, 1.5, 1.3585141897201538
23593, 1.322185754776001, -6.155601978302002, -2.2914040088653564, -0.0014695478603243828, 0.0003781839332077652, -6.681990146636963, -0.033399548381567, 0.00859307311475277, -0.6069545745849609, -0.8337847590446472, -0.9713594913482666, 0.05553722381591797, -0.3993811935963728, 0.2444000762501446, 4.918905488438766, 9362.0, 30146.0, 35388.0, 9362.0, 0, 0.22213873267173767, 0.28506356477737427, 0.08202137798070908, 0.0029309082310646772, -0.05815728381276131, 0.9973019361495972, 0, 0, 0, 1.4033203125, 0.043182373046875, 1.494873046875, 1.206298828125, 10.0, 1.3589493036270142, 1.5, 1.3589493036270142
23603, 1.3234905004501343, -6.1597676277160645, -2.2896454334259033, -0.0017515516374260187, 0.0004507294506765902, -6.688063144683838, -0.02300122193992138, 0.005916102323681116, -0.6076921224594116, -0.8338602185249329, -0.971322774887085, 0.055506397038698196, -0.40684573129895957, 0.2950249635037494, 4.940745240557089, 9362.0, 30146.0, 35388.0, 9362.0, 0, -0.07513882964849472, 0.0348765105009079, -0.22087538242340088, 0.005105364136397839, -0.05726265162229538, 0.9967221021652222, 0, 0, 0, 1.50439453125, 0.2044219970703125, 1.494873046875, 1.23046875, 10.0, 1.3589529991149902, 1.5, 1.3589529991149902
23613, 1.3233482837677002, -6.15997838973999, -2.2896318435668945, -0.0019296039827167988, 0.000496511987876147, -6.694144248962402, -0.012609231285750866, 0.003240722930058837, -0.6085228323936462, -0.8338088393211365, -0.971345067024231, 0.05554448440670967, -0.40641757238422943, 0.23588990924827158, 4.912416640897347, 9362.0, 30146.0, 35388.0, 9362.0, 0, 0.1114908829331398, -0.245090514421463, -0.09287189692258835, 0.003182808170095086, -0.054425690323114395, 0.9968513250350952, 0, 0, 0, 0.989501953125, 3.225860595703125, 1.48681640625, 1.125732421875, 10.0, 1.3586513996124268, 1.5, 1.3586513996124268
23623, 1.3237873315811157, -6.158056259155273, -2.289830446243286, -0.0020037430804222822, 0.0005155405960977077, -6.7002339363098145, -0.0022185789421200752, 0.0005649972008541226, -0.6094317436218262, -0.8338447213172913, -0.9713271260261536, 0.05551917850971222, -0.41961196272206047, 0.3000442908877403, 4.939967144565359, 9362.0, 30146.0, 35388.0, 9362.0, 0, 0.19375766813755035, 0.07349029928445816, -0.11427097022533417, 0.0036308146081864834, -0.055851805955171585, 0.9981096386909485, 0, 0, 0, 1.408447265625, 0.0485382080078125, 1.48681640625, 1.1572265625, 10.0, 1.3572430610656738, 1.5, 1.3572430610656738
23633, 1.3245600461959839, -6.159030437469482, -2.288942337036133, -0.0019739794079214334, 0.0005078145186416805, -6.706332683563232, 0.008171338587999344, -0.0021102498285472393, -0.6103509068489075, -0.8338633179664612, -0.9713377952575684, 0.05549457296729088, -0.41720947215492654, 0.29058214801696636, 4.933212495216023, 9362.0, 30146.0, 35388.0, 9362.0, 0, -0.30000945925712585, 0.12403617799282074, 0.00981623400002718, 0.0045720976777374744, -0.05591967701911926, 0.9982696771621704, 0, 0, 0, 1.103759765625, 1.2206573486328125, 1.491943359375, 1.45751953125, 10.0, 1.357141137123108, 1.5, 1.357141137123108
23643, 1.3234823942184448, -6.160093307495117, -2.288642168045044, -0.0018402573186904192, 0.00047331320820376277, -6.712440013885498, 0.018573112785816193, -0.004789853934198618, -0.6111286282539368, -0.8338025212287903, -0.9713581800460815, 0.055549878627061844, -0.3973054903060595, 0.2513724030900448, 4.909211966519378, 9362.0, 30146.0, 35388.0, 9362.0, 0, -0.0015025724424049258, -0.07068991661071777, -0.05364111438393593, 0.0025714889634400606, -0.057178858667612076, 0.9972953200340271, 0, 0, 0, 1.4033203125, 0.043182373046875, 1.491943359375, 1.224609375, 10.0, 1.3561700582504272, 1.5, 1.3561700582504272
23653, 1.3236243724822998, -6.159905433654785, -2.2878055572509766, -0.0016025215154513717, 0.0004120129160583019, -6.718555450439453, 0.02897404506802559, -0.00747014582157135, -0.6119294762611389, -0.8337963223457336, -0.9713530540466309, 0.055565863847732544, -0.3940151100278838, 0.2504442955613797, 4.913167258653117, 9362.0, 30146.0, 35388.0, 9362.0, 0, 0.015026064589619637, -0.050998982042074203, -0.0689498782157898, 0.0035131205804646015, -0.05712219327688217, 0.9971951842308044, 0, 0, 0, 1.428955078125, 0.073577880859375, 1.490478515625, 1.399658203125, 10.0, 1.3563281297683716, 1.5, 1.3563281297683716
23663, 1.3242987394332886, -6.1616291999816895, -2.2873289585113525, -0.001260771183297038, 0.00032391989952884614, -6.724678993225098, 0.03937605768442154, -0.010148310102522373, -0.6127381920814514, -0.8338713049888611, -0.971328616142273, 0.0555054247379303, -0.4165926933552035, 0.2863090040156635, 4.936021871732329, 9362.0, 30146.0, 35388.0, 9362.0, 8.350414276123047, 0.014674360863864422, 0.24559521675109863, 0.340463787317276, 0.003687778254970908, -0.058813754469156265, 0.9990935921669006, -0.06434544920921326, -0.06647872924804688, 1.490478515625, 1.276611328125, 0.0910186767578125, 1.490478515625, 1.08544921875, 10.0, 1.3564094305038452, 1.5, 1.3564094305038452
23673, 1.3257051706314087, -6.1639485359191895, -2.2856733798980713, -0.0008150131907314062, 0.00020904767734464258, -6.730810642242432, 0.04977554455399513, -0.012826050631701946, -0.6135678887367249, -0.8338448405265808, -0.9713276028633118, 0.05553343892097473, -0.42010059885549184, 0.29401955169953453, 4.925123656943485, 9362.0, 30146.0, 35388.0, 9362.0, 8.350414276123047, -0.11727704107761383, 0.10134948790073395, -0.04243306443095207, 0.004402928054332733, -0.05768004059791565, 0.9995700716972351, -0.06434544920921326, -0.06647872924804688, 1.490478515625, 1.560791015625, 0.3262176513671875, 1.493408203125, 1.540283203125, 10.0, 1.3571380376815796, 1.5, 1.3571380376815796
23683, 1.3249915838241577, -6.163491249084473, -2.2860379219055176, -0.0002651754184626043, 6.73739705234766e-05, -6.736949920654297, 0.06019207090139389, -0.015508394688367844, -0.614266037940979, -0.8338024616241455, -0.9713531136512756, 0.05551490932703018, -0.3920214343137466, 0.25360080198234414, 4.914776041159503, 9362.0, 30146.0, 35388.0, 9362.0, 8.350414276123047, 0.15626002848148346, 0.07422296702861786, -0.09056801348924637, 0.005586301442235708, -0.05736472085118294, 0.9998753666877747, -0.06434544920921326, -0.06647872924804688, 1.490478515625, 1.146240234375, 0.7736968994140625, 1.493408203125, 1.51025390625, 10.0, 1.356920838356018, 1.5, 1.356920838356018
23693, 1.3258496522903442, -6.161572456359863, -2.2869739532470703, 0.00038887024857103825, -0.00010114035103470087, -6.743095874786377, 0.07061704993247986, -0.018194539472460747, -0.6149213314056396, -0.8337949514389038, -0.9713490009307861, 0.05553966760635376, -0.39888660107160534, 0.24906584725275138, 4.9014352257118725, 9362.0, 30146.0, 35388.0, 9362.0, 8.350414276123047, 0.13063006103038788, 0.02459978498518467, -0.0487876795232296, 0.004114204552024603, -0.055031754076480865, 0.9987311959266663, -0.06434544920921326, -0.06647872924804688, 1.490478515625, 1.008544921875, 2.7962646484375, 1.49853515625, 1.326416015625, 10.0, 1.3575783967971802, 1.5, 1.3575783967971802
23703, 1.3263695240020752, -6.160323143005371, -2.2870733737945557, 0.0011471894104033709, -0.0002965172752737999, -6.749248027801514, 0.08104676753282547, -0.02088102512061596, -0.6155250072479248, -0.8337965607643127, -0.971346378326416, 0.055544473230838776, -0.3930020090413852, 0.2485711688107699, 4.908667560113025, 9362.0, 30146.0, 35388.0, 9362.0, 8.350414276123047, 0.06127915903925896, -0.2257857322692871, -0.20886476337909698, 0.002470573177561164, -0.05516500771045685, 1.0007578134536743, -0.06434544920921326, -0.06647872924804688, 1.490478515625, 1.496337890625, 0.1883087158203125, 1.49853515625, 1.472900390625, 10.0, 1.35767662525177, 1.5, 1.35767662525177
23713, 1.3269211053848267, -6.159931182861328, -2.2887420654296875, 0.0020097321830689907, -0.0005187519127503037, -6.755406856536865, 0.09146182239055634, -0.02356593869626522, -0.616234540939331, -0.8338144421577454, -0.971350371837616, 0.055545784533023834, -0.39123591854845513, 0.2467129114454849, 4.905116275722867, 9362.0, 30146.0, 35388.0, 9362.0, 8.350414276123047, -0.10227083414793015, -0.09256968647241592, -0.026642968878149986, 0.002586867893114686, -0.058040399104356766, 0.9997164011001587, -0.06434544920921326, -0.06647872924804688, 1.490478515625, 1.04443359375, 2.0972442626953125, 1.487548828125, 1.406982421875, 10.0, 1.3580173254013062, 1.5, 1.3580173254013062
23723, 1.3280633687973022, -6.16056489944458, -2.2882726192474365, 0.0029764887876808643, -0.0007678590482100844, -6.761571884155273, 0.10188944637775421, -0.026255792006850243, -0.6168051362037659, -0.8337666988372803, -0.9712768793106079, 0.05541718006134033, -0.34023841653745707, 0.31388192802114645, 4.8906865910903035, 9362.0, 30146.0, 35388.0, 9362.0, 8.350414276123047, 0.023524070158600807, -0.1123841181397438, -0.027522649616003036, 0.003713595448061824, -0.05902128666639328, 0.9954371452331543, -0.06434544920921326, -0.06647872924804688, 1.490478515625, 1.4912109375, 0.178253173828125, 1.487548828125, 1.152099609375, 10.0, 1.358396291732788, 1.5, 1.358396291732788
23733, 1.3283787965774536, -6.159873008728027, -2.2882332801818848, 0.00404749158769846, -0.0010438640601933002, -6.767743110656738, 0.11231117695569992, -0.028945129364728928, -0.617424488067627, -0.8338671326637268, -0.9713234305381775, 0.05551319196820259, -0.4165261031290219, 0.28345843600564535, 4.924078555670271, 9362.0, 30146.0, 35388.0, 9362.0, 8.350414276123047, 0.17147082090377808, -0.04286886751651764, -0.43080633878707886, 0.0033334398176521063, -0.056446194648742676, 0.9979095458984375, -0.06434544920921326, -0.06647872924804688, 1.490478515625, 1.219482421875, 0.283355712890625, 1.4912109375, 1.519775390625, 10.0, 1.356972575187683, 1.5, 1.356972575187683
23743, 1.3296067714691162, -6.159426212310791, -2.2918872833251953, 0.005222541280090809, -0.0013467265525832772, -6.773921966552734, 0.12269875407218933, -0.03162737190723419, -0.6183726191520691, -0.8338602185249329, -0.9713369011878967, 0.05552059784531593, -0.4211351259242254, 0.27877048283355066, 4.937805578159098, 9362.0, 30146.0, 35388.0, 9362.0, 8.350414276123047, -0.10051343590021133, -0.14538025856018066, 0.2736569941043854, 0.003265140112489462, -0.055902231484651566, 0.9977980852127075, -0.06434544920921326, -0.06647872924804688, 1.490478515625, 1.50439453125, 0.2044219970703125, 1.4912109375, 0.971923828125, 10.0, 1.357486605644226, 1.5, 1.357486605644226
23753, 1.3294051885604858, -6.1591105461120605, -2.289806604385376, 0.006501509342342615, -0.0016764265019446611, -6.780109882354736, 0.1330946981906891, -0.03431329503655434, -0.6192299127578735, -0.8338068723678589, -0.9713492393493652, 0.055521413683891296, -0.39137709803034504, 0.25634521837429247, 4.913508301843421, 9362.0, 30146.0, 35388.0, 9362.0, 8.350414276123047, -0.1319313794374466, -0.5164124965667725, -0.3141738772392273, 0.003096334869042039, -0.05596533417701721, 0.9965819120407104, -0.06434544920921326, -0.06647872924804688, 1.490478515625, 1.3095703125, 0.037139892578125, 1.487548828125, 1.505126953125, 10.0, 1.3572959899902344, 1.5, 1.3572959899902344
23763, 1.3280797004699707, -6.156474590301514, -2.29133939743042, 0.00788445957005024, -0.002033006399869919, -6.786306381225586, 0.14349541068077087, -0.0370023176074028, -0.6200350522994995, -0.8338536620140076, -0.9713320732116699, 0.05550508573651314, -0.41561181730827834, 0.28671430599777636, 4.929971359763615, 9362.0, 30146.0, 35388.0, 9362.0, 8.350414276123047, -0.06541682034730911, 0.08027946203947067, 0.19562716782093048, 0.0037916467990726233, -0.056895360350608826, 0.996201753616333, -0.06275276094675064, -0.03959846496582031, 1.49267578125, 1.0751953125, 1.6026458740234375, 1.487548828125, 1.44580078125, 10.0, 1.357792854309082, 1.5, 1.357792854309082
23773, 1.3269230127334595, -6.1570000648498535, -2.2905116081237793, 0.009371349588036537, -0.0024164558853954077, -6.792511463165283, 0.15388250350952148, -0.0396878719329834, -0.6209622621536255, -0.83381187915802, -0.9713529944419861, 0.05554231256246567, -0.4015760008438513, 0.24621047973465693, 4.921797946976672, 9362.0, 30146.0, 35388.0, 9362.0, 8.350414276123047, -0.26634296774864197, -0.18408788740634918, -0.16981913149356842, 0.004277048632502556, -0.05601736530661583, 0.995750904083252, -0.06275276094675064, -0.03959846496582031, 1.49267578125, 1.524169921875, 0.2455596923828125, 1.49267578125, 1.393798828125, 10.0, 1.3575388193130493, 1.5, 1.3575388193130493
23783, 1.3251620531082153, -6.155284404754639, -2.292119026184082, 0.01096208207309246, -0.002826748648658395, -6.798725605010986, 0.1642640382051468, -0.04237053543329239, -0.6219003200531006, -0.8338498473167419, -0.9713232517242432, 0.05549998581409454, -0.4221298414417008, 0.29506485823480944, 4.932527127952827, 9362.0, 30146.0, 35388.0, 9362.0, 8.350414276123047, -0.04265532270073891, 0.2861786186695099, 0.06149381026625633, 0.003507704474031925, -0.056177325546741486, 0.9979322552680969, -0.06275276094675064, -0.03959846496582031, 1.49267578125, 1.559326171875, 0.32293701171875, 1.49267578125, 1.41796875, 10.0, 1.3564207553863525, 1.5, 1.3564207553863525
23793, 1.324947476387024, -6.15716028213501, -2.29170298576355, 0.01265659648925066, -0.003263847902417183, -6.804949760437012, 0.17463886737823486, -0.045049577951431274, -0.6229097843170166, -0.8338153958320618, -0.9713599681854248, 0.055551622062921524, -0.39415098058723713, 0.25476559828317136, 4.911478711246251, 9362.0, 30146.0, 35388.0, 9362.0, 8.350414276123047, -0.006199574563652277, 0.046029992401599884, 0.14238205552101135, 0.004379956517368555, -0.059853337705135345, 0.9977566599845886, -0.06275276094675064, -0.03959846496582031, 1.49267578125, 1.53662109375, 0.27239990234375, 1.496337890625, 1.27294921875, 10.0, 1.3569157123565674, 1.5, 1.3569157123565674
23803, 1.325643539428711, -6.157248020172119, -2.2909576892852783, 0.014454935677349567, -0.0037277466617524624, -6.811182975769043, 0.18502892553806305, -0.047730084508657455, -0.6237507462501526, -0.8338115811347961, -0.9713587760925293, 0.05554651841521263, -0.3981217949171607, 0.2466749421685961, 4.922426600198578, 9362.0, 30146.0, 35388.0, 9362.0, 8.350414276123047, -0.25818774104118347, -0.02057289145886898, -0.004630621522665024, 0.00528817530721426, -0.05800603702664375, 0.9973282814025879, -0.06275276094675064, -0.03959846496582031, 1.49267578125, 1.453125, 0.1099090576171875, 1.496337890625, 1.5087890625, 10.0, 1.356558084487915, 1.5, 1.356558084487915
23813, 1.324312686920166, -6.157113552093506, -2.290576934814453, 0.01635720022022724, -0.004218451213091612, -6.817424774169922, 0.19542397558689117, -0.050410691648721695, -0.6245750188827515, -0.8338621854782104, -0.971319317817688, 0.05551386624574661, -0.41662051548845686, 0.2864765173106889, 4.927204424656903, 9362.0, 30146.0, 35388.0, 9362.0, 8.350414276123047, 0.2161339670419693, 0.4261540174484253, 0.12674611806869507, 0.004348555579781532, -0.05710098519921303, 0.9976418018341064, -0.06275276094675064, -0.03959846496582031, 1.49267578125, 1.042236328125, 2.1361236572265625, 1.496337890625, 1.3740234375, 10.0, 1.356934666633606, 1.5, 1.356934666633606
23823, 1.3264901638031006, -6.159453392028809, -2.2899277210235596, 0.01836341619491577, -0.004735967144370079, -6.82367467880249, 0.20581933856010437, -0.053092435002326965, -0.6253980994224548, -0.8338305950164795, -0.971255898475647, 0.05536959692835808, -0.3536604774309438, 0.34419875015495904, 4.910953189141145, 9362.0, 30146.0, 35388.0, 9362.0, 8.350414276123047, -0.048196207731962204, 0.06282550096511841, -0.11312391608953476, 0.00519813084974885, -0.05689673870801926, 0.9990361928939819, -0.06275276094675064, -0.03959846496582031, 1.49267578125, 1.5615234375, 0.3278350830078125, 1.496337890625, 1.483154296875, 10.0, 1.356903076171875, 1.5, 1.356903076171875
23833, 1.3265022039413452, -6.160126686096191, -2.2903802394866943, 0.020473558455705643, -0.005280281882733107, -6.829933166503906, 0.21620896458625793, -0.055770374834537506, -0.6262732744216919, -0.8338525891304016, -0.9713259339332581, 0.055500056594610214, -0.4149572988972203, 0.2876148026551846, 4.930272415847777, 9362.0, 30146.0, 35388.0, 9362.0, 8.350414276123047, -0.003051996463909745, 0.13377973437309265, 0.2581360638141632, 0.0038462530355900526, -0.056117214262485504, 0.9989176988601685, -0.06275276094675064, -0.03959846496582031, 1.49267578125, 1.001220703125, 2.9564666748046875, 1.48974609375, 1.50146484375, 10.0, 1.3559187650680542, 1.5, 1.3559187650680542
23843, 1.3267571926116943, -6.161215305328369, -2.28810715675354, 0.02268770895898342, -0.00585141871124506, -6.8361992835998535, 0.22662097215652466, -0.05845704302191734, -0.626974880695343, -0.8338034152984619, -0.9713450074195862, 0.05551967769861221, -0.39023878927922157, 0.25600160978126496, 4.917593246592158, 9362.0, 30146.0, 35388.0, 9362.0, 8.350414276123047, 0.010647516697645187, 0.16551926732063293, -0.011532622389495373, 0.0026213196106255054, -0.05559461936354637, 0.9983076453208923, -0.06275276094675064, -0.03959846496582031, 1.49267578125, 1.5234375, 0.2439727783203125, 1.48974609375, 1.40771484375, 10.0, 1.355589747428894, 1.5, 1.355589747428894
23873, 1.327189326286316, -6.160668849945068, -2.2869253158569336, 0.02742837741971016, -0.007074284367263317, -6.848752975463867, 0.24744315445423126, -0.06382867693901062, -0.6284372806549072, -0.8338623642921448, -0.9713174104690552, 0.05550750717520714, -0.4201273752042077, 0.2878760451373239, 4.923819891012504, 9362.0, 30146.0, 35388.0, 9362.0, 8.350414276123047, -0.13322293758392334, 0.10075914114713669, 0.11177913844585419, 0.005843847058713436, -0.05658956989645958, 0.9973840117454529, -0.07117744535207748, -0.14711761474609375, 1.48388671875, 1.42236328125, 0.0649566650390625, 1.4912109375, 1.541748046875, 10.0, 1.3546518087387085, 1.5, 1.3546518087387085
23883, 1.3276817798614502, -6.160262107849121, -2.284329891204834, 0.032585643231868744, -0.008404633961617947, -6.861335277557373, 0.26827993988990784, -0.06920523196458817, -0.6298185586929321, -0.833867609500885, -0.9713246822357178, 0.055502984672784805, -0.4199098521486921, 0.2889291713653961, 4.924076475355499, 9362.0, 30146.0, 35388.0, 9362.0, 8.350414276123047, 0.22390446066856384, -0.18375933170318604, -0.10041934996843338, 0.005843847058713436, -0.05658956989645958, 0.9973840117454529, -0.07117744535207748, -0.14711761474609375, 1.48388671875, 1.42236328125, 0.0649566650390625, 1.4912109375, 1.468505859375, 10.0, 1.3546518087387085, 1.5, 1.3546518087387085
23903, 1.329837441444397, -6.160299777984619, -2.286198616027832, 0.03815917670726776, -0.009842392057180405, -6.87394905090332, 0.2890670895576477, -0.07456950843334198, -0.6316037178039551, -0.8338104486465454, -0.9713505506515503, 0.055532246828079224, -0.3957086330636607, 0.24595553918956625, 4.925210479706379, 9362.0, 30146.0, 35388.0, 9362.0, 8.350414276123047, 0.0014420434599742293, -0.031079817563295364, 0.19809524714946747, 0.002572249388322234, -0.05712847411632538, 0.9966919422149658, -0.07117744535207748, -0.14711761474609375, 1.48388671875, 1.42236328125, 0.0649566650390625, 1.48974609375, 1.53515625, 10.0, 1.353811502456665, 1.5, 1.353811502456665
23933, 1.3302948474884033, -6.159073829650879, -2.285560131072998, 0.04729895666241646, -0.012200369499623775, -6.8929362297058105, 0.3202543556690216, -0.08263050764799118, -0.6341802477836609, -0.833859384059906, -0.971320390701294, 0.05550951883196831, -0.41926087022155717, 0.28936241472095503, 4.936318125073906, 9362.0, 30146.0, 35388.0, 9362.0, 8.350414276123047, 0.07536933571100235, -0.327558308839798, -0.15497663617134094, 0.004371738992631435, -0.0570480152964592, 0.9973679780960083, -0.07117744535207748, -0.14711761474609375, 1.48388671875, 1.42236328125, 0.0649566650390625, 1.48974609375, 1.48388671875, 10.0, 1.3536632061004639, 1.5, 1.3536632061004639
23953, 1.3314330577850342, -6.156162261962891, -2.2863543033599854, 0.05391186475753784, -0.013906718231737614, -6.905637741088867, 0.34103184938430786, -0.0880034938454628, -0.6360138654708862, -0.8338201642036438, -0.9713398814201355, 0.05553847551345825, -0.39858924519791955, 0.23710982673659942, 4.9163422348242705, 9362.0, 30146.0, 35388.0, 9362.0, 8.350414276123047, 0.08150003105401993, 0.3566276431083679, -0.06031770259141922, 0.0045583718456327915, -0.05649952590465546, 0.9955925345420837, -0.07117744535207748, -0.14711761474609375, 1.48388671875, 1.42236328125, 0.0649566650390625, 1.48974609375, 1.51171875, 10.0, 1.3542640209197998, 1.5, 1.3542640209197998
23983, 1.3326793909072876, -6.158720016479492, -2.285771369934082, 0.06460992991924286, -0.016667688265442848, -6.924761772155762, 0.37218692898750305, -0.096067413687706, -0.6387717723846436, -0.8338655829429626, -0.9713209867477417, 0.055528219789266586, -0.41577889986092553, 0.28920736929879354, 4.927685279965801, 9362.0, 30146.0, 35388.0, 9362.0, 8.350414276123047, 0.08150003105401993, 0.3566276431083679, -0.06031770259141922, 0.0037919809110462666, -0.05723690614104271, 0.9992075562477112, -0.07117744535207748, -0.14711761474609375, 1.48388671875, 1.42236328125, 0.0649566650390625, 1.487548828125, 1.51171875, 10.0, 1.3543497323989868, 1.5, 1.3543497323989868
24013, 1.3319307565689087, -6.158006191253662, -2.287626266479492, 0.07624445855617523, -0.01967117190361023, -6.9439520835876465, 0.40343624353408813, -0.10415952652692795, -0.6407021880149841, -0.8338071703910828, -0.9713393449783325, 0.05553995072841644, -0.39662559991049096, 0.2529507545171725, 4.908030382828963, 9362.0, 30146.0, 35388.0, 9362.0, 8.350414276123047, 0.07899610698223114, -0.1803692728281021, -0.3700622022151947, 0.002693380229175091, -0.05458907037973404, 0.9948435425758362, -0.07117744535207748, -0.14711761474609375, 1.48388671875, 1.42236328125, 0.0649566650390625, 1.493408203125, 1.525634765625, 10.0, 1.3547128438949585, 1.5, 1.3547128438949585
24023, 1.3327927589416504, -6.155811309814453, -2.288801908493042, 0.07624445855617523, -0.01967117190361023, -6.9439520835876465, 0.40343624353408813, -0.10415952652692795, -0.6407021880149841, -0.833820104598999, -0.9712605476379395, 0.05539200082421303, -0.35407623801147226, 0.35123210515951087, 4.917835623280275, 9362.0, 30146.0, 35388.0, 9362.0, 8.350414276123047, 0.22419410943984985, -0.13283848762512207, -0.03229421377182007, 0.0040612597949802876, -0.05511363968253136, 0.9981093406677246, -0.07117744535207748, -0.14711761474609375, 1.48388671875, 1.42236328125, 0.0649566650390625, 1.493408203125, 1.525634765625, 10.0, 1.3543667793273926, 1.5, 1.3543667793273926
24033, 1.3344721794128418, -6.155248641967773, -2.2891647815704346, 0.08452122658491135, -0.021808210760354996, -6.95678186416626, 0.4242221415042877, -0.10954068601131439, -0.6424365043640137, -0.8338544964790344, -0.9713171720504761, 0.055506203323602676, -0.4184248729704145, 0.29450928727581527, 4.931705825717404, 9362.0, 30146.0, 35388.0, 9362.0, 8.350414276123047, -0.08496639877557755, -0.10948201268911362, 0.0702834352850914, 0.0040612597949802876, -0.05511363968253136, 0.9981093406677246, -0.07117744535207748, -0.14711761474609375, 1.48388671875, 1.42236328125, 0.0649566650390625, 1.493408203125, 1.5908203125, 10.0, 1.3537003993988037, 1.5, 1.3537003993988037
24043, 1.3348771333694458, -6.154521465301514, -2.289619207382202, 0.08881541341543198, -0.022917086258530617, -6.963210105895996, 0.4346146881580353, -0.11223432421684265, -0.6432578563690186, -0.8338039517402649, -0.9713428020477295, 0.0555284209549427, -0.39314714895929054, 0.2564741526970806, 4.921974473334787, 9362.0, 30146.0, 35388.0, 9362.0, 8.350414276123047, -0.08496639877557755, -0.10948201268911362, 0.0702834352850914, 0.0028631999157369137, -0.05799257382750511, 0.9981377720832825, -0.07117744535207748, -0.14711761474609375, 1.48388671875, 1.42236328125, 0.0649566650390625, 1.493408203125, 1.458251953125, 10.0, 1.3542779684066772, 1.5, 1.3542779684066772
24053, 1.3350852727890015, -6.154469013214111, -2.290679931640625, 0.09321355074644089, -0.024052919819951057, -6.969646453857422, 0.4450123906135559, -0.11493246257305145, -0.6440215110778809, -0.8337909579277039, -0.9713462591171265, 0.0555434450507164, -0.3917955186349335, 0.2535437361242998, 4.918726043178832, 9362.0, 30146.0, 35388.0, 9362.0, 8.350414276123047, -0.08496639877557755, -0.10948201268911362, 0.0702834352850914, 0.004287758842110634, -0.058362606912851334, 0.9966444969177246, -0.07117744535207748, -0.14711761474609375, 1.48388671875, 1.125, 0.980224609375, 1.493408203125, 1.540283203125, 10.0, 1.3548120260238647, 1.5, 1.3548120260238647
24073, 1.3369276523590088, -6.156014442443848, -2.292471408843994, 0.09771565347909927, -0.025215737521648407, -6.976090431213379, 0.4554077982902527, -0.1176312044262886, -0.6447941064834595, -0.8337717652320862, -0.9712729454040527, 0.05540408194065094, -0.32999653806347934, 0.29813797661748254, 4.903819110877293, 9362.0, 30146.0, 35388.0, 9362.0, 8.350414276123047, 0.07963371276855469, 0.029559167101979256, -0.04026743024587631, 0.004157294984906912, -0.056409355252981186, 0.9973786473274231, -0.08004380762577057, 0.0052013397216796875, 1.496337890625, 1.125, 0.980224609375, 1.49267578125, 1.540283203125, 10.0, 1.3540174961090088, 1.5, 1.3540174961090088
24083, 1.3370540142059326, -6.156235694885254, -2.2930238246917725, 0.10703141242265701, -0.027622263878583908, -6.989004611968994, 0.4761652648448944, -0.1230209544301033, -0.6466736793518066, -0.8338409662246704, -0.9712695479393005, 0.0553707629442215, -0.36516959151343065, 0.3491028990629559, 4.919956833058446, 9362.0, 30146.0, 35388.0, 9362.0, 8.350414276123047, 0.1609363555908203, -0.09236720204353333, -0.3110688626766205, 0.004157294984906912, -0.056409355252981186, 0.9973786473274231, -0.08004380762577057, 0.0052013397216796875, 1.496337890625, 1.125, 0.980224609375, 1.49267578125, 1.534423828125, 10.0, 1.3539072275161743, 1.5, 1.3539072275161743
24153, 1.3389859199523926, -6.153332710266113, -2.299335479736328, 0.14291003346443176, -0.036896318197250366, -7.034461498260498, 0.5489375591278076, -0.14196236431598663, -0.6520559787750244, -0.8338642716407776, -0.9713234901428223, 0.055514052510261536, -0.41529571977549523, 0.28849072319545144, 4.940468797735666, 9362.0, 30146.0, 35388.0, 9362.0, 8.350414276123047, 0.18859748542308807, -0.14769256114959717, -0.22659702599048615, 0.0029953187331557274, -0.0574246309697628, 0.9981135129928589, -0.08004380762577057, 0.0052013397216796875, 1.496337890625, 1.125, 0.980224609375, 1.494873046875, 1.5498046875, 10.0, 1.3563679456710815, 1.5, 1.3563679456710815
24183, 1.3415062427520752, -6.148674011230469, -2.302644968032837, 0.15984533727169037, -0.04127691686153412, -7.054062843322754, 0.5801005363464355, -0.1500844657421112, -0.6544977426528931, -0.8338050842285156, -0.9713420867919922, 0.05552386865019798, -0.39911308557687986, 0.2528619559724632, 4.9206506550498945, 9362.0, 30146.0, 35388.0, 9362.0, 8.350414276123047, 0.005037595517933369, 0.06315638870000839, 0.15364424884319305, 0.0020897984504699707, -0.05707070976495743, 0.9985190629959106, -0.06853997707366943, -0.11127853393554688, 1.48681640625, 1.125, 0.980224609375, 1.496337890625, 1.544677734375, 10.0, 1.3564980030059814, 1.5, 1.3564980030059814
24213, 1.3437232971191406, -6.1508564949035645, -2.302473306655884, 0.17771553993225098, -0.045901428908109665, -7.073733806610107, 0.6112287640571594, -0.15821221470832825, -0.6570682525634766, -0.8338596820831299, -0.9713181853294373, 0.05550452694296837, -0.41726623021780584, 0.29615945821896617, 4.932881259577391, 9362.0, 30146.0, 35388.0, 9362.0, 8.350414276123047, 0.2893160879611969, 0.3222464621067047, -0.08385362476110458, 0.0031881884206086397, -0.05764840170741081, 0.997319757938385, -0.06853997707366943, -0.11127853393554688, 1.48681640625, 1.124267578125, 0.9879302978515625, 1.491943359375, 1.4912109375, 10.0, 1.3578428030014038, 1.5, 1.3578428030014038
24223, 1.3438411951065063, -6.148924350738525, -2.304818630218506, 0.18387973308563232, -0.047497108578681946, -7.080308437347412, 0.6216084957122803, -0.16092412173748016, -0.6578863263130188, -0.833797037601471, -0.971340537071228, 0.05552813410758972, -0.39014687504726503, 0.261629751407213, 4.92133308618208, 9362.0, 30146.0, 35388.0, 9362.0, 8.350414276123047, 0.040544357150793076, -0.3977382481098175, -0.05624309927225113, 0.0016512850997969508, -0.05689343437552452, 0.9972423911094666, -0.06853997707366943, -0.11127853393554688, 1.48681640625, 1.124267578125, 0.9879302978515625, 1.491943359375, 1.4912109375, 10.0, 1.3584697246551514, 1.5, 1.3584697246551514
24233, 1.3445550203323364, -6.146975517272949, -2.3044278621673584, 0.19014771282672882, -0.049119915813207626, -7.0868916511535645, 0.6319869160652161, -0.16363777220249176, -0.6587472558021545, -0.8338550925254822, -0.9713243842124939, 0.05550164729356766, -0.4268881397850031, 0.29520969981297185, 4.92447187169252, 9362.0, 30146.0, 35388.0, 9362.0, 8.350414276123047, -0.1627294272184372, -0.02246900647878647, -0.053392067551612854, 0.0034646063577383757, -0.056324828416109085, 0.9979550838470459, -0.06853997707366943, -0.11127853393554688, 1.48681640625, 1.124267578125, 0.9879302978515625, 1.491943359375, 1.600341796875, 10.0, 1.3584697246551514, 1.5, 1.3584697246551514
24263, 1.3437116146087646, -6.1522393226623535, -2.301724433898926, 0.20957423746585846, -0.05415119603276253, -7.106691837310791, 0.663107693195343, -0.17177872359752655, -0.6613149046897888, -0.8338195085525513, -0.9712570309638977, 0.055350929498672485, -0.35663460120660434, 0.3522812244193574, 4.901991068734344, 9362.0, 30146.0, 35388.0, 9362.0, 8.350414276123047, 0.13462604582309723, -0.22469693422317505, -0.08627834916114807, 0.0018962402828037739, -0.05706055089831352, 0.9970822930335999, -0.06853997707366943, -0.11127853393554688, 1.48681640625, 1.0634765625, 1.780426025390625, 1.4912109375, 1.600341796875, 10.0, 1.361074447631836, 1.5, 1.361074447631836
24283, 1.3431802988052368, -6.152072906494141, -2.3043460845947266, 0.22304414212703705, -0.05764108523726463, -7.119933128356934, 0.6838798522949219, -0.1772090345621109, -0.6628974080085754, -0.8338435292243958, -0.9713210463523865, 0.05551902577280998, -0.42137480702219493, 0.29018896480658896, 4.926276260263613, 9362.0, 30146.0, 35388.0, 9362.0, 8.350414276123047, -0.13026902079582214, 0.1801796406507492, 0.15554872155189514, 0.0034041209146380424, -0.05727780610322952, 0.9972200393676758, -0.06853997707366943, -0.11127853393554688, 1.48681640625, 1.0634765625, 1.780426025390625, 1.496337890625, 1.600341796875, 10.0, 1.3621718883514404, 1.5, 1.3621718883514404
24293, 1.3423283100128174, -6.15315580368042, -2.302194356918335, 0.22993485629558563, -0.059426747262477875, -7.126565933227539, 0.6942639350891113, -0.1799236536026001, -0.6637012958526611, -0.8338609933853149, -0.9713857173919678, 0.05555235221982002, -0.4027518009212362, 0.2318571268538676, 4.9625474150784745, 9362.0, 30146.0, 35388.0, 9362.0, 8.350414276123047, -0.09711766988039017, 0.26922377943992615, -0.12872102856636047, 0.0034041209146380424, -0.05727780610322952, 0.9972200393676758, -0.06853997707366943, -0.11127853393554688, 1.48681640625, 1.0634765625, 1.780426025390625, 1.496337890625, 1.428955078125, 10.0, 1.3630510568618774, 1.5, 1.3630510568618774
24303, 1.3412435054779053, -6.155500888824463, -2.301712989807129, 0.23692940175533295, -0.06123954802751541, -7.133207321166992, 0.704645037651062, -0.1826361119747162, -0.6645582914352417, -0.833862841129303, -0.971314549446106, 0.055503785610198975, -0.416881493701851, 0.2973057228507514, 4.922121790204018, 9362.0, 30146.0, 35388.0, 9362.0, 8.350414276123047, -0.32268455624580383, 0.03771226853132248, 0.1952090710401535, 0.0034041209146380424, -0.05727780610322952, 0.9972200393676758, -0.06853997707366943, -0.11127853393554688, 1.48681640625, 1.0634765625, 1.780426025390625, 1.496337890625, 1.52197265625, 10.0, 1.3630510568618774, 1.5, 1.3630510568618774
24353, 1.341400384902954, -6.159119129180908, -2.298543691635132, 0.2734610438346863, -0.07071026414632797, -7.166532516479492, 0.7566227316856384, -0.19618849456310272, -0.6684958934783936, -0.8338546752929688, -0.9713318347930908, 0.055498525500297546, -0.41783199190309744, 0.30596754128987413, 4.941753546608233, 9362.0, 30146.0, 35388.0, 9362.0, 8.350414276123047, -0.09735812991857529, -0.4060816764831543, -0.189015731215477, 0.003200778504833579, -0.05896424874663353, 0.9988834261894226, -0.06853997707366943, -0.11127853393554688, 1.48681640625, 1.0634765625, 1.780426025390625, 1.493408203125, 1.54833984375, 10.0, 1.3648018836975098, 1.5, 1.3648018836975098
24383, 1.3419075012207031, -6.154345989227295, -2.301298141479492, 0.29662829637527466, -0.07671809196472168, -7.186616897583008, 0.7878662347793579, -0.20433691143989563, -0.6704061627388, -0.8337936997413635, -0.9713428020477295, 0.055536750704050064, -0.39517379794532004, 0.25058394283735197, 4.910101251559473, 9362.0, 30146.0, 35388.0, 9362.0, 8.350414276123047, 0.031095407903194427, 0.06448988616466522, 0.0623696967959404, 0.004183873068541288, -0.05811214819550514, 0.9971703886985779, -0.06853997707366943, -0.11127853393554688, 1.48681640625, 1.0634765625, 1.780426025390625, 1.49267578125, 1.53369140625, 10.0, 1.3630586862564087, 1.5, 1.3630586862564087
24433, 1.3425360918045044, -6.147708415985107, -2.301351547241211, 0.3373202979564667, -0.08727385103702545, -7.220239162445068, 0.8398253321647644, -0.21789589524269104, -0.6744126081466675, -0.8338510990142822, -0.9713299870491028, 0.05549773573875427, -0.4162836536358987, 0.2950511099601556, 4.927359111585919, 9362.0, 30146.0, 35388.0, 9362.0, 8.350414276123047, 0.15387670695781708, -0.21477758884429932, -0.2441830337047577, 0.0036178897134959698, -0.054996900260448456, 0.9989781379699707, -0.06853997707366943, -0.11127853393554688, 1.48681640625, 1.0634765625, 1.780426025390625, 1.493408203125, 1.387939453125, 10.0, 1.3640512228012085, 1.5, 1.3640512228012085
24453, 1.3426047563552856, -6.146547317504883, -2.3021228313446045, 0.35432490706443787, -0.09168614447116852, -7.233739852905273, 0.860628604888916, -0.22333161532878876, -0.6756881475448608, -0.8338122963905334, -0.9713407754898071, 0.05553041025996208, -0.3947029406652531, 0.25623055117944205, 4.90732680835721, 9362.0, 30146.0, 35388.0, 9362.0, 8.350414276123047, 0.16253869235515594, 0.06319756805896759, 0.07082289457321167, 0.0036178897134959698, -0.054996900260448456, 0.9989781379699707, -0.06853997707366943, -0.11127853393554688, 1.48681640625, 1.0634765625, 1.780426025390625, 1.493408203125, 1.522705078125, 10.0, 1.3640512228012085, 1.5, 1.3640512228012085
24473, 1.3412363529205322, -6.147770881652832, -2.301171064376831, 0.3717453181743622, -0.09620711207389832, -7.24726676940918, 0.8814079165458679, -0.22876425087451935, -0.6770382523536682, -0.8338513970375061, -0.971327543258667, 0.055505990982055664, -0.42156207662848827, 0.28950412579123963, 4.930295006233865, 9362.0, 30146.0, 35388.0, 9362.0, 8.350414276123047, 0.17311741411685944, 0.25268828868865967, 0.2605915367603302, 0.00484474329277873, -0.05589432641863823, 0.9970793724060059, -0.06853997707366943, -0.11127853393554688, 1.48681640625, 1.0634765625, 1.780426025390625, 1.493408203125, 1.55712890625, 10.0, 1.3646501302719116, 1.5, 1.3646501302719116
24503, 1.3431634902954102, -6.149150371551514, -2.2999753952026367, 0.3986544609069824, -0.10319201648235321, -7.26761531829834, 0.9125402569770813, -0.2368968278169632, -0.6795190572738647, -0.8338630199432373, -0.9713037014007568, 0.0555061437189579, -0.4154481291198734, 0.2905847433956126, 4.9299247641754915, 9362.0, 30146.0, 35388.0, 9362.0, 8.350414276123047, -0.06220783665776253, -0.10621882230043411, 0.04945220798254013, 0.0031154463067650795, -0.057736560702323914, 0.9975473284721375, -0.06853997707366943, -0.11127853393554688, 1.48681640625, 1.14111328125, 0.8206024169921875, 1.493408203125, 1.534423828125, 10.0, 1.363785982131958, 1.5, 1.363785982131958
24513, 1.3424240350723267, -6.148166656494141, -2.299053192138672, 0.4078317880630493, -0.10557454079389572, -7.274414539337158, 0.9229274392127991, -0.23960794508457184, -0.6802901029586792, -0.833857536315918, -0.9713008999824524, 0.05550234392285347, -0.41878411653593794, 0.29499248790523325, 4.921548363243851, 9362.0, 30146.0, 35388.0, 9362.0, 8.350414276123047, -0.038267362862825394, 0.20542027056217194, 0.40387091040611267, 0.0031650234013795853, -0.058746784925460815, 0.9961588978767395, -0.06853997707366943, -0.11127853393554688, 1.48681640625, 1.14111328125, 0.8206024169921875, 1.493408203125, 1.534423828125, 10.0, 1.3645143508911133, 1.5, 1.3645143508911133
24523, 1.3423908948898315, -6.149259090423584, -2.2968926429748535, 0.41711297631263733, -0.10798419266939163, -7.281221389770508, 0.9333117008209229, -0.24232171475887299, -0.6810718178749084, -0.8338413834571838, -0.9712990522384644, 0.05549629405140877, -0.4253596571038427, 0.2872361073708021, 4.915681065513395, 9362.0, 30146.0, 35388.0, 9362.0, 8.350414276123047, -0.09451740235090256, -0.5186976194381714, -0.022791093215346336, 0.002446638885885477, -0.0580269992351532, 0.9966890215873718, -0.06853997707366943, -0.11127853393554688, 1.48681640625, 1.14111328125, 0.8206024169921875, 1.493408203125, 1.534423828125, 10.0, 1.3649189472198486, 1.5, 1.3649189472198486
24533, 1.3417612314224243, -6.147119522094727, -2.295924425125122, 0.4264979362487793, -0.11042094975709915, -7.288036823272705, 0.9436778426170349, -0.24502938985824585, -0.6820103526115417, -0.8338515162467957, -0.9713164567947388, 0.055495887994766235, -0.41693163698035196, 0.29773861208738595, 4.9200988066974265, 9362.0, 30146.0, 35388.0, 9362.0, 8.350414276123047, 0.24580630660057068, 0.20722068846225739, -0.09611713886260986, 0.00352947018109262, -0.05849219113588333, 0.9962556958198547, -0.06853997707366943, -0.11127853393554688, 1.48681640625, 1.14111328125, 0.8206024169921875, 1.4970703125, 1.534423828125, 10.0, 1.3644713163375854, 1.5, 1.3644713163375854
24553, 1.3419502973556519, -6.149579048156738, -2.2952933311462402, 0.44557881355285645, -0.11537568271160126, -7.301695823669434, 0.9644092917442322, -0.2504431903362274, -0.6838929057121277, -0.8338407874107361, -0.9713173508644104, 0.05549546703696251, -0.41261859403627504, 0.2916930673956415, 4.932669767240603, 9362.0, 30146.0, 35388.0, 9362.0, 8.350414276123047, 0.1294308751821518, 0.3312342166900635, -0.03898400813341141, 0.003214087802916765, -0.05816459283232689, 0.997947633266449, -0.06853997707366943, -0.11127853393554688, 1.48681640625, 1.14111328125, 0.8206024169921875, 1.4970703125, 1.336669921875, 10.0, 1.3658429384231567, 1.5, 1.3658429384231567
24603, 1.3427153825759888, -6.148156642913818, -2.29671049118042, 0.4950966536998749, -0.12823663651943207, -7.335995197296143, 1.0163265466690063, -0.2640012800693512, -0.687872052192688, -0.8337562084197998, -0.9713603854179382, 0.055523697286844254, -0.37749313133057977, 0.23830928780358818, 4.912762128114028, 9362.0, 30146.0, 35388.0, 9362.0, 8.350414276123047, 0.49821099638938904, 0.03312787413597107, -0.08638874441385269, 0.003851403947919607, -0.0561722032725811, 1.001098871231079, -0.06853997707366943, -0.11127853393554688, 1.48681640625, 1.14111328125, 0.8206024169921875, 1.491943359375, 1.468505859375, 10.0, 1.3673583269119263, 1.5, 1.3673583269119263
24613, 1.3448446989059448, -6.149542331695557, -2.296696186065674, 0.5053119659423828, -0.13089025020599365, -7.342876434326172, 1.0267410278320312, -0.2667216956615448, -0.6883692145347595, -0.8337687849998474, -0.9713646173477173, 0.05550036206841469, -0.36928921001367726, 0.24948770498625095, 4.913249710512331, 9362.0, 30146.0, 35388.0, 9362.0, 8.350414276123047, 0.49821099638938904, 0.03312787413597107, -0.08638874441385269, 0.0026250265073031187, -0.05979015678167343, 0.9978665709495544, -0.06853997707366943, -0.11127853393554688, 1.48681640625, 1.5791015625, 0.368133544921875, 1.491943359375, 1.468505859375, 10.0, 1.367132306098938, 1.5, 1.367132306098938
24623, 1.346238374710083, -6.153540134429932, -2.2971646785736084, 0.515631377696991, -0.133571058511734, -7.349762916564941, 1.0371437072753906, -0.2694394290447235, -0.6889658570289612, -0.8338304758071899, -0.9713447093963623, 0.05550817772746086, -0.4022851391739843, 0.276961587390133, 4.928330628647676, 9362.0, 30146.0, 35388.0, 9362.0, 8.350414276123047, 0.040731653571128845, -0.0379146933555603, -0.12605763971805573, 0.0028491688426584005, -0.058649662882089615, 0.9947954416275024, -0.06853997707366943, -0.11127853393554688, 1.48681640625, 1.5791015625, 0.368133544921875, 1.491943359375, 1.468505859375, 10.0, 1.367267370223999, 1.5, 1.367267370223999
24633, 1.3465044498443604, -6.153313636779785, -2.2980408668518066, 0.5271027684211731, -0.13655132055282593, -7.357346057891846, 1.048568606376648, -0.2724277973175049, -0.6898109912872314, -0.8338260054588318, -0.9713374376296997, 0.05552240088582039, -0.40055818527346, 0.2751144869970972, 4.931518395177562, 9362.0, 30146.0, 35388.0, 9362.0, 8.350414276123047, 0.1472587138414383, 0.17153199017047882, -0.17564570903778076, 0.0028491688426584005, -0.058649662882089615, 0.9947954416275024, -0.06853997707366943, -0.11127853393554688, 1.48681640625, 1.5791015625, 0.368133544921875, 1.49560546875, 1.468505859375, 10.0, 1.3664029836654663, 1.5, 1.3664029836654663
24653, 1.3475204706192017, -6.153665065765381, -2.2998242378234863, 0.5482814908027649, -0.14205414056777954, -7.3711628913879395, 1.069317102432251, -0.27785784006118774, -0.6916956901550293, -0.8338446617126465, -0.9713200330734253, 0.05548790097236633, -0.39961308430563003, 0.293167271621229, 4.924946645843126, 9362.0, 30146.0, 35388.0, 9362.0, 8.350414276123047, -0.16564084589481354, -0.49374303221702576, -0.12015142291784286, 0.0014855110784992576, -0.054715413600206375, 0.999081552028656, -0.06853997707366943, -0.11127853393554688, 1.48681640625, 1.5791015625, 0.368133544921875, 1.49560546875, 1.468505859375, 10.0, 1.366361379623413, 1.5, 1.366361379623413
24693, 1.3465099334716797, -6.148688316345215, -2.3085083961486816, 0.5918853878974915, -0.1533861607313156, -7.398892402648926, 1.1108527183532715, -0.2887367606163025, -0.6949671506881714, -0.8338058590888977, -0.9713329076766968, 0.055535346269607544, -0.39830814759804684, 0.2540603802835051, 4.919006998956662, 9362.0, 30146.0, 35388.0, 9362.0, 8.350414276123047, -0.03693458065390587, 0.20031991600990295, -0.06739390641450882, 0.0019632582552731037, -0.056421518325805664, 0.9982853531837463, -0.06853997707366943, -0.11127853393554688, 1.48681640625, 1.5791015625, 0.368133544921875, 1.494140625, 1.468505859375, 10.0, 1.3684619665145874, 1.5, 1.3684619665145874
24713, 1.3470600843429565, -6.151005744934082, -2.306871175765991, 0.6143100261688232, -0.1592152863740921, -7.412807941436768, 1.1316063404083252, -0.2941747009754181, -0.6966490745544434, -0.8338097333908081, -0.9713189601898193, 0.055534277111291885, -0.4111469218928794, 0.25809646635195804, 4.904130588970256, 9362.0, 30146.0, 35388.0, 9362.0, 8.350414276123047, -0.03693458065390587, 0.20031991600990295, -0.06739390641450882, 0.003700456116348505, -0.0560232438147068, 0.9955301880836487, -0.06853997707366943, -0.11127853393554688, 1.48681640625, 1.5791015625, 0.368133544921875, 1.49267578125, 1.468505859375, 10.0, 1.369715929031372, 1.5, 1.369715929031372
24723, 1.3488352298736572, -6.151722431182861, -2.306906223297119, 0.6256778836250305, -0.1621706187725067, -7.419779300689697, 1.1419687271118164, -0.29689082503318787, -0.6976591944694519, -0.833816647529602, -0.9713088870048523, 0.05552990362048149, -0.41105051140497684, 0.2532662570104094, 4.907739986585326, 9362.0, 30146.0, 35388.0, 9362.0, 8.350414276123047, -0.03693458065390587, 0.20031991600990295, -0.06739390641450882, 0.0042752171866595745, -0.0569181926548481, 0.9991535544395447, -0.06853997707366943, -0.11127853393554688, 1.48681640625, 1.5791015625, 0.368133544921875, 1.49267578125, 1.468505859375, 10.0, 1.369780421257019, 1.5, 1.369780421257019
24753, 1.3489726781845093, -6.152712821960449, -2.308652639389038, 0.6604040861129761, -0.17119984328746796, -7.440746784210205, 1.173134684562683, -0.3050655722618103, -0.6999931335449219, -0.833803653717041, -0.9713068008422852, 0.055521607398986816, -0.4162430407405443, 0.2692043340390171, 4.911530276599549, 9362.0, 30146.0, 35388.0, 9362.0, 8.350414276123047, -0.06725716590881348, -0.05138871818780899, -0.13985015451908112, 0.0013150209560990334, -0.05653144046664238, 0.9971591830253601, -0.06853997707366943, -0.11127853393554688, 1.48681640625, 1.5791015625, 0.368133544921875, 1.493408203125, 1.468505859375, 10.0, 1.3684186935424805, 1.5, 1.3684186935424805
24773, 1.3516345024108887, -6.152536392211914, -2.306187629699707, 0.684074342250824, -0.17735561728477478, -7.454764366149902, 1.1938878297805786, -0.3105104863643646, -0.701805055141449, -0.8338276147842407, -0.9713091254234314, 0.055531032383441925, -0.40815754956691774, 0.25942449123922984, 4.916856120574217, 9362.0, 30146.0, 35388.0, 9362.0, 8.350414276123047, 0.06885327398777008, 0.11512520164251328, -0.24569877982139587, 0.003736364422366023, -0.05461671203374863, 0.9956855773925781, -0.06853997707366943, -0.11127853393554688, 1.48681640625, 1.5791015625, 0.368133544921875, 1.493408203125, 1.541748046875, 10.0, 1.3689173460006714, 1.5, 1.3689173460006714
24803, 1.352077603340149, -6.152557849884033, -2.3065693378448486, 0.7203581929206848, -0.18679361045360565, -7.475857257843018, 1.2250559329986572, -0.3186980187892914, -0.7041563987731934, -0.8338642120361328, -0.9712847471237183, 0.0555247887969017, -0.42441870278388477, 0.29654962203835566, 4.931486278146503, 9362.0, 30146.0, 35388.0, 9362.0, 8.350414276123047, 0.06885327398777008, 0.11512520164251328, -0.24569877982139587, 0.004547915421426296, -0.05693809315562248, 0.9978650212287903, -0.06853997707366943, -0.11127853393554688, 1.48681640625, 1.5791015625, 0.368133544921875, 1.493408203125, 1.52197265625, 10.0, 1.3689439296722412, 1.5, 1.3689439296722412
24823, 1.3546555042266846, -6.150369167327881, -2.3071203231811523, 0.7450674772262573, -0.1932222694158554, -7.489952564239502, 1.2458564043045044, -0.3241646885871887, -0.7055125832557678, -0.8338518142700195, -0.9713099002838135, 0.055521197617053986, -0.42654916199534837, 0.2908279346484903, 4.917513846740696, 9362.0, 30146.0, 35388.0, 9362.0, 8.350414276123047, -0.08277977257966995, -0.013502216897904873, -0.24939927458763123, 0.0037103663198649883, -0.05749398469924927, 0.9980161786079407, -0.06853997707366943, -0.11127853393554688, 1.48681640625, 1.5791015625, 0.368133544921875, 1.494140625, 1.52197265625, 10.0, 1.369118094444275, 1.5, 1.369118094444275
24843, 1.35743248462677, -6.152940273284912, -2.3035316467285156, 0.770192563533783, -0.19976025819778442, -7.504076957702637, 1.2666596174240112, -0.3296390473842621, -0.7068005204200745, -0.8338362574577332, -0.9712597131729126, 0.05537209287285805, -0.3573188489960436, 0.338280511234359, 4.918344014371832, 9362.0, 30146.0, 35388.0, 9362.0, 8.350414276123047, -0.08277977257966995, -0.013502216897904873, -0.24939927458763123, 0.0032044651452451944, -0.05693526566028595, 1.0002148151397705, -0.06853997707366943, -0.11127853393554688, 1.48681640625, 1.5791015625, 0.368133544921875, 1.4912109375, 1.52197265625, 10.0, 1.3695335388183594, 1.5, 1.3695335388183594
24853, 1.3592031002044678, -6.154933929443359, -2.3104991912841797, 0.7829112410545349, -0.20307035744190216, -7.511147499084473, 1.277072548866272, -0.33238017559051514, -0.7073365449905396, -0.8338114023208618, -0.9713489413261414, 0.05555544048547745, -0.3929960806697045, 0.24876933685604286, 4.91052836558678, 9362.0, 30146.0, 35388.0, 9362.0, 8.350414276123047, -0.08277977257966995, -0.013502216897904873, -0.24939927458763123, 0.005239463411271572, -0.05841987952589989, 0.9939448237419128, -0.06853997707366943, -0.11127853393554688, 1.48681640625, 1.5791015625, 0.368133544921875, 1.4912109375, 1.52197265625, 10.0, 1.3681625127792358, 1.5, 1.3681625127792358
24873, 1.3642163276672363, -6.158416748046875, -2.3121137619018555, 0.8086603879928589, -0.2097727507352829, -7.525310516357422, 1.2978253364562988, -0.3378567695617676, -0.7091718912124634, -0.8338497281074524, -0.9713876843452454, 0.05556033179163933, -0.38649399842222315, 0.23706813642075986, 4.965828111870872, 9362.0, 30146.0, 35388.0, 9362.0, 8.350414276123047, 0.2027612328529358, 0.19835688173770905, -0.6547945141792297, 0.003486018627882004, -0.05457359179854393, 0.9930288195610046, -0.06853997707366943, -0.11127853393554688, 1.48681640625, 1.5791015625, 0.368133544921875, 1.4912109375, 1.569580078125, 10.0, 1.3682411909103394, 1.5, 1.3682411909103394
24893, 1.3696662187576294, -6.165914058685303, -2.312868118286133, 0.8348239064216614, -0.21658466756343842, -7.539517879486084, 1.318544864654541, -0.34334084391593933, -0.7114066481590271, -0.8338540196418762, -0.9713276028633118, 0.05553317070007324, -0.4125336388439343, 0.286254574789524, 4.928692746826343, 9362.0, 30146.0, 35388.0, 9362.0, 8.350414276123047, 0.2027612328529358, 0.19835688173770905, -0.6547945141792297, 0.003142806701362133, -0.057182781398296356, 1.0010696649551392, -0.06853997707366943, -0.11127853393554688, 1.48681640625, 1.5791015625, 0.368133544921875, 1.4912109375, 1.611328125, 10.0, 1.3671046495437622, 1.5, 1.3671046495437622
24903, 1.3723044395446777, -6.169083118438721, -2.3152518272399902, 0.8480615019798279, -0.22003190219402313, -7.546634197235107, 1.3289774656295776, -0.34610605239868164, -0.7119001150131226, -0.8338537216186523, -0.9713267683982849, 0.05552238970994949, -0.40711213030814547, 0.30010629751467377, 4.929029731305393, 9362.0, 30146.0, 35388.0, 9362.0, 8.350414276123047, 0.39566129446029663, 0.3401195704936981, 0.36657458543777466, 0.003142806701362133, -0.057182781398296356, 1.0010696649551392, -0.06853997707366943, -0.11127853393554688, 1.48681640625, 1.5791015625, 0.368133544921875, 1.4912109375, 1.538818359375, 10.0, 1.366180658340454, 1.5, 1.366180658340454
24923, 1.3781261444091797, -6.17138671875, -2.313977003097534, 0.8748495578765869, -0.2270093858242035, -7.560885429382324, 1.3497941493988037, -0.3516343832015991, -0.7135536074638367, -0.8338655233383179, -0.9713087677955627, 0.055529166013002396, -0.4228731305627548, 0.2920526590246766, 4.916176522587743, 9362.0, 30146.0, 35388.0, 9362.0, 8.350414276123047, 0.1960405558347702, -0.14956486225128174, -0.03363114595413208, 0.0039540184661746025, -0.05452097952365875, 0.9945478439331055, -0.06853997707366943, -0.11127853393554688, 1.48681640625, 1.5791015625, 0.368133544921875, 1.493408203125, 1.5556640625, 10.0, 1.3662590980529785, 1.5, 1.3662590980529785
24973, 1.3822628259658813, -6.164640426635742, -2.3120574951171875, 0.9436406493186951, -0.2449381798505783, -7.5966691970825195, 1.401815414428711, -0.36552226543426514, -0.718023419380188, -0.8338726162910461, -0.9713035225868225, 0.055535972118377686, -0.42628172983320356, 0.29268708188720893, 4.9325902712141145, 9362.0, 30146.0, 35388.0, 9362.0, 8.350414276123047, -0.2285449206829071, -0.10835740715265274, 0.34379610419273376, 0.002293385099619627, -0.053873732686042786, 0.9964523911476135, -0.06853997707366943, -0.11127853393554688, 1.48681640625, 1.1923828125, 0.4285125732421875, 1.49267578125, 1.58349609375, 10.0, 1.3671036958694458, 1.5, 1.3671036958694458
24993, 1.3762030601501465, -6.158952236175537, -2.30657958984375, 0.9718849062919617, -0.2523042559623718, -7.611047744750977, 1.4226338863372803, -0.3710908591747284, -0.7195807695388794, -0.8338194489479065, -0.9713259935379028, 0.05555197224020958, -0.416972497242212, 0.25520088530259954, 4.918627306578795, 9362.0, 30146.0, 35388.0, 9362.0, 8.350414276123047, -0.5826312303543091, -0.3147248923778534, 0.1607983410358429, 0.003284435486420989, -0.055228400975465775, 1.0014371871948242, -0.06853997707366943, -0.11127853393554688, 1.48681640625, 1.1923828125, 0.4285125732421875, 1.49267578125, 1.541748046875, 10.0, 1.3675857782363892, 1.5, 1.3675857782363892
25023, 1.3609373569488525, -6.153811931610107, -2.2971513271331787, 1.0150328874588013, -0.26356205344200134, -7.632662773132324, 1.4538562297821045, -0.3794093728065491, -0.7217088937759399, -0.8338229060173035, -0.9713253378868103, 0.055545881390571594, -0.4121066246757167, 0.25020100792940525, 4.91319776235331, 9362.0, 30146.0, 35388.0, 9362.0, 8.350414276123047, -0.6869526505470276, -0.42778298258781433, 0.6434774398803711, 0.0052762883715331554, -0.05595182999968529, 0.9982815980911255, -0.06853997707366943, -0.11127853393554688, 1.48681640625, 1.1923828125, 0.4285125732421875, 1.491943359375, 1.569580078125, 10.0, 1.3694183826446533, 1.5, 1.3694183826446533
25053, 1.3452272415161133, -6.144957542419434, -2.286224365234375, 1.0591166019439697, -0.2750680148601532, -7.654346466064453, 1.4850629568099976, -0.38764479756355286, -0.7237399220466614, -0.8338280320167542, -0.9713327884674072, 0.055549923330545425, -0.4060018833966601, 0.24491848139345507, 4.917317969558804, 9362.0, 30146.0, 35388.0, 9362.0, 8.350414276123047, -0.6869526505470276, -0.42778298258781433, 0.6434774398803711, 0.005276363808661699, -0.05795753374695778, 0.9954624772071838, -0.06853997707366943, -0.11127853393554688, 1.48681640625, 1.1923828125, 0.4285125732421875, 1.48974609375, 1.578369140625, 10.0, 1.3684775829315186, 1.5, 1.3684775829315186
25073, 1.3404234647750854, -6.140646934509277, -2.280406951904297, 1.0890251398086548, -0.2828752100467682, -7.668840408325195, 1.5057775974273682, -0.39306944608688354, -0.7257056832313538, -0.8338280916213989, -0.9713389277458191, 0.055563561618328094, -0.41326251863465546, 0.2494787720978877, 4.91037555250312, 9362.0, 30146.0, 35388.0, 9362.0, 8.350414276123047, -0.12807808816432953, 0.10058055073022842, 0.31898829340934753, 0.004130579996854067, -0.05874843895435333, 0.996830940246582, -0.06853997707366943, -0.11127853393554688, 1.48681640625, 1.1923828125, 0.4285125732421875, 1.48974609375, 1.560791015625, 10.0, 1.3684459924697876, 1.5, 1.3684459924697876
25093, 1.3372564315795898, -6.13792085647583, -2.2770049571990967, 1.1193479299545288, -0.2907906770706177, -7.6833720207214355, 1.5265127420425415, -0.398478239774704, -0.727394700050354, -0.8338119983673096, -0.9713279008865356, 0.05556583032011986, -0.4094316189406967, 0.2423911461686714, 4.895016759050055, 9362.0, 30146.0, 35388.0, 9362.0, 8.350414276123047, -0.2805996239185333, 0.01340075209736824, 0.1394471824169159, 0.005568350199609995, -0.06247410550713539, 1.000803828239441, -0.06853997707366943, -0.11127853393554688, 1.48681640625, 1.1923828125, 0.4285125732421875, 1.48974609375, 1.60546875, 10.0, 1.3684459924697876, 1.5, 1.3684459924697876
25123, 1.3415946960449219, -6.139359951019287, -2.271137237548828, 1.165610432624817, -0.30286672711372375, -7.705223560333252, 1.5576292276382446, -0.40658053755760193, -0.7296319603919983, -0.8338583707809448, -0.9713096022605896, 0.055525943636894226, -0.4166384203173992, 0.29067676906271345, 4.926800570089002, 9362.0, 30146.0, 35388.0, 9362.0, 8.350414276123047, 0.39007821679115295, 0.27680933475494385, -0.117583267390728, 0.0045852502807974815, -0.05891915410757065, 0.9958653450012207, -0.06853997707366943, -0.11127853393554688, 1.48681640625, 1.1923828125, 0.4285125732421875, 1.49560546875, 1.60546875, 10.0, 1.3675819635391235, 1.5, 1.3675819635391235
25143, 1.3494752645492554, -6.143987655639648, -2.2727584838867188, 1.196969985961914, -0.31105223298072815, -7.719834804534912, 1.5783476829528809, -0.41197970509529114, -0.7313509583473206, -0.8338810205459595, -0.9713036417961121, 0.05552811548113823, -0.4184519445204952, 0.2961384134691514, 4.926171092680309, 9362.0, 30146.0, 35388.0, 9362.0, 8.350414276123047, 0.15529190003871918, 0.2875446081161499, -0.3045141100883484, 0.0017087400192394853, -0.05594087764620781, 1.001866102218628, -0.06853997707366943, -0.11127853393554688, 1.48681640625, 1.1923828125, 0.4285125732421875, 1.48681640625, 1.578369140625, 10.0, 1.368090271949768, 1.5, 1.368090271949768
25173, 1.3623054027557373, -6.148604393005371, -2.280641555786133, 1.2447882890701294, -0.32353413105010986, -7.7418012619018555, 1.6095058917999268, -0.4201461970806122, -0.7333853244781494, -0.8338652849197388, -0.9713102579116821, 0.055532485246658325, -0.4170610311600594, 0.2822623098648478, 4.923183328934568, 9362.0, 30146.0, 35388.0, 9362.0, 8.350414276123047, 0.6311297416687012, 0.27066585421562195, -0.2406332790851593, 0.0031159264035522938, -0.054756466299295425, 0.9971458315849304, -0.06853997707366943, -0.11127853393554688, 1.48681640625, 1.1923828125, 0.4285125732421875, 1.494140625, 1.4736328125, 10.0, 1.3682347536087036, 1.5, 1.3682347536087036
25193, 1.3720835447311401, -6.150031566619873, -2.2874863147735596, 1.2771859169006348, -0.3319917917251587, -7.7564849853515625, 1.6302738189697266, -0.42562833428382874, -0.7348899841308594, -0.8338635563850403, -0.9713411927223206, 0.05553954094648361, -0.42538981273467347, 0.28349014200674105, 4.931690578966857, 9362.0, 30146.0, 35388.0, 9362.0, 8.350414276123047, 0.5354821681976318, -0.10897430032491684, -0.708965003490448, 0.0031039712484925985, -0.05305204167962074, 0.9991825819015503, -0.06853997707366943, -0.11127853393554688, 1.48681640625, 1.1923828125, 0.4285125732421875, 1.494140625, 1.559326171875, 10.0, 1.3680981397628784, 1.5, 1.3680981397628784
25243, 1.3786019086837769, -6.149483680725098, -2.3081390857696533, 1.3599976301193237, -0.35361844301223755, -7.793327331542969, 1.6821942329406738, -0.4394621253013611, -0.7387736439704895, -0.8338619470596313, -0.9713147878646851, 0.055535756051540375, -0.4193041628773839, 0.2929504414827875, 4.945841903987477, 9362.0, 30146.0, 35388.0, 9362.0, 8.350414276123047, -0.05242251232266426, 0.07689004391431808, -0.2988455891609192, 0.002912912517786026, -0.05538959428668022, 0.9982594847679138, -0.06853997707366943, -0.11127853393554688, 1.48681640625, 1.1923828125, 0.4285125732421875, 1.49267578125, 1.58935546875, 10.0, 1.3690054416656494, 1.5, 1.3690054416656494
