timeTick, roll, pitch, yaw, stateX, stateY, stateZ, stateVX, stateVY, stateVZ, otX0, otY0, otZ0, otRoll0, otPitch0, otYaw0, left wing, pitch motor, yaw motor, right wing, voltage, roll rate, pitch rate, yaw rate, A_x, A_y, A_z, current, i_raw, v_raw, airflow_voltage, airflow_speed, pot_Pitch, voltage_nKF, kFFx, volt_KF_vel, kP, volt_KF_pos
14525, -0.8438373804092407, -2.015138864517212, -1.3352631330490112, 0, 0, 0, 0, 0, 0, -0.8377398252487183, -0.9498357176780701, 0.05694255977869034, 0.04523546465901443, 0.24553801033977152, 3.1976607757457605, 0, 0, 0, 0, 0, 0, 0, 0, 0, 0, 0, 0, 0, 0, 0, 0, 0, 0, 0, 0, 0, 0
14535, -0.8429250121116638, -2.0161044597625732, -1.3356575965881348, -0.00011183840979356319, -4.376222932478413e-05, -2.3493447303771973, -0.00945154670625925, -0.0036984188482165337, -0.36440160870552063, -0.8377342820167542, -0.9498414397239685, 0.05694607272744179, 0.04655803587768319, 0.24383811479958695, 3.206256317429048, 9362.0, 30146.0, 35388.0, 9362.0, 0, 0.22077973186969757, 0.6433506011962891, 0.024074938148260117, 0.00900727603584528, -0.050822753459215164, 0.9969261884689331, 0, 0, 0, 0, 0, 0, 0, 0, 0, 0, 0
14545, -0.8427243828773499, -2.017026424407959, -1.3351061344146729, -0.00018900807481259108, -7.395152351818979e-05, -2.3529908657073975, -0.005982382223010063, -0.002339459490031004, -0.36483144760131836, -0.8377615809440613, -0.949771523475647, 0.056661151349544525, 0.08981988398719261, 0.33701892972766245, 3.1185931413639394, 9362.0, 30146.0, 35388.0, 9362.0, 0, -0.06043212115764618, -0.49605199694633484, -0.05903540551662445, 0.009456149302423, -0.051025085151195526, 0.9990214109420776, 0, 0, 0, 1.46337890625, 0.1270751953125, 0, 1.52490234375, 10.0, 1.4375014305114746, 1.5, 1.4375014305114746
14555, -0.8416233658790588, -2.014270305633545, -1.3365626335144043, -0.00023145778686739504, -9.055140981217846e-05, -2.3566408157348633, -0.002507578581571579, -0.0009804836008697748, -0.36514753103256226, -0.8377639055252075, -0.9497641921043396, 0.05666501075029373, 0.0864421462428353, 0.32539742479286815, 3.124239674497239, 9362.0, 30146.0, 35388.0, 9362.0, 0, -0.0113668916746974, 0.2169288694858551, 0.12786512076854706, 0.009510858915746212, -0.050041891634464264, 0.9977198243141174, 0, 0, 0, 1.5322265625, 0.2628021240234375, 1.494873046875, 1.3505859375, 10.0, 1.437225341796875, 1.5, 1.437225341796875
14565, -0.8435406684875488, -2.015651226043701, -1.3349659442901611, -0.00023912021424621344, -9.355096699437127e-05, -2.360292911529541, 0.0009751319303177297, 0.00038048397982493043, -0.36528635025024414, -0.8377559185028076, -0.949769914150238, 0.05664047598838806, 0.08719727659948392, 0.31881385820062746, 3.1252707213506614, 9362.0, 30146.0, 35388.0, 9362.0, 0, -0.1275293380022049, -0.00846939254552126, 0.023540819063782692, 0.009827622212469578, -0.05223502591252327, 0.9980202913284302, 0, 0, 0, 1.505859375, 0.2073974609375, 1.494873046875, 1.499267578125, 10.0, 1.4374223947525024, 1.5, 1.4374223947525024
14575, -0.8432411551475525, -2.0165998935699463, -1.3359721899032593, -0.00021201284835115075, -8.296333544421941e-05, -2.3639473915100098, 0.004446290899068117, 0.0017371340654790401, -0.36561518907546997, -0.8377557992935181, -0.9497623443603516, 0.05666087567806244, 0.08568483088448109, 0.33253106005270183, 3.1187773891339066, 9362.0, 30146.0, 35388.0, 9362.0, 0, 0.1400158554315567, 0.30684006214141846, 0.16136711835861206, 0.010359578765928745, -0.05628150701522827, 0.9991036057472229, 0, 0, 0, 1.541015625, 0.2819976806640625, 1.494873046875, 1.48388671875, 10.0, 1.4375699758529663, 1.5, 1.4375699758529663
14585, -0.8435037732124329, -2.016883134841919, -1.3341556787490845, -0.00015016095130704343, -5.878441879758611e-05, -2.3676044940948486, 0.007924110628664494, 0.003098590299487114, -0.3658260703086853, -0.8377836346626282, -0.9497720003128052, 0.05675126984715462, 0.12301334053570451, 0.34245890085065867, 3.1324311263716527, 9362.0, 30146.0, 35388.0, 9362.0, 0, 0.19675561785697937, 0.13322927057743073, 0.052033931016922, 0.010242572985589504, -0.052407797425985336, 0.9995753169059753, 0, 0, 0, 1.5146484375, 0.225494384765625, 1.494873046875, 1.453125, 10.0, 1.4376193284988403, 1.5, 1.4376193284988403
14595, -0.8426653146743774, -2.017566204071045, -1.33389151096344, -5.350905121304095e-05, -2.098864206345752e-05, -2.3712635040283203, 0.011406227946281433, 0.004460676107555628, -0.365960031747818, -0.8377894163131714, -0.9497886300086975, 0.05672893673181534, 0.12125463456278028, 0.3394144420742009, 3.1367738221481454, 9362.0, 30146.0, 35388.0, 9362.0, 0, -0.1143866702914238, 0.19131030142307281, 0.10048773139715195, 0.009565461426973343, -0.05235389992594719, 0.9970622062683105, 0, 0, 0, 1.46337890625, 0.1270751953125, 1.49560546875, 1.442138671875, 10.0, 1.4376336336135864, 1.5, 1.4376336336135864
14605, -0.8423510193824768, -2.018378734588623, -1.334524393081665, 7.79594702180475e-05, 3.042806565645151e-05, -2.3749239444732666, 0.014887465164065361, 0.005822681821882725, -0.3661324381828308, -0.8377869129180908, -0.9497736096382141, 0.05675385147333145, 0.11872831892200883, 0.3383629660719123, 3.133072546843262, 9362.0, 30146.0, 35388.0, 9362.0, 0, 0.008510441519320011, 0.08573605865240097, -0.09946924448013306, 0.009741858579218388, -0.052634187042713165, 0.9973272085189819, 0, 0, 0, 1.5087890625, 0.21337890625, 1.49560546875, 1.390869140625, 10.0, 1.4374850988388062, 1.5, 1.4374850988388062
14615, -0.8419082760810852, -2.019369125366211, -1.3344885110855103, 0.00024422258138656616, 9.544844215270132e-05, -2.378586769104004, 0.018365168944001198, 0.007181358058005571, -0.3664366602897644, -0.83775395154953, -0.9497762322425842, 0.056617170572280884, 0.09136393153194731, 0.31788220383731414, 3.129380517135389, 9362.0, 30146.0, 35388.0, 9362.0, 0, -0.13990719616413116, 0.052573543041944504, 0.08840198814868927, 0.009987135417759418, -0.05134749040007591, 0.9987543821334839, 0, 0, 0, 1.515380859375, 0.2270050048828125, 1.49853515625, 1.37548828125, 10.0, 1.4372882843017578, 1.5, 1.4372882843017578
14625, -0.8419516086578369, -2.018242120742798, -1.3332488536834717, 0.0004452672437764704, 0.00017405161634087563, -2.3822526931762695, 0.021843761205673218, 0.00853927992284298, -0.3667545020580292, -0.8377435207366943, -0.9497725367546082, 0.056665729731321335, 0.08978074199791876, 0.3202199430898247, 3.126342712620855, 9362.0, 30146.0, 35388.0, 9362.0, 8.370248794555664, 0.02819104865193367, 0.02105329930782318, 0.3281249403953552, 0.010024338960647583, -0.052450332790613174, 0.9984234571456909, -0.07770124077796936, -0.2904777526855469, 1.47216796875, 1.54541015625, 0.291656494140625, 1.49853515625, 1.38134765625, 10.0, 1.4371106624603271, 1.5, 1.4371106624603271
14635, -0.8419430255889893, -2.018571138381958, -1.3305895328521729, 0.0006811270723119378, 0.00026623817393556237, -2.3859212398529053, 0.025328172370791435, 0.009898104704916477, -0.3669550120830536, -0.8377875685691833, -0.949799120426178, 0.05674756318330765, 0.1244911648302481, 0.34494172777044696, 3.137626497300532, 9362.0, 30146.0, 35388.0, 9362.0, 8.370248794555664, -0.07591139525175095, 0.10576876252889633, 0.05661892518401146, 0.01055997796356678, -0.05086274445056915, 0.9987268447875977, -0.07770124077796936, -0.2904777526855469, 1.47216796875, 1.518310546875, 0.2331390380859375, 1.49853515625, 1.48828125, 10.0, 1.4372731447219849, 1.5, 1.4372731447219849
14645, -0.8424158692359924, -2.0183663368225098, -1.3313815593719482, 0.0009518194128759205, 0.00037201325176283717, -2.389591932296753, 0.028810229152441025, 0.011257070116698742, -0.36716583371162415, -0.8377741575241089, -0.9497758746147156, 0.05671261250972748, 0.12336082309892155, 0.3403107492931383, 3.1388934966824205, 9362.0, 30146.0, 35388.0, 9362.0, 8.370248794555664, 0.1406446397304535, -0.01569071039557457, 0.13901318609714508, 0.011584039777517319, -0.051899418234825134, 0.9984663724899292, -0.07770124077796936, -0.2904777526855469, 1.47216796875, 1.53076171875, 0.2596435546875, 1.49853515625, 1.5, 10.0, 1.4374723434448242, 1.5, 1.4374723434448242
14655, -0.8413907289505005, -2.019622564315796, -1.3318880796432495, 0.001257338561117649, 0.0004913801094517112, -2.3932645320892334, 0.03229362517595291, 0.012616255320608616, -0.36735549569129944, -0.8377962112426758, -0.9497752785682678, 0.05675015226006508, 0.10923536678306432, 0.347834346281644, 3.1365804108228024, 9362.0, 30146.0, 35388.0, 9362.0, 8.370248794555664, 0.153929203748703, 0.20162123441696167, 0.0343899205327034, 0.012182213366031647, -0.04936094954609871, 0.9994499683380127, -0.07770124077796936, -0.2904777526855469, 1.47216796875, 1.47802734375, 0.1532745361328125, 1.496337890625, 1.36083984375, 10.0, 1.437229037284851, 1.5, 1.437229037284851
14665, -0.8402953147888184, -2.0214664936065674, -1.3307249546051025, 0.0015976905124261975, 0.0006243428215384483, -2.3969390392303467, 0.0357767790555954, 0.013976255431771278, -0.36754295229911804, -0.8377622365951538, -0.9497480392456055, 0.05663897842168808, 0.0775119701054078, 0.3169057866984133, 3.1160272179060353, 9362.0, 30146.0, 35388.0, 9362.0, 8.370248794555664, 0.11172515153884888, 0.37276241183280945, 0.1450953483581543, 0.009189652279019356, -0.052244845777750015, 0.9997634291648865, -0.07770124077796936, -0.2904777526855469, 1.47216796875, 1.482421875, 0.161529541015625, 1.496337890625, 1.50439453125, 10.0, 1.4374423027038574, 1.5, 1.4374423027038574
14675, -0.8404026031494141, -2.026064872741699, -1.329296588897705, 0.0019729058258235455, 0.0007709045894443989, -2.4006147384643555, 0.03926624357700348, 0.015336170792579651, -0.36761146783828735, -0.8377429246902466, -0.9497668147087097, 0.05666418746113777, 0.08123288146789102, 0.3206987397612693, 3.138128492928372, 9362.0, 30146.0, 35388.0, 9362.0, 8.370248794555664, -0.025317078456282616, -0.07346552610397339, 0.134844109416008, 0.008584467694163322, -0.053873904049396515, 0.9971684217453003, -0.07770124077796936, -0.2904777526855469, 1.47216796875, 1.4208984375, 0.063079833984375, 1.494140625, 1.469970703125, 10.0, 1.4375455379486084, 1.5, 1.4375455379486084
14685, -0.839832603931427, -2.02325177192688, -1.330108404159546, 0.0023830069694668055, 0.0009310467285104096, -2.404291868209839, 0.0427539125084877, 0.01669234037399292, -0.3678165674209595, -0.837782621383667, -0.9497739672660828, 0.05674871802330017, 0.1180464531997417, 0.34283718937774665, 3.1347726456661293, 9362.0, 30146.0, 35388.0, 9362.0, 8.370248794555664, 0.0017133895307779312, 0.26676681637763977, -0.16571512818336487, 0.010476833209395409, -0.054111380130052567, 0.996648907661438, -0.07770124077796936, -0.2904777526855469, 1.47216796875, 1.379150390625, 0.0238189697265625, 1.494140625, 1.35205078125, 10.0, 1.4372740983963013, 1.5, 1.4372740983963013
14695, -0.8395342826843262, -2.025027275085449, -1.3305450677871704, 0.002827996853739023, 0.0011047404259443283, -2.4079718589782715, 0.04624409228563309, 0.018046367913484573, -0.36817315220832825, -0.8376783132553101, -0.9498639702796936, 0.056958623230457306, 0.031016298127142995, 0.2376138516501669, 3.1599859147640306, 9362.0, 30146.0, 35388.0, 9362.0, 8.370248794555664, 0.0023555681109428406, -0.07715848088264465, -0.13236790895462036, 0.01010449230670929, -0.05240924656391144, 0.998718798160553, -0.07770124077796936, -0.2904777526855469, 1.47216796875, 1.41064453125, 0.0509490966796875, 1.4970703125, 1.353515625, 10.0, 1.4370081424713135, 1.5, 1.4370081424713135
14705, -0.838830828666687, -2.0259921550750732, -1.330026388168335, 0.0033078608103096485, 0.0012919685104861856, -2.4116554260253906, 0.04972870275378227, 0.019399220123887062, -0.3685499429702759, -0.8377609848976135, -0.9497703909873962, 0.0566830039024353, 0.08772880776658365, 0.32801360157219506, 3.1232118724713835, 9362.0, 30146.0, 35388.0, 9362.0, 8.370248794555664, 0.06898021697998047, 0.34246236085891724, -0.02161063626408577, 0.010189594700932503, -0.04999552294611931, 0.999573826789856, -0.07770124077796936, -0.2904777526855469, 1.47216796875, 1.50146484375, 0.1985626220703125, 1.4970703125, 1.493408203125, 10.0, 1.4371871948242188, 1.5, 1.4371871948242188
14715, -0.8376944065093994, -2.028139591217041, -1.33095121383667, 0.0038226249162107706, 0.0014927370939403772, -2.41534161567688, 0.0532241091132164, 0.020754540339112282, -0.36870908737182617, -0.8377171158790588, -0.9498769640922546, 0.05702723190188408, 0.05499989094658319, 0.2744769793230546, 3.1754293547029024, 9362.0, 30146.0, 35388.0, 9362.0, 8.370248794555664, -0.019592979922890663, 0.10960346460342407, 0.002922886284068227, 0.008294322527945042, -0.04974241927266121, 0.9978201985359192, -0.07770124077796936, -0.2904777526855469, 1.47216796875, 1.521240234375, 0.2393646240234375, 1.496337890625, 1.509521484375, 10.0, 1.4374167919158936, 1.5, 1.4374167919158936
14725, -0.8368631601333618, -2.0315027236938477, -1.3322511911392212, 0.0043723490089178085, 0.0017070519970729947, -2.419029474258423, 0.05672069638967514, 0.02210838906466961, -0.3688809275627136, -0.8377828001976013, -0.9497760534286499, 0.05673978477716446, 0.11814914254636671, 0.3399165445320591, 3.1433861953891045, 9362.0, 30146.0, 35388.0, 9362.0, 8.370248794555664, -0.09804988652467728, 0.28701046109199524, 0.07487304508686066, 0.010781456716358662, -0.05218600481748581, 0.9985466599464417, -0.06766516715288162, 0.04104042053222656, 1.499267578125, 1.490478515625, 0.1768646240234375, 1.496337890625, 1.39892578125, 10.0, 1.437294602394104, 1.5, 1.437294602394104
14735, -0.838477611541748, -2.033789873123169, -1.331539511680603, 0.004957044497132301, 0.0019348901696503162, -2.4227194786071777, 0.06021842360496521, 0.023459162563085556, -0.36912286281585693, -0.8377888798713684, -0.9497809410095215, 0.056740015745162964, 0.12388722852672447, 0.3457981192183297, 3.134699387859049, 9362.0, 30146.0, 35388.0, 9362.0, 8.370248794555664, 0.09967134892940521, 0.36227813363075256, 0.1556997448205948, 0.010243319906294346, -0.05143127217888832, 0.9983242154121399, -0.06766516715288162, 0.04104042053222656, 1.499267578125, 1.2978515625, 0.05224609375, 1.494140625, 1.367431640625, 10.0, 1.4370728731155396, 1.5, 1.4370728731155396
14745, -0.8386776447296143, -2.0350515842437744, -1.3314332962036133, 0.005576747935265303, 0.002176228677853942, -2.4264118671417236, 0.06372226774692535, 0.024808580055832863, -0.3693538010120392, -0.8377272486686707, -0.9498077034950256, 0.056744642555713654, 0.11782847159099531, 0.33994264329314205, 3.1029908761209177, 9362.0, 30146.0, 35388.0, 9362.0, 8.370248794555664, -0.14584536850452423, 0.10581804811954498, -0.07989222556352615, 0.010986347682774067, -0.050058964639902115, 1.001204252243042, -0.06766516715288162, 0.04104042053222656, 1.499267578125, 1.450927734375, 0.1063690185546875, 1.494140625, 1.3564453125, 10.0, 1.436816930770874, 1.5, 1.436816930770874
14755, -0.8391221761703491, -2.033719301223755, -1.332448959350586, 0.006231526844203472, 0.002431081607937813, -2.4301061630249023, 0.06723352521657944, 0.026162007823586464, -0.36948803067207336, -0.8377944231033325, -0.9497830867767334, 0.05674217641353607, 0.11921899378199764, 0.35323850093871556, 3.1417428544245336, 9362.0, 30146.0, 35388.0, 9362.0, 8.370248794555664, 0.047301843762397766, 0.262838751077652, -0.16417516767978668, 0.009686172939836979, -0.05049673467874527, 0.9991567730903625, -0.06766516715288162, 0.04104042053222656, 1.499267578125, 1.34326171875, 0.01605224609375, 1.4970703125, 1.53662109375, 10.0, 1.4371336698532104, 1.5, 1.4371336698532104
14765, -0.839460015296936, -2.035645008087158, -1.3327423334121704, 0.006921448279172182, 0.0026994775980710983, -2.4338011741638184, 0.07075078040361404, 0.027517123147845268, -0.3695170283317566, -0.8377770781517029, -0.9497898817062378, 0.056733667850494385, 0.12726838497115286, 0.34809503829049504, 3.1316048045353666, 9362.0, 30146.0, 35388.0, 9362.0, 8.370248794555664, 0.16022896766662598, 0.14061544835567474, -0.04155939072370529, 0.008641251362860203, -0.05185399577021599, 0.9987719655036926, -0.06766516715288162, 0.04104042053222656, 1.499267578125, 1.48095703125, 0.1587677001953125, 1.4970703125, 1.497802734375, 10.0, 1.437326192855835, 1.5, 1.437326192855835
14775, -0.8388788104057312, -2.0364484786987305, -1.3338137865066528, 0.007646503858268261, 0.0029814180452376604, -2.437497138977051, 0.0742603987455368, 0.0288709606975317, -0.36969566345214844, -0.8377637267112732, -0.9497563242912292, 0.05665888637304306, 0.09020967100496005, 0.321170907687474, 3.122506631540877, 9362.0, 30146.0, 35388.0, 9362.0, 8.370248794555664, 0.024028461426496506, -0.44104886054992676, -0.11304404586553574, 0.009865791536867619, -0.05214964225888252, 0.9986893534660339, -0.06766516715288162, 0.04104042053222656, 1.499267578125, 1.411376953125, 0.05181884765625, 1.494873046875, 1.43994140625, 10.0, 1.4373345375061035, 1.5, 1.4373345375061035
14785, -0.8380799889564514, -2.0365514755249023, -1.333808422088623, 0.008406669832766056, 0.003276898292824626, -2.441195011138916, 0.0777728259563446, 0.030225036665797234, -0.36988863348960876, -0.8377861976623535, -0.9497742056846619, 0.05673220008611679, 0.11454520410277753, 0.3499178748791678, 3.1345189185348596, 9362.0, 30146.0, 35388.0, 9362.0, 8.370248794555664, 0.11257997900247574, 0.32503044605255127, 0.07637161761522293, 0.010824883356690407, -0.050802696496248245, 0.9986743330955505, -0.06766516715288162, 0.04104042053222656, 1.499267578125, 1.49853515625, 0.1927032470703125, 1.494873046875, 1.47509765625, 10.0, 1.437454342842102, 1.5, 1.437454342842102
14795, -0.8367447257041931, -2.038705825805664, -1.3350350856781006, 0.009201961569488049, 0.0035859118215739727, -2.444895029067993, 0.08128558099269867, 0.031577691435813904, -0.3701106011867523, -0.8377180695533752, -0.9498111009597778, 0.05672252178192139, 0.10622148081494284, 0.33714352671640313, 3.1025575563781955, 9362.0, 30146.0, 35388.0, 9362.0, 8.370248794555664, 0.13191142678260803, 0.018446020781993866, -0.25165680050849915, 0.009107651188969612, -0.05184803158044815, 0.9967606663703918, -0.06766516715288162, 0.04104042053222656, 1.499267578125, 1.33154296875, 0.0198516845703125, 1.4970703125, 1.4912109375, 10.0, 1.4376249313354492, 1.5, 1.4376249313354492
14805, -0.8354072570800781, -2.0389962196350098, -1.3356188535690308, 0.01003237720578909, 0.003908443730324507, -2.4485974311828613, 0.08479766547679901, 0.03292858228087425, -0.37035584449768066, -0.8377834558486938, -0.9497813582420349, 0.0567435547709465, 0.12841621547865392, 0.3532944829985354, 3.1282997354546582, 9362.0, 30146.0, 35388.0, 9362.0, 8.370248794555664, -0.019055966287851334, -0.23379069566726685, -0.2442721426486969, 0.011012699455022812, -0.049924906343221664, 0.9986957907676697, -0.06766516715288162, 0.04104042053222656, 1.499267578125, 1.34765625, 0.0154571533203125, 1.4970703125, 1.401123046875, 10.0, 1.4375090599060059, 1.5, 1.4375090599060059
14815, -0.8350492715835571, -2.039485216140747, -1.3372215032577515, 0.010897909291088581, 0.004244463052600622, -2.452302932739258, 0.08830873668193817, 0.03427529335021973, -0.37073054909706116, -0.8377270698547363, -0.9498143792152405, 0.0567445233464241, 0.10445004976915076, 0.3519220181907201, 3.092072604354528, 9362.0, 30146.0, 35388.0, 9362.0, 8.370248794555664, 0.2923591732978821, 0.2837901711463928, -0.027188759297132492, 0.011562683619558811, -0.05292884632945061, 0.9992942214012146, -0.06766516715288162, 0.04104042053222656, 1.499267578125, 1.442138671875, 0.0926361083984375, 1.5, 1.5029296875, 10.0, 1.4377166032791138, 1.5, 1.4377166032791138
14825, -0.8342681527137756, -2.041764736175537, -1.3374661207199097, 0.01179859135299921, 0.004593952093273401, -2.4560110569000244, 0.0918276458978653, 0.03562241420149803, -0.370900958776474, -0.837762176990509, -0.949776828289032, 0.05665985494852066, 0.09162160345786961, 0.3321181900184058, 3.128292211485443, 9362.0, 30146.0, 35388.0, 9362.0, 8.370248794555664, 0.15137510001659393, 0.32302337884902954, 0.057458989322185516, 0.01173587329685688, -0.053907766938209534, 0.9970753192901611, -0.0840296745300293, -0.23671722412109375, 1.4765625, 1.493408203125, 0.1825714111328125, 1.5, 1.364501953125, 10.0, 1.4374842643737793, 1.5, 1.4374842643737793
14835, -0.8329567313194275, -2.044264554977417, -1.3379026651382446, 0.012734459713101387, 0.004956906195729971, -2.459721088409424, 0.09534610062837601, 0.0369684062898159, -0.37110623717308044, -0.8377617597579956, -0.9497694373130798, 0.05663513392210007, 0.08847008448796247, 0.32649593765538043, 3.130170534819082, 9362.0, 30146.0, 35388.0, 9362.0, 8.370248794555664, 0.26502373814582825, -0.09010130167007446, -0.046042196452617645, 0.009196781553328037, -0.0523860901594162, 0.9997222423553467, -0.0840296745300293, -0.23671722412109375, 1.4765625, 1.43994140625, 0.089324951171875, 1.497802734375, 1.486083984375, 10.0, 1.437638521194458, 1.5, 1.437638521194458
14845, -0.8325702548027039, -2.0455405712127686, -1.3375146389007568, 0.013705519959330559, 0.005333308130502701, -2.4634335041046143, 0.09886591881513596, 0.03831198811531067, -0.37138181924819946, -0.8377559781074524, -0.9497708082199097, 0.056660570204257965, 0.08988630962627327, 0.32707622120236124, 3.12771733193201, 9362.0, 30146.0, 35388.0, 9362.0, 8.370248794555664, 0.14022481441497803, 0.21251413226127625, 0.2723750174045563, 0.009793929755687714, -0.05224516615271568, 0.9981155395507812, -0.0840296745300293, -0.23671722412109375, 1.4765625, 1.48388671875, 0.1642303466796875, 1.497802734375, 1.477294921875, 10.0, 1.4377644062042236, 1.5, 1.4377644062042236
14855, -0.8321240544319153, -2.0478270053863525, -1.3368659019470215, 0.01471182145178318, 0.00572314253076911, -2.4671480655670166, 0.10239437967538834, 0.0396549366414547, -0.37153515219688416, -0.837785542011261, -0.949772298336029, 0.056721460074186325, 0.1208249747306473, 0.3466763204310439, 3.140575672987839, 9362.0, 30146.0, 35388.0, 9362.0, 8.370248794555664, 0.15057380497455597, -0.032692719250917435, -0.40560972690582275, 0.010730785317718983, -0.0515180304646492, 0.9984368681907654, -0.0840296745300293, -0.23671722412109375, 1.4765625, 1.4912109375, 0.178253173828125, 1.49560546875, 1.45751953125, 10.0, 1.4378271102905273, 1.5, 1.4378271102905273
14865, -0.8326748013496399, -2.0476303100585938, -1.3368382453918457, 0.015753401443362236, 0.00612639682367444, -2.4708645343780518, 0.1059216558933258, 0.040995948016643524, -0.3717800974845886, -0.8377619981765747, -0.9497732520103455, 0.05663937330245972, 0.0860094558603766, 0.3218284916480343, 3.1302070145347005, 9362.0, 30146.0, 35388.0, 9362.0, 8.370248794555664, -0.025579040870070457, 0.17724524438381195, 0.3759918212890625, 0.008843721821904182, -0.05351105332374573, 0.9975168704986572, -0.0840296745300293, -0.23671722412109375, 1.4765625, 1.387939453125, 0.0297393798828125, 1.49560546875, 1.3271484375, 10.0, 1.4374759197235107, 1.5, 1.4374759197235107
14875, -0.8329856991767883, -2.0487897396087646, -1.3340668678283691, 0.01683027110993862, 0.006543056108057499, -2.474583625793457, 0.10945232212543488, 0.042335912585258484, -0.37203913927078247, -0.8377826809883118, -0.949769139289856, 0.05672696977853775, 0.10508083610800782, 0.34357092889081287, 3.138025384354736, 9362.0, 30146.0, 35388.0, 9362.0, 8.370248794555664, -0.2470530867576599, 0.04082559421658516, 0.21097750961780548, 0.010571111924946308, -0.053366631269454956, 0.9992361664772034, -0.0840296745300293, -0.23671722412109375, 1.4765625, 1.49853515625, 0.1927032470703125, 1.499267578125, 1.477294921875, 10.0, 1.4376022815704346, 1.5, 1.4376022815704346
14885, -0.8325229287147522, -2.049485921859741, -1.3339670896530151, 0.01794244349002838, 0.006973118521273136, -2.4783053398132324, 0.11298196762800217, 0.04367675632238388, -0.3723166286945343, -0.8377453684806824, -0.9497665166854858, 0.056643061339855194, 0.09176966509420945, 0.31659461695451796, 3.123180024390246, 9362.0, 30146.0, 35388.0, 9362.0, 8.370248794555664, -0.2470530867576599, 0.04082559421658516, 0.21097750961780548, 0.010571111924946308, -0.053366631269454956, 0.9992361664772034, -0.0840296745300293, -0.23671722412109375, 1.4765625, 1.49853515625, 0.1927032470703125, 1.499267578125, 1.477294921875, 10.0, 1.4377026557922363, 1.5, 1.4377026557922363
14905, -0.8312652111053467, -2.050259828567505, -1.3329664468765259, 0.01794244349002838, 0.006973118521273136, -2.4783053398132324, 0.11298196762800217, 0.04367675632238388, -0.3723166286945343, -0.8377415537834167, -0.9498123526573181, 0.056817296892404556, 0.1388779447524926, 0.3610242391528402, 3.1139670990929287, 9362.0, 30146.0, 35388.0, 9362.0, 8.370248794555664, -0.16339930891990662, 0.19377374649047852, 0.17958568036556244, 0.010282360948622227, -0.051198918372392654, 0.9988304972648621, -0.0840296745300293, -0.23671722412109375, 1.4765625, 1.49853515625, 0.1927032470703125, 1.499267578125, 1.41650390625, 10.0, 1.4376240968704224, 1.5, 1.4376240968704224
14915, -0.831551730632782, -2.0488028526306152, -1.3322126865386963, 0.01794244349002838, 0.006973118521273136, -2.4783053398132324, 0.11298196762800217, 0.04367675632238388, -0.3723166286945343, -0.8377804756164551, -0.9497702121734619, 0.05673032999038696, 0.11817065158675845, 0.3397494862270207, 3.1306581350960525, 9362.0, 30146.0, 35388.0, 9362.0, 8.370248794555664, -0.16339930891990662, 0.19377374649047852, 0.17958568036556244, 0.011926011182367802, -0.05233707278966904, 0.9997187852859497, -0.0840296745300293, -0.23671722412109375, 1.4765625, 1.283935546875, 0.075897216796875, 1.499267578125, 1.41650390625, 10.0, 1.4375733137130737, 1.5, 1.4375733137130737
14935, -0.8304057717323303, -2.0495681762695312, -1.3316730260849, 0.01794244349002838, 0.006973118521273136, -2.4783053398132324, 0.11298196762800217, 0.04367675632238388, -0.3723166286945343, -0.8377576470375061, -0.9497627019882202, 0.05664049834012985, 0.0785054322760168, 0.3318340031622995, 3.1232414022169133, 9362.0, 30146.0, 35388.0, 9362.0, 8.370248794555664, -0.16339930891990662, 0.19377374649047852, 0.17958568036556244, 0.010401461273431778, -0.052809905260801315, 0.9969654083251953, -0.05891663208603859, -0.07543754577636719, 1.48974609375, 1.283935546875, 0.075897216796875, 1.49853515625, 1.472900390625, 10.0, 1.4378063678741455, 1.5, 1.4378063678741455
14945, -0.8294804096221924, -2.04980731010437, -1.3320417404174805, 0.01794244349002838, 0.006973118521273136, -2.4783053398132324, 0.11298196762800217, 0.04367675632238388, -0.3723166286945343, -0.8377876877784729, -0.9497655034065247, 0.056755468249320984, 0.10519135696314406, 0.34363383736308606, 3.1312589922412277, 9362.0, 30146.0, 35388.0, 9362.0, 8.370248794555664, -0.16339930891990662, 0.19377374649047852, 0.17958568036556244, 0.008898701518774033, -0.052014436572790146, 0.9968374371528625, -0.05891663208603859, -0.07543754577636719, 1.48974609375, 1.283935546875, 0.075897216796875, 1.49853515625, 1.472900390625, 10.0, 1.437690019607544, 1.5, 1.437690019607544
14955, -0.8296918272972107, -2.050544261932373, -1.3323339223861694, 0.01794244349002838, 0.006973118521273136, -2.4783053398132324, 0.11298196762800217, 0.04367675632238388, -0.3723166286945343, -0.837766170501709, -0.9497625827789307, 0.05665554106235504, 0.09073809021509104, 0.33178056969725844, 3.1198500126124022, 9362.0, 30146.0, 35388.0, 9362.0, 8.370248794555664, 0.14028237760066986, 0.04506605863571167, 0.1582787185907364, 0.008898701518774033, -0.052014436572790146, 0.9968374371528625, -0.05891663208603859, -0.07543754577636719, 1.48974609375, 1.283935546875, 0.075897216796875, 1.497802734375, 1.472900390625, 10.0, 1.4377784729003906, 1.5, 1.4377784729003906
14965, -0.8291760683059692, -2.050828456878662, -1.3298074007034302, 0.01794244349002838, 0.006973118521273136, -2.4783053398132324, 0.11298196762800217, 0.04367675632238388, -0.3723166286945343, -0.8377845287322998, -0.9497825503349304, 0.05671348050236702, 0.12085977582908265, 0.3455579877238222, 3.1276102901333385, 9362.0, 30146.0, 35388.0, 9362.0, 8.370248794555664, 0.14028237760066986, 0.04506605863571167, 0.1582787185907364, 0.010053037665784359, -0.04993179067969322, 0.9996206760406494, -0.05891663208603859, -0.07543754577636719, 1.48974609375, 1.37548828125, 0.021820068359375, 1.497802734375, 1.46630859375, 10.0, 1.4378689527511597, 1.5, 1.4378689527511597
14975, -0.8289093375205994, -2.049548625946045, -1.3296349048614502, 0.01794244349002838, 0.006973118521273136, -2.4783053398132324, 0.11298196762800217, 0.04367675632238388, -0.3723166286945343, -0.8377798795700073, -0.9497705101966858, 0.05671126767992973, 0.11205132577015643, 0.33589592987360106, 3.131901609984473, 9362.0, 30146.0, 35388.0, 9362.0, 8.370248794555664, 0.14028237760066986, 0.04506605863571167, 0.1582787185907364, 0.010053037665784359, -0.04993179067969322, 0.9996206760406494, -0.05891663208603859, -0.07543754577636719, 1.48974609375, 1.37548828125, 0.021820068359375, 1.4970703125, 1.46630859375, 10.0, 1.437989354133606, 1.5, 1.437989354133606
14985, -0.8290239572525024, -2.048515558242798, -1.329132318496704, 0.01794244349002838, 0.006973118521273136, -2.4783053398132324, 0.11298196762800217, 0.04367675632238388, -0.3723166286945343, -0.8377597332000732, -0.9497528076171875, 0.05667371302843094, 0.0870388215864802, 0.31401594292341883, 3.119764579001133, 9362.0, 30146.0, 35388.0, 9362.0, 8.370248794555664, 0.14028237760066986, 0.04506605863571167, 0.1582787185907364, 0.01082151010632515, -0.05385591462254524, 1.0005887746810913, -0.05891663208603859, -0.07543754577636719, 1.48974609375, 1.322021484375, 0.0257415771484375, 1.4970703125, 1.487548828125, 10.0, 1.4381465911865234, 1.5, 1.4381465911865234
14995, -0.8294003009796143, -2.048724889755249, -1.3277370929718018, 0.01794244349002838, 0.006973118521273136, -2.4783053398132324, 0.11298196762800217, 0.04367675632238388, -0.3723166286945343, -0.8377870321273804, -0.9497677087783813, 0.05674644187092781, 0.11134292990176171, 0.345772282514929, 3.1335380893888765, 9362.0, 30146.0, 35388.0, 9362.0, 8.370248794555664, 0.14028237760066986, 0.04506605863571167, 0.1582787185907364, 0.0122645553201437, -0.05491527169942856, 0.9991341829299927, -0.05891663208603859, -0.07543754577636719, 1.48974609375, 1.322021484375, 0.0257415771484375, 1.4970703125, 1.487548828125, 10.0, 1.437889814376831, 1.5, 1.437889814376831
15005, -0.8281235694885254, -2.0508415699005127, -1.3269232511520386, 0.03404628485441208, 0.013179171830415726, -2.523120164871216, 0.15542399883270264, 0.059745628386735916, -0.3743361532688141, -0.837787389755249, -0.9497854113578796, 0.056724898517131805, 0.1273560519566954, 0.34078580174764284, 3.138410723425855, 9362.0, 30146.0, 35388.0, 9362.0, 8.370248794555664, -0.008933709003031254, 0.2768074870109558, 0.24050895869731903, 0.0122645553201437, -0.05491527169942856, 0.9991341829299927, -0.05891663208603859, -0.07543754577636719, 1.48974609375, 1.322021484375, 0.0257415771484375, 1.4970703125, 1.487548828125, 10.0, 1.4380543231964111, 1.5, 1.4380543231964111
15015, -0.8280219435691833, -2.054403066635132, -1.324772834777832, 0.03404628485441208, 0.013179171830415726, -2.523120164871216, 0.15542399883270264, 0.059745628386735916, -0.3743361532688141, -0.8377674221992493, -0.9498211741447449, 0.056775838136672974, 0.13703950034526213, 0.3640620682521103, 3.1135781076637126, 9362.0, 30146.0, 35388.0, 9362.0, 8.370248794555664, -0.014453061856329441, 0.06397813558578491, 0.31370294094085693, 0.010417013429105282, -0.05316276475787163, 0.9994502663612366, -0.05891663208603859, -0.07543754577636719, 1.48974609375, 1.322021484375, 0.0257415771484375, 1.4970703125, 1.471435546875, 10.0, 1.4380543231964111, 1.5, 1.4380543231964111
15025, -0.827903151512146, -2.0541443824768066, -1.325449824333191, 0.03404628485441208, 0.013179171830415726, -2.523120164871216, 0.15542399883270264, 0.059745628386735916, -0.3743361532688141, -0.837781548500061, -0.9497706890106201, 0.056706804782152176, 0.11869692001199031, 0.34623245815544124, 3.1429836364461203, 9362.0, 30146.0, 35388.0, 9362.0, 8.370248794555664, -0.014453061856329441, 0.06397813558578491, 0.31370294094085693, 0.010417013429105282, -0.05316276475787163, 0.9994502663612366, -0.08254848420619965, -0.1291980743408203, 1.4853515625, 1.322021484375, 0.0257415771484375, 1.4970703125, 1.471435546875, 10.0, 1.4380543231964111, 1.5, 1.4380543231964111
15035, -0.8273877501487732, -2.0534777641296387, -1.3261398077011108, 0.03404628485441208, 0.013179171830415726, -2.523120164871216, 0.15542399883270264, 0.059745628386735916, -0.3743361532688141, -0.837776243686676, -0.9497727155685425, 0.05674542486667633, 0.1131263327266676, 0.3461151329585448, 3.1291528164392592, 9362.0, 30146.0, 35388.0, 9362.0, 8.370248794555664, -0.035057514905929565, 0.01108908373862505, 0.1279100924730301, 0.010417013429105282, -0.05316276475787163, 0.9994502663612366, -0.08254848420619965, -0.1291980743408203, 1.4853515625, 1.322021484375, 0.0257415771484375, 1.4970703125, 1.471435546875, 10.0, 1.4380543231964111, 1.5, 1.4380543231964111
15045, -0.8275349140167236, -2.0542330741882324, -1.3254352807998657, 0.03404628485441208, 0.013179171830415726, -2.523120164871216, 0.15542399883270264, 0.059745628386735916, -0.3743361532688141, -0.8376781344413757, -0.9498552680015564, 0.056958217173814774, 0.028475995931187673, 0.2488355573405272, 3.173997971581824, 9362.0, 30146.0, 35388.0, 9362.0, 8.370248794555664, -0.035057514905929565, 0.01108908373862505, 0.1279100924730301, 0.010544385761022568, -0.0497828871011734, 0.99957674741745, -0.08254848420619965, -0.1291980743408203, 1.4853515625, 1.357177734375, 0.0157928466796875, 1.4970703125, 1.471435546875, 10.0, 1.436861515045166, 1.5, 1.436861515045166
15055, -0.8270056843757629, -2.054309606552124, -1.325818657875061, 0.03404628485441208, 0.013179171830415726, -2.523120164871216, 0.15542399883270264, 0.059745628386735916, -0.3743361532688141, -0.8377417922019958, -0.9498152732849121, 0.056940432637929916, 0.0392818783070178, 0.24116377518768672, 3.198765764475086, 9362.0, 30146.0, 35388.0, 9362.0, 8.370248794555664, -0.13810224831104279, -0.050675906240940094, -0.1723824441432953, 0.010544385761022568, -0.0497828871011734, 0.99957674741745, -0.08254848420619965, -0.1291980743408203, 1.4853515625, 1.357177734375, 0.0157928466796875, 1.5, 1.494140625, 10.0, 1.436861515045166, 1.5, 1.436861515045166
15065, -0.8275052309036255, -2.0539188385009766, -1.3261855840682983, 0.04400889202952385, 0.01700425148010254, -2.545612335205078, 0.17667223513126373, 0.06775334477424622, -0.3754097521305084, -0.8377208113670349, -0.9497948884963989, 0.056734345853328705, 0.08556746429897745, 0.34267471753878453, 3.0968144830268023, 9362.0, 30146.0, 35388.0, 9362.0, 8.370248794555664, -0.001609081169590354, -0.38696685433387756, 0.06002448871731758, 0.010544385761022568, -0.0497828871011734, 0.99957674741745, -0.08254848420619965, -0.1291980743408203, 1.4853515625, 1.357177734375, 0.0157928466796875, 1.5, 1.44287109375, 10.0, 1.436861515045166, 1.5, 1.436861515045166
15075, -0.8279908299446106, -2.051887273788452, -1.3263996839523315, 0.04400889202952385, 0.01700425148010254, -2.545612335205078, 0.17667223513126373, 0.06775334477424622, -0.3754097521305084, -0.8377906680107117, -0.9497615098953247, 0.056715771555900574, 0.11192878610741792, 0.3506076081562526, 3.1416649497867373, 9362.0, 30146.0, 35388.0, 9362.0, 8.370248794555664, -0.001609081169590354, -0.38696685433387756, 0.06002448871731758, 0.010544385761022568, -0.0497828871011734, 0.99957674741745, -0.08254848420619965, -0.1291980743408203, 1.4853515625, 1.34033203125, 0.0166168212890625, 1.5, 1.44287109375, 10.0, 1.4370684623718262, 1.5, 1.4370684623718262
15085, -0.8269674777984619, -2.050220012664795, -1.3261924982070923, 0.04400889202952385, 0.01700425148010254, -2.545612335205078, 0.17667223513126373, 0.06775334477424622, -0.3754097521305084, -0.8377793431282043, -0.9497637748718262, 0.05673323571681976, 0.11879962032315158, 0.33687252874292994, 3.139070387247015, 9362.0, 30146.0, 35388.0, 9362.0, 8.370248794555664, 0.10255814343690872, 0.2043134570121765, 0.265973299741745, 0.010544385761022568, -0.0497828871011734, 0.99957674741745, -0.08254848420619965, -0.1291980743408203, 1.4853515625, 1.34033203125, 0.0166168212890625, 1.5, 1.44287109375, 10.0, 1.4367849826812744, 1.5, 1.4367849826812744
15095, -0.8270108103752136, -2.0508594512939453, -1.32567298412323, 0.04400889202952385, 0.01700425148010254, -2.545612335205078, 0.17667223513126373, 0.06775334477424622, -0.3754097521305084, -0.8377520442008972, -0.9498100280761719, 0.05681684613227844, 0.12847062888649677, 0.358464331095945, 3.1146803265585503, 9362.0, 30146.0, 35388.0, 9362.0, 8.370248794555664, 0.10255814343690872, 0.2043134570121765, 0.265973299741745, 0.010544385761022568, -0.0497828871011734, 0.99957674741745, -0.08254848420619965, -0.1291980743408203, 1.4853515625, 1.34033203125, 0.0166168212890625, 1.494140625, 1.44287109375, 10.0, 1.4369877576828003, 1.5, 1.4369877576828003
15105, -0.8257090449333191, -2.050525665283203, -1.3267673254013062, 0.04400889202952385, 0.01700425148010254, -2.545612335205078, 0.17667223513126373, 0.06775334477424622, -0.3754097521305084, -0.8377749919891357, -0.9497656226158142, 0.05671645700931549, 0.10980443697125573, 0.3324633726359991, 3.14420756943367, 9362.0, 30146.0, 35388.0, 9362.0, 8.370248794555664, 0.10255814343690872, 0.2043134570121765, 0.265973299741745, 0.010544385761022568, -0.0497828871011734, 0.99957674741745, -0.08254848420619965, -0.1291980743408203, 1.4853515625, 1.44287109375, 0.0936279296875, 1.494140625, 1.48681640625, 10.0, 1.437145709991455, 1.5, 1.437145709991455
15115, -0.825354278087616, -2.0515129566192627, -1.3243623971939087, 0.04400889202952385, 0.01700425148010254, -2.545612335205078, 0.17667223513126373, 0.06775334477424622, -0.3754097521305084, -0.8377780914306641, -0.9497666954994202, 0.05672155320644379, 0.10895962460022952, 0.3448704324542291, 3.1372202365392843, 9362.0, 30146.0, 35388.0, 9362.0, 8.370248794555664, 0.10255814343690872, 0.2043134570121765, 0.265973299741745, 0.010075786150991917, -0.051610518246889114, 1.001477599143982, -0.08254848420619965, -0.1291980743408203, 1.4853515625, 1.44287109375, 0.0936279296875, 1.497802734375, 1.48681640625, 10.0, 1.4366483688354492, 1.5, 1.4366483688354492
15135, -0.8252271413803101, -2.0540192127227783, -1.3238645792007446, 0.04400889202952385, 0.01700425148010254, -2.545612335205078, 0.17667223513126373, 0.06775334477424622, -0.3754097521305084, -0.8377626538276672, -0.9497665166854858, 0.05664040893316269, 0.09084046998818442, 0.32386920513053497, 3.120562864900043, 9362.0, 30146.0, 35388.0, 9362.0, 8.370248794555664, -0.08799342066049576, -0.27626290917396545, 0.03682766109704971, 0.00973538402467966, -0.052927445620298386, 0.9971452355384827, -0.08577855676412582, -0.10231781005859375, 1.487548828125, 1.44287109375, 0.0936279296875, 1.497802734375, 1.450927734375, 10.0, 1.4364113807678223, 1.5, 1.4364113807678223
15145, -0.8263981342315674, -2.053863763809204, -1.3230494260787964, 0.04400889202952385, 0.01700425148010254, -2.545612335205078, 0.17667223513126373, 0.06775334477424622, -0.3754097521305084, -0.8377198576927185, -0.9497940540313721, 0.05672222375869751, 0.09661178714921254, 0.35049426487816504, 3.1062606791335274, 9362.0, 30146.0, 35388.0, 9362.0, 8.370248794555664, -0.03438872843980789, 0.07457605004310608, -0.01648271642625332, 0.00973538402467966, -0.052927445620298386, 0.9971452355384827, -0.08577855676412582, -0.10231781005859375, 1.487548828125, 1.44287109375, 0.0936279296875, 1.497802734375, 1.450927734375, 10.0, 1.4363924264907837, 1.5, 1.4363924264907837
15155, -0.8270701169967651, -2.052842855453491, -1.3236467838287354, 0.04400889202952385, 0.01700425148010254, -2.545612335205078, 0.17667223513126373, 0.06775334477424622, -0.3754097521305084, -0.8377663493156433, -0.949766218662262, 0.05664239823818207, 0.0946503894953679, 0.3227918224037012, 3.123718084538351, 9362.0, 30146.0, 35388.0, 9362.0, 8.370248794555664, -0.28739652037620544, -0.0036653010174632072, 0.18495124578475952, 0.00973538402467966, -0.052927445620298386, 0.9971452355384827, -0.08577855676412582, -0.10231781005859375, 1.487548828125, 1.28759765625, 0.068939208984375, 1.497802734375, 1.477294921875, 10.0, 1.4363924264907837, 1.5, 1.4363924264907837
15165, -0.8292596340179443, -2.052576780319214, -1.3223206996917725, 0.06344558298587799, 0.0244455486536026, -2.5832676887512207, 0.2120611071586609, 0.08106628060340881, -0.3776823580265045, -0.8377147316932678, -0.9498044848442078, 0.056878961622714996, 0.008873696134241793, 0.21864359853711335, 3.1860610281004926, 9362.0, 30146.0, 35388.0, 9362.0, 8.370248794555664, 0.045707207173109055, 0.3513237535953522, 0.11426502466201782, 0.00973538402467966, -0.052927445620298386, 0.9971452355384827, -0.08577855676412582, -0.10231781005859375, 1.487548828125, 1.28759765625, 0.068939208984375, 1.497802734375, 1.477294921875, 10.0, 1.4361196756362915, 1.5, 1.4361196756362915
15175, -0.8290340304374695, -2.0559611320495605, -1.321722149848938, 0.06344558298587799, 0.0244455486536026, -2.5832676887512207, 0.2120611071586609, 0.08106628060340881, -0.3776823580265045, -0.837773323059082, -0.9497640132904053, 0.05665888264775276, 0.09143296131840171, 0.33064452825229296, 3.1177322211404053, 9362.0, 30146.0, 35388.0, 9362.0, 8.370248794555664, 0.045707207173109055, 0.3513237535953522, 0.11426502466201782, 0.010718860663473606, -0.054537855088710785, 0.9999080300331116, -0.08577855676412582, -0.10231781005859375, 1.487548828125, 1.374755859375, 0.021392822265625, 1.497802734375, 1.48388671875, 10.0, 1.436271071434021, 1.5, 1.436271071434021
15185, -0.8273882865905762, -2.055091142654419, -1.3238939046859741, 0.06344558298587799, 0.0244455486536026, -2.5832676887512207, 0.2120611071586609, 0.08106628060340881, -0.3776823580265045, -0.8377070426940918, -0.9498252868652344, 0.05685862526297569, 0.017602821450062044, 0.21494747859713925, 3.179682672019971, 9362.0, 30146.0, 35388.0, 9362.0, 8.370248794555664, 0.045707207173109055, 0.3513237535953522, 0.11426502466201782, 0.012296870350837708, -0.05190219357609749, 0.9979268908500671, -0.08577855676412582, -0.10231781005859375, 1.487548828125, 1.374755859375, 0.021392822265625, 1.497802734375, 1.48388671875, 10.0, 1.4361248016357422, 1.5, 1.4361248016357422
15195, -0.8265886902809143, -2.0570104122161865, -1.3230664730072021, 0.06344558298587799, 0.0244455486536026, -2.5832676887512207, 0.2120611071586609, 0.08106628060340881, -0.3776823580265045, -0.8377190828323364, -0.9498071670532227, 0.05674538016319275, 0.09928694493367879, 0.3418914357465326, 3.094899984575346, 9362.0, 30146.0, 35388.0, 9362.0, 8.370248794555664, 0.045707207173109055, 0.3513237535953522, 0.11426502466201782, 0.011074820533394814, -0.051662005484104156, 0.998022735118866, -0.08577855676412582, -0.10231781005859375, 1.487548828125, 1.374755859375, 0.021392822265625, 1.49267578125, 1.48388671875, 10.0, 1.4362413883209229, 1.5, 1.4362413883209229
15205, -0.8266139030456543, -2.0585153102874756, -1.3214471340179443, 0.06344558298587799, 0.0244455486536026, -2.5832676887512207, 0.2120611071586609, 0.08106628060340881, -0.3776823580265045, -0.8377484083175659, -0.9497564435005188, 0.056655097752809525, 0.0809186701574408, 0.3208874647010589, 3.116671940995175, 9362.0, 30146.0, 35388.0, 9362.0, 8.370248794555664, 0.045707207173109055, 0.3513237535953522, 0.11426502466201782, 0.010546555742621422, -0.051714587956666946, 0.9974631667137146, -0.08577855676412582, -0.10231781005859375, 1.487548828125, 1.374755859375, 0.021392822265625, 1.49267578125, 1.48388671875, 10.0, 1.4362413883209229, 1.5, 1.4362413883209229
15215, -0.8255744576454163, -2.0615460872650146, -1.3205357789993286, 0.06344558298587799, 0.0244455486536026, -2.5832676887512207, 0.2120611071586609, 0.08106628060340881, -0.3776823580265045, -0.8377658724784851, -0.9497730731964111, 0.05665314942598343, 0.09198479984455338, 0.3309978219603522, 3.118594730243777, 9362.0, 30146.0, 35388.0, 9362.0, 8.370248794555664, -0.006901294458657503, 0.059624187648296356, 0.2683412432670593, 0.010546555742621422, -0.051714587956666946, 0.9974631667137146, -0.08577855676412582, -0.10231781005859375, 1.487548828125, 1.374755859375, 0.021392822265625, 1.5, 1.48388671875, 10.0, 1.4358597993850708, 1.5, 1.4358597993850708
15235, -0.8252166509628296, -2.060250997543335, -1.3213815689086914, 0.06344558298587799, 0.0244455486536026, -2.5832676887512207, 0.2120611071586609, 0.08106628060340881, -0.3776823580265045, -0.8377708792686462, -0.949760377407074, 0.05666201561689377, 0.08145227078033099, 0.33648172543124133, 3.115498393662011, 9362.0, 30146.0, 35388.0, 9362.0, 8.370248794555664, -0.011643355712294579, 0.01848394237458706, 0.23772519826889038, 0.010341120883822441, -0.05207965150475502, 1.0001306533813477, -0.07297085225582123, -0.12023735046386719, 1.486083984375, 1.306640625, 0.040557861328125, 1.49560546875, 1.500732421875, 10.0, 1.435905933380127, 1.5, 1.435905933380127
15245, -0.8249842524528503, -2.0591208934783936, -1.3206758499145508, 0.06344558298587799, 0.0244455486536026, -2.5832676887512207, 0.2120611071586609, 0.08106628060340881, -0.3776823580265045, -0.8377864360809326, -0.9497591853141785, 0.05673304945230484, 0.10877552681372143, 0.3481758790826177, 3.1292118283363917, 9362.0, 30146.0, 35388.0, 9362.0, 8.370248794555664, -0.011643355712294579, 0.01848394237458706, 0.23772519826889038, 0.0102987140417099, -0.051402125507593155, 0.9973195195198059, -0.07297085225582123, -0.12023735046386719, 1.486083984375, 1.306640625, 0.040557861328125, 1.49560546875, 1.48681640625, 10.0, 1.4360673427581787, 1.5, 1.4360673427581787
15255, -0.8240589499473572, -2.0590007305145264, -1.3212424516677856, 0.06344558298587799, 0.0244455486536026, -2.5832676887512207, 0.2120611071586609, 0.08106628060340881, -0.3776823580265045, -0.8377741575241089, -0.949754536151886, 0.05665280669927597, 0.08231303258909715, 0.3328811568324568, 3.12091363682606, 9362.0, 30146.0, 35388.0, 9362.0, 8.370248794555664, -0.011643355712294579, 0.01848394237458706, 0.23772519826889038, 0.01259194128215313, -0.05088287964463234, 0.9973048567771912, -0.07297085225582123, -0.12023735046386719, 1.486083984375, 1.306640625, 0.040557861328125, 1.48974609375, 1.43994140625, 10.0, 1.4360796213150024, 1.5, 1.4360796213150024
15265, -0.8236122131347656, -2.060394048690796, -1.320440649986267, 0.08642559498548508, 0.033219221979379654, -2.621110200881958, 0.24755550920963287, 0.09439162909984589, -0.3794211745262146, -0.8377593159675598, -0.949763298034668, 0.05664357542991638, 0.08278880783659012, 0.3177298434934528, 3.1287806151434663, 9362.0, 30146.0, 35388.0, 9362.0, 8.370248794555664, -0.011643355712294579, 0.01848394237458706, 0.23772519826889038, 0.01259194128215313, -0.05088287964463234, 0.9973048567771912, -0.07297085225582123, -0.12023735046386719, 1.486083984375, 1.306640625, 0.040557861328125, 1.48974609375, 1.5146484375, 10.0, 1.436328649520874, 1.5, 1.436328649520874
15275, -0.8225394487380981, -2.056065797805786, -1.3224802017211914, 0.08642559498548508, 0.033219221979379654, -2.621110200881958, 0.24755550920963287, 0.09439162909984589, -0.3794211745262146, -0.8377498388290405, -0.9497509002685547, 0.056650273501873016, 0.08371553629265689, 0.31141718334436064, 3.1249903133499624, 9362.0, 30146.0, 35388.0, 9362.0, 8.370248794555664, 0.10648100823163986, -0.16043342649936676, -0.1292034387588501, 0.011777544394135475, -0.05044062063097954, 0.9975959658622742, -0.07297085225582123, -0.12023735046386719, 1.486083984375, 1.4501953125, 0.1050872802734375, 1.48974609375, 1.5146484375, 10.0, 1.436328649520874, 1.5, 1.436328649520874
15285, -0.8238609433174133, -2.0538570880889893, -1.3225338459014893, 0.08642559498548508, 0.033219221979379654, -2.621110200881958, 0.24755550920963287, 0.09439162909984589, -0.3794211745262146, -0.8377854824066162, -0.949760913848877, 0.056716736406087875, 0.11444562881178369, 0.35708769423831654, 3.1294850856986125, 9362.0, 30146.0, 35388.0, 9362.0, 8.370248794555664, -0.09053261578083038, -0.07052943855524063, 0.08011001348495483, 0.011777544394135475, -0.05044062063097954, 0.9975959658622742, -0.07297085225582123, -0.12023735046386719, 1.486083984375, 1.4501953125, 0.1050872802734375, 1.48974609375, 1.5146484375, 10.0, 1.4356266260147095, 1.5, 1.4356266260147095
15295, -0.8239307999610901, -2.0527188777923584, -1.321346640586853, 0.08642559498548508, 0.033219221979379654, -2.621110200881958, 0.24755550920963287, 0.09439162909984589, -0.3794211745262146, -0.8377410769462585, -0.9497770667076111, 0.05664117634296417, 0.08535801929931172, 0.3146792894761745, 3.1172626896899778, 9362.0, 30146.0, 35388.0, 9362.0, 8.370248794555664, -0.09053261578083038, -0.07052943855524063, 0.08011001348495483, 0.011270907707512379, -0.05286356061697006, 0.9978743195533752, -0.07297085225582123, -0.12023735046386719, 1.486083984375, 1.3388671875, 0.017120361328125, 1.48974609375, 1.482421875, 10.0, 1.4357749223709106, 1.5, 1.4357749223709106
15305, -0.8234984874725342, -2.051025152206421, -1.3215347528457642, 0.09661156684160233, 0.03710091859102249, -2.6363110542297363, 0.2617391347885132, 0.09969448298215866, -0.3804923892021179, -0.837719738483429, -0.949822723865509, 0.0568765327334404, 0.017749778179814133, 0.22298133510929574, 3.1852222269255135, 9362.0, 30146.0, 35388.0, 9362.0, 8.370248794555664, -0.09053261578083038, -0.07052943855524063, 0.08011001348495483, 0.009906463325023651, -0.05299172177910805, 0.99746173620224, -0.07297085225582123, -0.12023735046386719, 1.486083984375, 1.3388671875, 0.017120361328125, 1.48974609375, 1.453125, 10.0, 1.4358298778533936, 1.5, 1.4358298778533936
15315, -0.8236228823661804, -2.0508780479431152, -1.3229531049728394, 0.09661156684160233, 0.03710091859102249, -2.6363110542297363, 0.2617391347885132, 0.09969448298215866, -0.3804923892021179, -0.837734580039978, -0.9498240947723389, 0.05688143149018288, 0.020561737272085295, 0.2278306926175162, 3.188115682537342, 9362.0, 30146.0, 35388.0, 9362.0, 8.370248794555664, -0.09053261578083038, -0.07052943855524063, 0.08011001348495483, 0.009423681534826756, -0.054123975336551666, 0.9967229962348938, -0.07297085225582123, -0.12023735046386719, 1.486083984375, 1.3388671875, 0.017120361328125, 1.48974609375, 1.43994140625, 10.0, 1.4358428716659546, 1.5, 1.4358428716659546
15335, -0.8269847631454468, -2.0501832962036133, -1.3193753957748413, 0.09661156684160233, 0.03710091859102249, -2.6363110542297363, 0.2617391347885132, 0.09969448298215866, -0.3804923892021179, -0.8377900719642639, -0.9497772455215454, 0.05670895054936409, 0.12458734877463289, 0.35319538219650326, 3.128270807666793, 9362.0, 30146.0, 35388.0, 9362.0, 8.370248794555664, 0.04547902196645737, 0.18130719661712646, -0.11344700306653976, 0.009423681534826756, -0.054123975336551666, 0.9967229962348938, -0.07754229754209518, -0.15607833862304688, 1.483154296875, 1.3388671875, 0.017120361328125, 1.493408203125, 1.43994140625, 10.0, 1.4357856512069702, 1.5, 1.4357856512069702
15345, -0.8264224529266357, -2.0514018535614014, -1.3182389736175537, 0.09661156684160233, 0.03710091859102249, -2.6363110542297363, 0.2617391347885132, 0.09969448298215866, -0.3804923892021179, -0.8377606868743896, -0.9497637152671814, 0.0566692054271698, 0.08452914932721027, 0.32797446957314946, 3.1186973316046287, 9362.0, 30146.0, 35388.0, 9362.0, 8.370248794555664, 0.04547902196645737, 0.18130719661712646, -0.11344700306653976, 0.011299540288746357, -0.05014275759458542, 0.9981454610824585, -0.07754229754209518, -0.15607833862304688, 1.483154296875, 1.2978515625, 0.05224609375, 1.493408203125, 1.49853515625, 10.0, 1.435984492301941, 1.5, 1.435984492301941
15355, -0.8253349661827087, -2.0521342754364014, -1.3177769184112549, 0.09661156684160233, 0.03710091859102249, -2.6363110542297363, 0.2617391347885132, 0.09969448298215866, -0.3804923892021179, -0.8377535343170166, -0.9497519135475159, 0.05667978525161743, 0.0874001147007499, 0.3177338856131371, 3.114028603606926, 9362.0, 30146.0, 35388.0, 9362.0, 8.370248794555664, -0.07687414437532425, -0.15946891903877258, -0.2858272194862366, 0.011299540288746357, -0.05014275759458542, 0.9981454610824585, -0.07754229754209518, -0.15607833862304688, 1.483154296875, 1.2978515625, 0.05224609375, 1.493408203125, 1.49853515625, 10.0, 1.4357138872146606, 1.5, 1.4357138872146606
15365, -0.8258652091026306, -2.051950693130493, -1.3179527521133423, 0.11295206844806671, 0.04332141950726509, -2.6591956615448, 0.2829461097717285, 0.1076647937297821, -0.3821963667869568, -0.8377555012702942, -0.9497764110565186, 0.0566689670085907, 0.08740580058210942, 0.3271610876194302, 3.1129541024634606, 9362.0, 30146.0, 35388.0, 9362.0, 8.370248794555664, -0.07687414437532425, -0.15946891903877258, -0.2858272194862366, 0.010537827387452126, -0.052027612924575806, 0.9981277585029602, -0.07754229754209518, -0.15607833862304688, 1.483154296875, 1.2978515625, 0.05224609375, 1.493408203125, 1.452392578125, 10.0, 1.4357666969299316, 1.5, 1.4357666969299316
15375, -0.8243813514709473, -2.0534605979919434, -1.3189806938171387, 0.11295206844806671, 0.04332141950726509, -2.6591956615448, 0.2829461097717285, 0.1076647937297821, -0.3821963667869568, -0.8377309441566467, -0.9498240947723389, 0.05687108635902405, 0.0113263211337269, 0.2326382971985197, 3.18375693172411, 9362.0, 30146.0, 35388.0, 9362.0, 8.370248794555664, -0.04836447536945343, 0.33236023783683777, 0.1627824455499649, 0.010537827387452126, -0.052027612924575806, 0.9981277585029602, -0.07754229754209518, -0.15607833862304688, 1.483154296875, 1.2978515625, 0.05224609375, 1.493408203125, 1.452392578125, 10.0, 1.4356662034988403, 1.5, 1.4356662034988403
15385, -0.8242933750152588, -2.055579423904419, -1.317048192024231, 0.11295206844806671, 0.04332141950726509, -2.6591956615448, 0.2829461097717285, 0.1076647937297821, -0.3821963667869568, -0.837717592716217, -0.949799656867981, 0.05671641603112221, 0.1049492028988751, 0.33287479865379055, 3.1107438039574022, 9362.0, 30146.0, 35388.0, 9362.0, 8.370248794555664, 0.21356306970119476, 0.11071658134460449, 0.11907786130905151, 0.010537827387452126, -0.052027612924575806, 0.9981277585029602, -0.07754229754209518, -0.15607833862304688, 1.483154296875, 1.408447265625, 0.0485382080078125, 1.493408203125, 1.452392578125, 10.0, 1.4357563257217407, 1.5, 1.4357563257217407
15395, -0.8240229487419128, -2.055331230163574, -1.3183201551437378, 0.11295206844806671, 0.04332141950726509, -2.6591956615448, 0.2829461097717285, 0.1076647937297821, -0.3821963667869568, -0.837733268737793, -0.9498135447502136, 0.05675956979393959, 0.10404229850362648, 0.35302908407112454, 3.0997603419989384, 9362.0, 30146.0, 35388.0, 9362.0, 8.370248794555664, -0.05695923790335655, 0.4657982587814331, 0.0029183607548475266, 0.010537827387452126, -0.052027612924575806, 0.9981277585029602, -0.07754229754209518, -0.15607833862304688, 1.483154296875, 1.333740234375, 0.0189361572265625, 1.493408203125, 1.46044921875, 10.0, 1.4357563257217407, 1.5, 1.4357563257217407
15405, -0.823914110660553, -2.0573031902313232, -1.3192975521087646, 0.1245531365275383, 0.04773441702127457, -2.674499034881592, 0.29711222648620605, 0.11298293620347977, -0.38298332691192627, -0.837790310382843, -0.9497619271278381, 0.05671977624297142, 0.12181638387166331, 0.34763428850419587, 3.1328051057294153, 9362.0, 30146.0, 35388.0, 9362.0, 8.370248794555664, -0.05695923790335655, 0.4657982587814331, 0.0029183607548475266, 0.010537827387452126, -0.052027612924575806, 0.9981277585029602, -0.07754229754209518, -0.15607833862304688, 1.483154296875, 1.333740234375, 0.0189361572265625, 1.493408203125, 1.48974609375, 10.0, 1.4360053539276123, 1.5, 1.4360053539276123
15415, -0.8242993950843811, -2.05611252784729, -1.3195650577545166, 0.1245531365275383, 0.04773441702127457, -2.674499034881592, 0.29711222648620605, 0.11298293620347977, -0.38298332691192627, -0.8377671241760254, -0.9497643113136292, 0.05666983127593994, 0.07658347527890574, 0.32036952512072503, 3.12390563583499, 9362.0, 30146.0, 35388.0, 9362.0, 8.370248794555664, 0.1454722136259079, 0.009919850155711174, 0.16551083326339722, 0.010537827387452126, -0.052027612924575806, 0.9981277585029602, -0.07754229754209518, -0.15607833862304688, 1.483154296875, 1.333740234375, 0.0189361572265625, 1.493408203125, 1.48974609375, 10.0, 1.43595290184021, 1.5, 1.43595290184021
15435, -0.823154091835022, -2.0564754009246826, -1.3206374645233154, 0.1305663138628006, 0.05002063885331154, -2.682162046432495, 0.30420729517936707, 0.11563878506422043, -0.383332222700119, -0.8377447128295898, -0.9498233795166016, 0.05694786459207535, 0.043467072593026304, 0.2569058556307482, 3.194322642324534, 9362.0, 30146.0, 35388.0, 9362.0, 8.370248794555664, -0.04645237326622009, -0.02041194774210453, 0.03442146256566048, 0.010537827387452126, -0.052027612924575806, 0.9981277585029602, -0.0675688162446022, 0.05896186828613281, 1.500732421875, 1.333740234375, 0.0189361572265625, 1.5, 1.48974609375, 10.0, 1.435617446899414, 1.5, 1.435617446899414
15445, -0.8228792548179626, -2.0567071437835693, -1.3199241161346436, 0.1305663138628006, 0.05002063885331154, -2.682162046432495, 0.30420729517936707, 0.11563878506422043, -0.383332222700119, -0.8377665281295776, -0.9497589468955994, 0.05665262043476105, 0.08934010638374588, 0.3286967660752964, 3.120595673181386, 9362.0, 30146.0, 35388.0, 9362.0, 8.370248794555664, -0.04645237326622009, -0.02041194774210453, 0.03442146256566048, 0.010423675179481506, -0.053582288324832916, 0.9965763092041016, -0.0675688162446022, 0.05896186828613281, 1.500732421875, 1.333740234375, 0.0189361572265625, 1.5, 1.48974609375, 10.0, 1.4351229667663574, 1.5, 1.4351229667663574
15455, -0.8220674395561218, -2.0595107078552246, -1.3194222450256348, 0.1305663138628006, 0.05002063885331154, -2.682162046432495, 0.30420729517936707, 0.11563878506422043, -0.383332222700119, -0.8377962708473206, -0.9497718214988708, 0.05673263967037201, 0.11595418396937017, 0.3425321895942943, 3.142794991654157, 9362.0, 30146.0, 35388.0, 9362.0, 8.370248794555664, -0.04645237326622009, -0.02041194774210453, 0.03442146256566048, 0.010423675179481506, -0.053582288324832916, 0.9965763092041016, -0.0675688162446022, 0.05896186828613281, 1.500732421875, 1.433349609375, 0.0797576904296875, 1.5, 1.48974609375, 10.0, 1.4347206354141235, 1.5, 1.4347206354141235
15465, -0.8227404356002808, -2.0619075298309326, -1.3201305866241455, 0.1305663138628006, 0.05002063885331154, -2.682162046432495, 0.30420729517936707, 0.11563878506422043, -0.383332222700119, -0.8377565145492554, -0.9497559666633606, 0.056660305708646774, 0.0864867279658333, 0.3199297147188531, 3.116881158483409, 9362.0, 30146.0, 35388.0, 9362.0, 8.370248794555664, 0.09384594112634659, 0.3355236053466797, 0.07352952659130096, 0.010423675179481506, -0.053582288324832916, 0.9965763092041016, -0.0675688162446022, 0.05896186828613281, 1.500732421875, 1.418701171875, 0.0603485107421875, 1.5, 1.434814453125, 10.0, 1.4347206354141235, 1.5, 1.4347206354141235
15475, -0.8220351934432983, -2.0625643730163574, -1.320342779159546, 0.1305663138628006, 0.05002063885331154, -2.682162046432495, 0.30420729517936707, 0.11563878506422043, -0.383332222700119, -0.8377864360809326, -0.9497725367546082, 0.05672319233417511, 0.10852647286122621, 0.3310787671395019, 3.140349210608956, 9362.0, 30146.0, 35388.0, 9362.0, 8.370248794555664, 0.09384594112634659, 0.3355236053466797, 0.07352952659130096, 0.010423675179481506, -0.053582288324832916, 0.9965763092041016, -0.0675688162446022, 0.05896186828613281, 1.500732421875, 1.418701171875, 0.0603485107421875, 1.49853515625, 1.502197265625, 10.0, 1.4349346160888672, 1.5, 1.4349346160888672
