timeTick, roll, pitch, yaw, stateX, stateY, stateZ, stateVX, stateVY, stateVZ, otX0, otY0, otZ0, otRoll0, otPitch0, otYaw0, left wing, pitch motor, yaw motor, right wing, voltage, roll rate, pitch rate, yaw rate, A_x, A_y, A_z, current, i_raw, v_raw, airflow_voltage, airflow_speed, pot_Pitch, voltage_nKF, kFFx, state_vel, State_vel, volt_KF_vel
19491, -0.2998787462711334, -4.482015609741211, 0.7157708406448364, 0, 0, 0, 0, 0, 0, -0.8202525973320007, -0.9676640629768372, 0.056128427386283875, 0.05775890224658742, -0.4389210779367829, -0.5088907781603089, 0, 0, 0, 0, 0, 0, 0, 0, 0, 0, 0, 0, 0, 0, 0, 0, 0, 0, 0, 0, 0, 0
19501, -0.29996708035469055, -4.4837517738342285, 0.7168068885803223, -0.0005727757234126329, -4.536184133030474e-05, -4.154905319213867, -0.020995352417230606, -0.0016607299912720919, -0.46427464485168457, -0.8202453851699829, -0.9676731824874878, 0.05618221312761307, 0.04787892649118402, -0.42830777669951203, -0.49820093786554515, 9362.0, 30146.0, 35388.0, 9362.0, 0, 0.08320976048707962, 0.22920629382133484, 0.06433822959661484, 0.005224728491157293, -0.05149783194065094, 0.9999175071716309, 0, 0, 0, 1.30224609375, 0.0460052490234375, 0, 0, 0, 0, 0, 0
19511, -0.29975202679634094, -4.4825825691223145, 0.7165848016738892, -0.0007444765651598573, -5.892668923479505e-05, -4.159550189971924, -0.013344831764698029, -0.0010521011427044868, -0.4646844267845154, -0.8202424645423889, -0.9676762819290161, 0.05613628029823303, 0.054633083156678704, -0.42165489372752063, -0.5097776455976017, 9362.0, 30146.0, 35388.0, 9362.0, 0, -0.12093862891197205, -0.07512436807155609, -0.21836596727371216, 0.003831433830782771, -0.05223990976810455, 1.0000859498977661, 0, 0, 0, 1.341064453125, 0.01654052734375, 1.493408203125, 1.251708984375, 10.0, 1.0, 10.0, 1.3716590404510498
19521, -0.2985648810863495, -4.483019828796387, 0.7158330082893372, -0.0008396056364290416, -6.63994942442514e-05, -4.164198398590088, -0.005680974572896957, -0.000442490418208763, -0.46496161818504333, -0.8202447891235352, -0.9676539301872253, 0.05617477372288704, 0.05991420638771921, -0.4347294471069745, -0.49808827284668716, 9362.0, 30146.0, 35388.0, 9362.0, 0, 0.19431480765342712, 0.026179539039731026, -0.04801947996020317, 0.0018504825420677662, -0.05159875750541687, 1.0006732940673828, 0, 0, 0, 1.431884765625, 0.07769775390625, 1.493408203125, 1.435546875, 10.0, 1.0, 10.0, 1.3715616464614868
19531, -0.29877716302871704, -4.483455181121826, 0.7165971398353577, -0.0008580973371863365, -6.777761154808104e-05, -4.168849468231201, 0.0019826411735266447, 0.0001667595061007887, -0.46521657705307007, -0.820107638835907, -0.9678226113319397, 0.05643446743488312, -0.08500827728094293, -0.3428386276551123, -0.4704267076008644, 9362.0, 30146.0, 35388.0, 9362.0, 0, -0.24432146549224854, -0.0897124856710434, 0.026680869981646538, -0.00042005672003142536, -0.05334997922182083, 0.998759925365448, 0, 0, 0, 1.2509765625, 0.1600799560546875, 1.49560546875, 1.42236328125, 10.0, 1.0, 10.0, 1.3717535734176636
19541, -0.2990308701992035, -4.484673976898193, 0.7163618803024292, -0.0007999833906069398, -6.307657895376906e-05, -4.173503398895264, 0.009640132077038288, 0.0007735497783869505, -0.46555957198143005, -0.8202661275863647, -0.967677116394043, 0.05620596930384636, 0.0505898505855054, -0.42145179561291, -0.5100724600289845, 9362.0, 30146.0, 35388.0, 9362.0, 0, -0.05260913074016571, 0.3174441158771515, -0.17370526492595673, 0.0004191009502392262, -0.0518832728266716, 0.9977845549583435, 0, 0, 0, 1.423095703125, 0.06591796875, 1.49560546875, 1.4326171875, 10.0, 1.0, 10.0, 1.3713692426681519
19551, -0.2990526556968689, -4.4836745262146, 0.7157531380653381, -0.0006653364398516715, -5.230888200458139e-05, -4.178161144256592, 0.017289260402321815, 0.0013799596345052123, -0.4660188853740692, -0.820256233215332, -0.9676724672317505, 0.056210968643426895, 0.05507354205987457, -0.414588681020831, -0.5045946023902269, 9362.0, 30146.0, 35388.0, 9362.0, 0, 0.01920601725578308, -0.1677781641483307, -0.12069537490606308, 0.0020745128858834505, -0.051769740879535675, 0.9985039830207825, 0, 0, 0, 1.352783203125, 0.015350341796875, 1.4912109375, 1.43115234375, 10.0, 1.0, 10.0, 1.3715338706970215
19561, -0.298965722322464, -4.485159397125244, 0.7154989242553711, -0.0004541941452771425, -3.547544474713504e-05, -4.182823657989502, 0.02493921108543873, 0.001986646791920066, -0.4664941728115082, -0.8202472925186157, -0.9676793813705444, 0.05622093006968498, 0.05386241153973312, -0.42729911123166175, -0.4935174971232466, 9362.0, 30146.0, 35388.0, 9362.0, 0, 0.04980731010437012, -0.048456043004989624, -0.157796248793602, 0.0021479339338839054, -0.05491653084754944, 1.000368356704712, 0, 0, 0, 1.40771484375, 0.0478363037109375, 1.4912109375, 1.33740234375, 10.0, 1.0, 10.0, 1.371474266052246
19571, -0.3003667891025543, -4.483696460723877, 0.7150518298149109, -0.00016651133773848414, -1.25715414469596e-05, -4.187490463256836, 0.03259733319282532, 0.002594100311398506, -0.46684348583221436, -0.82023686170578, -0.9676687121391296, 0.05622616037726402, 0.04888524879995322, -0.42370139177037913, -0.5086012255363973, 9362.0, 30146.0, 35388.0, 9362.0, 0, 0.10515663772821426, -0.07661847770214081, -0.07891864329576492, 0.0032683194149285555, -0.050372328609228134, 0.9984238147735596, 0, 0, 0, 1.37548828125, 0.021820068359375, 1.5, 1.4384765625, 10.0, 1.0, 10.0, 1.3715895414352417
19581, -0.30055391788482666, -4.484385013580322, 0.7163882851600647, 0.00019773680833168328, 1.6403871995862573e-05, -4.1921610832214355, 0.04025230556726456, 0.0032009275164455175, -0.46726542711257935, -0.8201184868812561, -0.9678332805633545, 0.05648307502269745, -0.08583303253125893, -0.3538007515236359, -0.46697891353327636, 9362.0, 30146.0, 35388.0, 9362.0, 0, -0.11648116260766983, 0.007279589772224426, -0.018299508839845657, 0.003627586178481579, -0.05070754140615463, 0.9997968673706055, 0, 0, 0, 1.29931640625, 0.0500640869140625, 1.5, 1.3271484375, 10.0, 1.0, 10.0, 1.371601939201355
19591, -0.3015458285808563, -4.485272407531738, 0.7168713212013245, 0.0006385690066963434, 5.146282637724653e-05, -4.196835041046143, 0.04791411757469177, 0.003811042755842209, -0.4675677418708801, -0.820258617401123, -0.9676833152770996, 0.05622733011841774, 0.04812733580662507, -0.4232773936602712, -0.4961478857201765, 9362.0, 30146.0, 35388.0, 9362.0, 8.390083312988281, -0.05540012568235397, 0.060475245118141174, 0.20444606244564056, 0.0023640841245651245, -0.05020546540617943, 0.9984263181686401, -0.029280496761202812, -0.07543754577636719, 1.48974609375, 1.46630859375, 0.132171630859375, 1.49853515625, 1.469970703125, 10.0, 1.0, 10.0, 1.3713719844818115
19601, -0.3007572293281555, -4.4887542724609375, 0.7189528942108154, 0.0011559897102415562, 9.262269304599613e-05, -4.201512813568115, 0.05557001754641533, 0.00442099804058671, -0.46796032786369324, -0.820244550704956, -0.9676895141601562, 0.05623680725693703, 0.05202480004134869, -0.4191794318796269, -0.5096131082697339, 9362.0, 30146.0, 35388.0, 9362.0, 8.390083312988281, 0.12744954228401184, 0.5637919902801514, 0.04634345695376396, 0.001956414896994829, -0.050703782588243484, 0.9963403344154358, -0.029280496761202812, -0.07543754577636719, 1.48974609375, 1.134521484375, 0.88360595703125, 1.49853515625, 1.270751953125, 10.0, 1.0, 10.0, 1.3716739416122437
19611, -0.30081474781036377, -4.488402366638184, 0.7187314033508301, 0.0017498942324891686, 0.000139884403324686, -4.20619535446167, 0.06321084499359131, 0.005031621549278498, -0.4685642719268799, -0.8202431797981262, -0.9676714539527893, 0.0562114343047142, 0.05093821277777966, -0.4305443142561671, -0.5103565083558421, 9362.0, 30146.0, 35388.0, 9362.0, 8.390083312988281, -0.17608477175235748, -0.06356597691774368, 0.09549462050199509, 0.0033334887120872736, -0.051625993102788925, 0.9972389340400696, -0.029280496761202812, -0.07543754577636719, 1.48974609375, 1.29345703125, 0.05889892578125, 1.493408203125, 1.3974609375, 10.0, 1.0, 10.0, 1.3709195852279663
19621, -0.30007603764533997, -4.4850969314575195, 0.7158308625221252, 0.002420224715024233, 0.00019324643653817475, -4.210884094238281, 0.0708552747964859, 0.005640755407512188, -0.4691982865333557, -0.8200939893722534, -0.9676834940910339, 0.05620221793651581, 0.05296876207324634, -0.43070825605107643, -0.493230693013972, 9362.0, 30146.0, 35388.0, 9362.0, 8.390083312988281, -0.04758411645889282, -0.52412348985672, -0.4022018015384674, 0.004317998420447111, -0.05388845130801201, 0.9993970394134521, -0.029280496761202812, -0.07543754577636719, 1.48974609375, 1.13671875, 0.862274169921875, 1.493408203125, 1.447998046875, 10.0, 1.0, 10.0, 1.3706731796264648
19631, -0.30001792311668396, -4.4843525886535645, 0.7169644832611084, 0.0031671016477048397, 0.00025270850164815784, -4.215578079223633, 0.07852017134428024, 0.00625126576051116, -0.46956387162208557, -0.8202393054962158, -0.967670202255249, 0.05621781200170517, 0.04938849714638454, -0.4316104079827312, -0.5011486957815812, 9362.0, 30146.0, 35388.0, 9362.0, 8.390083312988281, 0.040232960134744644, -0.11478142440319061, 0.1536620408296585, 0.005064757075160742, -0.05126195028424263, 0.9993724822998047, -0.029280496761202812, -0.07543754577636719, 1.48974609375, 1.40771484375, 0.0478363037109375, 1.4970703125, 1.399658203125, 10.0, 1.0, 10.0, 1.3699290752410889
19641, -0.29982611536979675, -4.4853997230529785, 0.7172062397003174, 0.003990587312728167, 0.00031826607300899923, -4.22027587890625, 0.08617695420980453, 0.006860397290438414, -0.4699608385562897, -0.8200995922088623, -0.9678061008453369, 0.05645078048110008, -0.08534109188929963, -0.34513358080761236, -0.46312703644425657, 9362.0, 30146.0, 35388.0, 9362.0, 8.390083312988281, 0.04958595708012581, 0.24040773510932922, 0.22063684463500977, 0.0017931399634107947, -0.05175115540623665, 0.9994707703590393, -0.029280496761202812, -0.07543754577636719, 1.48974609375, 1.42236328125, 0.0649566650390625, 1.4970703125, 1.34326171875, 10.0, 1.0, 10.0, 1.370049238204956
19651, -0.2999294400215149, -4.485422611236572, 0.7192359566688538, 0.004890651907771826, 0.0003899165312759578, -4.224977016448975, 0.09383595734834671, 0.007469724863767624, -0.4703132212162018, -0.8201013803482056, -0.9678203463554382, 0.056457072496414185, -0.09252669119068163, -0.34236976072696734, -0.47046945353336, 9362.0, 30146.0, 35388.0, 9362.0, 8.390083312988281, 0.062419917434453964, -0.1096428856253624, 0.06510244309902191, 0.002405918901786208, -0.050990354269742966, 0.9987761378288269, -0.029280496761202812, -0.07543754577636719, 1.48974609375, 1.17626953125, 0.534088134765625, 1.496337890625, 1.25244140625, 10.0, 1.0, 10.0, 1.370215654373169
19661, -0.29923108220100403, -4.483339786529541, 0.7163819670677185, 0.005867305211722851, 0.00046765810111537576, -4.229681968688965, 0.10149470716714859, 0.008078858256340027, -0.47069165110588074, -0.8200952410697937, -0.9678004384040833, 0.05646837502717972, -0.097392808552041, -0.35187056359060875, -0.45909536831513925, 9362.0, 30146.0, 35388.0, 9362.0, 8.390083312988281, 0.04818601533770561, -0.023731593042612076, -0.1371498852968216, 0.0048914141952991486, -0.05386357381939888, 0.9978458881378174, -0.029280496761202812, -0.07543754577636719, 1.48974609375, 1.38134765625, 0.025177001953125, 1.496337890625, 1.4033203125, 10.0, 1.0, 10.0, 1.3695988655090332
19671, -0.2995336651802063, -4.480362892150879, 0.7147408127784729, 0.006920516490936279, 0.0005514908698387444, -4.234391212463379, 0.10914760082960129, 0.008687314577400684, -0.47114530205726624, -0.8201016187667847, -0.967792809009552, 0.05641630291938782, -0.08182048849628239, -0.35731238331004533, -0.4618032548720257, 9362.0, 30146.0, 35388.0, 9362.0, 8.390083312988281, -0.03261464461684227, -0.18824881315231323, -0.2547643184661865, 0.0037367530167102814, -0.052100952714681625, 0.997434139251709, -0.029280496761202812, -0.07543754577636719, 1.48974609375, 1.341796875, 0.0162811279296875, 1.49267578125, 1.42529296875, 10.0, 1.0, 10.0, 1.3696361780166626
19681, -0.29922184348106384, -4.479941368103027, 0.7180153131484985, 0.00805021170526743, 0.0006413978990167379, -4.239105224609375, 0.11679138988256454, 0.009293871931731701, -0.4716700613498688, -0.8201049566268921, -0.9677990078926086, 0.05642195791006088, -0.08350640609796577, -0.354768153848255, -0.46708269404326835, 9362.0, 30146.0, 35388.0, 9362.0, 8.390083312988281, 0.01456109806895256, 0.04699128493666649, 0.48969462513923645, 0.004022073931992054, -0.052840013056993484, 0.9964717626571655, -0.029280496761202812, -0.07543754577636719, 1.48974609375, 1.239990234375, 0.1979827880859375, 1.49267578125, 1.39306640625, 10.0, 1.0, 10.0, 1.3695476055145264
19691, -0.2990688383579254, -4.479511260986328, 0.7186949253082275, 0.009256267920136452, 0.0007373675471171737, -4.243825435638428, 0.12441974878311157, 0.009900497272610664, -0.47232672572135925, -0.8200869560241699, -0.9678052663803101, 0.056381627917289734, -0.09320115059259132, -0.3721589415879407, -0.4695735815763522, 9362.0, 30146.0, 35388.0, 9362.0, 8.390083312988281, -0.006571849342435598, -0.01912963017821312, 0.11072196811437607, 0.002603566739708185, -0.05086342245340347, 0.9965613484382629, -0.04345462843775749, -0.07543754577636719, 1.48974609375, 1.2158203125, 0.300750732421875, 1.49560546875, 1.38720703125, 10.0, 1.0, 10.0, 1.3691356182098389
19701, -0.29912030696868896, -4.478792190551758, 0.7179973721504211, 0.010538614355027676, 0.0008394037722609937, -4.248551845550537, 0.13204948604106903, 0.01050683856010437, -0.47295597195625305, -0.8201019167900085, -0.9678027033805847, 0.05639197677373886, -0.08531890719740572, -0.35627451017583667, -0.470360180919141, 9362.0, 30146.0, 35388.0, 9362.0, 8.390083312988281, 0.10584639757871628, 0.010351564735174179, -0.13692781329154968, 0.0008071098709478974, -0.05399404466152191, 0.9978853464126587, -0.04345462843775749, -0.07543754577636719, 1.48974609375, 1.38427734375, 0.027099609375, 1.49560546875, 1.42236328125, 10.0, 1.0, 10.0, 1.3686481714248657
19711, -0.2994951903820038, -4.48005485534668, 0.7188919186592102, 0.011897276155650616, 0.0009475042461417615, -4.253284454345703, 0.13968291878700256, 0.01111316867172718, -0.4735291004180908, -0.8200810551643372, -0.9678013324737549, 0.05638386681675911, -0.09043131140796762, -0.36065511712811826, -0.46663602484095573, 9362.0, 30146.0, 35388.0, 9362.0, 8.390083312988281, 0.01176643930375576, 0.20830762386322021, 0.10051626712083817, 0.003028957638889551, -0.05286390706896782, 0.9974448084831238, -0.04345462843775749, -0.07543754577636719, 1.48974609375, 1.43994140625, 0.089324951171875, 1.494873046875, 1.43408203125, 10.0, 1.0, 10.0, 1.3686978816986084
19721, -0.29952725768089294, -4.479937553405762, 0.7181070446968079, 0.013332282193005085, 0.0010616692015901208, -4.258022308349609, 0.14731824398040771, 0.011719939298927784, -0.4740622639656067, -0.8201010823249817, -0.9677976965904236, 0.05637260898947716, -0.08627632634907409, -0.35654789833222367, -0.4687646624834672, 9362.0, 30146.0, 35388.0, 9362.0, 8.390083312988281, 0.04680028557777405, -0.045701030641794205, -0.04633255675435066, 0.0029778103344142437, -0.05291759595274925, 0.9980675578117371, -0.04345462843775749, -0.07543754577636719, 1.48974609375, 1.2685546875, 0.1099395751953125, 1.494873046875, 1.405517578125, 10.0, 1.0, 10.0, 1.3689243793487549
19731, -0.29980364441871643, -4.4792704582214355, 0.7181110978126526, 0.014843667857348919, 0.001181907020509243, -4.262765407562256, 0.15495891869068146, 0.0123275276273489, -0.4745548367500305, -0.8200949430465698, -0.9678066968917847, 0.056364309042692184, -0.09414993993671361, -0.35138791659207413, -0.46888695521301654, 9362.0, 30146.0, 35388.0, 9362.0, 8.390083312988281, -0.2294154018163681, -0.18014709651470184, -0.18269728124141693, 0.002869232790544629, -0.05112514644861221, 0.997161865234375, -0.04345462843775749, -0.07543754577636719, 1.48974609375, 1.4326171875, 0.0786895751953125, 1.487548828125, 1.43115234375, 10.0, 1.0, 10.0, 1.3686052560806274
19741, -0.29927024245262146, -4.480247497558594, 0.7156100869178772, 0.016431430354714394, 0.0013082181103527546, -4.267513751983643, 0.16259340941905975, 0.012934690341353416, -0.47512340545654297, -0.8201184272766113, -0.9677934646606445, 0.05636932700872421, -0.08600344121957257, -0.35418394618659477, -0.46958183649619667, 9362.0, 30146.0, 35388.0, 9362.0, 8.390083312988281, 0.045834045857191086, 0.05144168436527252, -0.12397658079862595, 0.002406428335234523, -0.055304110050201416, 0.9981753826141357, -0.04345462843775749, -0.07543754577636719, 1.48974609375, 1.472900390625, 0.1439361572265625, 1.487548828125, 1.43994140625, 10.0, 1.0, 10.0, 1.3688087463378906
19841, -0.2951163947582245, -4.486410140991211, 0.7207019925117493, 0.034163642674684525, 0.002718085190281272, -4.310435771942139, 0.23146598041057587, 0.018387293443083763, -0.47882941365242004, -0.8201085329055786, -0.9677927494049072, 0.05635228008031845, -0.08772320762852424, -0.358233125165242, -0.46702133994314415, 9362.0, 30146.0, 35388.0, 9362.0, 8.390083312988281, -0.08380430191755295, -0.2996925115585327, -0.0869826227426529, 0.001392199657857418, -0.052983641624450684, 0.9971264004707336, -0.04345462843775749, -0.07543754577636719, 1.48974609375, 1.481689453125, 0.1600799560546875, 1.490478515625, 1.437744140625, 10.0, 1.0, 10.0, 1.3688087463378906
19861, -0.2958638370037079, -4.486001014709473, 0.7204079031944275, 0.04145185276865959, 0.003296707756817341, -4.32482385635376, 0.2544078528881073, 0.02018745429813862, -0.480469286441803, -0.8200976848602295, -0.967805802822113, 0.05634089931845665, -0.08622655962495582, -0.3633184709707109, -0.45987858058518505, 9362.0, 30146.0, 35388.0, 9362.0, 8.390083312988281, -0.1893012523651123, 0.26830998063087463, 0.07921423763036728, 0.001392199657857418, -0.052983641624450684, 0.9971264004707336, -0.04345462843775749, -0.07543754577636719, 1.48974609375, 1.423828125, 0.066802978515625, 1.494873046875, 1.437744140625, 10.0, 1.0, 10.0, 1.3688087463378906
19921, -0.2960329055786133, -4.491392612457275, 0.7203546166419983, 0.04669298231601715, 0.0037124580703675747, -4.33444356918335, 0.26970723271369934, 0.021388884633779526, -0.4814736545085907, -0.8201141953468323, -0.9678245186805725, 0.056357745081186295, -0.08892385881224872, -0.35343902718074105, -0.473940242911796, 9362.0, 30146.0, 35388.0, 9362.0, 8.390083312988281, 0.20688854157924652, 0.3073844611644745, 0.08515147864818573, 0.003657558700069785, -0.05296526104211807, 0.9984058141708374, -0.04345462843775749, -0.07543754577636719, 1.48974609375, 1.3271484375, 0.022308349609375, 1.494873046875, 1.399658203125, 10.0, 1.0, 10.0, 1.3688087463378906
19941, -0.2961706817150116, -4.493340969085693, 0.7202081084251404, 0.06113482639193535, 0.004857310559600592, -4.358582496643066, 0.30798470973968506, 0.02440744638442993, -0.483879029750824, -0.820097804069519, -0.9678089022636414, 0.05632450431585312, -0.08087562733845755, -0.3532394611672487, -0.46054103647648287, 9362.0, 30146.0, 35388.0, 9362.0, 8.390083312988281, -0.1887948364019394, -0.3178788423538208, -0.31399062275886536, 0.0026340684853494167, -0.04893779009580612, 0.9985573887825012, -0.04345462843775749, -0.07543754577636719, 1.48974609375, 1.3916015625, 0.0325927734375, 1.493408203125, 1.399658203125, 10.0, 1.0, 10.0, 1.3688087463378906
20041, -0.2961643636226654, -4.495176792144775, 0.720302939414978, 0.09196116775274277, 0.007298204582184553, -4.40228271484375, 0.37703877687454224, 0.029836367815732956, -0.48736023902893066, -0.8200940489768982, -0.9678058624267578, 0.05638359487056732, -0.09732858962218835, -0.3610752316255912, -0.4668491762994287, 9362.0, 30146.0, 35388.0, 9362.0, 8.390083312988281, 0.06931796669960022, 0.1621350795030594, 0.07584875077009201, 0.002463696291670203, -0.051748163998126984, 0.9984577894210815, -0.04345462843775749, -0.07543754577636719, 1.48974609375, 1.4326171875, 0.0786895751953125, 1.489013671875, 1.392333984375, 10.0, 1.0, 10.0, 1.36949622631073
20061, -0.2959202826023102, -4.496513366699219, 0.721583366394043, 0.10765618830919266, 0.008539739064872265, -4.421813011169434, 0.4077235460281372, 0.03224316984415054, -0.48904380202293396, -0.8200997710227966, -0.96781986951828, 0.05639376863837242, -0.09708161800292299, -0.36116059902880693, -0.4646913864939392, 9362.0, 30146.0, 35388.0, 9362.0, 8.390083312988281, -0.025901591405272484, 0.46372124552726746, -0.06953968107700348, 0.002463696291670203, -0.051748163998126984, 0.9984577894210815, -0.04345462843775749, -0.07543754577636719, 1.48974609375, 1.465576171875, 0.130889892578125, 1.493408203125, 1.392333984375, 10.0, 1.0, 10.0, 1.36949622631073
20101, -0.2929956614971161, -4.49700927734375, 0.7219794988632202, 0.12023305147886276, 0.009534132666885853, -4.436505317687988, 0.430735319852829, 0.034048184752464294, -0.4904443025588989, -0.8201069831848145, -0.9678189754486084, 0.0563928559422493, -0.07710262273578469, -0.35640629507153676, -0.47776979918578966, 9362.0, 30146.0, 35388.0, 9362.0, 8.390083312988281, -0.060608264058828354, -0.05223390832543373, -0.020655248314142227, 0.004769316874444485, -0.05245668441057205, 0.9982826709747314, -0.04345462843775749, -0.07543754577636719, 1.48974609375, 1.307373046875, 0.039581298828125, 1.490478515625, 1.405517578125, 10.0, 1.0, 10.0, 1.36949622631073
20121, -0.29376843571662903, -4.497291088104248, 0.7204166054725647, 0.12023305147886276, 0.009534132666885853, -4.436505317687988, 0.430735319852829, 0.034048184752464294, -0.4904443025588989, -0.820110559463501, -0.9678232669830322, 0.056414879858493805, -0.08346542828015807, -0.35073882038395254, -0.46922736093076106, 9362.0, 30146.0, 35388.0, 9362.0, 8.390083312988281, 0.055547814816236496, 0.25109726190567017, -0.10136010497808456, 0.0024268219713121653, -0.051900655031204224, 0.9973307251930237, -0.04345462843775749, -0.07543754577636719, 1.48974609375, 1.428955078125, 0.073577880859375, 1.48681640625, 1.45458984375, 10.0, 1.0, 10.0, 1.36949622631073
20141, -0.2950459122657776, -4.493729114532471, 0.7200921177864075, 0.14272908866405487, 0.0113113634288311, -4.461083889007568, 0.4690929353237152, 0.03704060986638069, -0.4928446114063263, -0.8200928568840027, -0.9678350687026978, 0.05640850588679314, -0.08415460288427892, -0.3548099881958535, -0.46504820165451244, 9362.0, 30146.0, 35388.0, 9362.0, 8.390083312988281, -0.005077891051769257, -0.30314043164253235, -0.15336750447750092, 0.0017669189255684614, -0.05149272829294205, 0.9979228377342224, -0.04345462843775749, -0.07543754577636719, 1.48974609375, 1.28173828125, 0.0802001953125, 1.48681640625, 1.45458984375, 10.0, 1.0, 10.0, 1.36949622631073
20181, -0.2965148985385895, -4.490299224853516, 0.7200394868850708, 0.1621062308549881, 0.012841005809605122, -4.480834007263184, 0.4997738003730774, 0.03944593667984009, -0.4945021867752075, -0.8202301263809204, -0.9676727056503296, 0.056172437965869904, 0.04898849423043799, -0.4294393234607412, -0.5071510556394083, 9362.0, 30146.0, 35388.0, 9362.0, 8.390083312988281, -0.16402480006217957, -0.28234487771987915, 0.078476183116436, 0.0027802546974271536, -0.05269336327910423, 1.0008443593978882, -0.04345462843775749, -0.07543754577636719, 1.48974609375, 1.43115234375, 0.0766143798828125, 1.49853515625, 1.367431640625, 10.0, 1.0, 10.0, 1.36949622631073
20201, -0.29756656289100647, -4.493017673492432, 0.7210823893547058, 0.1621062308549881, 0.012841005809605122, -4.480834007263184, 0.4997738003730774, 0.03944593667984009, -0.4945021867752075, -0.8201067447662354, -0.9678138494491577, 0.05639823526144028, -0.07662064791147191, -0.3593647868817129, -0.4675275339701243, 9362.0, 30146.0, 35388.0, 9362.0, 8.390083312988281, 0.15617486834526062, 0.6644434928894043, -0.027822809293866158, 0.003610469400882721, -0.05241050943732262, 0.9993078708648682, -0.04345462843775749, -0.07543754577636719, 1.48974609375, 1.30810546875, 0.0388031005859375, 1.494140625, 1.367431640625, 10.0, 1.0, 10.0, 1.36949622631073
20221, -0.29844847321510315, -4.492574691772461, 0.7207436561584473, 0.1621062308549881, 0.012841005809605122, -4.480834007263184, 0.4997738003730774, 0.03944593667984009, -0.4945021867752075, -0.8200811743736267, -0.9678326845169067, 0.05640991032123566, -0.07587696168535465, -0.34927665128481067, -0.4739927320979767, 9362.0, 30146.0, 35388.0, 9362.0, 8.390083312988281, -0.25602859258651733, -0.13507094979286194, 0.06437049061059952, 0.00496468972414732, -0.051051340997219086, 0.9963223338127136, -0.04345462843775749, -0.07543754577636719, 1.48974609375, 1.34033203125, 0.0166168212890625, 1.494140625, 1.47216796875, 10.0, 1.0, 10.0, 1.36949622631073
20241, -0.29822462797164917, -4.491222858428955, 0.7209950685501099, 0.1934717446565628, 0.015316423028707504, -4.510589599609375, 0.5457274317741394, 0.04307153448462486, -0.4975655674934387, -0.8200817108154297, -0.9678108096122742, 0.056406181305646896, -0.08962416077686895, -0.36451838127925384, -0.4677835478957723, 9362.0, 30146.0, 35388.0, 9362.0, 8.390083312988281, 0.13398383557796478, -0.07330074161291122, -0.005488375201821327, 0.00334636471234262, -0.052199337631464005, 0.9994332194328308, -0.04345462843775749, -0.07543754577636719, 1.48974609375, 1.41943359375, 0.0612945556640625, 1.49560546875, 1.34326171875, 10.0, 1.0, 10.0, 1.36949622631073
20301, -0.29872840642929077, -4.485881805419922, 0.7239944338798523, 0.22759538888931274, 0.018010012805461884, -4.540513515472412, 0.591707706451416, 0.04671499878168106, -0.4999837875366211, -0.8200893998146057, -0.9678323864936829, 0.056432995945215225, -0.09434419220905689, -0.35842579804474894, -0.4697286316519182, 9362.0, 30146.0, 35388.0, 9362.0, 8.390083312988281, 0.0209498293697834, -0.0302229393273592, 0.24462176859378815, 0.0028124763630330563, -0.051872577518224716, 0.9969356656074524, -0.041616346687078476, 0.07688140869140625, 1.502197265625, 1.412841796875, 0.0534515380859375, 1.494140625, 1.4736328125, 10.0, 1.0, 10.0, 1.36949622631073
20321, -0.29910093545913696, -4.485119819641113, 0.7230138182640076, 0.2395823895931244, 0.018956441432237625, -4.5505242347717285, 0.6069968342781067, 0.047928277403116226, -0.5010839700698853, -0.8200898766517639, -0.967805802822113, 0.05639737844467163, -0.09742466280956688, -0.36702235730788857, -0.4627984891471436, 9362.0, 30146.0, 35388.0, 9362.0, 8.390083312988281, -0.10712266713380814, -0.1611640900373459, -0.22382327914237976, 0.002977673662826419, -0.0514151006937027, 0.9973571300506592, -0.041616346687078476, 0.07688140869140625, 1.502197265625, 1.3623046875, 0.0167999267578125, 1.494140625, 1.4736328125, 10.0, 1.0, 10.0, 1.36949622631073
20361, -0.2992860674858093, -4.485435962677002, 0.726348876953125, 0.26447421312332153, 0.020922165364027023, -4.570606708526611, 0.6375972032546997, 0.05036093294620514, -0.5029993653297424, -0.8200868964195251, -0.9678283929824829, 0.05643867701292038, -0.07662058291550995, -0.34565287215173157, -0.46935157279830186, 9362.0, 30146.0, 35388.0, 9362.0, 8.390083312988281, 0.036232687532901764, -0.032330796122550964, 0.011377867311239243, 0.0031899604946374893, -0.05183897912502289, 0.9972555041313171, -0.041616346687078476, 0.07688140869140625, 1.502197265625, 1.49560546875, 0.1868743896484375, 1.494873046875, 1.40771484375, 10.0, 1.0, 10.0, 1.36949622631073
20481, -0.2984358072280884, -4.4889349937438965, 0.7102927565574646, 0.3249560594558716, 0.025701327249407768, -4.616074562072754, 0.7064612507820129, 0.05584056302905083, -0.507214367389679, -0.820106565952301, -0.9678205251693726, 0.05639313906431198, -0.08088559401554397, -0.3598737796374678, -0.4674326913194948, 9362.0, 30146.0, 35388.0, 9362.0, 8.390083312988281, 0.22126050293445587, -0.10128756612539291, -0.09719007462263107, 0.003443347290158272, -0.05226992815732956, 0.9994988441467285, -0.041616346687078476, 0.07688140869140625, 1.502197265625, 1.4267578125, 0.070709228515625, 1.496337890625, 1.4296875, 10.0, 1.0, 10.0, 1.3692452907562256
20541, -0.2995036840438843, -4.489300727844238, 0.716932475566864, 0.39164072275161743, 0.0309734009206295, -4.661890029907227, 0.7754372954368591, 0.061314575374126434, -0.5105835199356079, -0.8200952410697937, -0.9678092002868652, 0.056366708129644394, -0.07868459043717292, -0.3556402036859936, -0.4721008440792755, 9362.0, 30146.0, 35388.0, 9362.0, 8.390083312988281, -0.03816073387861252, 0.3047792315483093, -0.0566331185400486, 0.0026344882789999247, -0.051863428205251694, 0.9989820718765259, -0.041616346687078476, 0.07688140869140625, 1.502197265625, 1.4677734375, 0.1347198486328125, 1.496337890625, 1.44287109375, 10.0, 1.0, 10.0, 1.3692452907562256
20601, -0.3020356595516205, -4.489023685455322, 0.7208281755447388, 0.4232708811759949, 0.033474620431661606, -4.682350158691406, 0.8060774803161621, 0.06374895572662354, -0.5123555064201355, -0.8200814127922058, -0.9678218364715576, 0.056362271308898926, -0.09460690650899854, -0.35149224264787904, -0.4611175356272527, 9362.0, 30146.0, 35388.0, 9362.0, 8.390083312988281, -0.1257348358631134, -0.21916161477565765, -0.2039741724729538, 0.002525350544601679, -0.05294111371040344, 1.000681757926941, -0.05114329233765602, -0.13815879821777344, 1.484619140625, 1.43408203125, 0.080810546875, 1.496337890625, 1.42529296875, 10.0, 1.0, 10.0, 1.3692452907562256
20621, -0.3024041950702667, -4.489408493041992, 0.7230174541473389, 0.4561270475387573, 0.03607327863574028, -4.702875137329102, 0.83672696352005, 0.06618737429380417, -0.5140146613121033, -0.8200968503952026, -0.9678164124488831, 0.05635319650173187, -0.08245553644285897, -0.3554513190601085, -0.47284227716887334, 9362.0, 30146.0, 35388.0, 9362.0, 8.390083312988281, -0.0623805932700634, -0.056673016399145126, 0.24720355868339539, 0.003798126243054867, -0.05234348028898239, 0.9987674951553345, -0.05114329233765602, -0.13815879821777344, 1.484619140625, 1.445068359375, 0.0970306396484375, 1.4912109375, 1.42529296875, 10.0, 1.0, 10.0, 1.3692452907562256
20681, -0.30309227108955383, -4.502010345458984, 0.730289876461029, 0.46453261375427246, 0.03673821687698364, -4.708017826080322, 0.8443861603736877, 0.06680026650428772, -0.5144760012626648, -0.8200737833976746, -0.9678204655647278, 0.05634521692991257, -0.08160589085463517, -0.35860215473755375, -0.4632156782685571, 9362.0, 30146.0, 35388.0, 9362.0, 8.390083312988281, -0.110626220703125, 0.27296510338783264, 0.1349862664937973, 0.0029483663383871317, -0.053500086069107056, 0.9966058135032654, -0.05114329233765602, -0.13815879821777344, 1.484619140625, 1.3857421875, 0.0280914306640625, 1.49560546875, 1.420166015625, 10.0, 1.0, 10.0, 1.3692452907562256
20781, -0.2985891103744507, -4.511928558349609, 0.7288976311683655, 0.562053918838501, 0.04445742443203926, -4.764898777008057, 0.9287582635879517, 0.07355388253927231, -0.5199652314186096, -0.8200981616973877, -0.9678192734718323, 0.05635230243206024, -0.09656201443452782, -0.34963183315932156, -0.4666589096467227, 9362.0, 30146.0, 35388.0, 9362.0, 8.390083312988281, 0.05226567015051842, 0.08490249514579773, -0.18192173540592194, 0.003810168942436576, -0.055938299745321274, 0.9983597993850708, -0.038769952952861786, -0.24567794799804688, 1.475830078125, 1.450927734375, 0.1063690185546875, 1.494140625, 1.420166015625, 10.0, 1.0, 10.0, 1.3692452907562256
20841, -0.300507128238678, -4.501414775848389, 0.7278169989585876, 0.6587756872177124, 0.05211833864450455, -4.81710147857666, 1.005702018737793, 0.07966834306716919, -0.523820161819458, -0.8200962543487549, -0.9678071737289429, 0.056332409381866455, -0.09542388348684253, -0.3624102914495211, -0.47624168527926447, 9362.0, 30146.0, 35388.0, 9362.0, 8.390083312988281, -0.06573086977005005, -0.2123018503189087, 0.0943073034286499, 0.0020702381152659655, -0.05316023528575897, 0.9984950423240662, -0.038769952952861786, -0.24567794799804688, 1.475830078125, 1.44140625, 0.0914459228515625, 1.496337890625, 1.478759765625, 10.0, 1.0, 10.0, 1.3692452907562256
20961, -0.30238479375839233, -4.510104656219482, 0.7300231456756592, 0.7849934101104736, 0.062120262533426285, -4.880276679992676, 1.0979472398757935, 0.08703716844320297, -0.5290514230728149, -0.8202309608459473, -0.9676691889762878, 0.056128062307834625, 0.043466129069086396, -0.43754368845330305, -0.5047124190381537, 9362.0, 30146.0, 35388.0, 9362.0, 8.390083312988281, -0.06558055430650711, -0.2930072546005249, -0.14657744765281677, 0.002245880663394928, -0.05172288045287132, 0.9999074935913086, -0.038769952952861786, -0.24567794799804688, 1.475830078125, 1.446533203125, 0.09930419921875, 1.49560546875, 1.42529296875, 10.0, 1.0, 10.0, 1.3692452907562256
20981, -0.3029339611530304, -4.510848045349121, 0.7260434031486511, 0.8071063160896301, 0.06387331336736679, -4.890866279602051, 1.1133363246917725, 0.08826698362827301, -0.5299716591835022, -0.8200808167457581, -0.9678078889846802, 0.05638158321380615, -0.08192177270544278, -0.3504578387472179, -0.45542629615705627, 9362.0, 30146.0, 35388.0, 9362.0, 8.390083312988281, -0.10481109470129013, -0.07212332636117935, -0.16210277378559113, 0.0014991821954026818, -0.05156756564974785, 0.9942594766616821, -0.038769952952861786, -0.24567794799804688, 1.475830078125, 1.393798828125, 0.0344085693359375, 1.49560546875, 1.33447265625, 10.0, 1.0, 10.0, 1.3692452907562256
21021, -0.30225464701652527, -4.508807182312012, 0.7233544588088989, 0.8408519625663757, 0.06654892861843109, -4.906795501708984, 1.1363993883132935, 0.09010866284370422, -0.5316630005836487, -0.8200874328613281, -0.9678177833557129, 0.056405290961265564, -0.08981040994190731, -0.3616396974612428, -0.4633805764924609, 9362.0, 30146.0, 35388.0, 9362.0, 8.390083312988281, -0.07715347409248352, -0.41697824001312256, 0.05069582536816597, 0.003874566638842225, -0.05299486219882965, 1.0001742839813232, -0.038769952952861786, -0.24567794799804688, 1.475830078125, 1.43994140625, 0.089324951171875, 1.4912109375, 1.43701171875, 10.0, 1.0, 10.0, 1.3692452907562256
21041, -0.3021199107170105, -4.508738040924072, 0.7222292423248291, 0.8752903938293457, 0.06927979737520218, -4.922762393951416, 1.159488558769226, 0.09194863587617874, -0.532930314540863, -0.8200793266296387, -0.9678136110305786, 0.056381020694971085, -0.08080815576346351, -0.3539535275143635, -0.47732028346970223, 9362.0, 30146.0, 35388.0, 9362.0, 8.390083312988281, 0.03848627954721451, -0.18021179735660553, -0.20103439688682556, 0.003874566638842225, -0.05299486219882965, 1.0001742839813232, -0.038769952952861786, -0.24567794799804688, 1.475830078125, 1.38427734375, 0.027099609375, 1.494140625, 1.43701171875, 10.0, 1.0, 10.0, 1.3692452907562256
21081, -0.3021533191204071, -4.5083909034729, 0.7228277325630188, 0.9222855567932129, 0.07300686836242676, -4.944113254547119, 1.190287709236145, 0.09440815448760986, -0.5343503355979919, -0.8200863599777222, -0.9678101539611816, 0.056410517543554306, -0.09364229410973118, -0.3546307930347439, -0.46144321641190916, 9362.0, 30146.0, 35388.0, 9362.0, 8.390083312988281, 0.21446751058101654, 0.0722636952996254, 0.032266974449157715, 0.0024161720648407936, -0.05303960293531418, 1.0001767873764038, -0.038769952952861786, -0.24567794799804688, 1.475830078125, 1.45751953125, 0.117095947265625, 1.494140625, 1.43994140625, 10.0, 1.0, 10.0, 1.3692452907562256
21101, -0.3025205731391907, -4.508172035217285, 0.7278721332550049, 0.9462451934814453, 0.0749073475599289, -4.954808712005615, 1.205683946609497, 0.09563931077718735, -0.5350977778434753, -0.8202226161956787, -0.9676705002784729, 0.05615899711847305, 0.04392898116253822, -0.42538903837052544, -0.4990815389890317, 9362.0, 30146.0, 35388.0, 9362.0, 8.390083312988281, 0.04727272316813469, -0.069849893450737, 0.26873350143432617, 0.0024161720648407936, -0.05303960293531418, 1.0001767873764038, -0.038769952952861786, -0.24567794799804688, 1.475830078125, 1.455322265625, 0.1134796142578125, 1.494140625, 1.43994140625, 10.0, 1.0, 10.0, 1.3692452907562256
21141, -0.302913635969162, -4.507909774780273, 0.7234217524528503, 0.958340585231781, 0.07586681842803955, -4.960161209106445, 1.213391900062561, 0.09625473618507385, -0.5353755950927734, -0.8200860619544983, -0.9678276181221008, 0.05643827095627785, -0.09113001967000059, -0.35108044544779204, -0.46576581246093646, 9362.0, 30146.0, 35388.0, 9362.0, 8.390083312988281, -0.02282945066690445, -0.26549434661865234, 0.021659165620803833, 0.001705607632175088, -0.053534019738435745, 0.998369574546814, -0.038769952952861786, -0.24567794799804688, 1.475830078125, 1.229736328125, 0.23822021484375, 1.49267578125, 1.443603515625, 10.0, 1.0, 10.0, 1.3692452907562256
21161, -0.30256563425064087, -4.506129264831543, 0.7272065281867981, 1.0074912309646606, 0.07976613193750381, -4.981619834899902, 1.2441329956054688, 0.09871120005846024, -0.5375739336013794, -0.8200818300247192, -0.96779865026474, 0.05638721585273743, -0.07616781530272372, -0.3674597792319503, -0.45842213032456036, 9362.0, 30146.0, 35388.0, 9362.0, 8.390083312988281, 0.06524365395307541, 0.04803450033068657, 0.41164639592170715, 0.003481911728158593, -0.053709179162979126, 0.999305248260498, -0.038769952952861786, -0.24567794799804688, 1.475830078125, 1.39599609375, 0.0362701416015625, 1.49267578125, 1.36962890625, 10.0, 1.0, 10.0, 1.3692452907562256
21201, -0.30107706785202026, -4.508995056152344, 0.7276188135147095, 1.0706595182418823, 0.08477859944105148, -5.008549213409424, 1.2825956344604492, 0.1017855629324913, -0.5396484136581421, -0.8200938105583191, -0.9678184986114502, 0.05639578402042389, -0.07894820067320991, -0.35371531790357835, -0.469483901894839, 9362.0, 30146.0, 35388.0, 9362.0, 8.390083312988281, 0.08904202282428741, 0.18154707551002502, -0.11209621280431747, 0.0026258407160639763, -0.05226403474807739, 0.997314989566803, -0.06197953224182129, -0.08439826965332031, 1.489013671875, 1.402587890625, 0.0425262451171875, 1.496337890625, 1.4443359375, 10.0, 1.0, 10.0, 1.3692452907562256
21221, -0.30017179250717163, -4.510453701019287, 0.7269284725189209, 1.0964651107788086, 0.08682655543088913, -5.019352436065674, 1.297972321510315, 0.10301043838262558, -0.5406137108802795, -0.8200792074203491, -0.9678230285644531, 0.0563865602016449, -0.07672244957681627, -0.34984860263941187, -0.46927249874042776, 9362.0, 30146.0, 35388.0, 9362.0, 8.390083312988281, 0.16701819002628326, 0.42175528407096863, -0.16313306987285614, 0.0026258407160639763, -0.05226403474807739, 0.997314989566803, -0.06197953224182129, -0.08439826965332031, 1.489013671875, 1.437744140625, 0.086029052734375, 1.49560546875, 1.2919921875, 10.0, 1.0, 10.0, 1.3692452907562256
21381, -0.30378225445747375, -4.509613990783691, 0.736706018447876, 1.3139883279800415, 0.1040913313627243, -5.106446266174316, 1.4210612773895264, 0.11281970143318176, -0.5480620265007019, -0.8200730085372925, -0.9678134322166443, 0.05638241395354271, -0.0939352735537129, -0.3534677730286546, -0.4556569868596023, 9362.0, 30146.0, 35388.0, 9362.0, 8.390083312988281, -0.2438616305589676, 0.23893897235393524, 0.24577155709266663, 0.0017696990398690104, -0.05235566943883896, 0.9989134669303894, -0.05741551145911217, 0.10376167297363281, 1.50439453125, 1.2568359375, 0.1420135498046875, 1.496337890625, 1.44580078125, 10.0, 1.0, 10.0, 1.3692452907562256
21401, -0.30428335070610046, -4.512361526489258, 0.7384072542190552, 1.3282374143600464, 0.10522261261940002, -5.111928939819336, 1.4287545680999756, 0.11343729496002197, -0.5484922528266907, -0.8200997710227966, -0.9678148627281189, 0.05636637657880783, -0.08582751228280099, -0.35522051387101783, -0.4630186625223101, 9362.0, 30146.0, 35388.0, 9362.0, 8.390083312988281, -0.023714330047369003, 0.47508329153060913, 0.04630091041326523, 0.002990518696606159, -0.052524320781230927, 0.9979878067970276, -0.0335741825401783, -0.05751800537109375, 1.4912109375, 1.343994140625, 0.015899658203125, 1.494140625, 1.359375, 10.0, 1.0, 10.0, 1.3692452907562256
21441, -0.30430394411087036, -4.519484519958496, 0.7413309216499329, 1.3714462518692017, 0.10865356773138046, -5.128404140472412, 1.4518440961837769, 0.11529427021741867, -0.5498173236846924, -0.8200887441635132, -0.9678186178207397, 0.05633767694234848, -0.08481865618812186, -0.3456511506122979, -0.4684500230081287, 9362.0, 30146.0, 35388.0, 9362.0, 8.390083312988281, -0.008403196930885315, 0.20956896245479584, -0.21893250942230225, 0.002464583143591881, -0.0501481369137764, 0.9990922808647156, -0.0335741825401783, -0.05751800537109375, 1.4912109375, 1.440673828125, 0.090423583984375, 1.497802734375, 1.43408203125, 10.0, 1.0, 10.0, 1.3692452907562256
21461, -0.30440205335617065, -4.520694255828857, 0.7401538491249084, 1.4301366806030273, 0.11331497132778168, -5.150430679321289, 1.482686161994934, 0.11777693778276443, -0.5514719486236572, -0.8200957775115967, -0.9678149819374084, 0.05630410090088844, -0.07865598098869066, -0.36727637547690506, -0.4641787050522947, 9362.0, 30146.0, 35388.0, 9362.0, 8.390083312988281, -0.05592726916074753, -0.0243499968200922, -0.2680971622467041, 0.0035843215882778168, -0.05463242530822754, 1.0001803636550903, -0.0335741825401783, -0.05751800537109375, 1.4912109375, 1.461181640625, 0.1233062744140625, 1.494140625, 1.43408203125, 10.0, 1.0, 10.0, 1.3692452907562256
21581, -0.3032158315181732, -4.521798610687256, 0.73386549949646, 1.6136165857315063, 0.1278943419456482, -5.216928005218506, 1.5753203630447388, 0.12520329654216766, -0.5569308996200562, -0.8200826644897461, -0.9678177833557129, 0.05632723122835159, -0.07479309319905379, -0.3537500433791365, -0.4622311901347819, 9362.0, 30146.0, 35388.0, 9362.0, 8.390083312988281, 0.0035322518087923527, -0.06824131309986115, 0.1751752644777298, 0.001643495517782867, -0.050922099500894547, 0.9984742403030396, -0.0335741825401783, -0.05751800537109375, 1.4912109375, 1.43994140625, 0.089324951171875, 1.4970703125, 1.42236328125, 10.0, 1.0, 10.0, 1.3692452907562256
21591, -0.3028873801231384, -4.524265289306641, 0.7349288463592529, 1.629408359527588, 0.1291494518518448, -5.222499370574951, 1.5830386877059937, 0.12581957876682281, -0.5573693513870239, -0.8201009035110474, -0.9678304195404053, 0.0563327819108963, -0.08651398907930083, -0.3555338419372447, -0.4620836322855811, 9362.0, 30146.0, 35388.0, 9362.0, 8.390083312988281, 0.14532974362373352, 0.40209895372390747, 0.14230601489543915, 0.001643495517782867, -0.050922099500894547, 0.9984742403030396, -0.0335741825401783, -0.05751800537109375, 1.4912109375, 1.26123046875, 0.129302978515625, 1.4970703125, 1.42236328125, 10.0, 1.0, 10.0, 1.3692452907562256
21641, -0.30174389481544495, -4.529048442840576, 0.7349494099617004, 1.661223292350769, 0.13167817890644073, -5.233656883239746, 1.5984630584716797, 0.12705333530902863, -0.5584008097648621, -0.8202371597290039, -0.9676921367645264, 0.056120019406080246, 0.05399076652142587, -0.42694455818596566, -0.5052228215152663, 9362.0, 30146.0, 35388.0, 9362.0, 8.390083312988281, -0.22634680569171906, 0.3667296767234802, -0.009589976631104946, 0.005087300669401884, -0.052380722016096115, 0.9999529123306274, -0.0335741825401783, -0.05751800537109375, 1.4912109375, 1.42236328125, 0.0649566650390625, 1.4970703125, 1.39013671875, 10.0, 1.0, 10.0, 1.3692452907562256
21661, -0.2997235059738159, -4.529446125030518, 0.7339646220207214, 1.7257791757583618, 0.1368096023797989, -5.256032466888428, 1.629346489906311, 0.12951676547527313, -0.5602313280105591, -0.8200772404670715, -0.967828094959259, 0.05637124180793762, -0.09029813835623715, -0.3521319505632903, -0.46403144284488346, 9362.0, 30146.0, 35388.0, 9362.0, 8.390083312988281, 0.16088826954364777, 0.025074224919080734, -0.3133755624294281, 0.004308563657104969, -0.05419308692216873, 0.9982811212539673, -0.0335741825401783, -0.05751800537109375, 1.4912109375, 1.40625, 0.04620361328125, 1.493408203125, 1.39013671875, 10.0, 1.0, 10.0, 1.3692452907562256
21701, -0.2984313368797302, -4.527287006378174, 0.7355048656463623, 1.8082128763198853, 0.1433621048927307, -5.284097194671631, 1.6679850816726685, 0.13257744908332825, -0.562502920627594, -0.8200920224189758, -0.9678217172622681, 0.056372277438640594, -0.09004757860003947, -0.35729138151299367, -0.4679647149890883, 9362.0, 30146.0, 35388.0, 9362.0, 8.390083312988281, 0.052788570523262024, 0.07700785249471664, 0.07111988216638565, 0.0031160328071564436, -0.051861733198165894, 0.9986679553985596, -0.049360789358615875, 0.014162063598632812, 1.4970703125, 1.229736328125, 0.23822021484375, 1.493408203125, 1.39013671875, 10.0, 1.0, 10.0, 1.3692452907562256
21801, -0.2999580502510071, -4.539379119873047, 0.7393336296081543, 1.9788752794265747, 0.15692558884620667, -5.340580463409424, 1.7452757358551025, 0.13870544731616974, -0.5673033595085144, -0.8200779557228088, -0.9678093194961548, 0.0563654787838459, -0.07753903581245343, -0.35370875213709496, -0.4676184168870471, 9362.0, 30146.0, 35388.0, 9362.0, 8.390083312988281, 0.09551212936639786, -0.08704118430614471, 0.10304147750139236, 0.0006071748794056475, -0.05360645055770874, 0.9980983138084412, -0.05682390183210373, -0.08439826965332031, 1.489013671875, 1.212158203125, 0.3188018798828125, 1.493408203125, 1.440673828125, 10.0, 1.0, 10.0, 1.3692452907562256
21821, -0.29902398586273193, -4.54074764251709, 0.7400545477867126, 1.9788752794265747, 0.15692558884620667, -5.340580463409424, 1.7452757358551025, 0.13870544731616974, -0.5673033595085144, -0.8200779557228088, -0.9678260684013367, 0.05637802928686142, -0.08934046505189155, -0.35008611936891043, -0.4644893054052071, 9362.0, 30146.0, 35388.0, 9362.0, 8.390083312988281, 0.05040859803557396, 0.14506354928016663, 0.3152170777320862, 0.0018841004930436611, -0.05209695175290108, 0.9979763627052307, -0.05682390183210373, -0.08439826965332031, 1.489013671875, 1.23779296875, 0.2061920166015625, 1.494140625, 1.388671875, 10.0, 1.0, 10.0, 1.3692452907562256
21841, -0.29845473170280457, -4.538108825683594, 0.7408100962638855, 2.0315818786621094, 0.16111433506011963, -5.357622146606445, 1.768500804901123, 0.14054332673549652, -0.5687758326530457, -0.8202166557312012, -0.9676845073699951, 0.05613817647099495, 0.058583888448105005, -0.4255387455279447, -0.5045629222879778, 9362.0, 30146.0, 35388.0, 9362.0, 8.390083312988281, -0.06529233604669571, -0.18529494106769562, -0.010844472795724869, 0.00203505577519536, -0.050677716732025146, 0.9981264472007751, -0.05682390183210373, -0.08439826965332031, 1.489013671875, 1.437744140625, 0.086029052734375, 1.49853515625, 1.388671875, 10.0, 1.0, 10.0, 1.3675081729888916
21941, -0.29706427454948425, -4.5354156494140625, 0.7349140048027039, 2.230802297592163, 0.17694230377674103, -5.420469284057617, 1.8536865711212158, 0.14722475409507751, -0.5737464427947998, -0.8200862407684326, -0.9678137898445129, 0.05638641119003296, -0.07918214917610535, -0.3491766809734429, -0.47055478188344446, 9362.0, 30146.0, 35388.0, 9362.0, 8.390083312988281, -0.20784948766231537, 0.031010568141937256, -0.16580158472061157, 0.004268375691026449, -0.053259771317243576, 0.9991570115089417, -0.02856987528502941, 0.03208160400390625, 1.49853515625, 1.402587890625, 0.0425262451171875, 1.494873046875, 1.412109375, 10.0, 1.0, 10.0, 1.3675081729888916
22001, -0.3011811375617981, -4.534353733062744, 0.7381597757339478, 2.2867610454559326, 0.181386336684227, -5.437703609466553, 1.8768821954727173, 0.14904701709747314, -0.5753737092018127, -0.820232093334198, -0.9676796793937683, 0.056147556751966476, 0.04306936711573985, -0.4317769664222908, -0.5107125641848476, 9362.0, 30146.0, 35388.0, 9362.0, 8.390083312988281, -0.21314117312431335, -0.3037722408771515, 0.04811856523156166, 0.0033947385381907225, -0.05211963504552841, 0.9980898499488831, -0.02856987528502941, 0.03208160400390625, 1.49853515625, 1.22314453125, 0.2666778564453125, 1.494873046875, 1.37109375, 10.0, 1.0, 10.0, 1.3675081729888916
22021, -0.3008233308792114, -4.535621643066406, 0.7353069186210632, 2.381572723388672, 0.18891541659832, -5.466522693634033, 1.915588140487671, 0.1521170735359192, -0.5773798823356628, -0.8200980424880981, -0.9678146839141846, 0.0563921257853508, -0.08700806928541817, -0.36053703580779484, -0.4673186183708697, 9362.0, 30146.0, 35388.0, 9362.0, 8.390083312988281, 0.007134918589144945, -0.30796146392822266, -0.27522894740104675, 0.0026550840120762587, -0.05170009657740593, 0.9977607131004333, -0.02856987528502941, 0.03208160400390625, 1.49853515625, 1.446533203125, 0.09930419921875, 1.496337890625, 1.37109375, 10.0, 1.0, 10.0, 1.3675081729888916
22061, -0.3032780885696411, -4.53151798248291, 0.7392571568489075, 2.458815097808838, 0.1950492113828659, -5.489658832550049, 1.9465125799179077, 0.15457434952259064, -0.5795350670814514, -0.8202282190322876, -0.9676637649536133, 0.05614614859223366, 0.04809274511507305, -0.4353037012660934, -0.5064443185425241, 9362.0, 30146.0, 35388.0, 9362.0, 8.390083312988281, 0.012040840461850166, -0.10663559287786484, 0.1010499894618988, 0.0028946215752512217, -0.05103645101189613, 0.9981396198272705, -0.02856987528502941, 0.03208160400390625, 1.49853515625, 1.456787109375, 0.115966796875, 1.496337890625, 1.4384765625, 10.0, 1.0, 10.0, 1.3675081729888916
22081, -0.3019458055496216, -4.5321173667907715, 0.7413585186004639, 2.478318929672241, 0.19659803807735443, -5.495456695556641, 1.9542412757873535, 0.15519173443317413, -0.5800634026527405, -0.8202329874038696, -0.9676844477653503, 0.05615413188934326, 0.045800028892040795, -0.4270205597891845, -0.5044281026743772, 9362.0, 30146.0, 35388.0, 9362.0, 8.390083312988281, 0.11812813580036163, -0.29709020256996155, -0.033888086676597595, 0.0017019786173477769, -0.049953725188970566, 0.9969952702522278, -0.02856987528502941, 0.03208160400390625, 1.49853515625, 1.364501953125, 0.0173492431640625, 1.496337890625, 1.4384765625, 10.0, 1.0, 10.0, 1.3675081729888916
22121, -0.30096450448036194, -4.5352606773376465, 0.7411479353904724, 2.5571067333221436, 0.20285508036613464, -5.518701076507568, 1.985155701637268, 0.1576564908027649, -0.5821064710617065, -0.8202378153800964, -0.9676971435546875, 0.056118082255125046, 0.05516678915979551, -0.4284203375646314, -0.5029891649802372, 9362.0, 30146.0, 35388.0, 9362.0, 8.390083312988281, 0.008364354260265827, 0.23710942268371582, 0.15089204907417297, 0.003060624236240983, -0.05125085264444351, 0.9972819685935974, -0.02856987528502941, 0.03208160400390625, 1.49853515625, 1.222412109375, 0.269989013671875, 1.496337890625, 1.392333984375, 10.0, 1.0, 10.0, 1.3675081729888916
22141, -0.3019424378871918, -4.540783882141113, 0.7436363697052002, 2.5571067333221436, 0.20285508036613464, -5.518701076507568, 1.985155701637268, 0.1576564908027649, -0.5821064710617065, -0.8202121257781982, -0.9676805734634399, 0.05611761659383774, 0.05303157506727201, -0.42215682589929315, -0.5080831650807881, 9362.0, 30146.0, 35388.0, 9362.0, 8.390083312988281, 0.011408893391489983, 0.2788558900356293, 0.3819853663444519, 0.0023699714802205563, -0.05165550857782364, 0.9958964586257935, -0.02856987528502941, 0.03208160400390625, 1.49853515625, 1.37841796875, 0.023406982421875, 1.49853515625, 1.323486328125, 10.0, 1.0, 10.0, 1.3675081729888916
22161, -0.301622599363327, -4.542898178100586, 0.7430728673934937, 2.6573305130004883, 0.21081462502479553, -5.547879219055176, 2.0237984657287598, 0.16072814166545868, -0.5851089954376221, -0.820086658000946, -0.9678137898445129, 0.05637400969862938, -0.08993362920183623, -0.3546538662267267, -0.4710540021347851, 9362.0, 30146.0, 35388.0, 9362.0, 8.390083312988281, 0.12158865481615067, 0.34520861506462097, 0.014064283110201359, 0.00025224729324691, -0.051810264587402344, 0.9992485642433167, -0.02856987528502941, 0.03208160400390625, 1.49853515625, 1.327880859375, 0.0218353271484375, 1.49853515625, 1.428955078125, 10.0, 1.0, 10.0, 1.3675081729888916
22181, -0.30291348695755005, -4.541665077209473, 0.7449026703834534, 2.6979615688323975, 0.2140415459871292, -5.55958890914917, 2.0393173694610596, 0.16196419298648834, -0.5857489109039307, -0.8202290534973145, -0.9676839709281921, 0.05611855909228325, 0.05006050076625387, -0.4280160873724128, -0.5022902954435967, 9362.0, 30146.0, 35388.0, 9362.0, 8.390083312988281, 0.04540365934371948, 0.06859009712934494, -0.097876638174057, 0.0015764564741402864, -0.05156107246875763, 1.0015432834625244, -0.02856987528502941, 0.03208160400390625, 1.49853515625, 1.24072265625, 0.1952667236328125, 1.49853515625, 1.428955078125, 10.0, 1.0, 10.0, 1.3675081729888916
22201, -0.3028520345687866, -4.540469646453857, 0.746479332447052, 2.738903284072876, 0.21729320287704468, -5.5713090896606445, 2.054840326309204, 0.1632009744644165, -0.5863693356513977, -0.8202212452888489, -0.9676732420921326, 0.0561104379594326, 0.04850526542131102, -0.4338731591227827, -0.5009620252689762, 9362.0, 30146.0, 35388.0, 9362.0, 8.390083312988281, 9.742502879817039e-05, 0.017724966630339622, -0.22815708816051483, 0.0015764564741402864, -0.05156107246875763, 1.0015432834625244, -0.05421038344502449, 0.10376167297363281, 1.50439453125, 1.4208984375, 0.063079833984375, 1.494140625, 1.36083984375, 10.0, 1.0, 10.0, 1.3675081729888916
22241, -0.3052919805049896, -4.541139125823975, 0.7467499375343323, 2.7801551818847656, 0.22056961059570312, -5.58304500579834, 2.0703330039978027, 0.16443903744220734, -0.5873029828071594, -0.8202035427093506, -0.9676651954650879, 0.05611800029873848, 0.04296568786576194, -0.4316653031537214, -0.49447155018931394, 9362.0, 30146.0, 35388.0, 9362.0, 8.390083312988281, -0.1479894369840622, 0.10567241162061691, 0.11340847611427307, 0.002805455354973674, -0.051843322813510895, 0.9987165927886963, -0.05421038344502449, 0.10376167297363281, 1.50439453125, 1.4443359375, 0.0959930419921875, 1.494140625, 1.4267578125, 10.0, 1.0, 10.0, 1.3675081729888916
22261, -0.30424657464027405, -4.543439865112305, 0.7462086081504822, 2.8635878562927246, 0.2271968573331833, -5.606577396392822, 2.101311206817627, 0.16692519187927246, -0.5892642140388489, -0.8202069997787476, -0.9676825404167175, 0.05612695589661598, 0.056585516967092644, -0.42520423435399834, -0.49791087054544025, 9362.0, 30146.0, 35388.0, 9362.0, 8.390083312988281, 0.0596129484474659, 0.03438422083854675, -0.29126879572868347, 0.0029735832940787077, -0.05176110193133354, 0.9971821308135986, -0.05421038344502449, 0.10376167297363281, 1.50439453125, 1.39306640625, 0.0337982177734375, 1.496337890625, 1.4267578125, 10.0, 1.0, 10.0, 1.3675081729888916
22301, -0.3032841682434082, -4.542540073394775, 0.7457213997840881, 2.8846397399902344, 0.2288692146539688, -5.6124725341796875, 2.1090595722198486, 0.16754597425460815, -0.5897559523582458, -0.8202115297317505, -0.9676745533943176, 0.05614295229315758, 0.052658265555449266, -0.4294115569635437, -0.5017209289243085, 9362.0, 30146.0, 35388.0, 9362.0, 8.390083312988281, 0.017076043412089348, -0.3428058624267578, -0.01818053051829338, 0.0034010037779808044, -0.05362275242805481, 0.9957127571105957, -0.04197537899017334, 0.014162063598632812, 1.4970703125, 1.43994140625, 0.089324951171875, 1.496337890625, 1.424560546875, 10.0, 1.0, 10.0, 1.3675081729888916
22321, -0.30458539724349976, -4.542664527893066, 0.7429731488227844, 2.969621419906616, 0.2356206178665161, -5.636109828948975, 2.140045642852783, 0.1700233519077301, -0.5918511152267456, -0.8200642466545105, -0.9678182601928711, 0.05639505013823509, -0.0809608811070173, -0.3588885371763695, -0.4736297185222121, 9362.0, 30146.0, 35388.0, 9362.0, 8.390083312988281, 0.07890689373016357, -0.11011583358049393, -0.40634316205978394, 0.0036835717037320137, -0.05488551780581474, 0.9997509717941284, -0.04197537899017334, 0.014162063598632812, 1.4970703125, 1.44580078125, 0.098236083984375, 1.49560546875, 1.424560546875, 10.0, 1.0, 10.0, 1.3675081729888916
22381, -0.30362004041671753, -4.541552543640137, 0.7472603917121887, 3.1213254928588867, 0.24767431616783142, -5.677626609802246, 2.194337844848633, 0.17436479032039642, -0.5945103168487549, -0.8202276229858398, -0.9676753282546997, 0.056127969175577164, 0.0528396407841674, -0.4374286510316665, -0.5029713213374076, 9362.0, 30146.0, 35388.0, 9362.0, 8.390083312988281, -0.23333293199539185, 0.03383249416947365, 0.28939101099967957, 0.0030447461176663637, -0.050750985741615295, 0.9976498484611511, -0.04197537899017334, 0.014162063598632812, 1.4970703125, 1.31982421875, 0.0273590087890625, 1.497802734375, 1.4560546875, 10.0, 1.0, 10.0, 1.3675081729888916
22421, -0.3069533407688141, -4.540574073791504, 0.7473472952842712, 3.165367364883423, 0.2511740028858185, -5.689525127410889, 2.209836721420288, 0.1756039261817932, -0.5953826308250427, -0.8202220797538757, -0.9676690697669983, 0.05614408478140831, 0.052599012122642085, -0.43480111604930016, -0.5062895678294596, 9362.0, 30146.0, 35388.0, 9362.0, 8.390083312988281, -0.011802390217781067, 0.04497211426496506, -0.12230797111988068, 0.003155114594846964, -0.053822681307792664, 0.9998053908348083, -0.04197537899017334, 0.014162063598632812, 1.4970703125, 1.40185546875, 0.0417938232421875, 1.497802734375, 1.46044921875, 10.0, 1.0, 10.0, 1.3675081729888916
22481, -0.306647390127182, -4.549564361572266, 0.7469024062156677, 3.344635486602783, 0.26542216539382935, -5.7372870445251465, 2.2718563079833984, 0.18060193955898285, -0.5989753007888794, -0.8202175498008728, -0.9676912426948547, 0.056159961968660355, 0.04884671832703911, -0.4216066119759603, -0.5041415465305469, 9362.0, 30146.0, 35388.0, 9362.0, 8.390083312988281, 0.00868956558406353, 0.4028853476047516, 0.18436649441719055, 0.0028356872498989105, -0.05226205661892891, 0.9966078400611877, -0.04197537899017334, 0.014162063598632812, 1.4970703125, 1.442138671875, 0.0926361083984375, 1.494873046875, 1.459716796875, 10.0, 1.0, 10.0, 1.3675081729888916
22501, -0.30757930874824524, -4.550748348236084, 0.7453473210334778, 3.390227794647217, 0.26904669404029846, -5.749276638031006, 2.287372589111328, 0.18185174465179443, -0.5999234914779663, -0.820213258266449, -0.9676784873008728, 0.056162770837545395, 0.04299592538857503, -0.4302502210688317, -0.505224161627554, 9362.0, 30146.0, 35388.0, 9362.0, 8.390083312988281, 0.032290853559970856, 0.1564105600118637, 0.03765164688229561, 0.0028356872498989105, -0.05226205661892891, 0.9966078400611877, -0.055984873324632645, -0.04855918884277344, 1.491943359375, 1.353515625, 0.0154571533203125, 1.493408203125, 1.459716796875, 10.0, 1.0, 10.0, 1.3675081729888916
22541, -0.3081423044204712, -4.553713321685791, 0.7412316799163818, 3.4361305236816406, 0.27269628643989563, -5.761284351348877, 2.30290150642395, 0.1831052601337433, -0.6008439660072327, -0.8202141523361206, -0.9676645398139954, 0.05620969831943512, 0.047298305890848186, -0.42154314772025714, -0.497765419580599, 9362.0, 30146.0, 35388.0, 9362.0, 8.390083312988281, 0.11169721186161041, 0.33788272738456726, 0.1795961558818817, 0.003502362407743931, -0.052333492785692215, 1.0000113248825073, -0.055984873324632645, -0.04855918884277344, 1.491943359375, 1.45458984375, 0.11224365234375, 1.493408203125, 1.42236328125, 10.0, 1.0, 10.0, 1.3675081729888916
22561, -0.30827292799949646, -4.552407264709473, 0.7421329617500305, 3.5288684368133545, 0.2800706624984741, -5.785350799560547, 2.333969831466675, 0.18561336398124695, -0.6026836037635803, -0.8202077746391296, -0.9676785469055176, 0.05618119612336159, 0.05075310294409038, -0.4299663864154013, -0.49767793056467, 9362.0, 30146.0, 35388.0, 9362.0, 8.390083312988281, 0.2483442723751068, 0.029762228950858116, 0.03188911825418472, 0.0007063951343297958, -0.052615415304899216, 0.9960210919380188, -0.055984873324632645, -0.04855918884277344, 1.491943359375, 1.4560546875, 0.1147003173828125, 1.497802734375, 1.42236328125, 10.0, 1.0, 10.0, 1.3675081729888916
