timeTick, roll, pitch, yaw, stateX, stateY, stateZ, stateVX, stateVY, stateVZ, otX0, otY0, otZ0, otRoll0, otPitch0, otYaw0, left wing, pitch motor, yaw motor, right wing, voltage, roll rate, pitch rate, yaw rate, A_x, A_y, A_z, current, i_raw, v_raw, airflow_voltage, airflow_speed, pot_Pitch, voltage_nKF, kFFx, state_vel, State_vel, volt_KF_vel
11531, 0.03424720838665962, 1.0922983884811401, 0.6838406920433044, 0, 0, 0, 0, 0, 0, -0.8258653283119202, -0.9825950860977173, 0.05670895427465439, 0.2778327002273323, -0.14470404093651723, 0.9899971858491217, 0, 0, 0, 0, 0, 0, 0, 0, 0, 0, 0, 0, 0, 0, 0, 0, 0, 0, 0, 0, 0, 0
11541, 0.033238813281059265, 1.0939851999282837, 0.6833297610282898, 3.052569445571862e-05, 1.3537610357161611e-06, -0.8842746019363403, -0.0003349343314766884, -1.3771013072982896e-05, -0.17857319116592407, -0.8258687853813171, -0.9825525283813477, 0.05674969404935837, 0.3198578372861551, -0.1155997179175472, 1.0118858429247801, 9362.0, 30146.0, 35388.0, 9362.0, 0, 0.15203219652175903, 0.06111648306250572, 0.1623377799987793, 0, 0, 0, 0, 0, 0, 0, 0, 0, 0, 0, 0, 0, 0
11551, 0.03414116054773331, 1.0945773124694824, 0.6848464608192444, 1.7843980458565056e-05, 8.118918231048156e-07, -0.8860611319541931, -0.002201404655352235, -9.458825661567971e-05, -0.17873668670654297, -0.8255844712257385, -0.9828208088874817, 0.05715204402804375, 0.1566956797187192, -0.06200892197765029, 1.0858714651097598, 9362.0, 30146.0, 35388.0, 9362.0, 0, 0.017976295202970505, 0.00106245547067374, 0.15743312239646912, 0.0068192267790436745, -0.051064517349004745, 0.9997026324272156, 0, 0, 0, 1.40478515625, 0.0446624755859375, 0, 1.423095703125, 10.0, 1.0, 10.0, 1.439624547958374
11561, 0.03409281745553017, 1.0953691005706787, 0.6848764419555664, -1.3526398106478155e-05, -5.300191787682706e-07, -0.8878487944602966, -0.0040726675651967525, -0.00017384302918799222, -0.17880123853683472, -0.8258560299873352, -0.9825491309165955, 0.05674661695957184, 0.3128337448324003, -0.11141428233864303, 1.005337273363705, 9362.0, 30146.0, 35388.0, 9362.0, 0, -0.14103293418884277, -0.09102324396371841, 0.1815192550420761, 0.008091980591416359, -0.05245710164308548, 0.9993931651115417, 0, 0, 0, 1.27587890625, 0.092620849609375, 1.49560546875, 1.3037109375, 10.0, 1.0, 10.0, 1.4397022724151611
11571, 0.03444887697696686, 1.094874620437622, 0.6850532293319702, -6.361384293995798e-05, -2.6724835606728448e-06, -0.8896371722221375, -0.005944820586591959, -0.00025465089129284024, -0.17887131869792938, -0.8255863785743713, -0.9828183650970459, 0.057139478623867035, 0.15382523227079137, -0.07355682243297679, 1.094232229932134, 9362.0, 30146.0, 35388.0, 9362.0, 0, -0.03273006156086922, -0.14475469291210175, -0.30307480692863464, 0.007445640861988068, -0.05395759269595146, 0.9996010661125183, 0, 0, 0, 1.27880859375, 0.086212158203125, 1.49560546875, 1.3271484375, 10.0, 1.0, 10.0, 1.4399715662002563
11581, 0.03404686972498894, 1.0952003002166748, 0.6832296252250671, -0.00013242903514765203, -5.622674962069141e-06, -0.8914262652397156, -0.007818218320608139, -0.0003353930078446865, -0.17894725501537323, -0.8255775570869446, -0.9827748537063599, 0.05702196806669235, 0.19810758239640902, -0.03222845551482578, 1.0772540223785747, 9362.0, 30146.0, 35388.0, 9362.0, 0, -0.1497347354888916, -0.07347816228866577, -0.012185449711978436, 0.007736836560070515, -0.051875144243240356, 0.9980573654174805, 0, 0, 0, 1.443603515625, 0.0948486328125, 1.5, 1.31103515625, 10.0, 1.0, 10.0, 1.4397293329238892
11591, 0.03394812345504761, 1.0919302701950073, 0.6843482255935669, -0.00021995848510414362, -9.382640200783499e-06, -0.8932169079780579, -0.009687674231827259, -0.0004165419959463179, -0.1791849583387375, -0.825875997543335, -0.9825542569160461, 0.05676233768463135, 0.31665147445833325, -0.11442986779218245, 1.0078114650942582, 9362.0, 30146.0, 35388.0, 9362.0, 0, -0.05825382098555565, -7.775490666972473e-05, 0.28251105546951294, 0.008056995458900928, -0.051175307482481, 0.99642014503479, 0, 0, 0, 1.4736328125, 0.1452178955078125, 1.5, 1.42236328125, 10.0, 1.0, 10.0, 1.4396940469741821
11601, 0.03442368656396866, 1.0923410654067993, 0.6864537000656128, -0.0003261782112531364, -1.3950090760772582e-05, -0.8950102925300598, -0.011556281708180904, -0.0004969851579517126, -0.17949727177619934, -0.8258661031723022, -0.9825599193572998, 0.056744061410427094, 0.30953158835504735, -0.1104377059839976, 1.0048263201101422, 9362.0, 30146.0, 35388.0, 9362.0, 0, -0.1649489402770996, 0.21474523842334747, 0.3438698947429657, 0.006958087906241417, -0.05010761320590973, 1.0010522603988647, 0, 0, 0, 1.436279296875, 0.0838775634765625, 1.491943359375, 1.52197265625, 10.0, 1.0, 10.0, 1.4395822286605835
11611, 0.03391363471746445, 1.091820478439331, 0.6868913173675537, -0.0004510905419010669, -1.9322462321724743e-05, -0.8968050479888916, -0.01342618279159069, -0.0005775587051175535, -0.17944788932800293, -0.8258997797966003, -0.9825956225395203, 0.0568629689514637, 0.2870534321215557, -0.15690476417702826, 0.9968799041165457, 9362.0, 30146.0, 35388.0, 9362.0, 0, -0.0764613226056099, 0.21134613454341888, -0.007236544042825699, 0.007557134609669447, -0.050306305289268494, 1.0004276037216187, 0, 0, 0, 1.478759765625, 0.1546478271484375, 1.491943359375, 1.27587890625, 10.0, 1.0, 10.0, 1.439341425895691
11621, 0.034201934933662415, 1.0902992486953735, 0.6860036849975586, -0.0005947032477706671, -2.5504938093945384e-05, -0.89859938621521, -0.015296364203095436, -0.0006589503609575331, -0.17942029237747192, -0.8256848454475403, -0.9827564358711243, 0.057222526520490646, 0.09577928999086875, 0.022145671200547667, 1.1540056691369978, 9362.0, 30146.0, 35388.0, 9362.0, 0, 0.10986948013305664, 0.1777086704969406, 0.08941475301980972, 0.006786600220948458, -0.05320928990840912, 0.9991126656532288, 0, 0, 0, 1.449462890625, 0.103973388671875, 1.49267578125, 1.48095703125, 10.0, 1.0, 10.0, 1.4391733407974243
11631, 0.0346393845975399, 1.0901318788528442, 0.6860586404800415, -0.0007570009911432862, -3.2496445783181116e-05, -0.900394082069397, -0.01716318354010582, -0.0007393221603706479, -0.17952275276184082, -0.8258925676345825, -0.9826020002365112, 0.05689587816596031, 0.2911153269835357, -0.15928713432350605, 1.0009639069088307, 9362.0, 30146.0, 35388.0, 9362.0, 8.390083312988281, -0.12178243696689606, -0.01900217868387699, -0.11261161416769028, 0.0075546689331531525, -0.05267991125583649, 0.9992417097091675, 0, 0, 0, 1.458251953125, 0.1184234619140625, 1.49267578125, 1.209228515625, 10.0, 1.0, 10.0, 1.4388765096664429
11641, 0.033398427069187164, 1.0907366275787354, 0.6876134276390076, -0.000937954057008028, -4.029384581372142e-05, -0.9021897912025452, -0.019027436152100563, -0.0008201593882404268, -0.17962317168712616, -0.8259076476097107, -0.9825948476791382, 0.05687255039811134, 0.28707074255016946, -0.16256946906307235, 0.9917387016745673, 9362.0, 30146.0, 35388.0, 9362.0, 8.390083312988281, -0.30490753054618835, 0.01553548313677311, -0.1701483130455017, 0.00738947419449687, -0.051932793110609055, 0.9990890026092529, -0.049278102815151215, -0.12023735046386719, 1.486083984375, 1.42236328125, 0.0649566650390625, 1.490478515625, 1.46044921875, 10.0, 1.0, 10.0, 1.4387842416763306
11651, 0.032247211784124374, 1.0918813943862915, 0.6864789128303528, -0.0011375478934496641, -4.8903337301453575e-05, -0.9039865136146545, -0.020891332998871803, -0.0009017912088893354, -0.179726704955101, -0.8258980512619019, -0.982592761516571, 0.056877922266721725, 0.2864779836827492, -0.16083820015623473, 0.9996460870810063, 9362.0, 30146.0, 35388.0, 9362.0, 8.390083312988281, -0.1283709853887558, -0.17883192002773285, 0.13198931515216827, 0.009226729162037373, -0.05220826715230942, 0.9997962713241577, -0.049278102815151215, -0.12023735046386719, 1.486083984375, 1.387939453125, 0.0297393798828125, 1.490478515625, 1.382080078125, 10.0, 1.0, 10.0, 1.4390465021133423
11661, 0.031164057552814484, 1.0927948951721191, 0.6879784464836121, -0.0013557884376496077, -5.8318957599112764e-05, -0.9057841897010803, -0.02275678515434265, -0.0009812965290620923, -0.1798039674758911, -0.8255796432495117, -0.982762336730957, 0.05703548341989517, 0.20130173913372304, -0.040073492068074756, 1.077319594023436, 9362.0, 30146.0, 35388.0, 9362.0, 8.390083312988281, 0.11005330830812454, 0.11063102632761002, -0.2076367884874344, 0.007503252476453781, -0.05575060844421387, 0.999075174331665, -0.049278102815151215, -0.12023735046386719, 1.486083984375, 1.47216796875, 0.142547607421875, 1.49267578125, 1.529296875, 10.0, 1.0, 10.0, 1.4390015602111816
11671, 0.032232172787189484, 1.0924878120422363, 0.6862711906433105, -0.0015926918713375926, -6.851964280940592e-05, -0.907582700252533, -0.024623895063996315, -0.0010588910663500428, -0.1798987239599228, -0.8258950114250183, -0.982586681842804, 0.05688986927270889, 0.2897026707384908, -0.17412278055849129, 1.0008575628094145, 9362.0, 30146.0, 35388.0, 9362.0, 8.390083312988281, -0.02018115110695362, -0.03185827657580376, -0.1739000529050827, 0.005584862548857927, -0.05360189080238342, 1.0004323720932007, -0.049278102815151215, -0.12023735046386719, 1.486083984375, 1.405517578125, 0.0454254150390625, 1.49267578125, 1.493408203125, 10.0, 1.0, 10.0, 1.4392653703689575
11681, 0.03220018744468689, 1.0925720930099487, 0.6860468983650208, -0.0018482838058844209, -7.948774145916104e-05, -0.9093816876411438, -0.026494503021240234, -0.0011346731334924698, -0.1798929125070572, -0.8260003328323364, -0.9825263023376465, 0.0569114089012146, 0.24090697575968703, -0.0816275105329396, 1.0475788374770432, 9362.0, 30146.0, 35388.0, 9362.0, 8.390083312988281, -0.03301878273487091, -0.20107907056808472, -0.3416858911514282, 0.0066053238697350025, -0.05103040486574173, 0.9985433220863342, -0.049278102815151215, -0.12023735046386719, 1.486083984375, 1.50146484375, 0.1985626220703125, 1.49560546875, 1.494873046875, 10.0, 1.0, 10.0, 1.43895423412323
11691, 0.032108232378959656, 1.0935126543045044, 0.683487057685852, -0.002122563309967518, -9.122183837462217e-05, -0.9111813902854919, -0.028361400589346886, -0.0012121387990191579, -0.18005290627479553, -0.8258638978004456, -0.9826078414916992, 0.05677459388971329, 0.2704881167216584, -0.1363237900488059, 0.9916344243858508, 9362.0, 30146.0, 35388.0, 9362.0, 8.390083312988281, 0.05755394324660301, 0.06023923307657242, 0.10703078657388687, 0.007220439147204161, -0.050445012748241425, 0.9989818334579468, -0.049278102815151215, -0.12023735046386719, 1.486083984375, 1.402587890625, 0.0425262451171875, 1.49560546875, 1.349853515625, 10.0, 1.0, 10.0, 1.439115285873413
11701, 0.03191564604640007, 1.0930970907211304, 0.6838775277137756, -0.002415519207715988, -0.00010373056284151971, -0.9129824042320251, -0.030229756608605385, -0.0012895221589133143, -0.18014436960220337, -0.8259037137031555, -0.9825925827026367, 0.056908018887043, 0.28614474502621545, -0.1550136772778501, 0.9987334336252219, 9362.0, 30146.0, 35388.0, 9362.0, 8.390083312988281, 0.08566786348819733, 0.21286730468273163, 0.058451563119888306, 0.007223620545119047, -0.05222631245851517, 1.0016320943832397, -0.049278102815151215, -0.12023735046386719, 1.486083984375, 1.46923828125, 0.137359619140625, 1.493408203125, 1.51904296875, 10.0, 1.0, 10.0, 1.4385560750961304
11711, 0.03196166828274727, 1.0926982164382935, 0.6839302778244019, -0.0027271839790046215, -0.00011701272887876257, -0.9147834181785583, -0.032103199511766434, -0.0013669230975210667, -0.1800537109375, -0.8258708715438843, -0.9825452566146851, 0.056766826659440994, 0.32141418553448603, -0.11199244054967039, 1.0110992210540442, 9362.0, 30146.0, 35388.0, 9362.0, 8.390083312988281, -0.008384271524846554, -0.46950197219848633, -0.47665688395500183, 0.0074545894749462605, -0.05121326074004173, 0.9993461966514587, -0.049278102815151215, -0.12023735046386719, 1.486083984375, 1.27587890625, 0.092620849609375, 1.493408203125, 1.24072265625, 10.0, 1.0, 10.0, 1.4386873245239258
11721, 0.03205113485455513, 1.0947883129119873, 0.6800036430358887, -0.003057564375922084, -0.00013106665574014187, -0.916584312915802, -0.03397290036082268, -0.0014438629150390625, -0.18012216687202454, -0.8258771896362305, -0.9826033115386963, 0.05687855929136276, 0.28624042614635975, -0.1525941356440228, 0.996509022317735, 9362.0, 30146.0, 35388.0, 9362.0, 8.390083312988281, 0.035365067422389984, -0.14894329011440277, -0.20700037479400635, 0.006524240132421255, -0.05224617198109627, 0.9984537959098816, -0.049278102815151215, -0.12023735046386719, 1.486083984375, 1.411376953125, 0.05181884765625, 1.48974609375, 1.301513671875, 10.0, 1.0, 10.0, 1.4389495849609375
11731, 0.03143801912665367, 1.0961025953292847, 0.6795487403869629, -0.0034066257067024708, -0.00014588980411645025, -0.9183865785598755, -0.03583934158086777, -0.0015206391690298915, -0.18032534420490265, -0.8255784511566162, -0.9828169345855713, 0.05717576667666435, 0.16556623362895084, -0.07378162911970776, 1.0978332045880574, 9362.0, 30146.0, 35388.0, 9362.0, 8.390083312988281, 0.09602352231740952, 0.04072090610861778, 0.21327093243598938, 0.006137349642813206, -0.052249498665332794, 0.9972623586654663, -0.049278102815151215, -0.12023735046386719, 1.486083984375, 1.341064453125, 0.01654052734375, 1.48974609375, 1.48828125, 10.0, 1.0, 10.0, 1.4392204284667969
11741, 0.03291906416416168, 1.095180869102478, 0.6800758838653564, -0.0037743656430393457, -0.00016148090071510524, -0.9201910495758057, -0.03770863637328148, -0.001597568392753601, -0.1805667281150818, -0.8258840441703796, -0.9825975894927979, 0.05689594894647598, 0.28184278413627323, -0.16149497771607457, 1.0041643232236956, 9362.0, 30146.0, 35388.0, 9362.0, 8.390083312988281, -0.10277622938156128, 0.536504864692688, 0.01753576099872589, 0.006956886500120163, -0.04985160753130913, 1.0000107288360596, -0.04570639505982399, -0.18295860290527344, 1.48095703125, 1.298583984375, 0.051055908203125, 1.49267578125, 1.47509765625, 10.0, 1.0, 10.0, 1.4394139051437378
11751, 0.032533735036849976, 1.0923125743865967, 0.6799615621566772, -0.0041608307510614395, -0.000177836962393485, -0.9219968318939209, -0.03958434611558914, -0.001673661288805306, -0.18059051036834717, -0.8260030150413513, -0.9825332164764404, 0.05690332502126694, 0.23652275160215022, -0.0835316034800826, 1.0409292706475475, 9362.0, 30146.0, 35388.0, 9362.0, 8.390083312988281, 0.12617743015289307, -0.1224002093076706, 0.15832436084747314, 0.006482857279479504, -0.05218628793954849, 0.997954785823822, -0.04570639505982399, -0.18295860290527344, 1.48095703125, 1.490478515625, 0.1768646240234375, 1.49267578125, 1.475830078125, 10.0, 1.0, 10.0, 1.4397141933441162
11761, 0.03232928365468979, 1.0936375856399536, 0.68061363697052, -0.004566029645502567, -0.00019496597815304995, -0.9238036274909973, -0.04145541042089462, -0.0017521401168778539, -0.1807735413312912, -0.8258852958679199, -0.9826041460037231, 0.056889839470386505, 0.27930591554954615, -0.15888166076078392, 1.0046430206142283, 9362.0, 30146.0, 35388.0, 9362.0, 8.390083312988281, -0.06851032376289368, -0.4870448708534241, -0.12802205979824066, 0.007688433863222599, -0.05180506408214569, 0.9975600838661194, -0.04570639505982399, -0.18295860290527344, 1.48095703125, 1.16748046875, 0.598236083984375, 1.49267578125, 1.487548828125, 10.0, 1.0, 10.0, 1.4398128986358643
11771, 0.031364452093839645, 1.0969109535217285, 0.67927485704422, -0.004989907145500183, -0.00021287586423568428, -0.9256126880645752, -0.04332006722688675, -0.0018298604991286993, -0.1810353547334671, -0.825861394405365, -0.9825531840324402, 0.056764841079711914, 0.31756411090904796, -0.11621833196403486, 1.0025244616058082, 9362.0, 30146.0, 35388.0, 9362.0, 8.390083312988281, -0.01801881194114685, 0.2766108512878418, 0.11369534581899643, 0.007695903070271015, -0.04961065575480461, 0.9965389370918274, -0.04570639505982399, -0.18295860290527344, 1.48095703125, 1.423095703125, 0.06591796875, 1.49267578125, 1.436279296875, 10.0, 1.0, 10.0, 1.4400138854980469
11781, 0.030805762857198715, 1.0951262712478638, 0.6804376244544983, -0.005432435777038336, -0.00023156116367317736, -0.9274247288703918, -0.04518560692667961, -0.0019071621354669333, -0.18136908113956451, -0.8258565664291382, -0.982551634311676, 0.05674626678228378, 0.31651259819823674, -0.1187228373152891, 1.0039680083010416, 9362.0, 30146.0, 35388.0, 9362.0, 8.390083312988281, 0.1593581736087799, 0.09841042011976242, -0.11334548890590668, 0.008441952988505363, -0.05015604570508003, 0.9974403381347656, -0.04570639505982399, -0.18295860290527344, 1.48095703125, 1.212158203125, 0.3188018798828125, 1.49560546875, 1.288330078125, 10.0, 1.0, 10.0, 1.4399683475494385
11791, 0.030833709985017776, 1.094459891319275, 0.6789879202842712, -0.005893656052649021, -0.00025101169012486935, -0.9292396306991577, -0.04705843701958656, -0.0019829857628792524, -0.18161596357822418, -0.8255934715270996, -0.9828093647956848, 0.057142194360494614, 0.15912476443274712, -0.0675691149581894, 1.0910791688624435, 9362.0, 30146.0, 35388.0, 9362.0, 8.390083312988281, -0.11905307322740555, -0.24008555710315704, -0.053091395646333694, 0.007535936310887337, -0.05144907906651497, 0.9987688064575195, -0.04570639505982399, -0.18295860290527344, 1.48095703125, 1.484619140625, 0.1656646728515625, 1.49560546875, 1.464111328125, 10.0, 1.0, 10.0, 1.4400160312652588
11801, 0.031104832887649536, 1.0954523086547852, 0.6785408854484558, -0.006373600102961063, -0.00027121612220071256, -0.9310564398765564, -0.048930373042821884, -0.0020578557159751654, -0.18175098299980164, -0.825880765914917, -0.982589840888977, 0.05686866119503975, 0.275802844622524, -0.15780459286622772, 0.9999315011907218, 9362.0, 30146.0, 35388.0, 9362.0, 8.390083312988281, -0.0019716345705091953, 0.06659010797739029, -0.3156008720397949, 0.007205229252576828, -0.05280696600675583, 1.0002540349960327, -0.04570639505982399, -0.18295860290527344, 1.48095703125, 1.49560546875, 0.1868743896484375, 1.493408203125, 1.241455078125, 10.0, 1.0, 10.0, 1.4396531581878662
11811, 0.03072407655417919, 1.0945786237716675, 0.6767357587814331, -0.00687226839363575, -0.0002921696286648512, -0.9328740835189819, -0.05080327019095421, -0.0021328299771994352, -0.1817750632762909, -0.8258976340293884, -0.9827609062194824, 0.05660773813724518, 0.2680673408529547, -0.20214519009815035, 0.8086290758561203, 9362.0, 30146.0, 35388.0, 9362.0, 8.390083312988281, -0.18898168206214905, -0.012879668734967709, 0.14731580018997192, 0.007567352615296841, -0.05179743468761444, 0.999786376953125, -0.04570639505982399, -0.18295860290527344, 1.48095703125, 1.452392578125, 0.10870361328125, 1.493408203125, 1.278076171875, 10.0, 1.0, 10.0, 1.4398044347763062
11821, 0.028942998498678207, 1.0949567556381226, 0.67804354429245, -0.0073896716348826885, -0.0003138751199003309, -0.9346920847892761, -0.05267735943198204, -0.0022082081995904446, -0.18182620406150818, -0.8255690336227417, -0.9828308820724487, 0.05716722086071968, 0.1516710704696275, -0.06587609791935733, 1.0994109777667662, 9362.0, 30146.0, 35388.0, 9362.0, 8.390083312988281, 0.015842320397496223, 0.38824743032455444, 0.1660623699426651, 0.00778717128559947, -0.05214720219373703, 0.9996605515480042, -0.04570639505982399, -0.18295860290527344, 1.48095703125, 1.43701171875, 0.085052490234375, 1.49560546875, 1.431884765625, 10.0, 1.0, 10.0, 1.4400601387023926
11831, 0.0283423513174057, 1.0955044031143188, 0.6764314770698547, -0.007925807498395443, -0.00033633073326200247, -0.9365106225013733, -0.054549846798181534, -0.002282956149429083, -0.18188340961933136, -0.8258848190307617, -0.9825997352600098, 0.056889187544584274, 0.27926506041652366, -0.16324402044725161, 1.006686247233929, 9362.0, 30146.0, 35388.0, 9362.0, 8.390083312988281, 0.012826508842408657, -0.11639561504125595, -0.01744401641190052, 0.00798939447849989, -0.05184029042720795, 0.9992969632148743, -0.04570639505982399, -0.18295860290527344, 1.48095703125, 1.477294921875, 0.1519775390625, 1.49560546875, 1.37255859375, 10.0, 1.0, 10.0, 1.4396686553955078
11881, 0.027560973539948463, 1.0983840227127075, 0.6772615909576416, -0.010887411423027515, -0.0004592619079630822, -0.9456217885017395, -0.06391219794750214, -0.0026315366849303246, -0.18269044160842896, -0.8260090351104736, -0.9825395941734314, 0.05691852793097496, 0.23966902272460272, -0.09401059705848525, 1.0429716980908323, 9362.0, 30146.0, 35388.0, 9362.0, 8.390083312988281, -0.0670580118894577, 0.10681823641061783, 0.03743400797247887, 0.006290826015174389, -0.051351599395275116, 0.9981694221496582, -0.03863617405295372, -0.05751800537109375, 1.4912109375, 1.24951171875, 0.1648101806640625, 1.494140625, 1.497802734375, 10.0, 1.0, 10.0, 1.439618468284607
12011, 0.023818159475922585, 1.0892384052276611, 0.6800457239151001, -0.020774977281689644, -0.0008573458762839437, -0.9694785475730896, -0.08817724138498306, -0.003481938736513257, -0.1842275857925415, -0.8255777955055237, -0.9828317165374756, 0.05716573819518089, 0.14590267371288101, -0.05692322549288065, 1.0923436660482588, 9362.0, 30146.0, 35388.0, 9362.0, 8.390083312988281, -0.08489251136779785, -0.20399269461631775, 0.12361624836921692, 0.007069458719342947, -0.05436202138662338, 1.0000046491622925, -0.03537462651729584, -0.03959846496582031, 1.49267578125, 1.36376953125, 0.017181396484375, 1.493408203125, 1.517578125, 10.0, 1.0, 10.0, 1.4392756223678589
12131, 0.02172381617128849, 1.091192603111267, 0.6739245653152466, -0.03269845247268677, -0.0013200031826272607, -0.9916670918464661, -0.1105460524559021, -0.004225345328450203, -0.18539243936538696, -0.8258678317070007, -0.9825997948646545, 0.056714870035648346, 0.27557435627155236, -0.14916794030767733, 0.9868364001090901, 9362.0, 30146.0, 35388.0, 9362.0, 8.390083312988281, -0.15191808342933655, -0.16422723233699799, -0.06743704527616501, 0.007069458719342947, -0.05436202138662338, 1.0000046491622925, -0.03537462651729584, -0.03959846496582031, 1.49267578125, 1.297119140625, 0.0532379150390625, 1.494873046875, 1.481689453125, 10.0, 1.0, 10.0, 1.4391324520111084
12421, 0.01812000945210457, 1.090083360671997, 0.6673398613929749, -0.0709812268614769, -0.002729314612224698, -1.0441045761108398, -0.16292691230773926, -0.005826156586408615, -0.1893492341041565, -0.8259263634681702, -0.9827759265899658, 0.056564100086688995, 0.25967398509818396, -0.1913515339211358, 0.8116241127075703, 9362.0, 30146.0, 35388.0, 9362.0, 8.390083312988281, -0.09515988081693649, -0.10450049489736557, -0.15519320964813232, 0.007069458719342947, -0.05436202138662338, 1.0000046491622925, -0.010366911999881268, 0.014162063598632812, 1.4970703125, 1.323486328125, 0.024688720703125, 1.490478515625, 1.27880859375, 10.0, 1.0, 10.0, 1.437610149383545
12561, 0.011432027444243431, 1.0911809206008911, 0.6692457795143127, -0.09751512855291367, -0.0036591514945030212, -1.072680950164795, -0.19086198508739471, -0.00654301093891263, -0.19163069128990173, -0.8258640170097351, -0.9825552701950073, 0.056731272488832474, 0.3134764877004232, -0.1188796179097551, 1.0012824113795555, 9362.0, 30146.0, 35388.0, 9362.0, 8.390083312988281, -0.019927354529500008, -0.11016840487718582, -0.048716988414525986, 0.008536827750504017, -0.05208112671971321, 0.9988424181938171, -0.04497223347425461, -0.1739978790283203, 1.481689453125, 1.456787109375, 0.115966796875, 1.49560546875, 1.4091796875, 10.0, 1.0, 10.0, 1.4368993043899536
12801, 0.008721972815692425, 1.0913504362106323, 0.678417980670929, -0.14869622886180878, -0.005338511895388365, -1.1189944744110107, -0.2356538474559784, -0.007432613056153059, -0.19421562552452087, -0.8255888223648071, -0.9828080534934998, 0.057132210582494736, 0.1458233558865428, -0.06583168996175459, 1.0820254161276033, 9362.0, 30146.0, 35388.0, 9362.0, 8.390083312988281, 0.08657637238502502, -0.005182530730962753, -0.37565118074417114, 0.008005877956748009, -0.0522843673825264, 1.000693440437317, -0.054354991763830185, -0.07543754577636719, 1.48974609375, 1.421630859375, 0.0640716552734375, 1.496337890625, 1.409912109375, 10.0, 1.0, 10.0, 1.4347501993179321
12971, 0.00849230121821165, 1.1005918979644775, 0.6760284900665283, -0.19144919514656067, -0.006657000631093979, -1.1522767543792725, -0.26733657717704773, -0.008090781979262829, -0.1973700225353241, -0.8255767822265625, -0.9828206896781921, 0.05713798478245735, 0.15009617694121277, -0.058512704382309266, 1.0939995066923593, 9362.0, 30146.0, 35388.0, 9362.0, 8.390083312988281, -0.08507715165615082, -0.22517549991607666, -0.01959802210330963, 0.008005877956748009, -0.0522843673825264, 1.000693440437317, -0.04454299062490463, -0.07543754577636719, 1.48974609375, 1.27587890625, 0.092620849609375, 1.490478515625, 1.47802734375, 10.0, 1.0, 10.0, 1.433942437171936
13151, -0.006780338007956743, 1.0952003002166748, 0.6841562390327454, -0.24260959029197693, -0.008161337114870548, -1.188075304031372, -0.3010616600513458, -0.00853267963975668, -0.2005065679550171, -0.8255801200866699, -0.9828158617019653, 0.057165540754795074, 0.1397031944640463, -0.0643342813012282, 1.098101456397608, 9362.0, 30146.0, 35388.0, 9362.0, 8.390083312988281, 0.1964893639087677, -0.3644348382949829, -0.09469689428806305, 0.00851418450474739, -0.053239163011312485, 0.9976262450218201, -0.04864407330751419, -0.20087814331054688, 1.4794921875, 1.449462890625, 0.103973388671875, 1.5, 1.33740234375, 10.0, 1.0, 10.0, 1.4323419332504272
13161, -0.006142365280538797, 1.0960760116577148, 0.684216320514679, -0.24562954902648926, -0.008246717974543571, -1.1900815963745117, -0.3029298484325409, -0.00854344293475151, -0.20076249539852142, -0.8255801796913147, -0.9828251004219055, 0.05716830864548683, 0.14326443567880595, -0.05545286297322605, 1.0875142572896894, 9362.0, 30146.0, 35388.0, 9362.0, 8.390083312988281, 0.27827492356300354, -0.08788249641656876, -0.07157006114721298, 0.007822766900062561, -0.05395292490720749, 0.9977800846099854, -0.04864407330751419, -0.20087814331054688, 1.4794921875, 1.343994140625, 0.015899658203125, 1.496337890625, 1.20556640625, 10.0, 1.0, 10.0, 1.432509183883667
13171, -0.005358562339097261, 1.0968562364578247, 0.6830787062644958, -0.24866820871829987, -0.008332205936312675, -1.192090392112732, -0.3048008978366852, -0.00855419971048832, -0.20099002122879028, -0.8255818486213684, -0.9828101992607117, 0.057121641933918, 0.14663759920861913, -0.06573729442862941, 1.0906387205195556, 9362.0, 30146.0, 35388.0, 9362.0, 8.390083312988281, -0.0726965144276619, 0.006842523813247681, 0.28522545099258423, 0.007822766900062561, -0.05395292490720749, 0.9977800846099854, -0.04864407330751419, -0.20087814331054688, 1.4794921875, 1.304443359375, 0.043182373046875, 1.496337890625, 1.308837890625, 10.0, 1.0, 10.0, 1.4328328371047974
13181, -0.006313318386673927, 1.096944808959961, 0.6847697496414185, -0.25172558426856995, -0.008417807519435883, -1.1941015720367432, -0.3066727817058563, -0.008566023781895638, -0.20125241577625275, -0.8256693482398987, -0.9827558994293213, 0.05719638243317604, 0.08270805479972375, 0.023119592429480917, 1.160371481119871, 9362.0, 30146.0, 35388.0, 9362.0, 8.390083312988281, 0.05850205197930336, 0.15567652881145477, 0.016579868271946907, 0.006614919751882553, -0.053504351526498795, 0.9986225962638855, -0.04864407330751419, -0.20087814331054688, 1.4794921875, 1.49560546875, 0.1868743896484375, 1.494140625, 1.41796875, 10.0, 1.0, 10.0, 1.432820439338684
13211, -0.004241657443344593, 1.0977082252502441, 0.6836773157119751, -0.2578965723514557, -0.008589385077357292, -1.1981284618377686, -0.31042754650115967, -0.008590909652411938, -0.20134562253952026, -0.8255823850631714, -0.9828017354011536, 0.05713330954313278, 0.13587774363502877, -0.07099668277427895, 1.09106552461008, 9362.0, 30146.0, 35388.0, 9362.0, 8.390083312988281, -0.024543888866901398, -0.2674007713794708, -0.09286467730998993, 0.006614919751882553, -0.053504351526498795, 0.9986225962638855, -0.04864407330751419, -0.20087814331054688, 1.4794921875, 1.320556640625, 0.02685546875, 1.493408203125, 1.34326171875, 10.0, 1.0, 10.0, 1.4331530332565308
13341, -0.011072834953665733, 1.1002874374389648, 0.689035177230835, -0.30320262908935547, -0.009804812259972095, -1.226407766342163, -0.3368082046508789, -0.008755207993090153, -0.20299416780471802, -0.8255769610404968, -0.9828117489814758, 0.05714084953069687, 0.13776938003384054, -0.061780501603976745, 1.104885818688678, 9362.0, 30146.0, 35388.0, 9362.0, 8.390083312988281, 0.15246479213237762, 0.20449167490005493, 0.061320722103118896, 0.006614919751882553, -0.053504351526498795, 0.9986225962638855, -0.032059866935014725, -0.030637741088867188, 1.493408203125, 1.23046875, 0.235137939453125, 1.493408203125, 1.39013671875, 10.0, 1.0, 10.0, 1.4325034618377686
13351, -0.01059457566589117, 1.098028540611267, 0.688714861869812, -0.306580126285553, -0.009892373345792294, -1.2284387350082397, -0.33868998289108276, -0.008756987750530243, -0.20318879187107086, -0.825667142868042, -0.9827477931976318, 0.057179294526576996, 0.0840238633739576, 0.022473992832289014, 1.1498583328054572, 9362.0, 30146.0, 35388.0, 9362.0, 8.390083312988281, -0.12721294164657593, 0.19620761275291443, -0.017897451296448708, 0.006614919751882553, -0.053504351526498795, 0.9986225962638855, -0.032059866935014725, -0.030637741088867188, 1.493408203125, 1.48095703125, 0.1587677001953125, 1.493408203125, 1.461181640625, 10.0, 1.0, 10.0, 1.4324921369552612
13421, -0.011245290748775005, 1.092527985572815, 0.6889064908027649, -0.33074846863746643, -0.010506052523851395, -1.2426997423171997, -0.35182321071624756, -0.008772346191108227, -0.20431509613990784, -0.8255823254585266, -0.9828066229820251, 0.05713627114892006, 0.13774432628771063, -0.06426243702784973, 1.104191044459996, 9362.0, 30146.0, 35388.0, 9362.0, 8.390083312988281, 0.12335890531539917, -0.09570743888616562, -0.3449525833129883, 0.0064538209699094296, -0.05248228460550308, 0.9995601773262024, -0.032059866935014725, -0.030637741088867188, 1.493408203125, 1.18505859375, 0.474609375, 1.494140625, 1.469970703125, 10.0, 1.0, 10.0, 1.430810809135437
13441, -0.010341610759496689, 1.0919979810714722, 0.687454342842102, -0.3378223478794098, -0.01068155188113451, -1.2467892169952393, -0.3555632531642914, -0.008777925744652748, -0.2046290785074234, -0.8255906105041504, -0.9828035235404968, 0.05713321641087532, 0.14225331388800036, -0.06603273592406822, 1.0926166917262465, 9362.0, 30146.0, 35388.0, 9362.0, 8.390083312988281, -0.10421735793352127, -0.1529414802789688, 0.3917325735092163, 0.0064538209699094296, -0.05248228460550308, 0.9995601773262024, -0.039621226489543915, -0.030637741088867188, 1.493408203125, 1.18505859375, 0.474609375, 1.494873046875, 1.3857421875, 10.0, 1.0, 10.0, 1.430546760559082
13451, -0.010937546379864216, 1.0929332971572876, 0.6901445388793945, -0.3378223478794098, -0.01068155188113451, -1.2467892169952393, -0.3555632531642914, -0.008777925744652748, -0.2046290785074234, -0.8255792260169983, -0.9828102588653564, 0.05715746432542801, 0.14514760740832372, -0.05848207840261921, 1.095827702648321, 9362.0, 30146.0, 35388.0, 9362.0, 8.390083312988281, 0.08291908353567123, -0.009476360864937305, -0.3298055827617645, 0.0064538209699094296, -0.05248228460550308, 0.9995601773262024, -0.039621226489543915, -0.030637741088867188, 1.493408203125, 1.18505859375, 0.474609375, 1.494873046875, 1.3857421875, 10.0, 1.0, 10.0, 1.4302400350570679
13611, -0.01447222474962473, 1.0940619707107544, 0.6967753767967224, -0.400972843170166, -0.012180319987237453, -1.2818140983581543, -0.3874070644378662, -0.008849740028381348, -0.20686154067516327, -0.8255815505981445, -0.9828027486801147, 0.057137321680784225, 0.14772222340290955, -0.06709229119607585, 1.092466250736539, 9362.0, 30146.0, 35388.0, 9362.0, 8.390083312988281, 0.31765154004096985, -0.2098238170146942, -0.4431864023208618, 0.0064538209699094296, -0.05248228460550308, 0.9995601773262024, -0.046664047986269, -0.1291980743408203, 1.4853515625, 1.443603515625, 0.0948486328125, 1.49267578125, 1.41796875, 10.0, 1.0, 10.0, 1.4292672872543335
13631, -0.012577088549733162, 1.0962384939193726, 0.693232536315918, -0.4087584614753723, -0.01235728245228529, -1.285952091217041, -0.39115336537361145, -0.008846208453178406, -0.20699049532413483, -0.8255816698074341, -0.9828073382377625, 0.05713684856891632, 0.13910950525004948, -0.053211281565012314, 1.091986657957996, 9362.0, 30146.0, 35388.0, 9362.0, 8.390083312988281, -0.0982760637998581, -0.12922872602939606, 0.041151657700538635, 0.005959557835012674, -0.05041041225194931, 0.9987235069274902, -0.046664047986269, -0.1291980743408203, 1.4853515625, 1.355712890625, 0.0155029296875, 1.49560546875, 1.2626953125, 10.0, 1.0, 10.0, 1.4293917417526245
13761, -0.01828320138156414, 1.1024744510650635, 0.7030776143074036, -0.4611937999725342, -0.013507332652807236, -1.312965750694275, -0.4155576527118683, -0.008835663087666035, -0.20844043791294098, -0.825587272644043, -0.9827455282211304, 0.05696142837405205, 0.19628850957334976, -0.03303634780718312, 1.0858042477116885, 9362.0, 30146.0, 35388.0, 9362.0, 8.390083312988281, -0.06499045342206955, 0.1773567497730255, 0.08745329082012177, 0.0071751088835299015, -0.05353439599275589, 0.9994490146636963, -0.031250327825546265, -0.07543754577636719, 1.48974609375, 1.314697265625, 0.0319061279296875, 1.49560546875, 1.283203125, 10.0, 1.0, 10.0, 1.4294484853744507
14191, -0.029422271996736526, 1.0873336791992188, 0.7129884958267212, -0.6572433710098267, -0.017159173265099525, -1.404592514038086, -0.49620258808135986, -0.00799246784299612, -0.21661631762981415, -0.8255844712257385, -0.9828104376792908, 0.05711840093135834, 0.1463744888230083, -0.05431133062310778, 1.1008851603742362, 9362.0, 30146.0, 35388.0, 9362.0, 8.390083312988281, -0.07896403968334198, 0.17893414199352264, 0.052487801760435104, 0.0071751088835299015, -0.05353439599275589, 0.9994490146636963, -0.05355196073651314, -0.06647872924804688, 1.490478515625, 1.14111328125, 0.8206024169921875, 1.494873046875, 1.38720703125, 10.0, 1.0, 10.0, 1.4251161813735962
14241, -0.03171736001968384, 1.0839505195617676, 0.720187783241272, -0.677240252494812, -0.01747669093310833, -1.413276195526123, -0.503637433052063, -0.007880788296461105, -0.21737465262413025, -0.8255983591079712, -0.9827983975410461, 0.057126741856336594, 0.13414782069407424, -0.060869091061135805, 1.1012416090491566, 9362.0, 30146.0, 35388.0, 9362.0, 8.390083312988281, 0.06481800973415375, -0.16098301112651825, 0.1268831491470337, 0.0071751088835299015, -0.05353439599275589, 0.9994490146636963, -0.05409284308552742, -0.03959846496582031, 1.49267578125, 1.4150390625, 0.05596923828125, 1.497802734375, 1.31103515625, 10.0, 1.0, 10.0, 1.4245824813842773
14411, -0.036594320088624954, 1.087782382965088, 0.7374603152275085, -0.7714389562606812, -0.018847644329071045, -1.4528295993804932, -0.5372442007064819, -0.007231852505356073, -0.21951048076152802, -0.8256018161773682, -0.9828120470046997, 0.05714873969554901, 0.14803961055174045, -0.058210988311003575, 1.0962383147562396, 9362.0, 30146.0, 35388.0, 9362.0, 8.390083312988281, -0.11409338563680649, -0.20628449320793152, -0.05195237696170807, 0.008066953159868717, -0.05317995697259903, 0.9998063445091248, -0.017752237617969513, 0.09480094909667969, 1.503662109375, 1.288330078125, 0.0676116943359375, 1.49267578125, 1.525634765625, 10.0, 1.0, 10.0, 1.424971580505371
14461, -0.03696029633283615, 1.0918713808059692, 0.7373692393302917, -0.7985333800315857, -0.01920432597398758, -1.4638336896896362, -0.5465528964996338, -0.007034116890281439, -0.22024762630462646, -0.8255969882011414, -0.9828111529350281, 0.05712628364562988, 0.14630602376056728, -0.058543990145125235, 1.0993846196062669, 9362.0, 30146.0, 35388.0, 9362.0, 8.390083312988281, 0.036059703677892685, -0.2458028793334961, -0.04278325289487839, 0.008066953159868717, -0.05317995697259903, 0.9998063445091248, -0.017752237617969513, 0.09480094909667969, 1.503662109375, 1.3623046875, 0.0167999267578125, 1.49560546875, 1.35791015625, 10.0, 1.0, 10.0, 1.4257663488388062
14631, -0.042027588933706284, 1.0967899560928345, 0.7432941794395447, -0.8941400647163391, -0.020342078059911728, -1.5014402866363525, -0.578237771987915, -0.006330359261482954, -0.22198258340358734, -0.825584888458252, -0.9827489852905273, 0.056993287056684494, 0.18056636845727833, -0.023784260373616917, 1.0918660438797603, 9362.0, 30146.0, 35388.0, 9362.0, 8.390083312988281, -0.08095899969339371, -0.055652618408203125, 0.007607168983668089, 0.008066953159868717, -0.05317995697259903, 0.9998063445091248, -0.03686704486608505, 0.0052013397216796875, 1.496337890625, 1.25537109375, 0.146392822265625, 1.493408203125, 1.4912109375, 10.0, 1.0, 10.0, 1.4251196384429932
14681, -0.042550794780254364, 1.097785234451294, 0.7451862096786499, -0.9115714430809021, -0.02052987553179264, -1.508108377456665, -0.5838599801063538, -0.006189708132296801, -0.22245486080646515, -0.8255894184112549, -0.9828039407730103, 0.05712927132844925, 0.14322791264129603, -0.06171813011931704, 1.0984529510535836, 9362.0, 30146.0, 35388.0, 9362.0, 8.390083312988281, -0.09691079705953598, 0.26444679498672485, -0.032157231122255325, 0.0068984320387244225, -0.05126301571726799, 0.9982648491859436, -0.0437636636197567, 0.07688140869140625, 1.502197265625, 1.34912109375, 0.015380859375, 1.491943359375, 1.497802734375, 10.0, 1.0, 10.0, 1.424784779548645
14771, -0.04484220966696739, 1.0947340726852417, 0.7474948167800903, -0.9769306778907776, -0.0211811326444149, -1.5326701402664185, -0.6044687628746033, -0.005645022261887789, -0.22413712739944458, -0.8259124755859375, -0.9825798869132996, 0.056864816695451736, 0.2682132286835603, -0.1418607975042505, 0.9965236795775405, 9362.0, 30146.0, 35388.0, 9362.0, 8.390083312988281, -0.162352055311203, -0.16753706336021423, -0.07851723581552505, 0.0068984320387244225, -0.05126301571726799, 0.9982648491859436, -0.049048881977796555, -0.05751800537109375, 1.4912109375, 1.25244140625, 0.155426025390625, 1.49560546875, 1.446533203125, 10.0, 1.0, 10.0, 1.4251426458358765
14791, -0.04543726518750191, 1.0951446294784546, 0.7501319050788879, -0.9890574216842651, -0.021292999386787415, -1.5371589660644531, -0.6082048416137695, -0.005541436839848757, -0.22476452589035034, -0.8255835175514221, -0.982810914516449, 0.05713446065783501, 0.1468072796450836, -0.057588523191896, 1.1034980371457814, 9362.0, 30146.0, 35388.0, 9362.0, 8.390083312988281, 0.0975547805428505, 0.3815692067146301, -0.015856923535466194, 0.0068984320387244225, -0.05126301571726799, 0.9982648491859436, -0.049048881977796555, -0.05751800537109375, 1.4912109375, 1.35498046875, 0.01556396484375, 1.4970703125, 1.489013671875, 10.0, 1.0, 10.0, 1.4255564212799072
14861, -0.050431184470653534, 1.0899792909622192, 0.752499520778656, -1.032090425491333, -0.021667607128620148, -1.5529204607009888, -0.6213012933731079, -0.0051520634442567825, -0.22561094164848328, -0.8256009221076965, -0.9827855825424194, 0.057123273611068726, 0.14221657595632775, -0.07301533590774056, 1.1003684971018242, 9362.0, 30146.0, 35388.0, 9362.0, 8.390083312988281, -0.1626332849264145, 0.0961637869477272, 0.15709668397903442, 0.0068984320387244225, -0.05126301571726799, 0.9982648491859436, -0.03431505337357521, 0.06792068481445312, 1.50146484375, 1.224609375, 0.260162353515625, 1.49560546875, 1.424560546875, 10.0, 1.0, 10.0, 1.4261265993118286
14911, -0.05268120765686035, 1.0918017625808716, 0.7608170509338379, -1.063388466835022, -0.02191757597029209, -1.5642282962799072, -0.6306201815605164, -0.004845134448260069, -0.22670477628707886, -0.8255729079246521, -0.9827474355697632, 0.0570143423974514, 0.18302693414592355, -0.024129323192653374, 1.0795589373376746, 9362.0, 30146.0, 35388.0, 9362.0, 8.390083312988281, 0.020040802657604218, -0.10416946560144424, 0.057439640164375305, 0.0068984320387244225, -0.05126301571726799, 0.9982648491859436, -0.03431505337357521, 0.06792068481445312, 1.50146484375, 1.23779296875, 0.2061920166015625, 1.48974609375, 1.493408203125, 10.0, 1.0, 10.0, 1.4271584749221802
14931, -0.05119158700108528, 1.0909861326217651, 0.7611765265464783, -1.076038122177124, -0.022013191133737564, -1.5687633752822876, -0.6343540549278259, -0.004715743940323591, -0.2267741709947586, -0.825596809387207, -0.9827991127967834, 0.057138532400131226, 0.13831676076662128, -0.05785145812799897, 1.112270779556268, 9362.0, 30146.0, 35388.0, 9362.0, 8.390083312988281, 0.023880764842033386, 0.3126092255115509, 0.26183247566223145, 0.0068984320387244225, -0.05126301571726799, 0.9982648491859436, -0.03431505337357521, 0.06792068481445312, 1.50146484375, 1.519775390625, 0.236236572265625, 1.493408203125, 1.493408203125, 10.0, 1.0, 10.0, 1.4270086288452148
15461, -0.07097036391496658, 1.1156772375106812, 0.7613829374313354, -1.4386186599731445, -0.02347859926521778, -1.6907655000686646, -0.7343780994415283, -0.0006154136499390006, -0.23327793180942535, -0.8255789279937744, -0.9827996492385864, 0.05714736506342888, 0.13488699401152518, -0.061443878499460425, 1.098137377924985, 9362.0, 30146.0, 35388.0, 9362.0, 8.390083312988281, 0.010285183787345886, 0.16528460383415222, -0.013351866975426674, 0.0068984320387244225, -0.05126301571726799, 0.9982648491859436, -0.05913069471716881, -0.24567794799804688, 1.475830078125, 1.283935546875, 0.075897216796875, 1.494140625, 1.5439453125, 10.0, 1.0, 10.0, 1.4264845848083496
15521, -0.07522343844175339, 1.117548942565918, 0.7620382905006409, -1.4830251932144165, -0.02349824458360672, -1.704789161682129, -0.7458361983299255, -3.0998882721178234e-05, -0.23425859212875366, -0.8258943557739258, -0.9825791716575623, 0.05682339891791344, 0.2685018845895958, -0.15037008875174251, 0.9942086256314356, 9362.0, 30146.0, 35388.0, 9362.0, 8.390083312988281, -0.03537660092115402, -0.6068244576454163, -0.19261883199214935, 0.0068984320387244225, -0.05126301571726799, 0.9982648491859436, -0.05913069471716881, -0.24567794799804688, 1.475830078125, 1.482421875, 0.161529541015625, 1.49267578125, 1.57177734375, 10.0, 1.0, 10.0, 1.4275561571121216
15571, -0.07443173229694366, 1.122031807899475, 0.762574315071106, -1.5205564498901367, -0.02348698303103447, -1.7165271043777466, -0.7554236650466919, 0.00048092438373714685, -0.2350785881280899, -0.8255932331085205, -0.9827994108200073, 0.05711551755666733, 0.13845890274736083, -0.057968891649409215, 1.1056618943943393, 9362.0, 30146.0, 35388.0, 9362.0, 8.390083312988281, -0.0015147587982937694, -0.29377123713493347, 0.00913273636251688, 0.0068984320387244225, -0.05126301571726799, 0.9982648491859436, -0.052766621112823486, -0.03959846496582031, 1.49267578125, 1.29931640625, 0.0500640869140625, 1.49560546875, 1.44140625, 10.0, 1.0, 10.0, 1.4275652170181274
16101, -0.08471715450286865, 1.128799557685852, 0.7565671801567078, -1.9479639530181885, -0.021719060838222504, -1.8429994583129883, -0.8574475049972534, 0.006298240274190903, -0.24255628883838654, -0.8259633183479309, -0.9826604723930359, 0.05692566931247711, 0.03028863706577813, 0.3187054559492424, 1.0731235605315024, 9362.0, 30146.0, 35388.0, 9362.0, 8.390083312988281, -0.2402944415807724, 0.1279703974723816, -0.14477716386318207, 0.007844707928597927, -0.05383932217955589, 0.9987869262695312, -0.043844737112522125, 0.05896186828613281, 1.500732421875, 1.427490234375, 0.0716400146484375, 1.48974609375, 1.41064453125, 10.0, 1.0, 10.0, 1.430873155593872
16351, 0.08805762231349945, -0.15671896934509277, -1.004064679145813, 2.743195004484278e-08, -7.950047731242194e-09, -7.760827429592609e-07, 4.7339399316115305e-06, 1.4736117748270772e-07, 0.0007054535672068596, -0.8204069137573242, -0.9868892431259155, 0.06730739027261734, -3.2743251826593682, 3.482487837779985, -14.554230114478315, 53624.0, 32344.0, 65535.0, 35204.0, 8.390083312988281, 11.954445838928223, 34.889076232910156, -27.27083969116211, 0.007937162183225155, -0.05081961676478386, 0.9975183010101318, 0.04530993849039078, 0.1396007537841797, 1.50732421875, 1.4384765625, 0.0871429443359375, 1.405517578125, 1.349853515625, 10.0, 1.0, 10.0, 1.433250069618225
16371, -0.15670326352119446, -1.0617049932479858, -1.0251667499542236, -0.82584547996521, -0.9826051592826843, 0.05685671046376228, 0.00023885346308816224, -0.00010676385863916948, -0.011079682968556881, -0.8179437518119812, -0.9851502776145935, 0.08553732186555862, 5.106329200462019, -0.44316345733372486, -26.850551607323396, 55837.0, 39508.0, 65535.0, 38901.0, 8.390083312988281, -4.390024662017822, 7.815248012542725, 145.02491760253906, 0.6073517799377441, -0.3421705961227417, 0.8726276755332947, 0.04530993849039078, 0.1396007537841797, 1.50732421875, 1.49267578125, 0.1811065673828125, 1.367431640625, 1.49560546875, 10.0, 1.0, 10.0, 1.4333410263061523
16381, -0.16059625148773193, -1.186496376991272, 0.46033939719200134, -0.8258374929428101, -0.9826074242591858, 0.05678956210613251, 0.0014262942131608725, -0.0003048435610253364, -0.0023583772126585245, -0.8185527920722961, -0.9779552817344666, 0.09419553726911545, -3.0909517787145893, 2.266138450626954, -16.275961326232203, 52479.0, 39508.0, 65535.0, 43452.0, 8.390083312988281, -1.3049629926681519, 22.84682273864746, 191.08876037597656, -0.5325207710266113, 0.5295950770378113, 1.091224193572998, 0.04530993849039078, 0.1396007537841797, 1.50732421875, 1.459716796875, 0.120849609375, 1.541015625, 1.46923828125, 10.0, 1.0, 10.0, 1.4336421489715576
16391, -0.10870205610990524, -1.0927278995513916, 2.222088575363159, -0.8258134722709656, -0.982609212398529, 0.05679918825626373, 0.0033799870871007442, -2.1973089587845607e-06, 0.004279572516679764, -0.8179147839546204, -0.9766218066215515, 0.10705724358558655, -0.6003663513019263, 1.2918972036827086, -30.60787975056382, 52479.0, 39508.0, 65535.0, 43452.0, 8.390083312988281, 7.278099060058594, -48.18679428100586, 147.57757568359375, -1.01058030128479, 0.20632116496562958, 0.9696598649024963, 0.04530993849039078, 0.1396007537841797, 1.50732421875, 1.400390625, 0.04034423828125, 1.541015625, 1.54248046875, 10.0, 1.0, 10.0, 1.433933138847351
16411, 0.343928724527359, 0.22533324360847473, 2.3518571853637695, -0.8257055878639221, -0.9826028943061829, 0.05691809579730034, 0.007319536991417408, 0.0006430137436836958, 0.013414652086794376, -0.818841814994812, -0.9722059369087219, 0.134632408618927, -2.120544377104879, 1.123810554809836, -20.589538012124315, 41247.0, 20784.0, 65535.0, 54856.0, 8.390083312988281, 26.91876792907715, -58.65889358520508, -212.41162109375, -1.481995940208435, -0.10472773015499115, 1.0851439237594604, 0.04530993849039078, 0.1396007537841797, 1.50732421875, 1.52197265625, 0.2408599853515625, 1.63623046875, 1.453125, 10.0, 1.0, 10.0, 1.4339725971221924
16451, -0.23596727848052979, 0.487262099981308, -2.0816726684570312, -0.8255117535591125, -0.9824574589729309, 0.05684341862797737, 0.006223113276064396, -0.0005483920685946941, -0.052656568586826324, -0.8132058382034302, -0.9709933996200562, 0.1852651685476303, 6.342333801310789, -2.6670458868214553, -25.48098531740922, 48440.0, 37062.0, 65535.0, 46822.0, 8.370248794555664, -36.834930419921875, 1.5107877254486084, 199.56497192382812, -1.481995940208435, -0.10472773015499115, 1.0851439237594604, 0.17498289048671722, 0.10376167297363281, 1.50439453125, 1.43115234375, 0.0766143798828125, 1.3916015625, 1.487548828125, 10.0, 1.0, 10.0, 1.4341930150985718
16511, -0.19779852032661438, 1.718252182006836, -3.0333354473114014, -0.8259391784667969, -0.9823362231254578, 0.05607469007372856, -0.00454416498541832, 0.0010708145564422011, 0.04941640421748161, -0.8062649965286255, -0.9712475538253784, 0.24571478366851807, 3.620930191996522, 3.577151732187673, -42.21632355656109, 48150.0, 28302.0, 14435.0, 48224.0, 8.370248794555664, -13.1341552734375, 49.81252670288086, -112.64562225341797, -1.481995940208435, -0.10472773015499115, 1.0851439237594604, 0.17498289048671722, 0.10376167297363281, 1.50439453125, 1.34619140625, 0.015594482421875, 1.58349609375, 1.51025390625, 10.0, 1.0, 10.0, 1.434584140777588
16651, 3.959545850753784, -2.2736494541168213, -25.26478385925293, -0.8281545639038086, -0.984266459941864, 0.09154641628265381, -0.04555750638246536, -0.041453566402196884, 0.5627479553222656, -0.7936828136444092, -0.9669525027275085, 0.37877339124679565, 4.3097566574471164, 4.384136356919726, -71.05326245185681, 43682.0, 30451.0, 2621.0, 45199.0, 7.8942155838012695, -16.968250274658203, -11.24970531463623, 1313.3699951171875, -1.481995940208435, -0.10472773015499115, 1.0851439237594604, 2.231112241744995, 1.8688735961914062, 1.648681640625, 1.519775390625, 0.236236572265625, 1.532958984375, 1.595947265625, 10.0, 1.0, 10.0, 1.4381413459777832
16921, 4.476720333099365, 0.810326099395752, -50.697383880615234, -0.8091965913772583, -0.988852858543396, 0.2825242280960083, -0.0024024732410907745, -0.13940466940402985, 0.8293575644493103, -0.8093258738517761, -0.9324213266372681, 0.5856648087501526, 2.5811270898552503, 4.837511915349268, -90.95409998064146, 40309.0, 29442.0, 2621.0, 41714.0, 7.9140496253967285, 91.82056427001953, 45.646484375, 37.505271911621094, 0.2310669869184494, 2.9709460735321045, 1.1772929430007935, 1.4848031997680664, 0.4621601104736328, 1.53369140625, 1.518310546875, 0.2331390380859375, 1.59814453125, 1.58056640625, 10.0, 1.0, 10.0, 1.444350242614746
17521, -4.672367572784424, -0.36446166038513184, -113.03026580810547, -0.8416756987571716, -0.8591625094413757, 0.8086235523223877, -0.08312922716140747, 0.2847782373428345, 0.9534037113189697, -0.7668813467025757, -0.8270897269248962, 1.107004165649414, -1.5027425862016883, -0.5116218585870627, -134.81226879442738, 41097.0, 28651.0, 2621.0, 39502.0, 7.99338960647583, -33.745121002197266, 82.23082733154297, -673.1900634765625, -0.28282687067985535, 1.5303237438201904, 1.168418288230896, 1.5291719436645508, 2.4064712524414062, 1.692626953125, 1.40478515625, 0.0446624755859375, 1.50146484375, 1.69921875, 10.0, 1.0, 10.0, 1.4699641466140747
17731, -2.7012765407562256, -2.4666478633880615, -125.12506866455078, -0.8112121820449829, -0.8078557252883911, 1.001094102859497, 0.09253308176994324, 0.18290963768959045, 0.9423350095748901, -0.7387284636497498, -0.8628142476081848, 1.2328664064407349, 2.129072972099202, -1.0888441709366816, -152.70524159103485, 39893.0, 28212.0, 2621.0, 40081.0, 8.013224601745605, 83.70926666259766, 56.51380157470703, 435.51531982421875, -0.28282687067985535, 1.5303237438201904, 1.168418288230896, 1.535246729850769, 1.0445575714111328, 1.581298828125, 1.669189453125, 0.5873260498046875, 1.4619140625, 1.667724609375, 10.0, 1.0, 10.0, 1.4783278703689575
17751, -4.291855812072754, -1.8929394483566284, -125.89002227783203, -0.8093278408050537, -0.8042736649513245, 1.0191025733947754, 0.09481920301914215, 0.17661331593990326, 0.8486832976341248, -0.737495481967926, -0.864934504032135, 1.2403082847595215, -1.8755882671913926, 0.576652987690295, -150.22735417411283, 38937.0, 29454.0, 2621.0, 40652.0, 8.013224601745605, -223.6229705810547, -45.58530044555664, 300.51983642578125, -0.28282687067985535, 1.5303237438201904, 1.168418288230896, 1.535246729850769, 1.0445575714111328, 1.581298828125, 1.6259765625, 0.4795989990234375, 1.5029296875, 1.680908203125, 10.0, 1.0, 10.0, 1.4792994260787964
17791, -3.2753100395202637, -2.010220766067505, -133.49002075195312, -0.8063167929649353, -0.7993242740631104, 1.0454756021499634, 0.10600554943084717, 0.16016370058059692, 0.7966227531433105, -0.7328130006790161, -0.8770043849945068, 1.2504383325576782, -0.2563069380420364, -0.17837459325181726, -166.92597068996503, 37546.0, 29144.0, 2621.0, 38359.0, 8.013224601745605, 167.37530517578125, 57.47677993774414, 77.63231658935547, -0.28282687067985535, 1.5303237438201904, 1.168418288230896, 1.535246729850769, 1.0445575714111328, 1.581298828125, 1.619384765625, 0.4635009765625, 1.471435546875, 1.698486328125, 10.0, 1.0, 10.0, 1.4805842638015747
18211, -0.30815157294273376, -1.2637885808944702, -169.23037719726562, -0.7203941941261292, -0.879042387008667, 1.2552577257156372, 0.1446586400270462, -0.19771701097488403, -0.0014416018966585398, -0.7564455270767212, -0.9111400842666626, 1.2074674367904663, 0.6404202236570246, 3.718960320039031, -164.19644462469583, 35812.0, 28008.0, 2621.0, 33757.0, 8.152067184448242, 55.54621887207031, 46.03076171875, -216.3953094482422, 1.168156623840332, 1.1442803144454956, 0.7828575968742371, 0.938482403755188, 0.8205585479736328, 1.56298828125, 1.67431640625, 0.6003570556640625, 1.518310546875, 1.67431640625, 10.0, 1.0, 10.0, 1.4978280067443848
18231, 0.8571603894233704, -1.8089321851730347, -175.92723083496094, -0.7175307273864746, -0.8830344080924988, 1.2548753023147583, 0.1441074162721634, -0.2035469263792038, -0.0739985778927803, -0.7566640377044678, -0.913453996181488, 1.202359914779663, 5.1593739190314105, 3.7422858507437127, -175.94862674021127, 35571.0, 28280.0, 4193.0, 34227.0, 8.092562675476074, -22.566696166992188, 15.652088165283203, -152.07606506347656, -0.49438178539276123, 0.7711570262908936, 0.0780966505408287, 0.938482403755188, 0.8205585479736328, 1.56298828125, 1.56298828125, 0.3311767578125, 1.461181640625, 1.71826171875, 10.0, 1.0, 10.0, 1.4983165264129639
18331, 3.154442071914673, -1.554375410079956, -178.4204559326172, -0.7163822650909424, -0.9063780903816223, 1.250583529472351, 0.09291733056306839, -0.20876939594745636, -0.12234912067651749, -0.757079005241394, -0.9039599299430847, 1.1828323602676392, 1.4821692091274794, 1.8261527400370028, -171.47192381085657, 35407.0, 29443.0, 15953.0, 36963.0, 8.033059120178223, 88.00659942626953, 23.216461181640625, -328.7281494140625, -0.49438178539276123, 0.7711570262908936, 0.0780966505408287, 1.0659494400024414, 1.8599128723144531, 1.64794921875, 1.41357421875, 0.0542449951171875, 1.49560546875, 1.6611328125, 10.0, 1.0, 10.0, 1.5020681619644165
18341, 2.233903169631958, -0.5016246438026428, -174.50506591796875, -0.7163822650909424, -0.9063780903816223, 1.250583529472351, 0.09291733056306839, -0.20876939594745636, -0.12234912067651749, -0.7572345733642578, -0.9042831063270569, 1.1812117099761963, -1.2802683707544684, 1.7677675484722783, -172.3923826270791, 35407.0, 29443.0, 15953.0, 36963.0, 8.033059120178223, 88.00659942626953, 23.216461181640625, -328.7281494140625, -0.49438178539276123, 0.7711570262908936, 0.0780966505408287, 1.0659494400024414, 1.8599128723144531, 1.64794921875, 1.26123046875, 0.129302978515625, 1.505859375, 1.6611328125, 10.0, 1.0, 10.0, 1.5024179220199585
18351, 0.5335521697998047, 0.18406780064105988, -171.67987060546875, -0.7145668864250183, -0.9104782342910767, 1.247973918914795, 0.08827238529920578, -0.20150373876094818, -0.1556079387664795, -0.7563211917877197, -0.9028673768043518, 1.1803276538848877, 4.4304055232041355, 2.251400504218452, -171.14579639420714, 35575.0, 28700.0, 24589.0, 37291.0, 8.033059120178223, -99.49553680419922, -70.73316192626953, -213.39891052246094, -0.49438178539276123, 0.7711570262908936, 0.0780966505408287, 1.0659494400024414, 1.8599128723144531, 1.64794921875, 1.26123046875, 0.129302978515625, 1.505859375, 1.4794921875, 10.0, 1.0, 10.0, 1.5028822422027588
18371, 2.2066361904144287, 0.21370522677898407, -169.9957275390625, -0.7192246317863464, -0.9140027761459351, 1.245082139968872, 0.06948120892047882, -0.19526003301143646, -0.1612052321434021, -0.7598423361778259, -0.8947578072547913, 1.1723614931106567, -1.827119385450043, 2.01572470771751, -172.12394262642064, 37245.0, 27354.0, 24139.0, 35793.0, 8.033059120178223, 104.82682037353516, -40.82767868041992, -705.7680053710938, -0.49438178539276123, 0.7711570262908936, 0.0780966505408287, 1.0659494400024414, 1.8599128723144531, 1.64794921875, 1.594482421875, 0.4041595458984375, 1.48828125, 1.6669921875, 10.0, 1.0, 10.0, 1.502907156944275
18501, 0.2674286365509033, 1.623700499534607, -168.34791564941406, -0.7274330258369446, -0.9300044775009155, 1.21925950050354, 0.040418677031993866, -0.12790146470069885, -0.26198840141296387, -0.7654861807823181, -0.8810792565345764, 1.1480424404144287, 7.515376428728387, -0.8245974217140031, 168.40275912535554, 39940.0, 29032.0, 22341.0, 36794.0, 8.05289363861084, 249.7654266357422, 27.91126823425293, 53.48725509643555, -0.49438178539276123, 0.7711570262908936, 0.0780966505408287, 1.0659494400024414, 1.8599128723144531, 1.64794921875, 1.60400390625, 0.4266204833984375, 1.50146484375, 1.554931640625, 10.0, 1.0, 10.0, 1.5078248977661133
18521, 1.0370111465454102, 0.94229656457901, -178.21788024902344, -0.7337915897369385, -0.9282988905906677, 1.21370267868042, 0.026989635080099106, -0.11684227734804153, -0.28709179162979126, -0.7625601291656494, -0.8769989609718323, 1.1463850736618042, 6.358380521268524, -0.8570492155979537, -174.15844129576314, 38583.0, 29371.0, 19441.0, 38812.0, 8.05289363861084, -164.5287628173828, 22.85487937927246, 819.110595703125, -0.49438178539276123, 0.7711570262908936, 0.0780966505408287, 1.0659494400024414, 1.8599128723144531, 1.64794921875, 1.693359375, 0.650238037109375, 1.48828125, 1.502197265625, 10.0, 1.0, 10.0, 1.5083085298538208
18551, 1.406659722328186, 0.4650770127773285, 179.18748474121094, -0.7328802347183228, -0.9316312074661255, 1.2070485353469849, 0.032952260226011276, -0.10841473937034607, -0.22468075156211853, -0.7647474408149719, -0.8674262166023254, 1.1408213376998901, 0.35322143303027176, -2.705051999199526, -173.04439297491123, 38843.0, 29754.0, 21122.0, 38954.0, 8.05289363861084, -358.250732421875, -85.41927337646484, 70.12633514404297, -0.49438178539276123, 0.7711570262908936, 0.0780966505408287, 1.4713925123214722, 0.7936782836914062, 1.560791015625, 1.496337890625, 0.1883087158203125, 1.5791015625, 1.74462890625, 10.0, 1.0, 10.0, 1.509567141532898
18571, 0.18315386772155762, 0.39416152238845825, -172.50303649902344, -0.7322220802307129, -0.9337373375892639, 1.2017782926559448, 0.033754512667655945, -0.10292410850524902, -0.26368585228919983, -0.7695332169532776, -0.8579580783843994, 1.1399308443069458, -0.5039673581692589, -1.2029608838628008, 177.1175068944594, 40880.0, 28796.0, 30839.0, 37652.0, 8.05289363861084, 159.39804077148438, 90.49739074707031, -79.5087890625, -0.49438178539276123, 0.7711570262908936, 0.0780966505408287, 1.4713925123214722, 0.7936782836914062, 1.560791015625, 1.496337890625, 0.1883087158203125, 1.5380859375, 1.437744140625, 10.0, 1.0, 10.0, 1.509537935256958
18581, 0.9113435745239258, -0.1023111641407013, -177.93934631347656, -0.7387701272964478, -0.9287675619125366, 1.1982135772705078, 0.017121270298957825, -0.08852362632751465, -0.2693951725959778, -0.7717728018760681, -0.8552803993225098, 1.140844702720642, 3.3009831764732014, -1.7107582397100032, 171.01441112616496, 40220.0, 29033.0, 29941.0, 38669.0, 8.05289363861084, -132.04856872558594, -6.695521354675293, -89.2833251953125, -0.49438178539276123, 0.7711570262908936, 0.0780966505408287, 1.4713925123214722, 0.7936782836914062, 1.560791015625, 1.496337890625, 0.1883087158203125, 1.587158203125, 1.437744140625, 10.0, 1.0, 10.0, 1.5099149942398071
18651, 0.00393335148692131, -0.10279857367277145, 175.37713623046875, -0.7427423596382141, -0.9272940158843994, 1.1794317960739136, 0.005708679091185331, -0.07243847846984863, -0.29789891839027405, -0.7838442325592041, -0.8286335468292236, 1.1444072723388672, 0.8235755703730011, 0.9695681605745676, -172.96043631455635, 40162.0, 29524.0, 26602.0, 40626.0, 8.05289363861084, -185.0063018798828, -9.750446319580078, 1062.252685546875, -0.49438178539276123, 0.7711570262908936, 0.0780966505408287, 1.3874645233154297, 2.119752883911133, 1.669189453125, 1.481689453125, 0.1600799560546875, 1.49560546875, 1.5234375, 10.0, 1.0, 10.0, 1.510411262512207
