timeTick, roll, pitch, yaw, stateX, stateY, stateZ, stateVX, stateVY, stateVZ, otX0, otY0, otZ0, otRoll0, otPitch0, otYaw0, left wing, pitch motor, yaw motor, right wing, voltage, roll rate, pitch rate, yaw rate, A_x, A_y, A_z, current, i_raw, v_raw, airflow_voltage, airflow_speed, pot_Pitch, voltage_nKF, kFFx, volt_KF_vel, kP, volt_KF_pos
15051, 0.8474162220954895, 3.2629306316375732, -0.28660500049591064, 0, 0, 0, 0, 0, 0, -0.8231814503669739, -0.96689772605896, 0.056073881685733795, -0.5473268577347705, 0.003942749820538438, 3.1980203375344085, 0, 0, 0, 0, 0, 0, 0, 0, 0, 0, 0, 0, 0, 0, 0, 0, 0, 0, 0, 0, 0, 0
15061, 0.8474612832069397, 3.262540817260742, -0.2864293158054352, 0.0005518129328265786, 0.0001407092495355755, -3.91349196434021, 0.02201116271317005, 0.00561545742675662, -0.5821567177772522, -0.8231880068778992, -0.9669061303138733, 0.056074898689985275, -0.5505999801316404, 0.0014759160711435015, 3.198441193795542, 9362.0, 30146.0, 35388.0, 9362.0, 0, -0.028655074536800385, 0.122940793633461, 0.08168207108974457, 0.0031678371597081423, -0.06086796894669533, 0.99886155128479, 0, 0, 0, 0, 0, 0, 0, 0, 0, 0, 0
15071, 0.8474169969558716, 3.263002634048462, -0.28676652908325195, 0.000744019984267652, 0.0001897611073218286, -3.9193150997161865, 0.01643024943768978, 0.0041948952712118626, -0.5824896097183228, -0.8232028484344482, -0.9669018387794495, 0.056081704795360565, -0.5529725441268231, -0.002757070458869748, 3.195797107313023, 9362.0, 30146.0, 35388.0, 9362.0, 0, 0.07956161350011826, -0.11184487491846085, 0.1252375990152359, 0.0045312559232115746, -0.05994941666722298, 0.9970282912254333, 0, 0, 0, 1.559326171875, 0.32293701171875, 0, 1.3623046875, 10.0, 1.4122259616851807, 1.5, 1.4122259616851807
15081, 0.8478373885154724, 3.2645981311798096, -0.28663888573646545, 0.0008804122917354107, 0.00022460456239059567, -3.9251415729522705, 0.010848204605281353, 0.002773830434307456, -0.5827911496162415, -0.8231557607650757, -0.9668964743614197, 0.05607730895280838, -0.5382544480005114, -0.026691555446291204, 3.1858010281542963, 9362.0, 30146.0, 35388.0, 9362.0, 0, -0.1937921792268753, 0.13090761005878448, -0.02347530610859394, 0.004552844446152449, -0.06088241934776306, 0.9967992305755615, 0, 0, 0, 1.489013671875, 0.174041748046875, 1.491943359375, 1.40771484375, 10.0, 1.4121246337890625, 1.5, 1.4121246337890625
15091, 0.847241222858429, 3.2641353607177734, -0.28636613488197327, 0.000961015117354691, 0.00024524683249183, -3.930971622467041, 0.005272375885397196, 0.0013546142727136612, -0.5832154154777527, -0.8231920003890991, -0.9668891429901123, 0.056086670607328415, -0.548766447598895, -0.0028945867274217107, 3.2038418465661516, 9362.0, 30146.0, 35388.0, 9362.0, 0, -0.011675221845507622, 0.07218915969133377, -0.21779945492744446, 0.005591281224042177, -0.059784892946481705, 0.9990274310112, 0, 0, 0, 1.45458984375, 0.11224365234375, 1.491943359375, 1.1865234375, 10.0, 1.4128104448318481, 1.5, 1.4128104448318481
15101, 0.8476454019546509, 3.265629291534424, -0.2876816391944885, 0.0009858482517302036, 0.0002516939421184361, -3.9368059635162354, -0.00030574199627153575, -6.522265175590292e-05, -0.5836472511291504, -0.8231497406959534, -0.9669163823127747, 0.056059420108795166, -0.5355475595643515, -0.017198266491590175, 3.193678569308636, 9362.0, 30146.0, 35388.0, 9362.0, 0, 0.18590503931045532, -0.12870025634765625, -0.06472957134246826, 0.004385465756058693, -0.06164224445819855, 0.9969305396080017, 0, 0, 0, 1.19091796875, 0.4375, 1.496337890625, 1.5380859375, 10.0, 1.411401391029358, 1.5, 1.411401391029358
15111, 0.8485105633735657, 3.2660908699035645, -0.28713396191596985, 0.0009548641392029822, 0.00024393740750383586, -3.942643880844116, -0.005891101434826851, -0.0014859541552141309, -0.5839390754699707, -0.8231474161148071, -0.966903805732727, 0.056088078767061234, -0.5405387565477964, -0.03501406569242249, 3.1880081178707815, 9362.0, 30146.0, 35388.0, 9362.0, 0, 0.0715164765715599, 0.028221648186445236, -0.2253468781709671, 0.003940714988857508, -0.06100298464298248, 0.997574508190155, 0, 0, 0, 1.020263671875, 2.552642822265625, 1.496337890625, 1.6875, 10.0, 1.4120001792907715, 1.5, 1.4120001792907715
15121, 0.8488904237747192, 3.264916181564331, -0.28737497329711914, 0.0008680589962750673, 0.00022198236547410488, -3.9484856128692627, -0.011469916440546513, -0.002905104774981737, -0.5843899846076965, -0.8231499195098877, -0.9668992161750793, 0.0560540072619915, -0.5391184055388054, -0.025720444466600156, 3.1832527045064336, 9362.0, 30146.0, 35388.0, 9362.0, 0, 0.1315814107656479, 0.055192213505506516, 0.030858732759952545, 0.005660522263497114, -0.06012516841292381, 0.9974097609519958, 0, 0, 0, 1.535888671875, 0.2707366943359375, 1.49560546875, 1.60693359375, 10.0, 1.4122118949890137, 1.5, 1.4122118949890137
15131, 0.8498108386993408, 3.2637484073638916, -0.2861788868904114, 0.0007254512165673077, 0.00018582551274448633, -3.954331636428833, -0.01705165207386017, -0.004326243884861469, -0.5848037004470825, -0.8231517672538757, -0.9669008851051331, 0.05607176199555397, -0.5369030927767027, -0.035729532805675035, 3.1846455693388536, 9362.0, 30146.0, 35388.0, 9362.0, 0, -0.1017850935459137, -0.07135113328695297, -0.000590509211178869, 0.005070134066045284, -0.058997806161642075, 0.9970733523368835, 0, 0, 0, 1.259765625, 0.1334381103515625, 1.49560546875, 1.4736328125, 10.0, 1.411965012550354, 1.5, 1.411965012550354
15141, 0.8496975302696228, 3.263768434524536, -0.2852826416492462, 0.00052704440895468, 0.00013545619731303304, -3.960181951522827, -0.022629691287875175, -0.005747730378061533, -0.5852466225624084, -0.8231577277183533, -0.9669055342674255, 0.05605480074882507, -0.5356820010984238, -0.023430542800070953, 3.190319821108767, 9362.0, 30146.0, 35388.0, 9362.0, 0, 0.03975825756788254, 0.4217500388622284, 0.1912037581205368, 0.0038034392055124044, -0.059739239513874054, 0.9992020130157471, 0, 0, 0, 1.44140625, 0.0914459228515625, 1.493408203125, 1.34326171875, 10.0, 1.4119373559951782, 1.5, 1.4119373559951782
15151, 0.8491612076759338, 3.262061357498169, -0.2841968238353729, 0.00027286159456707537, 7.08621009835042e-05, -3.966036558151245, -0.028206856921315193, -0.007171180099248886, -0.5856695771217346, -0.8231917023658752, -0.9668935537338257, 0.05607546865940094, -0.5440333586120962, -0.005560498422056526, 3.1976587543360813, 9362.0, 30146.0, 35388.0, 9362.0, 8.390083312988281, 0.25771430134773254, -0.09524785727262497, -0.0185504499822855, 0.0032952255569398403, -0.061729796230793, 0.9979041218757629, 0, 0, 0, 1.4794921875, 0.155975341796875, 1.493408203125, 1.270751953125, 10.0, 1.412116289138794, 1.5, 1.412116289138794
15161, 0.84967440366745, 3.263505697250366, -0.2844773530960083, -3.714303602464497e-05, -7.978756912052631e-06, -3.9718945026397705, -0.03379405289888382, -0.008597097359597683, -0.5859168767929077, -0.8231526613235474, -0.966913104057312, 0.05605510249733925, -0.537891609856925, -0.03026397256758173, 3.1864084450820296, 9362.0, 30146.0, 35388.0, 9362.0, 8.390083312988281, -0.10538020730018616, 0.04973740875720978, 0.029209550470113754, 0.001957410480827093, -0.05948389321565628, 0.9969780445098877, -0.0694802775979042, -0.03959846496582031, 1.49267578125, 1.54833984375, 0.298126220703125, 1.490478515625, 1.0986328125, 10.0, 1.412618637084961, 1.5, 1.412618637084961
15171, 0.8491043448448181, 3.2620201110839844, -0.28364598751068115, -0.00040295961662195623, -0.00010106322588399053, -3.9777557849884033, -0.03936925157904625, -0.01001976989209652, -0.5863231420516968, -0.823183000087738, -0.9669089317321777, 0.056089796125888824, -0.5451072642984103, -0.016625921410138744, 3.1995243959954447, 9362.0, 30146.0, 35388.0, 9362.0, 8.390083312988281, -0.04093405231833458, 0.04492812976241112, 0.422339528799057, 0.002090977970510721, -0.05910579487681389, 0.9965515732765198, -0.0694802775979042, -0.03959846496582031, 1.49267578125, 1.36669921875, 0.01806640625, 1.490478515625, 1.62158203125, 10.0, 1.4106947183609009, 1.5, 1.4106947183609009
15181, 0.8504095673561096, 3.261716842651367, -0.2822214663028717, -0.000824522809125483, -0.00020837409829255193, -3.98362135887146, -0.04494338855147362, -0.011442486196756363, -0.5867912173271179, -0.8231935501098633, -0.966901421546936, 0.0560748316347599, -0.5551607490686535, -0.005540353252428076, 3.1984741825557235, 9362.0, 30146.0, 35388.0, 9362.0, 8.390083312988281, 0.15409258008003235, -0.3645634949207306, -0.3523980379104614, 0.002796609653159976, -0.060733355581760406, 0.9952678680419922, -0.0694802775979042, -0.03959846496582031, 1.49267578125, 1.65234375, 0.5445709228515625, 1.491943359375, 1.43408203125, 10.0, 1.4113258123397827, 1.5, 1.4113258123397827
15191, 0.8519649505615234, 3.2619705200195312, -0.2843283712863922, -0.0013017936144024134, -0.0003299023665022105, -3.9894919395446777, -0.050510749220848083, -0.01286330632865429, -0.5873327851295471, -0.8231545686721802, -0.9669062495231628, 0.05604870617389679, -0.539771724112796, -0.03160787002724419, 3.189100570525781, 9362.0, 30146.0, 35388.0, 9362.0, 8.390083312988281, 0.0782429501414299, 0.3839443624019623, 0.26289525628089905, 0.004752251785248518, -0.05862826481461525, 0.9967321157455444, -0.0694802775979042, -0.03959846496582031, 1.49267578125, 1.48388671875, 0.1642303466796875, 1.491943359375, 1.6376953125, 10.0, 1.4115160703659058, 1.5, 1.4115160703659058
15201, 0.8523292541503906, 3.259697675704956, -0.2817751169204712, -0.0018347137374803424, -0.00046564516378566623, -3.995368242263794, -0.05607334151864052, -0.014285046607255936, -0.5879499912261963, -0.8231788873672485, -0.9669122695922852, 0.05609485134482384, -0.5474679967708231, 0.0016051161256598334, 3.191488471659721, 9362.0, 30146.0, 35388.0, 9362.0, 8.390083312988281, 0.0996072068810463, -0.22911354899406433, 0.05000641942024231, 0.004133580718189478, -0.06035410240292549, 0.9979578256607056, -0.0694802775979042, -0.03959846496582031, 1.49267578125, 1.121337890625, 1.0191802978515625, 1.4912109375, 1.578369140625, 10.0, 1.4113560914993286, 1.5, 1.4113560914993286
15211, 0.8538225293159485, 3.2597506046295166, -0.28041109442710876, -0.002423310186713934, -0.0006156298331916332, -4.00124979019165, -0.06164589896798134, -0.015712138265371323, -0.5883991122245789, -0.8231496214866638, -0.9669032692909241, 0.05605079233646393, -0.5362373239878574, -0.029740877414468514, 3.1940454169734123, 9362.0, 30146.0, 35388.0, 9362.0, 8.390083312988281, 0.1088935136795044, 0.12556283175945282, 0.26125383377075195, 0.0035362865310162306, -0.060768697410821915, 0.997677743434906, -0.0694802775979042, -0.03959846496582031, 1.49267578125, 1.681640625, 0.619354248046875, 1.4912109375, 1.005615234375, 10.0, 1.4121233224868774, 1.5, 1.4121233224868774
15221, 0.8542822599411011, 3.260929584503174, -0.2780165672302246, -0.0030676363967359066, -0.000779896043241024, -4.007135391235352, -0.0672193169593811, -0.017141230404376984, -0.5887645483016968, -0.8230134844779968, -0.9667704701423645, 0.05585286393761635, -0.5741188140989064, 0.07329662930237646, 3.0155694317494426, 9362.0, 30146.0, 35388.0, 9362.0, 8.390083312988281, -0.2691579759120941, -0.511650800704956, -0.0524640753865242, 0.0032068381551653147, -0.06282767653465271, 0.9985528588294983, -0.0694802775979042, -0.03959846496582031, 1.49267578125, 1.50146484375, 0.1985626220703125, 1.489013671875, 1.63037109375, 10.0, 1.4119919538497925, 1.5, 1.4119919538497925
15231, 0.8531702160835266, 3.2640180587768555, -0.27858832478523254, -0.0037676896899938583, -0.0009584646904841065, -4.013024806976318, -0.07279130816459656, -0.0185727346688509, -0.5891557931900024, -0.8231785893440247, -0.9668884873390198, 0.05605040118098259, -0.5420934738213046, -0.001097140455783574, 3.197931345861092, 9362.0, 30146.0, 35388.0, 9362.0, 8.390083312988281, 0.011098140850663185, 0.2939414083957672, 0.004314975347369909, 0.0028772170189768076, -0.060715410858392715, 0.9972416162490845, -0.0694802775979042, -0.03959846496582031, 1.49267578125, 1.111083984375, 1.133758544921875, 1.489013671875, 1.546875, 10.0, 1.412447452545166, 1.5, 1.412447452545166
15241, 0.852154016494751, 3.2633719444274902, -0.2778436541557312, -0.004523489158600569, -0.0011513576610013843, -4.018918037414551, -0.07836858928203583, -0.02000579424202442, -0.5894896388053894, -0.8231775164604187, -0.9669013023376465, 0.05607222765684128, -0.5492552076792462, -0.001424925808947819, 3.195260753816785, 9362.0, 30146.0, 35388.0, 9362.0, 8.390083312988281, -0.06964970380067825, -0.45478492975234985, -0.17424553632736206, 0.0029160233680158854, -0.0616912916302681, 0.9970929026603699, -0.0694802775979042, -0.03959846496582031, 1.49267578125, 1.440673828125, 0.090423583984375, 1.489013671875, 1.603271484375, 10.0, 1.4127302169799805, 1.5, 1.4127302169799805
15251, 0.8523218035697937, 3.265411138534546, -0.278948038816452, -0.005335049703717232, -0.0013585614506155252, -4.024815082550049, -0.08394349366426468, -0.021435046568512917, -0.5899576544761658, -0.8231424689292908, -0.9668987989425659, 0.05604124814271927, -0.5412868778192272, -0.025545364638702495, 3.1731192106248933, 9362.0, 30146.0, 35388.0, 9362.0, 8.390083312988281, -0.1657610535621643, -0.0010230406187474728, -0.05951691418886185, 0.003560952376574278, -0.061709947884082794, 0.9976411461830139, -0.0694802775979042, -0.03959846496582031, 1.49267578125, 1.124267578125, 0.9879302978515625, 1.489013671875, 1.5673828125, 10.0, 1.4126484394073486, 1.5, 1.4126484394073486
15261, 0.8512915968894958, 3.265962600708008, -0.2791869640350342, -0.006202362477779388, -0.0015800518449395895, -4.030716896057129, -0.08951910585165024, -0.022862914949655533, -0.5903941988945007, -0.8231512308120728, -0.9669079184532166, 0.05605058744549751, -0.5331975962014323, -0.035374946938816265, 3.1913368752816482, 9362.0, 30146.0, 35388.0, 9362.0, 8.390083312988281, -0.13753825426101685, -0.15062177181243896, -0.07831142842769623, 0.004027578514069319, -0.058933090418577194, 0.9956772923469543, -0.06969717890024185, 0.10376167297363281, 1.50439453125, 1.55859375, 0.3211212158203125, 1.493408203125, 1.22900390625, 10.0, 1.413291573524475, 1.5, 1.413291573524475
15271, 0.8514676690101624, 3.2689971923828125, -0.2812615931034088, -0.007125454023480415, -0.0018158230232074857, -4.036623001098633, -0.09509918838739395, -0.02429129369556904, -0.590813398361206, -0.8231600522994995, -0.9668986797332764, 0.05603209137916565, -0.5365783435759492, -0.02232408271279951, 3.1867515357650484, 9362.0, 30146.0, 35388.0, 9362.0, 8.390083312988281, 0.006340971682220697, 0.1166900247335434, -0.379646897315979, 0.004756471607834101, -0.060468658804893494, 0.9965018033981323, -0.06969717890024185, 0.10376167297363281, 1.50439453125, 1.435546875, 0.0829315185546875, 1.493408203125, 1.6142578125, 10.0, 1.4128798246383667, 1.5, 1.4128798246383667
15281, 0.8518587350845337, 3.269573211669922, -0.2840252220630646, -0.008104303851723671, -0.0020658569410443306, -4.042533874511719, -0.10067081451416016, -0.025715289637446404, -0.5913980007171631, -0.8231817483901978, -0.9668917655944824, 0.0560913160443306, -0.5473648561508256, -0.0084186190460116, 3.1916780265045115, 9362.0, 30146.0, 35388.0, 9362.0, 8.390083312988281, -0.20509232580661774, -0.4607866406440735, -0.011787155643105507, 0.0031970541458576918, -0.06169620156288147, 0.9977875351905823, -0.06969717890024185, 0.10376167297363281, 1.50439453125, 1.576904296875, 0.36309814453125, 1.490478515625, 1.213623046875, 10.0, 1.4119136333465576, 1.5, 1.4119136333465576
15291, 0.8504303693771362, 3.2718663215637207, -0.2835369110107422, -0.009138924069702625, -0.002330138348042965, -4.048450469970703, -0.10625332593917847, -0.027140729129314423, -0.5918839573860168, -0.823196291923523, -0.9668949246406555, 0.05609634518623352, -0.5475392839853824, -0.0017889022693395873, 3.1979753645768803, 9362.0, 30146.0, 35388.0, 9362.0, 8.390083312988281, 0.12411870062351227, -0.0002963842707686126, -0.2503303289413452, 0.003336722729727626, -0.06117884814739227, 0.9992759227752686, -0.06969717890024185, 0.10376167297363281, 1.50439453125, 1.423095703125, 0.06591796875, 1.490478515625, 1.6318359375, 10.0, 1.4115016460418701, 1.5, 1.4115016460418701
15301, 0.851966142654419, 3.2712996006011963, -0.2847115993499756, -0.01022940594702959, -0.0026086843572556973, -4.054371356964111, -0.11184308677911758, -0.028568489477038383, -0.5922600626945496, -0.8231503367424011, -0.9669110178947449, 0.05607544258236885, -0.532799348296454, -0.03168278971438099, 3.1855192294085493, 9362.0, 30146.0, 35388.0, 9362.0, 8.390083312988281, -0.1752374768257141, -0.36005449295043945, -0.1125083863735199, 0.002523197093978524, -0.061782680451869965, 0.9981133937835693, -0.06969717890024185, 0.10376167297363281, 1.50439453125, 1.5615234375, 0.3278350830078125, 1.4912109375, 1.354248046875, 10.0, 1.4120591878890991, 1.5, 1.4120591878890991
15311, 0.8507347702980042, 3.273076295852661, -0.2865363359451294, -0.01137583889067173, -0.0029015042819082737, -4.060295104980469, -0.1174434944987297, -0.02999538742005825, -0.592519223690033, -0.8231467604637146, -0.9669060707092285, 0.05606534332036972, -0.5350086445917561, -0.023714376260898007, 3.1914794768541364, 9362.0, 30146.0, 35388.0, 9362.0, 8.390083312988281, 0.09067536145448685, -0.002488561440259218, 0.020546728745102882, 0.003713821992278099, -0.06261997669935226, 0.999288022518158, -0.06969717890024185, 0.10376167297363281, 1.50439453125, 1.594482421875, 0.4041595458984375, 1.4912109375, 1.568115234375, 10.0, 1.4126641750335693, 1.5, 1.4126641750335693
15321, 0.8502707481384277, 3.272321939468384, -0.28596553206443787, -0.012578259222209454, -0.0032086027786135674, -4.066221714019775, -0.1230405867099762, -0.03142412006855011, -0.592820405960083, -0.8232076168060303, -0.9668952822685242, 0.05606437847018242, -0.550608207688398, -0.003657462010096424, 3.1965542886072558, 9362.0, 30146.0, 35388.0, 9362.0, 8.390083312988281, 0.05661547929048538, -0.45348653197288513, 0.11826591193675995, 0.002582341665402055, -0.06111676245927811, 0.9968969821929932, -0.06969717890024185, 0.10376167297363281, 1.50439453125, 1.2099609375, 0.329986572265625, 1.48681640625, 1.556396484375, 10.0, 1.4132062196731567, 1.5, 1.4132062196731567
15331, 0.8501226902008057, 3.276169538497925, -0.28513187170028687, -0.013836679048836231, -0.003529980545863509, -4.072151184082031, -0.12864340841770172, -0.03285147249698639, -0.5930747985839844, -0.8231529593467712, -0.9669070839881897, 0.056070178747177124, -0.5398929259777614, -0.03014891723185542, 3.200669954643995, 9362.0, 30146.0, 35388.0, 9362.0, 8.390083312988281, -0.1444311887025833, -0.016004744917154312, 0.10521558672189713, 0.00280753243714571, -0.060787949711084366, 0.9974988698959351, -0.06969717890024185, 0.10376167297363281, 1.50439453125, 1.6259765625, 0.4795989990234375, 1.48681640625, 1.09130859375, 10.0, 1.4137792587280273, 1.5, 1.4137792587280273
15341, 0.8495967388153076, 3.2763962745666504, -0.2846659719944, -0.015151048079133034, -0.0038656096439808607, -4.078084468841553, -0.1342303305864334, -0.034274425357580185, -0.5935827493667603, -0.8231444358825684, -0.9669056534767151, 0.05606957525014877, -0.5413827284305859, -0.031623270769301826, 3.1937553751574193, 9362.0, 30146.0, 35388.0, 9362.0, 8.390083312988281, -0.029872898012399673, -0.05064753443002701, -0.008637087419629097, 0.005007978528738022, -0.06135793402791023, 0.9994836449623108, -0.06969717890024185, 0.10376167297363281, 1.50439453125, 1.223876953125, 0.2634124755859375, 1.494873046875, 1.60986328125, 10.0, 1.4130661487579346, 1.5, 1.4130661487579346
15351, 0.8497534394264221, 3.2767879962921143, -0.2846231758594513, -0.016521353274583817, -0.004215476103127003, -4.084022045135498, -0.13983085751533508, -0.03569890931248665, -0.5939688682556152, -0.8231841921806335, -0.9669135808944702, 0.05608852207660675, -0.5457038169426602, -0.0028004357543807146, 3.2015281014665673, 9362.0, 30146.0, 35388.0, 9362.0, 8.390083312988281, 0.001851791050285101, 0.2706623673439026, 0.15144915878772736, 0.003568667219951749, -0.06016575172543526, 0.9972350001335144, -0.06969717890024185, 0.10376167297363281, 1.50439453125, 1.508056640625, 0.211883544921875, 1.494873046875, 1.6318359375, 10.0, 1.4135949611663818, 1.5, 1.4135949611663818
15371, 0.850006639957428, 3.2760965824127197, -0.28617537021636963, -0.01794769987463951, -0.004579592030495405, -4.089962959289551, -0.14543864130973816, -0.03712427243590355, -0.5942342281341553, -0.8231737613677979, -0.9669089913368225, 0.056094810366630554, -0.5436524545932495, -0.012736839822679258, 3.1969490685075637, 9362.0, 30146.0, 35388.0, 9362.0, 8.390083312988281, 0.06477358192205429, 0.3575528562068939, -0.07783102244138718, 0.003568667219951749, -0.06016575172543526, 0.9972350001335144, -0.056177861988544464, -0.021678924560546875, 1.494140625, 1.530029296875, 0.2581329345703125, 1.494873046875, 1.5439453125, 10.0, 1.4135949611663818, 1.5, 1.4135949611663818
15391, 0.8505906462669373, 3.274299383163452, -0.2871703505516052, -0.01794769987463951, -0.004579592030495405, -4.089962959289551, -0.14543864130973816, -0.03712427243590355, -0.5942342281341553, -0.8231527805328369, -0.9669106602668762, 0.05605706200003624, -0.53822673626361, -0.02502190783906144, 3.1899838747748386, 9362.0, 30146.0, 35388.0, 9362.0, 8.390083312988281, 0.06477358192205429, 0.3575528562068939, -0.07783102244138718, 0.005065083038061857, -0.06041965261101723, 0.9971434473991394, -0.056177861988544464, -0.021678924560546875, 1.494140625, 1.530029296875, 0.2581329345703125, 1.487548828125, 1.601806640625, 10.0, 1.4135526418685913, 1.5, 1.4135526418685913
15421, 0.8505183458328247, 3.273689031600952, -0.28281477093696594, -0.025919342413544655, -0.006613679695874453, -4.119729042053223, -0.17342495918273926, -0.04424252361059189, -0.5963470935821533, -0.8231417536735535, -0.9669017195701599, 0.05605871602892876, -0.540377307985963, -0.025023238643768764, 3.187053614471843, 9362.0, 30146.0, 35388.0, 9362.0, 8.390083312988281, 0.023278936743736267, -0.38557299971580505, -0.10063303261995316, 0.004576362669467926, -0.0607217438519001, 0.9977235198020935, -0.056177861988544464, -0.021678924560546875, 1.494140625, 1.530029296875, 0.2581329345703125, 1.49560546875, 1.554931640625, 10.0, 1.413861870765686, 1.5, 1.413861870765686
15441, 0.8517618179321289, 3.278139352798462, -0.2811925709247589, -0.025919342413544655, -0.006613679695874453, -4.119729042053223, -0.17342495918273926, -0.04424252361059189, -0.5963470935821533, -0.823155403137207, -0.966912031173706, 0.056050706654787064, -0.531647996893104, -0.028062861687402574, 3.18992921715294, 9362.0, 30146.0, 35388.0, 9362.0, 8.390083312988281, -0.3652454614639282, 0.06765083968639374, 0.25675588846206665, 0.004817115142941475, -0.06413967907428741, 0.9981452822685242, -0.056177861988544464, -0.021678924560546875, 1.494140625, 1.530029296875, 0.2581329345703125, 1.49560546875, 1.004150390625, 10.0, 1.4127631187438965, 1.5, 1.4127631187438965
15511, 0.8503111600875854, 3.2715835571289062, -0.27784058451652527, -0.04606112837791443, -0.011750590987503529, -4.179553985595703, -0.22940586507320404, -0.05849301069974899, -0.6002547144889832, -0.8231600522994995, -0.9669039249420166, 0.05605369433760643, -0.5354950662379798, -0.025600518116704052, 3.1878173559738494, 9362.0, 30146.0, 35388.0, 9362.0, 8.390083312988281, 0.06509195268154144, 0.07016082108020782, 0.2933018207550049, 0.002003216650336981, -0.06017346307635307, 0.9978757500648499, -0.07127967476844788, -0.2098369598388672, 1.478759765625, 1.530029296875, 0.2581329345703125, 1.48681640625, 1.59375, 10.0, 1.4091925621032715, 1.5, 1.4091925621032715
15541, 0.8504104614257812, 3.274787425994873, -0.2752819359302521, -0.05076109990477562, -0.01294894888997078, -4.191567420959473, -0.24058941006660461, -0.061343003064394, -0.6010949015617371, -0.823157012462616, -0.9669104814529419, 0.05605792999267578, -0.532764621902069, -0.028785100065704228, 3.186636692145533, 9362.0, 30146.0, 35388.0, 9362.0, 8.390083312988281, 0.30919376015663147, 0.20750994980335236, 0.20101068913936615, 0.0032925838604569435, -0.06244176626205444, 0.9986082911491394, -0.07127967476844788, -0.2098369598388672, 1.478759765625, 1.530029296875, 0.2581329345703125, 1.48681640625, 1.582763671875, 10.0, 1.4095731973648071, 1.5, 1.4095731973648071
15561, 0.851993203163147, 3.2708253860473633, -0.2765037715435028, -0.05076109990477562, -0.01294894888997078, -4.191567420959473, -0.24058941006660461, -0.061343003064394, -0.6010949015617371, -0.8230493664741516, -0.9667642712593079, 0.0558495968580246, -0.5726766947281109, 0.10041098032559148, 3.0325973228406746, 9362.0, 30146.0, 35388.0, 9362.0, 8.390083312988281, 0.1880560964345932, -0.38721632957458496, -0.09533782303333282, 0.003875407390296459, -0.06270985305309296, 0.9980724453926086, -0.05780433118343353, 0.07688140869140625, 1.502197265625, 1.530029296875, 0.2581329345703125, 1.48681640625, 1.53515625, 10.0, 1.4092390537261963, 1.5, 1.4092390537261963
15591, 0.8536731600761414, 3.273710012435913, -0.2773204743862152, -0.06349010020494461, -0.01619432121515274, -4.2216668128967285, -0.26856058835983276, -0.0684746652841568, -0.6030169129371643, -0.8231914043426514, -0.9669053554534912, 0.056069597601890564, -0.5436155045651127, -0.003173526042132835, 3.195649877539676, 9362.0, 30146.0, 35388.0, 9362.0, 8.390083312988281, 0.013067934662103653, 0.20028939843177795, 0.13095177710056305, 0.00433260016143322, -0.06083165109157562, 0.9973193407058716, -0.05780433118343353, 0.07688140869140625, 1.502197265625, 1.530029296875, 0.2581329345703125, 1.48681640625, 1.629638671875, 10.0, 1.4096189737319946, 1.5, 1.4096189737319946
15611, 0.8543641567230225, 3.271883964538574, -0.274855375289917, -0.0717986524105072, -0.018312862142920494, -4.239777088165283, -0.2853512465953827, -0.07276521623134613, -0.6041644811630249, -0.8231533169746399, -0.9669103622436523, 0.05606004223227501, -0.5366977405560792, -0.03147330420512162, 3.1973685372784075, 9362.0, 30146.0, 35388.0, 9362.0, 8.390083312988281, 0.10369513183832169, -0.10420934110879898, -0.14590148627758026, 0.00433260016143322, -0.06083165109157562, 0.9973193407058716, -0.05780433118343353, 0.07688140869140625, 1.502197265625, 1.530029296875, 0.2581329345703125, 1.4912109375, 1.56884765625, 10.0, 1.4094125032424927, 1.5, 1.4094125032424927
15661, 0.8549362421035767, 3.2743659019470215, -0.26846420764923096, -0.08366028964519501, -0.02133812941610813, -4.263974666595459, -0.3077256977558136, -0.07849817723035812, -0.6058201193809509, -0.8231509327888489, -0.96677166223526, 0.05581650137901306, -0.5605284908519953, 0.020939192681424856, 3.1076022757217205, 9362.0, 30146.0, 35388.0, 9362.0, 8.390083312988281, -0.13734592497348785, -0.17729832231998444, -0.13435401022434235, 0.0032980211544781923, -0.060222554951906204, 0.99615877866745, -0.06339701265096664, -0.05751800537109375, 1.4912109375, 1.530029296875, 0.2581329345703125, 1.49267578125, 1.10302734375, 10.0, 1.4097150564193726, 1.5, 1.4097150564193726
15721, 0.8572835922241211, 3.2828922271728516, -0.27186158299446106, -0.10657395422458649, -0.027184685692191124, -4.306463241577148, -0.3469586670398712, -0.08854653686285019, -0.608181893825531, -0.8231514096260071, -0.9669148921966553, 0.05603490769863129, -0.539309900425673, -0.03317324163720059, 3.1890976155943456, 9362.0, 30146.0, 35388.0, 9362.0, 8.390083312988281, -0.15441235899925232, -0.032644230872392654, -0.22327275574207306, 0.0028948525432497263, -0.06130287051200867, 0.9969292879104614, -0.06339701265096664, -0.05751800537109375, 1.4912109375, 1.530029296875, 0.2581329345703125, 1.49267578125, 1.58056640625, 10.0, 1.4114001989364624, 1.5, 1.4114001989364624
15741, 0.8559359312057495, 3.2846105098724365, -0.27104997634887695, -0.10657395422458649, -0.027184685692191124, -4.306463241577148, -0.3469586670398712, -0.08854653686285019, -0.608181893825531, -0.8231567144393921, -0.9669240713119507, 0.0560256652534008, -0.5374288292007788, -0.033873658325376255, 3.1950210498032234, 9362.0, 30146.0, 35388.0, 9362.0, 8.390083312988281, 0.010957063175737858, 0.27814120054244995, -0.1350001096725464, 0.0028185308910906315, -0.06122918054461479, 0.9988395571708679, -0.06339701265096664, -0.05751800537109375, 1.4912109375, 1.530029296875, 0.2581329345703125, 1.49267578125, 1.50146484375, 10.0, 1.4107191562652588, 1.5, 1.4107191562652588
15761, 0.8557481169700623, 3.285008668899536, -0.2736451327800751, -0.10657395422458649, -0.027184685692191124, -4.306463241577148, -0.3469586670398712, -0.08854653686285019, -0.608181893825531, -0.823154091835022, -0.9669139981269836, 0.05602443218231201, -0.5393413422791727, -0.0411035218867255, 3.191849692950349, 9362.0, 30146.0, 35388.0, 9362.0, 8.390083312988281, 0.05654694139957428, -0.14866343140602112, -0.11411780118942261, 0.0016292657237499952, -0.061465226113796234, 0.9979602694511414, -0.05024704709649086, -0.030637741088867188, 1.493408203125, 1.530029296875, 0.2581329345703125, 1.49267578125, 1.58642578125, 10.0, 1.4111768007278442, 1.5, 1.4111768007278442
15781, 0.8549177646636963, 3.290045738220215, -0.2731480002403259, -0.1284014880657196, -0.03275613114237785, -4.343020439147949, -0.3806515634059906, -0.09716890007257462, -0.6100994348526001, -0.8231487274169922, -0.9669284224510193, 0.05601685121655464, -0.5335930156354561, -0.02619372581241919, 3.1897825172316745, 9362.0, 30146.0, 35388.0, 9362.0, 8.390083312988281, -0.043311093002557755, -0.08984502404928207, 0.14452333748340607, 0.0016292657237499952, -0.061465226113796234, 0.9979602694511414, -0.05024704709649086, -0.030637741088867188, 1.493408203125, 1.530029296875, 0.2581329345703125, 1.49267578125, 1.6025390625, 10.0, 1.4119967222213745, 1.5, 1.4119967222213745
15791, 0.8549848198890686, 3.291612148284912, -0.2728506624698639, -0.1284014880657196, -0.03275613114237785, -4.343020439147949, -0.3806515634059906, -0.09716890007257462, -0.6100994348526001, -0.8231623768806458, -0.9669307470321655, 0.056000448763370514, -0.5443240625560306, -0.032070143169306675, 3.1943812372023452, 9362.0, 30146.0, 35388.0, 9362.0, 8.390083312988281, -0.25352439284324646, -0.2882377803325653, -0.1341876983642578, 0.0016292657237499952, -0.061465226113796234, 0.9979602694511414, -0.05024704709649086, -0.030637741088867188, 1.493408203125, 1.530029296875, 0.2581329345703125, 1.49267578125, 1.6025390625, 10.0, 1.4124058485031128, 1.5, 1.4124058485031128
15811, 0.8523970246315002, 3.2902181148529053, -0.27056363224983215, -0.140073761343956, -0.035735681653022766, -4.361344814300537, -0.3974996507167816, -0.10146598517894745, -0.6116360425949097, -0.823147714138031, -0.9669254422187805, 0.05601479113101959, -0.5379450271161331, -0.03395264795375397, 3.2006943623033264, 9362.0, 30146.0, 35388.0, 9362.0, 8.390083312988281, -0.08311387896537781, -0.3759099245071411, 0.2504890561103821, 0.0022648186422884464, -0.05950016528367996, 0.9979760646820068, -0.05024704709649086, -0.030637741088867188, 1.493408203125, 1.530029296875, 0.2581329345703125, 1.490478515625, 1.54833984375, 10.0, 1.4124058485031128, 1.5, 1.4124058485031128
15831, 0.851632833480835, 3.2923505306243896, -0.2676743268966675, -0.14813633263111115, -0.03779362514615059, -4.373585224151611, -0.4087531268596649, -0.10432742536067963, -0.6123988628387451, -0.8231607675552368, -0.9669114351272583, 0.05600588396191597, -0.5389891108423145, -0.033100658871063615, 3.1797866394982464, 9362.0, 30146.0, 35388.0, 9362.0, 8.390083312988281, -0.0019385949708521366, -0.4815305769443512, 0.13771739602088928, 0.004039813298732042, -0.06214149668812752, 0.9963997006416321, -0.05024704709649086, -0.030637741088867188, 1.493408203125, 1.530029296875, 0.2581329345703125, 1.48974609375, 1.541748046875, 10.0, 1.4123799800872803, 1.5, 1.4123799800872803
15861, 0.8537359833717346, 3.2920641899108887, -0.26661747694015503, -0.1564239114522934, -0.039908766746520996, -4.3858418464660645, -0.42000019550323486, -0.10718504339456558, -0.6133230924606323, -0.8231537342071533, -0.9669169783592224, 0.056012652814388275, -0.5361814050515107, -0.03191312848085204, 3.2065407904474115, 9362.0, 30146.0, 35388.0, 9362.0, 8.390083312988281, 0.040154408663511276, -0.021501820534467697, -0.13684259355068207, 0.0033647953532636166, -0.06142428144812584, 0.9980834126472473, -0.05024704709649086, -0.030637741088867188, 1.493408203125, 1.530029296875, 0.2581329345703125, 1.48974609375, 1.05615234375, 10.0, 1.4131649732589722, 1.5, 1.4131649732589722
15891, 0.8556275963783264, 3.2937042713165283, -0.2663123309612274, -0.16927741467952728, -0.043188706040382385, -4.404256820678711, -0.4369066655635834, -0.1114814430475235, -0.6142016053199768, -0.8231597542762756, -0.9669024348258972, 0.056009769439697266, -0.5407439245557787, -0.03919441090843634, 3.1885074776306315, 9362.0, 30146.0, 35388.0, 9362.0, 8.390083312988281, 0.011432357132434845, -0.30486321449279785, -0.047707777470350266, 0.0028062404599040747, -0.061167310923337936, 0.9958695769309998, -0.05024704709649086, -0.030637741088867188, 1.493408203125, 1.530029296875, 0.2581329345703125, 1.48974609375, 1.560791015625, 10.0, 1.4140981435775757, 1.5, 1.4140981435775757
15911, 0.8563295006752014, 3.2984156608581543, -0.2664341330528259, -0.16927741467952728, -0.043188706040382385, -4.404256820678711, -0.4369066655635834, -0.1114814430475235, -0.6142016053199768, -0.8231453895568848, -0.9669055342674255, 0.0560324527323246, -0.5384116912549011, -0.028592472211585118, 3.175538133599629, 9362.0, 30146.0, 35388.0, 9362.0, 8.390083312988281, 0.011432357132434845, -0.30486321449279785, -0.047707777470350266, 0.002044107997789979, -0.06144370511174202, 0.998458743095398, -0.05024704709649086, -0.030637741088867188, 1.493408203125, 1.530029296875, 0.2581329345703125, 1.48974609375, 1.57763671875, 10.0, 1.4142359495162964, 1.5, 1.4142359495162964
15921, 0.8566662073135376, 3.297053098678589, -0.2650585472583771, -0.16927741467952728, -0.043188706040382385, -4.404256820678711, -0.4369066655635834, -0.1114814430475235, -0.6142016053199768, -0.8231450915336609, -0.9667624831199646, 0.05581130087375641, -0.5633764467222787, 0.02556002598518603, 3.1055481610990183, 9362.0, 30146.0, 35388.0, 9362.0, 8.390083312988281, 0.0048830523155629635, 0.12712828814983368, -0.08814307302236557, 0.002044107997789979, -0.06144370511174202, 0.998458743095398, -0.05024704709649086, -0.030637741088867188, 1.493408203125, 1.530029296875, 0.2581329345703125, 1.48974609375, 1.57763671875, 10.0, 1.41459321975708, 1.5, 1.41459321975708
15961, 0.8570231795310974, 3.299039125442505, -0.27072063088417053, -0.20124073326587677, -0.051344133913517, -4.4473395347595215, -0.4763447642326355, -0.12153565138578415, -0.6167636513710022, -0.8231502175331116, -0.9669010639190674, 0.05601811781525612, -0.5372631892178983, -0.025629632321425788, 3.1911294065759073, 9362.0, 30146.0, 35388.0, 9362.0, 8.390083312988281, 0.08913758397102356, -0.2718214988708496, 0.09222418814897537, 0.0018802584381774068, -0.05929647386074066, 0.9972056150436401, -0.05024704709649086, -0.030637741088867188, 1.493408203125, 1.530029296875, 0.2581329345703125, 1.48974609375, 0.980712890625, 10.0, 1.4148472547531128, 1.5, 1.4148472547531128
15981, 0.8574054837226868, 3.3000173568725586, -0.2685498595237732, -0.21578504145145416, -0.0550549253821373, -4.465856552124023, -0.49327409267425537, -0.12584979832172394, -0.6177835464477539, -0.8231548070907593, -0.9669139981269836, 0.05601134151220322, -0.5397396356192883, -0.031346797042800745, 3.196466511669503, 9362.0, 30146.0, 35388.0, 9362.0, 8.390083312988281, -0.2178298830986023, -0.4882970154285431, -0.08684228360652924, 0.0018802584381774068, -0.05929647386074066, 0.9972056150436401, -0.05024704709649086, -0.030637741088867188, 1.493408203125, 1.530029296875, 0.2581329345703125, 1.48974609375, 1.634033203125, 10.0, 1.4158357381820679, 1.5, 1.4158357381820679
16011, 0.8559395670890808, 3.3037450313568115, -0.26967498660087585, -0.22576317191123962, -0.05760063976049423, -4.478222846984863, -0.5045351982116699, -0.1287207305431366, -0.6188945174217224, -0.8231444358825684, -0.9669052958488464, 0.056012652814388275, -0.5344313993979445, -0.019568457028640296, 3.197782666724741, 9362.0, 30146.0, 35388.0, 9362.0, 8.390083312988281, -0.05476009100675583, -0.047326333820819855, 0.2312891185283661, 0.0034180893562734127, -0.062525674700737, 0.9972233772277832, -0.05024704709649086, -0.030637741088867188, 1.493408203125, 1.530029296875, 0.2581329345703125, 1.4912109375, 1.634033203125, 10.0, 1.4157830476760864, 1.5, 1.4157830476760864
16031, 0.8557944297790527, 3.3064253330230713, -0.265525221824646, -0.22576317191123962, -0.05760063976049423, -4.478222846984863, -0.5045351982116699, -0.1287207305431366, -0.6188945174217224, -0.8231446743011475, -0.9669146537780762, 0.05603012815117836, -0.5336982649558959, -0.027502104846462316, 3.185286430068136, 9362.0, 30146.0, 35388.0, 9362.0, 8.390083312988281, -0.014558819122612476, -0.02851993404328823, 0.0012038181303068995, 0.0034180893562734127, -0.062525674700737, 0.9972233772277832, -0.05024704709649086, -0.030637741088867188, 1.493408203125, 1.530029296875, 0.2581329345703125, 1.494873046875, 1.564453125, 10.0, 1.4163848161697388, 1.5, 1.4163848161697388
16041, 0.8553300499916077, 3.306929111480713, -0.2650619149208069, -0.22576317191123962, -0.05760063976049423, -4.478222846984863, -0.5045351982116699, -0.1287207305431366, -0.6188945174217224, -0.8231478929519653, -0.9669013619422913, 0.05603204667568207, -0.5468897579104616, -0.0262995955683607, 3.1803452038417652, 9362.0, 30146.0, 35388.0, 9362.0, 8.390083312988281, 0.10301931947469711, -0.04458693414926529, -0.04028727486729622, 0.0034180893562734127, -0.062525674700737, 0.9972233772277832, -0.05024704709649086, -0.030637741088867188, 1.493408203125, 1.530029296875, 0.2581329345703125, 1.494873046875, 1.564453125, 10.0, 1.416530728340149, 1.5, 1.416530728340149
16061, 0.8542206883430481, 3.309784173965454, -0.2667493224143982, -0.2516954839229584, -0.06421606987714767, -4.509223461151123, -0.532769501209259, -0.13589714467525482, -0.6209849715232849, -0.8231527209281921, -0.966906726360321, 0.056009240448474884, -0.5415139135055923, -0.026096732754069762, 3.1934175717288373, 9362.0, 30146.0, 35388.0, 9362.0, 8.390083312988281, 0.25477883219718933, 0.3008146286010742, -0.01314992643892765, 0.003977121319621801, -0.062048155814409256, 0.9997682571411133, -0.05024704709649086, -0.030637741088867188, 1.493408203125, 1.530029296875, 0.2581329345703125, 1.494873046875, 1.63037109375, 10.0, 1.415662407875061, 1.5, 1.415662407875061
16081, 0.8549600839614868, 3.308903217315674, -0.26645615696907043, -0.2679331600666046, -0.06835758686065674, -4.527867317199707, -0.5497533082962036, -0.1402043104171753, -0.6218311786651611, -0.8231518864631653, -0.9668937921524048, 0.05601176619529724, -0.5403928103640125, -0.029296603518247366, 3.1935929015268303, 9362.0, 30146.0, 35388.0, 9362.0, 8.390083312988281, -0.07084839046001434, 0.16394279897212982, -0.04179404675960541, 0.003977121319621801, -0.062048155814409256, 0.9997682571411133, -0.05024704709649086, -0.030637741088867188, 1.493408203125, 1.530029296875, 0.2581329345703125, 1.494873046875, 1.273681640625, 10.0, 1.416549563407898, 1.5, 1.416549563407898
16101, 0.8559874892234802, 3.3074281215667725, -0.26468199491500854, -0.2790415585041046, -0.07119041681289673, -4.540307998657227, -0.5610884428024292, -0.1430789679288864, -0.6221880912780762, -0.8231506943702698, -0.9669079184532166, 0.05604179576039314, -0.5402128721097713, -0.03838817519152826, 3.1923882518816376, 9362.0, 30146.0, 35388.0, 9362.0, 8.390083312988281, 0.0755348652601242, 0.1501493752002716, 0.2932835519313812, 0.003977121319621801, -0.062048155814409256, 0.9997682571411133, -0.05024704709649086, -0.030637741088867188, 1.493408203125, 1.530029296875, 0.2581329345703125, 1.494873046875, 1.55712890625, 10.0, 1.4170740842819214, 1.5, 1.4170740842819214
16111, 0.855869710445404, 3.3068795204162598, -0.2630622386932373, -0.2790415585041046, -0.07119041681289673, -4.540307998657227, -0.5610884428024292, -0.1430789679288864, -0.6221880912780762, -0.8231465220451355, -0.9667761325836182, 0.055808380246162415, -0.5615273516281907, 0.0345270152894841, 3.110691431975073, 9362.0, 30146.0, 35388.0, 9362.0, 8.390083312988281, -0.1320272982120514, -0.04331866651773453, 0.19280429184436798, 0.003977121319621801, -0.062048155814409256, 0.9997682571411133, -0.05024704709649086, -0.030637741088867188, 1.493408203125, 1.530029296875, 0.2581329345703125, 1.494873046875, 1.55712890625, 10.0, 1.417438268661499, 1.5, 1.417438268661499
16161, 0.854616641998291, 3.310642719268799, -0.26295578479766846, -0.3078030049800873, -0.07852394878864288, -4.571458339691162, -0.5893680453300476, -0.15025943517684937, -0.6239055395126343, -0.8231950998306274, -0.9669121503829956, 0.05603887140750885, -0.5488619960021324, -0.005016037964196585, 3.203481399657, 9362.0, 30146.0, 35388.0, 9362.0, 8.390083312988281, 0.03455683961510658, 0.08173491060733795, 0.08984048664569855, 0.00317298318259418, -0.05888625979423523, 0.9968570470809937, -0.07724814862012863, -0.03959846496582031, 1.49267578125, 1.530029296875, 0.2581329345703125, 1.487548828125, 0.92431640625, 10.0, 1.4161229133605957, 1.5, 1.4161229133605957
16181, 0.8529089689254761, 3.3092494010925293, -0.262342631816864, -0.3078030049800873, -0.07852394878864288, -4.571458339691162, -0.5893680453300476, -0.15025943517684937, -0.6239055395126343, -0.8231353759765625, -0.9669021368026733, 0.05603209510445595, -0.5406809290656224, -0.029789485076122446, 3.1858910540388985, 9362.0, 30146.0, 35388.0, 9362.0, 8.390083312988281, 0.1673583686351776, -0.3897106647491455, -0.21728377044200897, 0.00317298318259418, -0.05888625979423523, 0.9968570470809937, -0.07724814862012863, -0.03959846496582031, 1.49267578125, 1.530029296875, 0.2581329345703125, 1.487548828125, 1.5673828125, 10.0, 1.4168373346328735, 1.5, 1.4168373346328735
16211, 0.8529757857322693, 3.311931848526001, -0.2640460431575775, -0.3379786014556885, -0.08621615916490555, -4.6027045249938965, -0.6176617741584778, -0.1574271023273468, -0.6257957816123962, -0.8231499791145325, -0.9669128656387329, 0.05600617825984955, -0.5373074050425112, -0.02086966701094184, 3.1893154138881186, 9362.0, 30146.0, 35388.0, 9362.0, 8.390083312988281, -0.15485188364982605, 0.23936128616333008, 0.149393692612648, 0.0031417657155543566, -0.06143777444958687, 0.9962975978851318, -0.07724814862012863, -0.03959846496582031, 1.49267578125, 1.530029296875, 0.2581329345703125, 1.487548828125, 1.546875, 10.0, 1.4159305095672607, 1.5, 1.4159305095672607
16231, 0.852660596370697, 3.3108773231506348, -0.26547202467918396, -0.3567628860473633, -0.09100329130887985, -4.621501922607422, -0.6346309781074524, -0.16171705722808838, -0.6272422671318054, -0.8231552839279175, -0.9669172763824463, 0.05602030083537102, -0.5343417981129668, -0.02674398360863961, 3.188789962135009, 9362.0, 30146.0, 35388.0, 9362.0, 8.390083312988281, 0.10977153480052948, 0.05672288313508034, 0.04929773509502411, 0.00031747587490826845, -0.06099703907966614, 0.9984697699546814, -0.07724814862012863, -0.03959846496582031, 1.49267578125, 1.530029296875, 0.2581329345703125, 1.4912109375, 1.582763671875, 10.0, 1.4165568351745605, 1.5, 1.4165568351745605
16261, 0.8513010144233704, 3.3084099292755127, -0.2628229856491089, -0.36956873536109924, -0.09426626563072205, -4.634053707122803, -0.6459552049636841, -0.16458027064800262, -0.6279039978981018, -0.8231498599052429, -0.9669151306152344, 0.05603144317865372, -0.5388838961977075, -0.02765943600047649, 3.199531944933306, 9362.0, 30146.0, 35388.0, 9362.0, 8.390083312988281, -0.12985707819461823, 0.21747465431690216, 0.09765244275331497, 0.00031747587490826845, -0.06099703907966614, 0.9984697699546814, -0.07724814862012863, -0.03959846496582031, 1.49267578125, 1.530029296875, 0.2581329345703125, 1.48828125, 1.56591796875, 10.0, 1.4173582792282104, 1.5, 1.4173582792282104
16281, 0.8501409888267517, 3.310030460357666, -0.2632082402706146, -0.36956873536109924, -0.09426626563072205, -4.634053707122803, -0.6459552049636841, -0.16458027064800262, -0.6279039978981018, -0.8231329321861267, -0.9669002890586853, 0.056051105260849, -0.53449156471278, -0.03181068886735261, 3.1973360298829476, 9362.0, 30146.0, 35388.0, 9362.0, 8.390083312988281, -0.015432226471602917, -0.02471267431974411, -0.1246868371963501, 0.004351734183728695, -0.060926470905542374, 0.9961990714073181, -0.07724814862012863, -0.03959846496582031, 1.49267578125, 1.530029296875, 0.2581329345703125, 1.48828125, 1.585693359375, 10.0, 1.417937994003296, 1.5, 1.417937994003296
16311, 0.8493034839630127, 3.3104500770568848, -0.2614031434059143, -0.4025736451148987, -0.10267402976751328, -4.665496349334717, -0.6742249131202698, -0.17172113060951233, -0.6300755143165588, -0.8231892585754395, -0.966894268989563, 0.05606324225664139, -0.5476090770355703, -0.0027113712475284046, 3.190316727091463, 9362.0, 30146.0, 35388.0, 9362.0, 8.390083312988281, 0.002502714516595006, 0.3016131520271301, 0.17027315497398376, 0.0043874578550457954, -0.060451000928878784, 0.9992119669914246, -0.07724814862012863, -0.03959846496582031, 1.49267578125, 1.530029296875, 0.2581329345703125, 1.48828125, 1.60546875, 10.0, 1.4160088300704956, 1.5, 1.4160088300704956
16331, 0.8484450578689575, 3.3147871494293213, -0.26460763812065125, -0.42305511236190796, -0.10788995027542114, -4.684412956237793, -0.6912084221839905, -0.17600534856319427, -0.6310142278671265, -0.8231472969055176, -0.9669017791748047, 0.05604696273803711, -0.5389263060775592, -0.02357045077837938, 3.1975410316430626, 9362.0, 30146.0, 35388.0, 9362.0, 8.390083312988281, 0.06343763321638107, -0.04965198412537575, 0.18604357540607452, 0.0017661746824160218, -0.06325917690992355, 0.9969329833984375, -0.07724814862012863, -0.03959846496582031, 1.49267578125, 1.530029296875, 0.2581329345703125, 1.491943359375, 1.587158203125, 10.0, 1.4164785146713257, 1.5, 1.4164785146713257
16361, 0.849332332611084, 3.3160910606384277, -0.2617948055267334, -0.43699246644973755, -0.11143853515386581, -4.6970415115356445, -0.7025331258773804, -0.17885367572307587, -0.6317707300186157, -0.8231452703475952, -0.9669159650802612, 0.056047920137643814, -0.5390274145865355, -0.03419830498376086, 3.1920635560277932, 9362.0, 30146.0, 35388.0, 9362.0, 8.390083312988281, -0.090834841132164, 0.1713300496339798, -0.21091793477535248, 0.0048636747524142265, -0.05953133478760719, 0.9993171095848083, -0.07724814862012863, -0.03959846496582031, 1.49267578125, 1.530029296875, 0.2581329345703125, 1.490478515625, 1.600341796875, 10.0, 1.4158601760864258, 1.5, 1.4158601760864258
16381, 0.8492927551269531, 3.317173719406128, -0.2627759873867035, -0.4583236873149872, -0.11686830967664719, -4.716007709503174, -0.719535768032074, -0.18312761187553406, -0.6329424977302551, -0.8231552243232727, -0.9669024348258972, 0.05603470653295517, -0.5411370203220576, -0.03679134325528821, 3.18832471995976, 9362.0, 30146.0, 35388.0, 9362.0, 8.390083312988281, 0.17466554045677185, 0.08710408955812454, -0.15788426995277405, 0.005087629426270723, -0.062092311680316925, 0.9980517625808716, -0.07724814862012863, -0.03959846496582031, 1.49267578125, 1.530029296875, 0.2581329345703125, 1.491943359375, 1.17626953125, 10.0, 1.416365146636963, 1.5, 1.416365146636963
16401, 0.8496564626693726, 3.3154335021972656, -0.2654069662094116, -0.47282782196998596, -0.12055937200784683, -4.728672981262207, -0.7308835983276367, -0.18597915768623352, -0.6335390210151672, -0.823150634765625, -0.9668999314308167, 0.056023456156253815, -0.5311981394664888, -0.026142509797352886, 3.191313989227901, 9362.0, 30146.0, 35388.0, 9362.0, 8.390083312988281, 0.05913694575428963, 0.11822434514760971, -0.07304976880550385, 0.005087629426270723, -0.062092311680316925, 0.9980517625808716, -0.07724814862012863, -0.03959846496582031, 1.49267578125, 1.530029296875, 0.2581329345703125, 1.491943359375, 1.56884765625, 10.0, 1.4162076711654663, 1.5, 1.4162076711654663
16421, 0.850126326084137, 3.318873405456543, -0.26744401454925537, -0.4875585734844208, -0.12430740892887115, -4.741355895996094, -0.7421831488609314, -0.18882201611995697, -0.6349077820777893, -0.8231321573257446, -0.9669051766395569, 0.056045256555080414, -0.5316150224528712, -0.0246833216463358, 3.1899474320101393, 9362.0, 30146.0, 35388.0, 9362.0, 8.390083312988281, 0.1621396839618683, -0.018711065873503685, -0.37069645524024963, 0.005087629426270723, -0.062092311680316925, 0.9980517625808716, -0.07724814862012863, -0.03959846496582031, 1.49267578125, 1.530029296875, 0.2581329345703125, 1.4912109375, 1.56884765625, 10.0, 1.4171699285507202, 1.5, 1.4171699285507202
16431, 0.8508313298225403, 3.32015061378479, -0.2706722915172577, -0.4875585734844208, -0.12430740892887115, -4.741355895996094, -0.7421831488609314, -0.18882201611995697, -0.6349077820777893, -0.8231568932533264, -0.9668988585472107, 0.05604841932654381, -0.5379047960060173, -0.03184729103253403, 3.1876843980587783, 9362.0, 30146.0, 35388.0, 9362.0, 8.390083312988281, -0.012992342934012413, -0.00351250683888793, 0.15301614999771118, 0.005087629426270723, -0.062092311680316925, 0.9980517625808716, -0.07724814862012863, -0.03959846496582031, 1.49267578125, 1.530029296875, 0.2581329345703125, 1.4912109375, 1.64208984375, 10.0, 1.417984962463379, 1.5, 1.417984962463379
16451, 0.8505264520645142, 3.3217153549194336, -0.27369424700737, -0.5100795030593872, -0.13003624975681305, -4.76041841506958, -0.7592145204544067, -0.19310200214385986, -0.6358836889266968, -0.8231564164161682, -0.9669035077095032, 0.05601761117577553, -0.5351141348783868, -0.027556494177048307, 3.1963110857696333, 9362.0, 30146.0, 35388.0, 9362.0, 8.390083312988281, 0.06807374954223633, -0.2736940085887909, -0.12143635749816895, 0.005087629426270723, -0.062092311680316925, 0.9980517625808716, -0.07724814862012863, -0.03959846496582031, 1.49267578125, 1.530029296875, 0.2581329345703125, 1.4912109375, 1.53662109375, 10.0, 1.4182742834091187, 1.5, 1.4182742834091187
16461, 0.850324809551239, 3.3239667415618896, -0.27436375617980957, -0.5100795030593872, -0.13003624975681305, -4.76041841506958, -0.7592145204544067, -0.19310200214385986, -0.6358836889266968, -0.8231423497200012, -0.9669064879417419, 0.05602172017097473, -0.5312201483769319, -0.01657776311353132, 3.189125328384205, 9362.0, 30146.0, 35388.0, 9362.0, 8.390083312988281, 0.06807374954223633, -0.2736940085887909, -0.12143635749816895, 0.005087629426270723, -0.062092311680316925, 0.9980517625808716, -0.07724814862012863, -0.03959846496582031, 1.49267578125, 1.530029296875, 0.2581329345703125, 1.48681640625, 1.53662109375, 10.0, 1.418992519378662, 1.5, 1.418992519378662
16491, 0.8518326282501221, 3.3218212127685547, -0.2759847640991211, -0.5100795030593872, -0.13003624975681305, -4.76041841506958, -0.7592145204544067, -0.19310200214385986, -0.6358836889266968, -0.8231621384620667, -0.9669103622436523, 0.05602555721998215, -0.5380066604052273, -0.033509806664199004, 3.1881940387552983, 9362.0, 30146.0, 35388.0, 9362.0, 8.390083312988281, -0.1000741571187973, -0.42318180203437805, -0.005306218285113573, 0.0019118699710816145, -0.06098155304789543, 0.9990607500076294, -0.07724814862012863, -0.03959846496582031, 1.49267578125, 1.530029296875, 0.2581329345703125, 1.48681640625, 1.1103515625, 10.0, 1.416748046875, 1.5, 1.416748046875
16511, 0.8514326214790344, 3.321385383605957, -0.27545055747032166, -0.5100795030593872, -0.13003624975681305, -4.76041841506958, -0.7592145204544067, -0.19310200214385986, -0.6358836889266968, -0.8231841921806335, -0.9668982028961182, 0.05606446415185928, -0.5433832724930538, -0.0019503326572589685, 3.194348859637612, 9362.0, 30146.0, 35388.0, 9362.0, 8.390083312988281, 0.048961952328681946, -0.357907235622406, -0.3587231934070587, 0.0016239455435425043, -0.06150102615356445, 0.9981796741485596, -0.07724814862012863, -0.03959846496582031, 1.49267578125, 1.530029296875, 0.2581329345703125, 1.48681640625, 1.266357421875, 10.0, 1.4168330430984497, 1.5, 1.4168330430984497
16551, 0.8550492525100708, 3.323117733001709, -0.2831563651561737, -0.5888412594795227, -0.15006019175052643, -4.82418155670166, -0.8160191178321838, -0.20738168060779572, -0.6394514441490173, -0.823154866695404, -0.9667564034461975, 0.05581424757838249, -0.5613738651653214, 0.031872209500534154, 3.1102816738563126, 9362.0, 30146.0, 35388.0, 9362.0, 8.390083312988281, -0.09292478114366531, 0.2804294526576996, -0.1953905075788498, 0.0030192025005817413, -0.0595911480486393, 0.9986729621887207, -0.07724814862012863, -0.03959846496582031, 1.49267578125, 1.530029296875, 0.2581329345703125, 1.4912109375, 1.099365234375, 10.0, 1.417609453201294, 1.5, 1.417609453201294
16561, 0.8549576997756958, 3.3245184421539307, -0.28475096821784973, -0.5888412594795227, -0.15006019175052643, -4.82418155670166, -0.8160191178321838, -0.20738168060779572, -0.6394514441490173, -0.8231547474861145, -0.9669089317321777, 0.05604830011725426, -0.5387292853750059, -0.03214873556211728, 3.1961606523401, 9362.0, 30146.0, 35388.0, 9362.0, 8.390083312988281, -0.05140892416238785, -0.0019350664224475622, 0.04197393357753754, 0.0038224495947360992, -0.06159879267215729, 0.9946057796478271, -0.07724814862012863, -0.03959846496582031, 1.49267578125, 1.530029296875, 0.2581329345703125, 1.4912109375, 1.65234375, 10.0, 1.417609453201294, 1.5, 1.417609453201294
16611, 0.8564777970314026, 3.32757568359375, -0.28548771142959595, -0.630352258682251, -0.16060829162597656, -4.856208801269531, -0.8444188237190247, -0.21454159915447235, -0.6417442560195923, -0.8231532573699951, -0.9667650461196899, 0.05581317096948624, -0.5627757200847767, 0.035217436592773765, 3.1121119654902865, 9362.0, 30146.0, 35388.0, 9362.0, 8.390083312988281, 0.1547701358795166, 0.10644854605197906, -0.02598397806286812, 0.0039366441778838634, -0.0607660710811615, 0.9960578083992004, -0.07724814862012863, -0.03959846496582031, 1.49267578125, 1.519775390625, 0.236236572265625, 1.4912109375, 1.17333984375, 10.0, 1.4141772985458374, 1.5, 1.4141772985458374
16631, 0.85645592212677, 3.3229970932006836, -0.28208258748054504, -0.630352258682251, -0.16060829162597656, -4.856208801269531, -0.8444188237190247, -0.21454159915447235, -0.6417442560195923, -0.8231472969055176, -0.9668921232223511, 0.056032124906778336, -0.5424106224048421, -0.026453336517192838, 3.1899554126043212, 9362.0, 30146.0, 35388.0, 9362.0, 8.390083312988281, -0.12403576076030731, -0.28440696001052856, 0.020906060934066772, 0.002550894860178232, -0.06009410694241524, 0.9985079169273376, -0.07724814862012863, -0.03959846496582031, 1.49267578125, 1.519775390625, 0.236236572265625, 1.494873046875, 1.03857421875, 10.0, 1.4129695892333984, 1.5, 1.4129695892333984
16651, 0.855935275554657, 3.3274614810943604, -0.2806326746940613, -0.630352258682251, -0.16060829162597656, -4.856208801269531, -0.8444188237190247, -0.21454159915447235, -0.6417442560195923, -0.8231762051582336, -0.9667593240737915, 0.055810023099184036, -0.5659615354785583, 0.021085106881628235, 3.110389038732673, 9362.0, 30146.0, 35388.0, 9362.0, 8.390083312988281, 0.04194343835115433, -0.27015984058380127, 0.07335319370031357, 0.002550894860178232, -0.06009410694241524, 0.9985079169273376, -0.07724814862012863, -0.03959846496582031, 1.49267578125, 1.519775390625, 0.236236572265625, 1.491943359375, 1.65966796875, 10.0, 1.4136600494384766, 1.5, 1.4136600494384766
16681, 0.857247531414032, 3.3267853260040283, -0.28084367513656616, -0.6908529996871948, -0.17597731947898865, -4.901251316070557, -0.8841736316680908, -0.2245742678642273, -0.6451559662818909, -0.8231549859046936, -0.9669091105461121, 0.056038953363895416, -0.53162346355962, -0.03976888510482013, 3.1901369039306227, 9362.0, 30146.0, 35388.0, 9362.0, 8.390083312988281, 0.09374339878559113, 0.07781148701906204, 0.2663712799549103, 0.002332482021301985, -0.06147739663720131, 1.000317931175232, -0.07724814862012863, -0.03959846496582031, 1.49267578125, 1.519775390625, 0.236236572265625, 1.491943359375, 1.5732421875, 10.0, 1.4134153127670288, 1.5, 1.4134153127670288
16691, 0.8580262660980225, 3.325021982192993, -0.27906906604766846, -0.6908529996871948, -0.17597731947898865, -4.901251316070557, -0.8841736316680908, -0.2245742678642273, -0.6451559662818909, -0.8231562972068787, -0.9669078588485718, 0.05603470653295517, -0.5360675374586792, -0.03389350604930996, 3.19016122131213, 9362.0, 30146.0, 35388.0, 9362.0, 8.390083312988281, 0.12496542930603027, -0.08669093251228333, -0.22426584362983704, 0.002332482021301985, -0.06147739663720131, 1.000317931175232, -0.07724814862012863, -0.03959846496582031, 1.49267578125, 1.519775390625, 0.236236572265625, 1.491943359375, 1.155029296875, 10.0, 1.4139553308486938, 1.5, 1.4139553308486938
16761, 0.8584956526756287, 3.329345941543579, -0.2734352648258209, -0.7376002073287964, -0.18784978985786438, -4.934830665588379, -0.9137746691703796, -0.2320546805858612, -0.6466571092605591, -0.8231499791145325, -0.9669016599655151, 0.056027404963970184, -0.534626118067516, -0.03674916297293862, 3.1943962008395155, 9362.0, 30146.0, 35388.0, 9362.0, 8.390083312988281, -0.0976390540599823, 0.2785997986793518, -0.004361679311841726, 0.004471221938729286, -0.059488024562597275, 0.9926836490631104, -0.081803098320961, -0.12023735046386719, 1.486083984375, 1.519775390625, 0.236236572265625, 1.489013671875, 1.55419921875, 10.0, 1.4162293672561646, 1.5, 1.4162293672561646
16771, 0.8573620915412903, 3.330165147781372, -0.27320414781570435, -0.7858860492706299, -0.2001112550497055, -4.968502521514893, -0.9433685541152954, -0.23954050242900848, -0.6485380530357361, -0.8231396079063416, -0.9669209718704224, 0.05600457638502121, -0.5351719727365741, -0.027588003235138103, 3.1915844171811223, 9362.0, 30146.0, 35388.0, 9362.0, 8.390083312988281, -0.20582416653633118, -0.08673102408647537, -0.10065677016973495, 0.004114384297281504, -0.06109555810689926, 0.9950129389762878, -0.081803098320961, -0.12023735046386719, 1.486083984375, 1.519775390625, 0.236236572265625, 1.489013671875, 1.4267578125, 10.0, 1.4168789386749268, 1.5, 1.4168789386749268
16791, 0.8556082248687744, 3.335430145263672, -0.27425065636634827, -0.8048668503761292, -0.20493075251579285, -4.981488227844238, -0.9547239542007446, -0.24241043627262115, -0.6498006582260132, -0.8231611847877502, -0.9669075012207031, 0.05599139258265495, -0.5283962381264659, -0.025868427239601033, 3.196513646920606, 9362.0, 30146.0, 35388.0, 9362.0, 8.390083312988281, -0.2799820303916931, -0.4615180194377899, -0.05064479634165764, 0.003155672922730446, -0.06114932894706726, 0.999800443649292, -0.081803098320961, -0.12023735046386719, 1.486083984375, 1.519775390625, 0.236236572265625, 1.4912109375, 1.66552734375, 10.0, 1.4162678718566895, 1.5, 1.4162678718566895
16801, 0.8540377616882324, 3.3363919258117676, -0.27526259422302246, -0.8144426345825195, -0.20736205577850342, -4.9879865646362305, -0.9604372382164001, -0.2438499480485916, -0.6499022245407104, -0.8231970071792603, -0.9669064879417419, 0.056043632328510284, -0.5480464445498365, -0.01166661229817123, 3.1987688658513704, 9362.0, 30146.0, 35388.0, 9362.0, 8.390083312988281, -0.13542011380195618, 0.21280667185783386, 0.018658410757780075, 0.0019305682508274913, -0.06137990951538086, 0.9948164820671082, -0.081803098320961, -0.12023735046386719, 1.486083984375, 1.519775390625, 0.236236572265625, 1.48974609375, 1.424560546875, 10.0, 1.4162105321884155, 1.5, 1.4162105321884155
