timeTick, roll, pitch, yaw, stateX, stateY, stateZ, stateVX, stateVY, stateVZ, otX0, otY0, otZ0, otRoll0, otPitch0, otYaw0, left wing, pitch motor, yaw motor, right wing, voltage, roll rate, pitch rate, yaw rate, A_x, A_y, A_z, current, i_raw, v_raw, airflow_voltage, airflow_speed, pot_Pitch, voltage_nKF, kFFx, state_vel, State_vel, volt_KF_vel
50258, 6.149911403656006, -8.234745025634766, -3.251781463623047, 0, 0, 0, 0, 0, 0, -0.8383725881576538, -0.9542657136917114, 0.059749044477939606, -0.1640690551925779, 0.16475098765795337, -0.11028096753908549, 0, 0, 0, 0, 0, 0, 0, 0, 0, 0, 0, 0, 0, 0, 0, 0, 0, 0, 0, 0, 0, 0
50268, 6.151395320892334, -8.234371185302734, -3.250993251800537, -0.0031501837074756622, 0.0026628822088241577, -22.34360122680664, -0.08500638604164124, 0.07185883074998856, -0.909005880355835, -0.8383522629737854, -0.954361081123352, 0.059690944850444794, -0.09738112386124119, 0.15319641615346313, -0.10069137196817135, 9362.0, 30146.0, 35388.0, 9362.0, 0, 0.2220199555158615, 0.0357593409717083, -0.11610334366559982, 0.012967980466783047, -0.05796198919415474, 0.9975677728652954, 0, 0, 0, 1.51611328125, 0.2286224365234375, 0, 0, 0, 0, 0, 0
50278, 6.152101516723633, -8.232926368713379, -3.251980781555176, -0.003933576866984367, 0.0033251179847866297, -22.352699279785156, -0.07167206704616547, 0.06058850884437561, -0.9106999039649963, -0.8383647799491882, -0.9542643427848816, 0.059752557426691055, -0.17187113634479545, 0.1652833928359314, -0.0990111995115669, 9362.0, 30146.0, 35388.0, 9362.0, 0, 0.019937051460146904, -0.0699656680226326, -0.003333601402118802, 0.013289132155478, -0.05753488093614578, 0.9948821067810059, 0, 0, 0, 1.2861328125, 0.0716094970703125, 1.497802734375, 1.40478515625, 10.0, 1.0, 10.0, 1.448975682258606
50288, 6.153005599975586, -8.231931686401367, -3.2534377574920654, -0.004583817906677723, 0.0038747983053326607, -22.36181640625, -0.05837635695934296, 0.04934731125831604, -0.9126657247543335, -0.8383639454841614, -0.9542812705039978, 0.05974167585372925, -0.16127224413947636, 0.1693709543276043, -0.09326596519161934, 9362.0, 30146.0, 35388.0, 9362.0, 0, 0.08711955696344376, -0.1811329871416092, -0.385544091463089, 0.013056216761469841, -0.058059826493263245, 0.9969720244407654, 0, 0, 0, 1.587890625, 0.38861083984375, 1.497802734375, 1.58056640625, 10.0, 1.0, 10.0, 1.4488106966018677
50298, 6.153102397918701, -8.231709480285645, -3.257915735244751, -0.00510114012286067, 0.004312080796808004, -22.370952606201172, -0.04508836567401886, 0.03810885548591614, -0.9146668910980225, -0.8383523225784302, -0.9543532133102417, 0.05967484414577484, -0.09960391992649655, 0.15764487247284364, -0.10546145087848066, 9362.0, 30146.0, 35388.0, 9362.0, 0, 0.1327688843011856, -0.10321323573589325, -0.457257479429245, 0.01489851251244545, -0.05753055959939957, 0.9994484782218933, 0, 0, 0, 1.453857421875, 0.1110687255859375, 1.496337890625, 1.559326171875, 10.0, 1.0, 10.0, 1.4488705396652222
50308, 6.152172088623047, -8.231562614440918, -3.2590320110321045, -0.00548538425937295, 0.004636793397367001, -22.380107879638672, -0.031761303544044495, 0.026832636445760727, -0.9163662791252136, -0.8383709788322449, -0.9542978405952454, 0.05976460129022598, -0.1639329744986697, 0.17366336914176372, -0.10138011691035981, 9362.0, 30146.0, 35388.0, 9362.0, 0, -0.0861579030752182, 0.1556309163570404, -0.1420448124408722, 0.015360748395323753, -0.05725233629345894, 0.9967100620269775, 0, 0, 0, 1.535888671875, 0.2707366943359375, 1.496337890625, 1.28173828125, 10.0, 1.0, 10.0, 1.4488885402679443
50318, 6.151325702667236, -8.233327865600586, -3.259899377822876, -0.005736392457038164, 0.0048487624153494835, -22.389280319213867, -0.01844055764377117, 0.015560864470899105, -0.9181069731712341, -0.8383451104164124, -0.954354465007782, 0.05968238040804863, -0.08978355327016385, 0.16056267626618137, -0.10331576441380763, 9362.0, 30146.0, 35388.0, 9362.0, 0, -0.0037490930408239365, 0.16393759846687317, -0.10525727272033691, 0.014359472319483757, -0.058422770351171494, 0.9973633289337158, 0, 0, 0, 1.52783203125, 0.253387451171875, 1.48828125, 1.43115234375, 10.0, 1.0, 10.0, 1.4484995603561401
50328, 6.152523994445801, -8.234566688537598, -3.26023268699646, -0.005854292307049036, 0.004948102403432131, -22.398469924926758, -0.005139613524079323, 0.004306938964873552, -0.9199884533882141, -0.8383722305297852, -0.954267680644989, 0.05974472314119339, -0.16707368168519796, 0.16863898788457732, -0.09374987928446159, 9362.0, 30146.0, 35388.0, 9362.0, 0, 0.29829028248786926, 0.2701094150543213, 0.024429958313703537, 0.015332558192312717, -0.05806967243552208, 0.9982101917266846, 0, 0, 0, 1.560791015625, 0.3262176513671875, 1.48828125, 1.564453125, 10.0, 1.0, 10.0, 1.4484840631484985
50338, 6.151371479034424, -8.231966018676758, -3.2591898441314697, -0.005839099176228046, 0.00493485014885664, -22.407678604125977, 0.008178144693374634, -0.006957558449357748, -0.9217703938484192, -0.8383609652519226, -0.9542752504348755, 0.05974863842129707, -0.16897179321490163, 0.16806189541964045, -0.1054904202059732, 9362.0, 30146.0, 35388.0, 9362.0, 0, -0.1294678896665573, -0.222913458943367, 0.03592737391591072, 0.014981177635490894, -0.05773136764764786, 0.9999178051948547, 0, 0, 0, 1.4033203125, 0.043182373046875, 1.49853515625, 1.387939453125, 10.0, 1.0, 10.0, 1.4485912322998047
50348, 6.152568817138672, -8.236571311950684, -3.25842022895813, -0.005690629128366709, 0.004808865953236818, -22.41690444946289, 0.021516142413020134, -0.018239082768559456, -0.9234218001365662, -0.838367223739624, -0.9542593955993652, 0.05973169207572937, -0.1653366998102827, 0.17182661015596068, -0.10543249075224417, 9362.0, 30146.0, 35388.0, 9362.0, 0, 0.07867838442325592, 0.5385149717330933, 0.1084590032696724, 0.014295418746769428, -0.05874734744429588, 0.9989108443260193, 0, 0, 0, 1.58056640625, 0.3715972900390625, 1.49853515625, 1.575439453125, 10.0, 1.0, 10.0, 1.4489153623580933
50358, 6.152734279632568, -8.235755920410156, -3.2582204341888428, -0.005408794619143009, 0.004570074379444122, -22.4261474609375, 0.03485076501965523, -0.029519066214561462, -0.9250674843788147, -0.8383468389511108, -0.9543616771697998, 0.05969748646020889, -0.10262423786853186, 0.14940025891206687, -0.09944505006236344, 9362.0, 30146.0, 35388.0, 9362.0, 8.271075248718262, 0.02579233981668949, -0.2704092562198639, -0.10251747071743011, 0.014258509501814842, -0.058764081448316574, 0.9994974136352539, -0.006204196717590094, 0.07688140869140625, 1.502197265625, 1.294921875, 0.0565948486328125, 1.49853515625, 1.30517578125, 10.0, 1.0, 10.0, 1.4486349821090698
50368, 6.152757167816162, -8.236258506774902, -3.2603094577789307, -0.004993561189621687, 0.004218460060656071, -22.435405731201172, 0.04819592088460922, -0.04080380126833916, -0.9266930818557739, -0.8383697271347046, -0.9542789459228516, 0.05974041670560837, -0.16866656741304759, 0.1611912437541605, -0.10823586591081533, 9362.0, 30146.0, 35388.0, 9362.0, 8.271075248718262, 0.12042811512947083, 0.06816496700048447, -0.2655335068702698, 0.015352491289377213, -0.056372273713350296, 0.9992651343345642, -0.006204196717590094, 0.07688140869140625, 1.502197265625, 1.556396484375, 0.316192626953125, 1.49853515625, 1.588623046875, 10.0, 1.0, 10.0, 1.4489035606384277
50378, 6.153857707977295, -8.233881950378418, -3.2610666751861572, -0.0044448887929320335, 0.0037540022749453783, -22.44468116760254, 0.06153814494609833, -0.05208824947476387, -0.9283270835876465, -0.8383385539054871, -0.9543648362159729, 0.05970071256160736, -0.10073886208396908, 0.15321929394426093, -0.090268669192827, 9362.0, 30146.0, 35388.0, 9362.0, 8.271075248718262, 0.001387855620123446, -0.36115097999572754, -0.1726236790418625, 0.013766255229711533, -0.05564986914396286, 0.9976634979248047, -0.006204196717590094, 0.07688140869140625, 1.502197265625, 1.300048828125, 0.0489654541015625, 1.49267578125, 1.5791015625, 10.0, 1.0, 10.0, 1.4492360353469849
50388, 6.152862071990967, -8.234956741333008, -3.262190580368042, -0.0037628267891705036, 0.0031767264008522034, -22.4539737701416, 0.0748741552233696, -0.06336709856987, -0.9300109148025513, -0.8383747935295105, -0.9542931914329529, 0.05974656343460083, -0.16187644431624718, 0.16666034042361844, -0.10676297296855264, 9362.0, 30146.0, 35388.0, 9362.0, 8.271075248718262, -0.14493925869464874, 0.03869759663939476, -0.09691999852657318, 0.01242316234856844, -0.057633545249700546, 0.9983582496643066, -0.006204196717590094, 0.07688140869140625, 1.502197265625, 1.461181640625, 0.1233062744140625, 1.49267578125, 1.57470703125, 10.0, 1.0, 10.0, 1.4496299028396606
50398, 6.151814937591553, -8.23332405090332, -3.263789415359497, -0.0029474736656993628, 0.0024866934400051832, -22.46328353881836, 0.0881962701678276, -0.07463978230953217, -0.9317637085914612, -0.8383656740188599, -0.9542627930641174, 0.05974097549915314, -0.16273854437277827, 0.16116261462093462, -0.10504969037294334, 9362.0, 30146.0, 35388.0, 9362.0, 8.271075248718262, -0.019369779154658318, -0.17504653334617615, -0.24560317397117615, 0.012646233662962914, -0.05685434862971306, 0.9985555410385132, -0.006204196717590094, 0.07688140869140625, 1.502197265625, 1.2392578125, 0.20068359375, 1.497802734375, 1.578369140625, 10.0, 1.0, 10.0, 1.4495183229446411
50408, 6.1519083976745605, -8.235398292541504, -3.2635622024536133, -0.001998860388994217, 0.001683914102613926, -22.472610473632812, 0.1015261560678482, -0.0859164297580719, -0.9334716796875, -0.8383512496948242, -0.9543640613555908, 0.059674184769392014, -0.1044432841075352, 0.15242255288177375, -0.09886193164975807, 9362.0, 30146.0, 35388.0, 9362.0, 8.271075248718262, -0.02325650490820408, 0.3365670442581177, 0.0694412887096405, 0.013512481935322285, -0.05593021586537361, 0.9990126490592957, -0.006204196717590094, 0.07688140869140625, 1.502197265625, 1.31982421875, 0.0273590087890625, 1.497802734375, 1.51318359375, 10.0, 1.0, 10.0, 1.4494071006774902
50418, 6.152769088745117, -8.236003875732422, -3.2637617588043213, -0.0009169294498860836, 0.0007683481089770794, -22.481952667236328, 0.11486002057790756, -0.09719673544168472, -0.9351319670677185, -0.8383477330207825, -0.9542660713195801, 0.05976387485861778, -0.16452579125547248, 0.16631914355579624, -0.10457640292255992, 9362.0, 30146.0, 35388.0, 9362.0, 8.271075248718262, 0.1457841843366623, -0.06423570960760117, -0.11867399513721466, 0.014531925320625305, -0.05513334646821022, 0.997868537902832, -0.006204196717590094, 0.07688140869140625, 1.502197265625, 1.552001953125, 0.3063201904296875, 1.49560546875, 1.550537109375, 10.0, 1.0, 10.0, 1.4489563703536987
50428, 6.152799129486084, -8.237278938293457, -3.2639670372009277, 0.000298268161714077, -0.0002599465660750866, -22.49131202697754, 0.1281794309616089, -0.10846226662397385, -0.9369223117828369, -0.8383663296699524, -0.9542763829231262, 0.0597446970641613, -0.16599329211370162, 0.17175098703609137, -0.09887035766530404, 9362.0, 30146.0, 35388.0, 9362.0, 8.271075248718262, -0.11750183999538422, 0.24670560657978058, 0.015702400356531143, 0.016646696254611015, -0.05781467631459236, 1.000470519065857, -0.006204196717590094, 0.07688140869140625, 1.502197265625, 1.505126953125, 0.205902099609375, 1.49560546875, 1.443603515625, 10.0, 1.0, 10.0, 1.4485880136489868
50438, 6.153461456298828, -8.239112854003906, -3.264298677444458, 0.0016467941459268332, -0.0014010147424414754, -22.500688552856445, 0.14152568578720093, -0.11975134909152985, -0.9385248422622681, -0.8383527398109436, -0.9542827010154724, 0.05976525694131851, -0.1634896451532761, 0.17265145266102877, -0.10660740672867328, 9362.0, 30146.0, 35388.0, 9362.0, 8.271075248718262, 0.06867820024490356, 0.1616809368133545, -0.05519026890397072, 0.01476220041513443, -0.05682099238038063, 0.9993398189544678, -0.006204196717590094, 0.07688140869140625, 1.502197265625, 1.45458984375, 0.11224365234375, 1.4970703125, 1.4150390625, 10.0, 1.0, 10.0, 1.4489654302597046
50448, 6.154623031616211, -8.240221977233887, -3.2616403102874756, 0.0031287698075175285, -0.0026549547910690308, -22.510082244873047, 0.15486930310726166, -0.13103674352169037, -0.9401618242263794, -0.8383439183235168, -0.9543606042861938, 0.059679508209228516, -0.09958308869180066, 0.1474524360097007, -0.10065941664976126, 9362.0, 30146.0, 35388.0, 9362.0, 8.271075248718262, -0.07797924429178238, -0.030486421659588814, 0.15167522430419922, 0.014050637371838093, -0.058080051094293594, 0.9996064305305481, -0.006204196717590094, 0.07688140869140625, 1.502197265625, 1.562255859375, 0.329437255859375, 1.4970703125, 1.576904296875, 10.0, 1.0, 10.0, 1.4482802152633667
50458, 6.154404163360596, -8.240514755249023, -3.262570858001709, 0.0047442070208489895, -0.004021764732897282, -22.51949119567871, 0.16821855306625366, -0.14232462644577026, -0.9417838454246521, -0.8383625745773315, -0.9542622566223145, 0.05976361781358719, -0.15666573260732716, 0.1729907984042427, -0.09442780204042518, 9362.0, 30146.0, 35388.0, 9362.0, 8.271075248718262, 0.060954879969358444, -0.10717491060495377, -0.3488221764564514, 0.01426029670983553, -0.05873451754450798, 0.9967930316925049, -0.04106374830007553, -0.07543754577636719, 1.48974609375, 1.445068359375, 0.0970306396484375, 1.49853515625, 1.481689453125, 10.0, 1.0, 10.0, 1.448085069656372
50468, 6.155640125274658, -8.24030590057373, -3.263601779937744, 0.0064930664375424385, -0.005501392297446728, -22.52891731262207, 0.18155324459075928, -0.15360108017921448, -0.9435234069824219, -0.838340699672699, -0.9543707370758057, 0.05968364328145981, -0.09861426649278957, 0.15598823660980088, -0.10271206492864803, 9362.0, 30146.0, 35388.0, 9362.0, 8.271075248718262, 0.08426066488027573, 0.04555622860789299, -0.20376446843147278, 0.01650853455066681, -0.05793510004878044, 0.9984365701675415, -0.04106374830007553, -0.07543754577636719, 1.48974609375, 1.576171875, 0.361328125, 1.49853515625, 1.594482421875, 10.0, 1.0, 10.0, 1.447996973991394
50478, 6.15637731552124, -8.241276741027832, -3.2639710903167725, 0.008375228382647038, -0.0070937443524599075, -22.538362503051758, 0.19487892091274261, -0.16486959159374237, -0.9453297853469849, -0.8383439779281616, -0.9543431401252747, 0.059684693813323975, -0.11165160414324098, 0.14571450919910944, -0.09980667028394975, 9362.0, 30146.0, 35388.0, 9362.0, 8.271075248718262, 0.12403645366430283, 0.2638045847415924, -0.049583300948143005, 0.0157411377876997, -0.05824119225144386, 0.9994184970855713, -0.04106374830007553, -0.07543754577636719, 1.48974609375, 1.359375, 0.0160980224609375, 1.49560546875, 1.39453125, 10.0, 1.0, 10.0, 1.447682499885559
50488, 6.156033039093018, -8.239642143249512, -3.2646381855010986, 0.010390756651759148, -0.008798888884484768, -22.54782485961914, 0.20822665095329285, -0.17615941166877747, -0.9469729065895081, -0.8383532166481018, -0.9542807936668396, 0.05975785851478577, -0.17093380077680853, 0.1774773457069614, -0.09759542059535516, 9362.0, 30146.0, 35388.0, 9362.0, 8.271075248718262, -0.12527930736541748, -0.3615706264972687, -0.1999756544828415, 0.01539488136768341, -0.05608843266963959, 0.9988734722137451, -0.04106374830007553, -0.07543754577636719, 1.48974609375, 1.57177734375, 0.3512115478515625, 1.49560546875, 1.566650390625, 10.0, 1.0, 10.0, 1.44790780544281
50498, 6.1558756828308105, -8.23924732208252, -3.266028881072998, 0.012539811432361603, -0.010616973973810673, -22.557302474975586, 0.22158421576023102, -0.18745778501033783, -0.9485554695129395, -0.8383695483207703, -0.9542548656463623, 0.05974232777953148, -0.16657873998952355, 0.1678412959055322, -0.10230112869792632, 9362.0, 30146.0, 35388.0, 9362.0, 8.271075248718262, -0.010967050679028034, 0.005658900830894709, -0.12492416054010391, 0.01635655201971531, -0.056770723313093185, 0.9971258640289307, -0.04106374830007553, -0.07543754577636719, 1.48974609375, 1.282470703125, 0.0786590576171875, 1.4970703125, 1.352783203125, 10.0, 1.0, 10.0, 1.4483498334884644
50508, 6.15630578994751, -8.240253448486328, -3.264845609664917, 0.014822290278971195, -0.012547923251986504, -22.566797256469727, 0.2349112629890442, -0.19873245060443878, -0.9503369927406311, -0.8383684158325195, -0.9542715549468994, 0.05973978340625763, -0.16943607667418312, 0.16495826367491873, -0.09229051941975715, 9362.0, 30146.0, 35388.0, 9362.0, 8.271075248718262, 0.2571179270744324, 0.2764699161052704, 0.1851070672273636, 0.013130085542798042, -0.05779796838760376, 0.9980512857437134, -0.04106374830007553, -0.07543754577636719, 1.48974609375, 1.5380859375, 0.2755889892578125, 1.4970703125, 1.549072265625, 10.0, 1.0, 10.0, 1.448499083518982
50518, 6.15541410446167, -8.240015983581543, -3.2641994953155518, 0.017237991094589233, -0.014591583050787449, -22.576309204101562, 0.2482292354106903, -0.20999924838542938, -0.9521806240081787, -0.8383748531341553, -0.9542746543884277, 0.059766583144664764, -0.16382845904441243, 0.17320266581057808, -0.10874654453427857, 9362.0, 30146.0, 35388.0, 9362.0, 8.271075248718262, -0.06497098505496979, -0.018084021285176277, 0.13413795828819275, 0.0143027538433671, -0.05618329718708992, 0.9971824884414673, -0.04106374830007553, -0.07543754577636719, 1.48974609375, 1.30224609375, 0.0460052490234375, 1.49853515625, 1.5732421875, 10.0, 1.0, 10.0, 1.4484072923660278
50528, 6.155587673187256, -8.240204811096191, -3.265970230102539, 0.019786907359957695, -0.016747934743762016, -22.585840225219727, 0.2615542411804199, -0.2212710827589035, -0.9539868831634521, -0.8383649587631226, -0.9542741179466248, 0.05977120250463486, -0.1610307094440266, 0.17998969756422412, -0.10260040386795416, 9362.0, 30146.0, 35388.0, 9362.0, 8.271075248718262, 0.13642984628677368, -0.06898652017116547, -0.12183297425508499, 0.012877553701400757, -0.05872388929128647, 0.9985102415084839, -0.04106374830007553, -0.07543754577636719, 1.48974609375, 1.57470703125, 0.3579864501953125, 1.49853515625, 1.554931640625, 10.0, 1.0, 10.0, 1.4489470720291138
50538, 6.155061721801758, -8.240132331848145, -3.265394687652588, 0.022469088435173035, -0.019017010927200317, -22.595388412475586, 0.2748817205429077, -0.23254452645778656, -0.9557700157165527, -0.8383449912071228, -0.9543538689613342, 0.05968550220131874, -0.09713078498748665, 0.14757872090370938, -0.1011413326160291, 9362.0, 30146.0, 35388.0, 9362.0, 8.271075248718262, 0.016498088836669922, 0.03539440780878067, -0.06410359591245651, 0.012691414915025234, -0.058435987681150436, 0.9985207915306091, -0.04106374830007553, -0.07543754577636719, 1.48974609375, 1.619384765625, 0.4635009765625, 1.49853515625, 1.537353515625, 10.0, 1.0, 10.0, 1.4494644403457642
50548, 6.1549296379089355, -8.24166202545166, -3.2649338245391846, 0.025284606963396072, -0.02139887586236, -22.60495376586914, 0.28822195529937744, -0.24382856488227844, -0.9574646353721619, -0.8383761644363403, -0.9542636871337891, 0.059757448732852936, -0.17266443213202068, 0.16778164679843144, -0.10253452204072883, 9362.0, 30146.0, 35388.0, 9362.0, 8.271075248718262, -0.1908564567565918, 0.21448978781700134, 0.1028468981385231, 0.012498393654823303, -0.057387951761484146, 0.995901882648468, -0.04106374830007553, -0.07543754577636719, 1.48974609375, 1.484619140625, 0.1656646728515625, 1.49853515625, 1.379150390625, 10.0, 1.0, 10.0, 1.4498367309570312
50588, 6.154950141906738, -8.244394302368164, -3.2650701999664307, 0.03453002870082855, -0.029220107942819595, -22.633766174316406, 0.328142374753952, -0.27758556604385376, -0.9633578658103943, -0.8383601307868958, -0.9542668461799622, 0.059780411422252655, -0.16281808739470166, 0.16589432897953316, -0.09570766932217825, 9362.0, 30146.0, 35388.0, 9362.0, 8.290909767150879, -0.007191694341599941, -0.2157093584537506, -0.17572689056396484, 0.011323788203299046, -0.05706285685300827, 0.9963318109512329, -0.04106374830007553, -0.07543754577636719, 1.48974609375, 1.29638671875, 0.0542755126953125, 1.5, 1.379150390625, 10.0, 1.0, 10.0, 1.4498367309570312
50628, 6.153697490692139, -8.243352890014648, -3.269033432006836, 0.05260390788316727, -0.04450833424925804, -22.682159423828125, 0.39480534195899963, -0.3339337110519409, -0.9724717736244202, -0.8383730053901672, -0.9542749524116516, 0.05976175516843796, -0.1650477950100583, 0.17253882391244701, -0.10434108543478485, 9362.0, 30146.0, 35388.0, 9362.0, 8.290909767150879, -0.23701629042625427, -0.39452555775642395, -0.213523268699646, 0.013776632957160473, -0.05732114985585213, 0.9980763792991638, -0.04106374830007553, -0.07543754577636719, 1.48974609375, 1.52197265625, 0.2408599853515625, 1.49267578125, 1.379150390625, 10.0, 1.0, 10.0, 1.4504154920578003
50648, 6.1534037590026855, -8.244608879089355, -3.2689435482025146, 0.0607667975127697, -0.05141250044107437, -22.701642990112305, 0.4214824438095093, -0.3564833402633667, -0.9759995341300964, -0.8383495807647705, -0.9543516635894775, 0.05970662087202072, -0.10028957242133615, 0.15292820869007073, -0.10214303357799132, 9362.0, 30146.0, 35388.0, 9362.0, 8.290909767150879, 0.017888853326439857, -0.19072578847408295, -0.1002672091126442, 0.01320399809628725, -0.056959155946969986, 0.9972866773605347, -0.04106374830007553, -0.07543754577636719, 1.48974609375, 1.48388671875, 0.1642303466796875, 1.49853515625, 1.379150390625, 10.0, 1.0, 10.0, 1.4507852792739868
50668, 6.153530597686768, -8.2446928024292, -3.27085280418396, 0.06946315616369247, -0.05876759812235832, -22.72119903564453, 0.4481530785560608, -0.3790266215801239, -0.9795656204223633, -0.8383878469467163, -0.95427006483078, 0.05974946916103363, -0.1660212904492741, 0.17672423875467302, -0.10608263820912595, 9362.0, 30146.0, 35388.0, 9362.0, 8.290909767150879, 0.025813007727265358, 0.014624841511249542, -0.0389314740896225, 0.013185100629925728, -0.06016669049859047, 0.9985392689704895, -0.04106374830007553, -0.07543754577636719, 1.48974609375, 1.478759765625, 0.1546478271484375, 1.49853515625, 1.379150390625, 10.0, 1.0, 10.0, 1.4502378702163696
50768, 6.153921127319336, -8.251932144165039, -3.2753427028656006, 0.12095426023006439, -0.10231190174818039, -22.819995880126953, 0.5816788673400879, -0.4918438494205475, -0.9965561628341675, -0.8383825421333313, -0.9542760848999023, 0.059763211756944656, -0.16269599446949462, 0.1813206020970597, -0.10048241742428171, 9362.0, 30146.0, 35388.0, 9362.0, 8.290909767150879, -0.0774824470281601, -0.1293943077325821, 0.100882887840271, 0.01574028469622135, -0.054860129952430725, 0.9960119128227234, -0.04106374830007553, -0.07543754577636719, 1.48974609375, 1.590087890625, 0.3937835693359375, 1.4970703125, 1.379150390625, 10.0, 1.0, 10.0, 1.45247483253479
50778, 6.152719974517822, -8.25407600402832, -3.2726545333862305, 0.12683774530887604, -0.10728668421506882, -22.829971313476562, 0.5950174331665039, -0.5031123757362366, -0.9983854293823242, -0.838353157043457, -0.9543480277061462, 0.059680256992578506, -0.09979520855696165, 0.1406178465620087, -0.09758695513783411, 9362.0, 30146.0, 35388.0, 9362.0, 8.290909767150879, -0.054695360362529755, 0.40066686272621155, 0.27121177315711975, 0.012131069786846638, -0.05584661290049553, 0.9969828724861145, -0.04106374830007553, -0.07543754577636719, 1.48974609375, 1.579833984375, 0.369873046875, 1.496337890625, 1.4970703125, 10.0, 1.0, 10.0, 1.4520611763000488
50868, 6.152496337890625, -8.253219604492188, -3.2782907485961914, 0.1787128448486328, -0.15114419162273407, -22.910402297973633, 0.7019145488739014, -0.5933642387390137, -1.0121031999588013, -0.8383647203445435, -0.9542641043663025, 0.059760019183158875, -0.1668928778458772, 0.1705370430841242, -0.09421941709543494, 9362.0, 30146.0, 35388.0, 9362.0, 8.290909767150879, 0.05597734451293945, -0.11803081631660461, -0.1272025853395462, 0.013761642388999462, -0.05833759903907776, 0.9992517232894897, -0.04106374830007553, -0.07543754577636719, 1.48974609375, 1.342529296875, 0.0161895751953125, 1.49853515625, 1.4970703125, 10.0, 1.0, 10.0, 1.4539510011672974
50888, 6.152064800262451, -8.251973152160645, -3.2811527252197266, 0.1787128448486328, -0.15114419162273407, -22.910402297973633, 0.7019145488739014, -0.5933642387390137, -1.0121031999588013, -0.8383485674858093, -0.954353928565979, 0.05970913916826248, -0.0999409469693695, 0.14954080227971644, -0.09776058581312758, 9362.0, 30146.0, 35388.0, 9362.0, 8.290909767150879, 0.04050919786095619, -0.002547649899497628, -0.1808413416147232, 0.012220356613397598, -0.057115375995635986, 0.9983814358711243, -0.04106374830007553, -0.07543754577636719, 1.48974609375, 1.20849609375, 0.3375701904296875, 1.499267578125, 1.4970703125, 10.0, 1.0, 10.0, 1.4543795585632324
50948, 6.153750419616699, -8.252619743347168, -3.285991907119751, 0.23914070427417755, -0.20222368836402893, -22.991914749145508, 0.8088229894638062, -0.6836624145507812, -1.0254151821136475, -0.8383724093437195, -0.9542628526687622, 0.059761010110378265, -0.16440145532529263, 0.16730188590346984, -0.10194626418938393, 9362.0, 30146.0, 35388.0, 9362.0, 8.290909767150879, 0.02018498070538044, -0.22517861425876617, -0.5733780860900879, 0.014547241851687431, -0.05630761757493019, 0.9971426129341125, -0.04106374830007553, -0.07543754577636719, 1.48974609375, 1.267822265625, 0.111724853515625, 1.496337890625, 1.4970703125, 10.0, 1.0, 10.0, 1.4563415050506592
50988, 6.154839992523193, -8.25009822845459, -3.2885496616363525, 0.28125032782554626, -0.23781676590442657, -23.043405532836914, 0.8755835890769958, -0.7400858402252197, -1.034032940864563, -0.8383477926254272, -0.954343318939209, 0.0597115159034729, -0.1039121807965252, 0.14620142047223794, -0.09488979119163486, 9362.0, 30146.0, 35388.0, 9362.0, 8.290909767150879, 0.15031684935092926, 0.05467578396201134, 0.015946386381983757, 0.011891872622072697, -0.05627790465950966, 0.9964888095855713, -0.036734048277139664, -0.09335899353027344, 1.48828125, 1.47509765625, 0.147857666015625, 1.490478515625, 1.4970703125, 10.0, 1.0, 10.0, 1.4569188356399536
51068, 6.1558308601379395, -8.255139350891113, -3.2957663536071777, 0.3458121418952942, -0.2923876643180847, -23.116212844848633, 0.9690945148468018, -0.8191218376159668, -1.0458436012268066, -0.8383820652961731, -0.9542492628097534, 0.05975935235619545, -0.1628577137247017, 0.1615526836103527, -0.10660941833137874, 9362.0, 30146.0, 35388.0, 9362.0, 8.271075248718262, -0.024577518925070763, 0.02031976357102394, -0.05436598137021065, 0.011252284049987793, -0.05647198483347893, 0.9974113702774048, -0.036734048277139664, -0.09335899353027344, 1.48828125, 1.37548828125, 0.021820068359375, 1.49560546875, 1.4970703125, 10.0, 1.0, 10.0, 1.4572176933288574
51248, 6.1544108390808105, -8.2522611618042, -3.3042540550231934, 0.5179676413536072, -0.4379024803638458, -23.28572654724121, 1.1828275918960571, -0.9998053312301636, -1.0732141733169556, -0.8383781909942627, -0.9542762637138367, 0.0597602054476738, -0.15709766350934667, 0.16716822948791332, -0.11014706612471942, 9362.0, 30146.0, 35388.0, 9362.0, 8.271075248718262, 0.06138066574931145, 0.06857935339212418, -0.22899450361728668, 0.013654136098921299, -0.058529093861579895, 0.997221827507019, -0.042165424674749374, -0.0037593841552734375, 1.49560546875, 1.39013671875, 0.0314483642578125, 1.5029296875, 1.4970703125, 10.0, 1.0, 10.0, 1.4594517946243286
51268, 6.153785705566406, -8.251543045043945, -3.304213047027588, 0.5179676413536072, -0.4379024803638458, -23.28572654724121, 1.1828275918960571, -0.9998053312301636, -1.0732141733169556, -0.8383692502975464, -0.9542680978775024, 0.05977220833301544, -0.17458868486320883, 0.16772356776539254, -0.09859879885708732, 9362.0, 30146.0, 35388.0, 9362.0, 8.290909767150879, -0.06365042179822922, -0.24481363594532013, -0.03522057831287384, 0.013847406022250652, -0.05699865147471428, 0.9995222091674805, -0.03807687386870384, -0.030637741088867188, 1.493408203125, 1.33447265625, 0.0186309814453125, 1.494140625, 1.4970703125, 10.0, 1.0, 10.0, 1.4594517946243286
51308, 6.152254104614258, -8.248098373413086, -3.3078784942626953, 0.6168640851974487, -0.5214970707893372, -23.37215805053711, 1.2896326780319214, -1.0901144742965698, -1.0870546102523804, -0.8383713364601135, -0.9542713165283203, 0.05975140631198883, -0.16793215936025407, 0.17659256805870882, -0.10233394408460658, 9362.0, 30146.0, 35388.0, 9362.0, 8.290909767150879, 0.020792745053768158, -0.037277523428201675, -0.1004592776298523, 0.01352838333696127, -0.05698227882385254, 0.9980595707893372, -0.03807687386870384, -0.030637741088867188, 1.493408203125, 1.388671875, 0.03033447265625, 1.493408203125, 1.4970703125, 10.0, 1.0, 10.0, 1.4596673250198364
51788, 6.155117511749268, -8.24605941772461, -3.3361611366271973, 1.2946728467941284, -1.094611644744873, -23.855491638183594, 1.863038182258606, -1.5756787061691284, -1.1603975296020508, -0.8383795022964478, -0.9542708992958069, 0.05975549668073654, -0.16432593383905894, 0.17426210346005178, -0.09410397151813467, 9362.0, 30146.0, 35388.0, 9362.0, 8.290909767150879, -0.113343745470047, -0.3084295690059662, -0.089606873691082, 0.013088949955999851, -0.05973314121365547, 0.9990916848182678, -0.03584389388561249, -0.12023735046386719, 1.486083984375, 1.302978515625, 0.0450897216796875, 1.497802734375, 1.576171875, 10.0, 1.0, 10.0, 1.4644514322280884
51798, 6.1543145179748535, -8.244423866271973, -3.335174798965454, 1.4283527135849, -1.2076770067214966, -23.937145233154297, 1.956403374671936, -1.654778242111206, -1.172339916229248, -0.8383734226226807, -0.9542772173881531, 0.05976484715938568, -0.16583564343341511, 0.16369270816772996, -0.10307271380438464, 9362.0, 30146.0, 35388.0, 9362.0, 8.290909767150879, 0.009817729704082012, -0.056348610669374466, 0.18993046879768372, 0.013754582963883877, -0.05908353254199028, 0.9992895126342773, -0.03584389388561249, -0.12023735046386719, 1.486083984375, 1.587158203125, 0.3869171142578125, 1.499267578125, 1.576171875, 10.0, 1.0, 10.0, 1.4650367498397827
51808, 6.155015468597412, -8.243257522583008, -3.3345541954040527, 1.4479835033416748, -1.2242813110351562, -23.948877334594727, 1.9697452783584595, -1.6660828590393066, -1.1739959716796875, -0.8383731245994568, -0.9542841911315918, 0.05977814644575119, -0.16206156167445163, 0.1713194347885576, -0.095555469140134, 9362.0, 30146.0, 35388.0, 9362.0, 8.290909767150879, 0.2479868233203888, 0.10050833970308304, 0.09558121860027313, 0.014472146518528461, -0.05896095186471939, 0.9982802867889404, -0.03584389388561249, -0.12023735046386719, 1.486083984375, 1.26708984375, 0.1136474609375, 1.499267578125, 1.576171875, 10.0, 1.0, 10.0, 1.4648373126983643
51928, 6.156167030334473, -8.24047565460205, -3.3446602821350098, 1.651625633239746, -1.3965402841567993, -24.06711196899414, 2.1030783653259277, -1.7790900468826294, -1.190773367881775, -0.8383851051330566, -0.9542775750160217, 0.05977606028318405, -0.1676071936882915, 0.17361392946293108, -0.10185179955266627, 9362.0, 30146.0, 35388.0, 9362.0, 8.271075248718262, 0.17314192652702332, -0.008503558114171028, -0.18020442128181458, 0.01297429483383894, -0.05623164400458336, 0.999121367931366, -0.03584389388561249, -0.12023735046386719, 1.486083984375, 1.39013671875, 0.0314483642578125, 1.49560546875, 1.576171875, 10.0, 1.0, 10.0, 1.465370774269104
51978, 6.154475688934326, -8.242965698242188, -3.3443686962127686, 1.758445143699646, -1.4869072437286377, -24.126867294311523, 2.1697254180908203, -1.8356101512908936, -1.1991684436798096, -0.8383798003196716, -0.9542632102966309, 0.05976810306310654, -0.16382345448784702, 0.1807953121223136, -0.10721634757246824, 9362.0, 30146.0, 35388.0, 9362.0, 8.290909767150879, -0.17925849556922913, 0.18216395378112793, 0.2874889373779297, 0.013739190995693207, -0.05897385627031326, 0.9975296854972839, -0.03584389388561249, -0.12023735046386719, 1.486083984375, 1.581298828125, 0.3732147216796875, 1.496337890625, 1.576171875, 10.0, 1.0, 10.0, 1.4651811122894287
52168, 6.156685829162598, -8.251618385314941, -3.3625106811523438, 2.170585870742798, -1.8356200456619263, -24.345535278320312, 2.4096567630767822, -2.038999319076538, -1.2304601669311523, -0.8383708000183105, -0.9542784094810486, 0.059772904962301254, -0.16470912750827746, 0.18448328955182092, -0.10676800343359286, 9362.0, 30146.0, 35388.0, 9362.0, 8.290909767150879, 0.15486468374729156, 0.12002037465572357, 0.2005501091480255, 0.012753856368362904, -0.05604306608438492, 0.9982972741127014, -0.012491883710026741, 0.10376167297363281, 1.50439453125, 1.24951171875, 0.1648101806640625, 1.49560546875, 1.576171875, 10.0, 1.0, 10.0, 1.4647482633590698
52228, 6.158454418182373, -8.251585960388184, -3.361936569213867, 2.367624282836914, -2.0023562908172607, -24.444530487060547, 2.516303777694702, -2.1294119358062744, -1.244463324546814, -0.838378369808197, -0.9542779326438904, 0.059762485325336456, -0.170436169804607, 0.17495727885557244, -0.0988356859938729, 9362.0, 30146.0, 35388.0, 9362.0, 8.290909767150879, -0.09635985642671585, -0.18773935735225677, 0.10809203237295151, 0.015275287441909313, -0.05729180574417114, 0.9961302876472473, -0.012491883710026741, 0.10376167297363281, 1.50439453125, 1.417236328125, 0.058624267578125, 1.494873046875, 1.576171875, 10.0, 1.0, 10.0, 1.4652236700057983
52348, 6.157068252563477, -8.25871753692627, -3.3641998767852783, 2.679175853729248, -2.2660200595855713, -24.595176696777344, 2.6762828826904297, -2.2650065422058105, -1.2661669254302979, -0.8383620977401733, -0.9543503522872925, 0.05971502140164375, -0.1035059793733865, 0.1612625001807544, -0.10130109238919105, 9362.0, 30146.0, 35388.0, 9362.0, 8.271075248718262, -0.011722596362233162, -0.22301213443279266, -0.11983763426542282, 0.013255688361823559, -0.058400385081768036, 0.9971862435340881, -0.012491883710026741, 0.10376167297363281, 1.50439453125, 1.2421875, 0.19000244140625, 1.499267578125, 1.576171875, 10.0, 1.0, 10.0, 1.4665322303771973
52528, 6.158496856689453, -8.254528045654297, -3.3824145793914795, 3.211747884750366, -2.7167723178863525, -24.8389835357666, 2.9297096729278564, -2.47978138923645, -1.3001569509506226, -0.8383596539497375, -0.9543563723564148, 0.05970051884651184, -0.09692171269969273, 0.16542811375589395, -0.11228006435413396, 9362.0, 30146.0, 35388.0, 9362.0, 8.271075248718262, 0.14531396329402924, -0.15462131798267365, -0.02296854928135872, 0.01560110691934824, -0.05463658273220062, 0.9980050921440125, -0.012491883710026741, 0.10376167297363281, 1.50439453125, 1.57177734375, 0.3512115478515625, 1.48974609375, 1.576171875, 10.0, 1.0, 10.0, 1.4649962186813354
52708, 6.157635688781738, -8.258806228637695, -3.3929102420806885, 3.7606990337371826, -3.181457281112671, -25.075862884521484, 3.169757604598999, -2.683413028717041, -1.3317943811416626, -0.8383926749229431, -0.9542554020881653, 0.05975500866770744, -0.16740283792878652, 0.1809537730577233, -0.09829087651967465, 9362.0, 30146.0, 35388.0, 9362.0, 8.271075248718262, 0.041591938585042953, 0.2280537635087967, 0.007940980605781078, 0.014696571975946426, -0.0589839406311512, 0.9974587559700012, -0.033475253731012344, 0.014162063598632812, 1.4970703125, 1.423095703125, 0.06591796875, 1.49853515625, 1.408447265625, 10.0, 1.0, 10.0, 1.4651087522506714
52768, 6.157546043395996, -8.252020835876465, -3.402691125869751, 3.8563919067382812, -3.2624688148498535, -25.115896224975586, 3.2097558975219727, -2.7173426151275635, -1.3371390104293823, -0.838384747505188, -0.9542842507362366, 0.05980181694030762, -0.161592720679823, 0.17817555696879595, -0.1021171991957579, 9362.0, 30146.0, 35388.0, 9362.0, 8.271075248718262, -0.17185769975185394, -0.42919933795928955, -0.11939965933561325, 0.01661551371216774, -0.05670765042304993, 0.99882572889328, -0.033475253731012344, 0.014162063598632812, 1.4970703125, 1.31103515625, 0.0355682373046875, 1.50146484375, 1.408447265625, 10.0, 1.0, 10.0, 1.4647517204284668
52788, 6.156979560852051, -8.253161430358887, -3.4022955894470215, 3.8563919067382812, -3.2624688148498535, -25.115896224975586, 3.2097558975219727, -2.7173426151275635, -1.3371390104293823, -0.8383855223655701, -0.954250693321228, 0.059750303626060486, -0.17108980937815157, 0.1800659614179949, -0.10588033260017009, 9362.0, 30146.0, 35388.0, 9362.0, 8.271075248718262, -0.2205442488193512, 0.1474384367465973, -0.08996303379535675, 0.01462903618812561, -0.05834055319428444, 0.9970249533653259, -0.033475253731012344, 0.014162063598632812, 1.4970703125, 1.16162109375, 0.643707275390625, 1.5029296875, 1.408447265625, 10.0, 1.0, 10.0, 1.4647517204284668
53048, 6.160298824310303, -8.261655807495117, -3.4039828777313232, 4.915512561798096, -4.159245014190674, -25.53864860534668, 3.6233017444610596, -3.068324565887451, -1.3905620574951172, -0.8383722305297852, -0.9543333053588867, 0.05970945954322815, -0.10593450560193592, 0.1662465924113974, -0.10141415725166673, 9362.0, 30146.0, 35388.0, 9362.0, 8.271075248718262, -0.2605469822883606, 0.34860438108444214, 0.3320687413215637, 0.014305694960057735, -0.05748344212770462, 0.9971893429756165, -0.0355517752468586, -0.2098369598388672, 1.478759765625, 1.418701171875, 0.0603485107421875, 1.493408203125, 1.52197265625, 10.0, 1.0, 10.0, 1.4633352756500244
53068, 6.160322189331055, -8.260908126831055, -3.4047813415527344, 4.915512561798096, -4.159245014190674, -25.53864860534668, 3.6233017444610596, -3.068324565887451, -1.3905620574951172, -0.8383820652961731, -0.9542578458786011, 0.0597909614443779, -0.16822539384190202, 0.176404126264174, -0.10071022621317657, 9362.0, 30146.0, 35388.0, 9362.0, 8.271075248718262, 0.10852717608213425, -0.05375172942876816, 0.053941432386636734, 0.013609673827886581, -0.05713498219847679, 0.9987505674362183, -0.0355517752468586, -0.2098369598388672, 1.478759765625, 1.445068359375, 0.0970306396484375, 1.49853515625, 1.52197265625, 10.0, 1.0, 10.0, 1.4628723859786987
53108, 6.159240245819092, -8.263795852661133, -3.407592535018921, 5.098345756530762, -4.314076900482178, -25.60839080810547, 3.6900100708007812, -3.124937057495117, -1.3992702960968018, -0.8383858799934387, -0.9542616605758667, 0.05978499352931976, -0.15807087205692527, 0.18016387953446156, -0.11346030980260385, 9362.0, 30146.0, 35388.0, 9362.0, 8.271075248718262, 0.07427608966827393, 0.046033140271902084, -0.20660220086574554, 0.013313114643096924, -0.0570395328104496, 0.9984421730041504, -0.0355517752468586, -0.2098369598388672, 1.478759765625, 1.408447265625, 0.0485382080078125, 1.499267578125, 1.52197265625, 10.0, 1.0, 10.0, 1.4623174667358398
53128, 6.159818172454834, -8.266090393066406, -3.408579111099243, 5.098345756530762, -4.314076900482178, -25.60839080810547, 3.6900100708007812, -3.124937057495117, -1.3992702960968018, -0.8383604288101196, -0.9543462991714478, 0.05971568822860718, -0.10223170685534413, 0.16173250562735575, -0.10501962030909172, 9362.0, 30146.0, 35388.0, 9362.0, 8.271075248718262, -0.07945864647626877, 0.12087932974100113, 0.05629851296544075, 0.012062991969287395, -0.057904042303562164, 0.999934732913971, -0.0355517752468586, -0.2098369598388672, 1.478759765625, 1.253173828125, 0.15313720703125, 1.49267578125, 1.52197265625, 10.0, 1.0, 10.0, 1.462052583694458
53188, 6.159911155700684, -8.261396408081055, -3.41424560546875, 5.435856342315674, -4.599910736083984, -25.73499870300293, 3.8102223873138428, -3.2269184589385986, -1.4142566919326782, -0.8383840918540955, -0.9542422294616699, 0.05976390093564987, -0.1659252903737011, 0.17637378393544623, -0.10586256249055528, 9362.0, 30146.0, 35388.0, 9362.0, 8.271075248718262, -0.12145090848207474, -0.30138087272644043, 0.1370752900838852, 0.013391664251685143, -0.05604581907391548, 0.9999773502349854, -0.04591526836156845, -0.13815879821777344, 1.484619140625, 1.411376953125, 0.05181884765625, 1.494873046875, 1.52197265625, 10.0, 1.0, 10.0, 1.4623217582702637
53328, 6.164241313934326, -8.2637939453125, -3.4219791889190674, 5.86305570602417, -4.961725234985352, -25.891599655151367, 3.9570469856262207, -3.351545572280884, -1.4330066442489624, -0.8383882641792297, -0.9542628526687622, 0.05976061522960663, -0.16349848737626235, 0.18551299492358453, -0.11274994614226538, 9362.0, 30146.0, 35388.0, 9362.0, 8.290909767150879, 0.1016078069806099, 0.2531295120716095, -0.0957411378622055, 0.013944924809038639, -0.0568295493721962, 1.000261664390564, -0.04591526836156845, -0.13815879821777344, 1.484619140625, 1.32568359375, 0.0232086181640625, 1.49853515625, 1.373291015625, 10.0, 1.0, 10.0, 1.4622398614883423
53388, 6.163645267486572, -8.266905784606934, -3.422137498855591, 6.183887481689453, -5.233473777770996, -26.006805419921875, 4.063774108886719, -3.4421796798706055, -1.4470583200454712, -0.8383752703666687, -0.9542494416236877, 0.059783756732940674, -0.1659062018561303, 0.1737882999854321, -0.11117274616177181, 9362.0, 30146.0, 35388.0, 9362.0, 8.271075248718262, -0.071963831782341, 0.2830636203289032, 0.010345783084630966, 0.014353877864778042, -0.05717002600431442, 0.996756374835968, -0.021801428869366646, -0.04855918884277344, 1.491943359375, 1.20849609375, 0.3375701904296875, 1.49853515625, 1.373291015625, 10.0, 1.0, 10.0, 1.461258888244629
53548, 6.167141914367676, -8.271029472351074, -3.438385009765625, 6.808464050292969, -5.762545585632324, -26.225894927978516, 4.2640509605407715, -3.6122121810913086, -1.4733154773712158, -0.8383901119232178, -0.9542574882507324, 0.05977964401245117, -0.15994032717596424, 0.175772456383811, -0.11029900562158841, 9362.0, 30146.0, 35388.0, 9362.0, 8.271075248718262, -0.10180261731147766, -0.09840723127126694, -0.10337641090154648, 0.01486876793205738, -0.055593062192201614, 0.9986553192138672, -0.03947039693593979, -0.021678924560546875, 1.494140625, 1.405517578125, 0.0454254150390625, 1.496337890625, 1.373291015625, 10.0, 1.0, 10.0, 1.460876226425171
53568, 6.166171073913574, -8.26976490020752, -3.4401333332061768, 6.808464050292969, -5.762545585632324, -26.225894927978516, 4.2640509605407715, -3.6122121810913086, -1.4733154773712158, -0.8383565545082092, -0.9543353319168091, 0.05973837524652481, -0.10156469496868381, 0.16008572323613635, -0.1101535391659566, 9362.0, 30146.0, 35388.0, 9362.0, 8.271075248718262, -0.23072673380374908, -0.3154723644256592, -0.20680946111679077, 0.01409923005849123, -0.05805183947086334, 0.9981091618537903, -0.03947039693593979, -0.021678924560546875, 1.494140625, 1.273681640625, 0.0975494384765625, 1.49267578125, 1.373291015625, 10.0, 1.0, 10.0, 1.460876226425171
53688, 6.165435314178467, -8.272200584411621, -3.4390676021575928, 7.50779390335083, -6.355010509490967, -26.463911056518555, 4.477592945098877, -3.7936272621154785, -1.501741886138916, -0.8383922576904297, -0.9542390704154968, 0.059769339859485626, -0.16578514301853348, 0.17744901420780934, -0.11193515725399132, 9362.0, 30146.0, 35388.0, 9362.0, 8.271075248718262, 0.014796672388911247, -0.09105594456195831, -0.15990197658538818, 0.011944103054702282, -0.06001259386539459, 0.9985742568969727, -0.03947039693593979, -0.021678924560546875, 1.494140625, 1.256103515625, 0.144134521484375, 1.493408203125, 1.373291015625, 10.0, 1.0, 10.0, 1.4590574502944946
53748, 6.168993949890137, -8.274615287780762, -3.4358158111572266, 7.6427226066589355, -6.469329833984375, -26.50904083251953, 4.517638206481934, -3.82763671875, -1.5070414543151855, -0.8383935689926147, -0.9542317986488342, 0.05978095531463623, -0.15981518853186782, 0.1759702834334007, -0.10744830166155397, 9362.0, 30146.0, 35388.0, 9362.0, 8.271075248718262, -0.135165274143219, -0.028533972799777985, 0.23549914360046387, 0.016612766310572624, -0.05861743539571762, 0.9983198642730713, -0.03947039693593979, -0.021678924560546875, 1.494140625, 1.27587890625, 0.092620849609375, 1.49853515625, 1.373291015625, 10.0, 1.0, 10.0, 1.4601049423217773
53878, 6.177229881286621, -8.284335136413574, -3.435401201248169, 8.382638931274414, -7.096271514892578, -26.752424240112305, 4.73144006729126, -4.009248733520508, -1.5348358154296875, -0.8383880853652954, -0.9542433619499207, 0.059776172041893005, -0.15970190042192645, 0.1817294324771126, -0.10089660607461014, 9362.0, 30146.0, 35388.0, 9362.0, 8.271075248718262, 0.09446974098682404, -0.10970640182495117, 0.09402904659509659, 0.014881725423038006, -0.05836353823542595, 0.9982389807701111, -0.013387462124228477, 0.1485614776611328, 1.508056640625, 1.467041015625, 0.1334686279296875, 1.496337890625, 1.373291015625, 10.0, 1.0, 10.0, 1.459584355354309
53928, 6.176087856292725, -8.287999153137207, -3.444763422012329, 8.620882987976074, -7.298154354095459, -26.829381942749023, 4.798346519470215, -4.0660905838012695, -1.5432727336883545, -0.8383827805519104, -0.9542477130889893, 0.05978742986917496, -0.16821932074189155, 0.18177646530304514, -0.10833211579330572, 9362.0, 30146.0, 35388.0, 9362.0, 8.271075248718262, 0.05541086569428444, -0.19787132740020752, -0.14152859151363373, 0.015463802963495255, -0.05681513622403145, 0.9977927803993225, -0.013387462124228477, 0.1485614776611328, 1.508056640625, 1.294921875, 0.0565948486328125, 1.49853515625, 1.373291015625, 10.0, 1.0, 10.0, 1.459762454032898
54048, 6.175596714019775, -8.286626815795898, -3.451704740524292, 9.10740852355957, -7.710445880889893, -26.984561920166016, 4.932194709777832, -4.179775714874268, -1.5600101947784424, -0.8383579254150391, -0.9543291926383972, 0.05973370373249054, -0.09740649560693335, 0.15332464650421684, -0.10011094970534246, 9362.0, 30146.0, 35388.0, 9362.0, 8.271075248718262, -0.03992489352822304, -0.09979459643363953, -0.12162699550390244, 0.012082620523869991, -0.05727026239037514, 0.9978726506233215, -0.013387462124228477, 0.1485614776611328, 1.508056640625, 1.42822265625, 0.0726470947265625, 1.49560546875, 1.40625, 10.0, 1.0, 10.0, 1.459193468093872
54168, 6.177750110626221, -8.297943115234375, -3.466498374938965, 9.70889663696289, -8.220194816589355, -27.17307472229004, 5.092673301696777, -4.316096782684326, -1.5817008018493652, -0.8383874893188477, -0.9542505145072937, 0.05977921560406685, -0.16447757019550666, 0.17850897718705028, -0.11201832379780766, 9362.0, 30146.0, 35388.0, 9362.0, 8.271075248718262, -0.1378200501203537, -0.4422772228717804, 0.004886941518634558, 0.013548817485570908, -0.05950894206762314, 0.9987682700157166, -0.028686992824077606, -0.2187976837158203, 1.47802734375, 1.43115234375, 0.0766143798828125, 1.500732421875, 1.40625, 10.0, 1.0, 10.0, 1.457615613937378
54228, 6.176564693450928, -8.298798561096191, -3.4739768505096436, 10.016868591308594, -8.481208801269531, -27.26827621459961, 5.1730570793151855, -4.384364128112793, -1.5918233394622803, -0.8383942246437073, -0.9542468190193176, 0.05977921932935715, -0.16857562499652487, 0.18399365538033408, -0.10655497446647257, 9362.0, 30146.0, 35388.0, 9362.0, 8.271075248718262, -0.06388154625892639, -0.16434895992279053, -0.010900529101490974, 0.01530413143336773, -0.05893348157405853, 0.9987334609031677, -0.028686992824077606, -0.2187976837158203, 1.47802734375, 1.31103515625, 0.0355682373046875, 1.491943359375, 1.40625, 10.0, 1.0, 10.0, 1.4572558403015137
54268, 6.17738676071167, -8.294578552246094, -3.475958824157715, 10.329663276672363, -8.746317863464355, -27.36409568786621, 5.253385066986084, -4.45258903503418, -1.6023449897766113, -0.8383614420890808, -0.9543251991271973, 0.05973099172115326, -0.10523399951182157, 0.16349767508012292, -0.10716595057686978, 9362.0, 30146.0, 35388.0, 9362.0, 8.271075248718262, 0.1731230467557907, -0.12599784135818481, -0.07901871204376221, 0.014589457772672176, -0.05763448774814606, 0.999138355255127, -0.03913922607898712, -0.1650371551513672, 1.482421875, 1.470703125, 0.1399383544921875, 1.499267578125, 1.40625, 10.0, 1.0, 10.0, 1.457282304763794
54288, 6.17709493637085, -8.291105270385742, -3.4779512882232666, 10.329663276672363, -8.746317863464355, -27.36409568786621, 5.253385066986084, -4.45258903503418, -1.6023449897766113, -0.8383863568305969, -0.9542433023452759, 0.059807389974594116, -0.1625659462505541, 0.17648997585715165, -0.10560231841062609, 9362.0, 30146.0, 35388.0, 9362.0, 8.271075248718262, -0.1709897518157959, -0.045643843710422516, 0.2276180386543274, 0.015345504507422447, -0.056459635496139526, 0.9988648295402527, -0.03913922607898712, -0.1650371551513672, 1.482421875, 1.33447265625, 0.0186309814453125, 1.49560546875, 1.40625, 10.0, 1.0, 10.0, 1.457282304763794
54528, 6.180597305297852, -8.301355361938477, -3.4911935329437256, 11.573328971862793, -9.800504684448242, -27.737211227416992, 5.561111927032471, -4.714273929595947, -1.642039179801941, -0.8383817672729492, -0.9542450904846191, 0.05978117883205414, -0.16839062120755344, 0.1766422174064246, -0.09995435894726754, 9362.0, 30146.0, 35388.0, 9362.0, 8.271075248718262, 0.2262241691350937, 0.3007625937461853, -0.3141222596168518, 0.014272441156208515, -0.05753020569682121, 1.0000123977661133, -0.031376756727695465, -0.1650371551513672, 1.482421875, 1.354248046875, 0.0154266357421875, 1.49853515625, 1.40625, 10.0, 1.0, 10.0, 1.4565623998641968
54548, 6.184042930603027, -8.299944877624512, -3.4908101558685303, 11.573328971862793, -9.800504684448242, -27.737211227416992, 5.561111927032471, -4.714273929595947, -1.642039179801941, -0.8383846879005432, -0.9542518854141235, 0.059805504977703094, -0.15983160963126636, 0.17921342812124408, -0.10724198769377186, 9362.0, 30146.0, 35388.0, 9362.0, 8.271075248718262, 0.16061486303806305, -0.022885793820023537, -0.04306558147072792, 0.014066156931221485, -0.05999616160988808, 0.9973880648612976, -0.031376756727695465, -0.1650371551513672, 1.482421875, 1.40185546875, 0.0417938232421875, 1.49853515625, 1.40625, 10.0, 1.0, 10.0, 1.4565623998641968
54768, 6.179556846618652, -8.319269180297852, -3.510012149810791, 13.12366008758545, -11.114855766296387, -28.186920166015625, 5.922877788543701, -5.02158260345459, -1.6897650957107544, -0.8383825421333313, -0.9542436599731445, 0.05980590730905533, -0.16991349082943663, 0.185018988874873, -0.09707314583312308, 9362.0, 30146.0, 35388.0, 9362.0, 8.271075248718262, 0.07177118957042694, 0.14700385928153992, -0.05075956881046295, 0.014326648786664009, -0.056965701282024384, 0.9994964599609375, -0.031376756727695465, -0.1650371551513672, 1.482421875, 1.33447265625, 0.0186309814453125, 1.49560546875, 1.40625, 10.0, 1.0, 10.0, 1.4553197622299194
54778, 6.179104328155518, -8.319483757019043, -3.5102860927581787, 13.182955741882324, -11.165128707885742, -28.203826904296875, 5.93628454208374, -5.032957553863525, -1.6916024684906006, -0.8383852243423462, -0.9542456269264221, 0.05980716645717621, -0.16376179888189016, 0.1798037918376849, -0.10809253392537656, 9362.0, 30146.0, 35388.0, 9362.0, 8.271075248718262, -0.09103507548570633, -0.04904646798968315, -0.12382062524557114, 0.013714486733078957, -0.05693039298057556, 1.0001808404922485, -0.031376756727695465, -0.1650371551513672, 1.482421875, 1.253173828125, 0.15313720703125, 1.4970703125, 1.40625, 10.0, 1.0, 10.0, 1.4555718898773193
54788, 6.180468559265137, -8.318780899047852, -3.50748872756958, 13.242385864257812, -11.21551513671875, -28.22075080871582, 5.949732780456543, -5.044369697570801, -1.693130373954773, -0.8383980989456177, -0.9542418718338013, 0.05980667099356651, -0.16307778160700503, 0.18989105490288694, -0.11079522094689728, 9362.0, 30146.0, 35388.0, 9362.0, 8.271075248718262, 0.040265414863824844, 0.06892213225364685, 0.130354642868042, 0.014984756708145142, -0.05493098869919777, 0.9997787475585938, -0.031376756727695465, -0.1650371551513672, 1.482421875, 1.35205078125, 0.015380859375, 1.4970703125, 1.40625, 10.0, 1.0, 10.0, 1.4557629823684692
54798, 6.181271553039551, -8.319328308105469, -3.5074548721313477, 13.301950454711914, -11.266016006469727, -28.237689971923828, 5.963163375854492, -5.055765151977539, -1.6947826147079468, -0.8383480906486511, -0.9543133974075317, 0.05973172187805176, -0.10840925021375994, 0.14433870851343045, -0.09904736445367998, 9362.0, 30146.0, 35388.0, 9362.0, 8.271075248718262, 0.11720868945121765, 0.2563108801841736, -0.002251706086099148, 0.01615826226770878, -0.05660267174243927, 0.9975287914276123, -0.031376756727695465, -0.1650371551513672, 1.482421875, 1.288330078125, 0.0676116943359375, 1.493408203125, 1.494873046875, 10.0, 1.0, 10.0, 1.4558980464935303
54808, 6.181777477264404, -8.31886100769043, -3.508755922317505, 13.361649513244629, -11.316630363464355, -28.25464630126953, 5.976581573486328, -5.067153453826904, -1.6965265274047852, -0.8384128212928772, -0.9543544054031372, 0.05978475883603096, -0.061126259860540065, 0.1946276812358292, -0.015115768363733652, 9362.0, 30146.0, 35388.0, 9362.0, 8.271075248718262, -0.058491047471761703, -0.10220969468355179, -0.16789475083351135, 0.014362654648721218, -0.05739600211381912, 0.9980930685997009, -0.031376756727695465, -0.1650371551513672, 1.482421875, 1.537353515625, 0.27386474609375, 1.493408203125, 1.494873046875, 10.0, 1.0, 10.0, 1.4557737112045288
54818, 6.181087493896484, -8.320843696594238, -3.508369207382202, 13.42148208618164, -11.367359161376953, -28.27161979675293, 5.989989757537842, -5.0785346031188965, -1.6983435153961182, -0.8386530876159668, -0.9546030163764954, 0.060422785580158234, -0.49998422292166333, -0.15353371544898664, 0.5442186704130672, 9362.0, 30146.0, 35388.0, 9362.0, 8.271075248718262, -0.06231691688299179, 0.2543324828147888, -0.15439562499523163, 0.014848102815449238, -0.057219114154577255, 1.001016616821289, -0.031376756727695465, -0.1650371551513672, 1.482421875, 1.494873046875, 0.185455322265625, 1.5, 1.490478515625, 10.0, 1.0, 10.0, 1.4557075500488281
54828, 6.181327819824219, -8.321433067321777, -3.5105674266815186, 13.481449127197266, -11.418201446533203, -28.288612365722656, 6.003420352935791, -5.089935779571533, -1.6999882459640503, -0.838668167591095, -0.954778254032135, 0.06064870208501816, -0.3344592886026284, -0.25073547055202994, 0.41197797111644596, 9362.0, 30146.0, 35388.0, 9362.0, 8.271075248718262, 0.08854404836893082, 0.010638417676091194, -0.12279801815748215, 0.013593302108347416, -0.056767091155052185, 1.0001367330551147, -0.031376756727695465, -0.1650371551513672, 1.482421875, 1.465576171875, 0.130889892578125, 1.5, 1.490478515625, 10.0, 1.0, 10.0, 1.4554126262664795
54888, 6.1814775466918945, -8.316107749938965, -3.5136964321136475, 13.78330135345459, -11.674124717712402, -28.37380599975586, 6.070599555969238, -5.146962642669678, -1.708080768585205, -0.8342906832695007, -0.9550821781158447, 0.06031063199043274, -0.39705168333388674, -1.118079067225068, 0.8605241587952844, 9362.0, 30146.0, 35388.0, 9362.0, 8.290909767150879, 0.002848686883226037, -0.04662121459841728, -0.10678903758525848, 0.013621042482554913, -0.05668845772743225, 0.9997910261154175, -0.022618796676397324, -0.03959846496582031, 1.49267578125, 1.31396484375, 0.0325469970703125, 1.496337890625, 1.490478515625, 10.0, 1.0, 10.0, 1.4550126791000366
54908, 6.181647777557373, -8.31374740600586, -3.517568588256836, 13.966023445129395, -11.829047203063965, -28.42512321472168, 6.110872268676758, -5.181163787841797, -1.713070034980774, -0.8345045447349548, -0.9551501870155334, 0.06214528530836105, -0.6616725680878451, -2.2296119804099135, 0.6738419243856275, 9362.0, 30146.0, 35388.0, 9362.0, 8.290909767150879, -0.04478098452091217, -0.41441041231155396, -0.37982678413391113, 0.01409749686717987, -0.05453435331583023, 0.9980781078338623, -0.022618796676397324, -0.03959846496582031, 1.49267578125, 1.259033203125, 0.135589599609375, 1.49560546875, 1.490478515625, 10.0, 1.0, 10.0, 1.4550126791000366
54988, 6.182164192199707, -8.315559387207031, -3.523981809616089, 14.459184646606445, -12.247186660766602, -28.562713623046875, 6.218194484710693, -5.2723588943481445, -1.726466417312622, -0.8341880440711975, -0.947106122970581, 0.07667876034975052, 2.773301597262738, -0.8021507744624614, 30.937834155503268, 9362.0, 30146.0, 35388.0, 9362.0, 8.271075248718262, 0.09238387644290924, -0.12329170107841492, -0.18125499784946442, 0.013973253779113293, -0.05835996940732002, 0.9964520931243896, -0.022618796676397324, -0.03959846496582031, 1.49267578125, 1.36669921875, 0.01806640625, 1.493408203125, 1.490478515625, 10.0, 1.0, 10.0, 1.4536232948303223
54998, 6.182283401489258, -8.314831733703613, -3.525263547897339, 14.52143383026123, -12.299966812133789, -28.579988479614258, 6.231578826904297, -5.283731460571289, -1.7283731698989868, -0.84056556224823, -0.9457763433456421, 0.08386065810918808, 5.132374747655153, -1.4906881262150478, 40.417740049260985, 9362.0, 30146.0, 35388.0, 9362.0, 8.271075248718262, 0.04975349083542824, -0.07524269074201584, 0.11770455539226532, 0.013012745417654514, -0.058543696999549866, 1.000351071357727, -0.022618796676397324, -0.03959846496582031, 1.49267578125, 1.25537109375, 0.146392822265625, 1.493408203125, 1.490478515625, 10.0, 1.0, 10.0, 1.4536232948303223
55028, 0.0040943194180727005, 0.0034420988522469997, -0.006098345387727022, 14.52143383026123, -12.299966812133789, -28.579988479614258, 6.231578826904297, -5.283731460571289, -1.7283731698989868, -0.8425960540771484, -0.941565752029419, 0.10554958879947662, 6.830606662404732, -3.821424390147939, 28.958846350478478, 40516.0, 39508.0, 65535.0, 56172.0, 8.271075248718262, 0.06212805211544037, -0.005153806880116463, -0.2116350680589676, 0.013444875366985798, -0.05910022184252739, 0.9981713891029358, -0.022618796676397324, -0.03959846496582031, 1.49267578125, 1.56884765625, 0.3444366455078125, 1.494873046875, 1.490478515625, 10.0, 1.0, 10.0, 1.4540841579437256
55048, -0.012496715411543846, 0.1092725321650505, 1.0476356744766235, -7.606121243952657e-08, -1.082008367347953e-07, -1.3079552445560694e-05, -8.137469194480218e-06, -1.1321121746732388e-05, -0.0020677370484918356, -0.8498982787132263, -0.9373641610145569, 0.1270247846841812, 12.37827531697822, -2.2502400429510203, 43.69340794680902, 40516.0, 39508.0, 65535.0, 56172.0, 8.271075248718262, -5.357267379760742, -11.183465957641602, 67.59695434570312, -0.14815372228622437, 0.16104362905025482, 0.9486711621284485, -0.022618796676397324, -0.03959846496582031, 1.49267578125, 1.543212890625, 0.286834716796875, 1.63330078125, 1.490478515625, 10.0, 1.0, 10.0, 1.4543719291687012
55218, -0.3055992126464844, -0.8895156979560852, -1.2371388673782349, -0.8380730748176575, -0.9541110396385193, 0.06113019958138466, 0.024187389761209488, 0.003883152501657605, -0.032484278082847595, -0.7828071117401123, -0.971687912940979, 0.2602843642234802, 7.754903179046399, -9.006778787495563, 55.13429900487973, 48207.0, 28608.0, 59974.0, 47134.0, 8.191736221313477, 14.85824203491211, -60.23579406738281, -66.61174774169922, 0.8999938368797302, 0.22974638640880585, 1.0577305555343628, 0.29997435212135315, 0.5696792602539062, 1.54248046875, 1.60107421875, 0.4197540283203125, 1.68603515625, 1.490478515625, 10.0, 1.0, 10.0, 1.4565210342407227
55388, 9.903993606567383, -6.275675296783447, 31.874784469604492, -0.8297209143638611, -0.9572021961212158, 0.10776153206825256, 0.10876694321632385, -0.09028145670890808, 0.5381031632423401, -0.6567935347557068, -0.9661357402801514, 0.4036707580089569, 1.9866075844374316, -5.1143545413670495, 77.63096183959723, 40222.0, 33989.0, 65535.0, 46598.0, 7.755372524261475, -43.89824295043945, 169.35342407226562, -536.2648315429688, 0.1099720373749733, -0.949000895023346, 0.6464771628379822, 0.29997435212135315, 0.5696792602539062, 1.54248046875, 1.68603515625, 0.6308135986328125, 1.672119140625, 1.490478515625, 10.0, 1.0, 10.0, 1.4563275575637817
55748, -2.9158339500427246, -5.020512104034424, 78.25482177734375, -0.6850633025169373, -0.9727709293365479, 0.38520607352256775, 0.6133477091789246, 0.04584990814328194, 0.8561394810676575, -0.5812700390815735, -0.8861982822418213, 0.7028064131736755, -11.07687249953627, -7.306302094534743, 131.24682215939214, 40318.0, 31986.0, 65535.0, 40776.0, 7.874380588531494, -113.50908660888672, 54.49522399902344, 678.314453125, -0.19257529079914093, -0.01729707233607769, 0.5763392448425293, 1.6099401712417603, 1.9674320220947266, 1.65673828125, 1.446533203125, 0.09930419921875, 1.5791015625, 1.490478515625, 10.0, 1.0, 10.0, 1.472743272781372
