timeTick, roll, pitch, yaw, stateX, stateY, stateZ, stateVX, stateVY, stateVZ, otX0, otY0, otZ0, otRoll0, otPitch0, otYaw0, left wing, pitch motor, yaw motor, right wing, voltage, roll rate, pitch rate, yaw rate, A_x, A_y, A_z, current, i_raw, v_raw, airflow_voltage, airflow_speed, pot_Pitch, voltage_nKF, kFFx, state_vel, State_vel, volt_KF_vel
35919, 4.546456336975098, -6.055226802825928, 1.647884726524353, 0, 0, 0, 0, 0, 0, -0.8280501365661621, -0.9597585797309875, 0.05598191171884537, -0.356922242752447, -0.17225873357790533, -0.3109324362290319, 0, 0, 0, 0, 0, 0, 0, 0, 0, 0, 0, 0, 0, 0, 0, 0, 0, 0, 0, 0, 0, 0
35929, 4.546858310699463, -6.055759906768799, 1.6512765884399414, -0.00023017141211312264, 0.0001635325897950679, -3.519225597381592, -0.001002649893052876, 0.0007148070144467056, -0.20549729466438293, -0.8280768394470215, -0.9597806930541992, 0.05595783144235611, -0.3324800888094495, -0.1749901961538285, -0.3080467150567189, 9362.0, 30146.0, 35388.0, 9362.0, 0, -0.2397734522819519, 0.31314942240715027, -0.04088238254189491, 0.005795392207801342, -0.05174746364355087, 0.9976979494094849, 0, 0, 0, 0, 0, 0, 0, 0, 0, 0, 0
35939, 4.545254230499268, -6.057826042175293, 1.649861216545105, -0.00018754455959424376, 0.0001333149994025007, -3.521285057067871, 0.00952844601124525, -0.006757701281458139, -0.20639213919639587, -0.8280791640281677, -0.9597017168998718, 0.05599741265177727, -0.3628850993659031, -0.2133178997098355, -0.35641663618988373, 9362.0, 30146.0, 35388.0, 9362.0, 0, -0.2810322046279907, -0.040159620344638824, 0.10926952213048935, 0.005260962527245283, -0.05529129505157471, 0.9982701539993286, 0, 0, 0, 1.4794921875, 0.155975341796875, 0, 1.450927734375, 10.0, 1.0, 10.0, 1.3736404180526733
35949, 4.545199871063232, -6.059293746948242, 1.6528894901275635, -3.968608507420868e-05, 2.84333000308834e-05, -3.5233542919158936, 0.02004305273294449, -0.014218899421393871, -0.2074461728334427, -0.8280528783798218, -0.9597935080528259, 0.055963706225156784, -0.32962611152309074, -0.17005910792462942, -0.3094565007959722, 9362.0, 30146.0, 35388.0, 9362.0, 0, 0.05166880786418915, 0.37479105591773987, 0.16667044162750244, 0.005547538865357637, -0.055910639464855194, 0.9979541897773743, 0, 0, 0, 1.37109375, 0.0197906494140625, 1.493408203125, 1.482421875, 10.0, 1.0, 10.0, 1.3739213943481445
35959, 4.545600414276123, -6.0612077713012695, 1.654911756515503, 0.00021335271594580263, -0.00015106028877198696, -3.5254337787628174, 0.03056507557630539, -0.021679265424609184, -0.20846720039844513, -0.8280573487281799, -0.9597584009170532, 0.055956169962882996, -0.35583945072253276, -0.16707142051200208, -0.31045959575006277, 9362.0, 30146.0, 35388.0, 9362.0, 0, 0.10931678861379623, 0.06145382672548294, 0.10515178740024567, 0.005801583174616098, -0.056439731270074844, 0.9995650053024292, 0, 0, 0, 1.1337890625, 0.890838623046875, 1.493408203125, 1.12646484375, 10.0, 1.0, 10.0, 1.3738662004470825
35969, 4.546549320220947, -6.062382698059082, 1.656145453453064, 0.0005716037703678012, -0.00040513803833164275, -3.5275237560272217, 0.04108535125851631, -0.029135921970009804, -0.2095300406217575, -0.8280631899833679, -0.9597845673561096, 0.05593910440802574, -0.3241766345633624, -0.16265008443227202, -0.30265426026047976, 9362.0, 30146.0, 35388.0, 9362.0, 0, -0.10334116220474243, 0.12286270409822464, 0.053146764636039734, 0.004859566688537598, -0.055191170424222946, 0.9998766183853149, 0, 0, 0, 1.242919921875, 0.1873626708984375, 1.494140625, 0.859130859375, 10.0, 1.0, 10.0, 1.3732237815856934
35979, 4.545230865478516, -6.062831878662109, 1.6559844017028809, 0.0010351657401770353, -0.0007338476134464145, -3.529623508453369, 0.05162717029452324, -0.03660576790571213, -0.21042615175247192, -0.828060507774353, -0.9597125053405762, 0.05598381906747818, -0.36090581648163617, -0.21945771524880797, -0.3552539094954327, 9362.0, 30146.0, 35388.0, 9362.0, 0, -0.056048523634672165, -0.09486553817987442, 0.002011488890275359, 0.00606965459883213, -0.0551886223256588, 0.9975377917289734, 0, 0, 0, 1.383544921875, 0.026611328125, 1.494140625, 0.984375, 10.0, 1.0, 10.0, 1.3729487657546997
35989, 4.545004367828369, -6.061814308166504, 1.6569242477416992, 0.0016041730996221304, -0.0011372738517820835, -3.5317320823669434, 0.06217430159449577, -0.04407952353358269, -0.21129202842712402, -0.8280823230743408, -0.9596972465515137, 0.05599307268857956, -0.37408071638695983, -0.19514223866983116, -0.3507125461280201, 9362.0, 30146.0, 35388.0, 9362.0, 0, -0.06290202587842941, 0.0002352565061300993, -0.067866750061512, 0.006628819741308689, -0.056167252361774445, 0.9987887144088745, 0, 0, 0, 1.08837890625, 1.4176025390625, 1.487548828125, 1.5908203125, 10.0, 1.0, 10.0, 1.3728851079940796
35999, 4.544051647186279, -6.062696933746338, 1.6564998626708984, 0.0022785491310060024, -0.0016153511824086308, -3.5338504314422607, 0.07270102202892303, -0.051535774022340775, -0.2123536765575409, -0.8280751705169678, -0.9599031805992126, 0.05580796301364899, -0.22799798528430992, -0.23292580754488768, -0.3408548612245931, 9362.0, 30146.0, 35388.0, 9362.0, 0, -0.010227715596556664, -0.005058986134827137, 0.10875549912452698, 0.008902246132493019, -0.058777619153261185, 1.0002254247665405, 0, 0, 0, 1.0546875, 1.9222412109375, 1.487548828125, 1.568115234375, 10.0, 1.0, 10.0, 1.3721394538879395
36009, 4.544229984283447, -6.0628557205200195, 1.6575572490692139, 0.003058232134208083, -0.0021680225618183613, -3.5359787940979004, 0.08323551714420319, -0.058998554944992065, -0.21332688629627228, -0.8280696868896484, -0.9597057700157166, 0.05596359074115753, -0.3635394977959028, -0.21416780439253102, -0.3481711972453503, 9362.0, 30146.0, 35388.0, 9362.0, 0, 0.12423816323280334, 0.3068127930164337, -0.10791713744401932, 0.005761789623647928, -0.055255696177482605, 0.9987569451332092, 0, 0, 0, 1.17626953125, 0.534088134765625, 1.4912109375, 0.945556640625, 10.0, 1.0, 10.0, 1.370989203453064
36019, 4.545437812805176, -6.063862323760986, 1.6568926572799683, 0.003943331073969603, -0.002795359119772911, -3.538116455078125, 0.09378443658351898, -0.06646855175495148, -0.2141820639371872, -0.8280458450317383, -0.9597949385643005, 0.05593918636441231, -0.32007310030866687, -0.16069120892800015, -0.295874719144653, 9362.0, 30146.0, 35388.0, 9362.0, 8.390083312988281, -0.06789066642522812, 0.10297992825508118, 0.09464553743600845, 0.0052251024171710014, -0.05304870009422302, 1.0007109642028809, -0.07441297918558121, -0.1739978790283203, 1.481689453125, 1.29638671875, 0.0542755126953125, 1.4912109375, 1.02392578125, 10.0, 1.0, 10.0, 1.3708901405334473
36029, 4.545208930969238, -6.065204620361328, 1.6570783853530884, 0.004933862015604973, -0.0034973539877682924, -3.5402631759643555, 0.10432159900665283, -0.0739305391907692, -0.2151474952697754, -0.8280525803565979, -0.9597777128219604, 0.05595027282834053, -0.3350925644308717, -0.16578754487835567, -0.29577768192127785, 9362.0, 30146.0, 35388.0, 9362.0, 8.390083312988281, 0.08363551646471024, 0.050971563905477524, 0.10327388346195221, 0.007336660288274288, -0.05525265634059906, 1.001503586769104, -0.07441297918558121, -0.1739978790283203, 1.481689453125, 1.289794921875, 0.065032958984375, 1.489013671875, 0.898681640625, 10.0, 1.0, 10.0, 1.3710318803787231
36039, 4.54504919052124, -6.065803527832031, 1.6585414409637451, 0.0060298559255898, -0.004274038132280111, -3.5424187183380127, 0.11487720161676407, -0.08140631020069122, -0.21595948934555054, -0.828065812587738, -0.9596953392028809, 0.05601897090673447, -0.3760637911867306, -0.20019860804424638, -0.36142077922941146, 9362.0, 30146.0, 35388.0, 9362.0, 8.390083312988281, 0.06439846754074097, 0.2223319113254547, 0.045465171337127686, 0.00858097430318594, -0.05594170093536377, 0.9995793104171753, -0.07441297918558121, -0.1739978790283203, 1.481689453125, 1.35498046875, 0.01556396484375, 1.489013671875, 1.1484375, 10.0, 1.0, 10.0, 1.3717929124832153
36049, 4.544851303100586, -6.066771984100342, 1.6590508222579956, 0.007231468800455332, -0.005125514231622219, -3.544581890106201, 0.12544552981853485, -0.08888860046863556, -0.21667692065238953, -0.8280690908432007, -0.9597070217132568, 0.05598484352231026, -0.3571859440591959, -0.19972283591113182, -0.35250513458357685, 9362.0, 30146.0, 35388.0, 9362.0, 8.390083312988281, 0.07535430043935776, -0.09549282491207123, 0.025740288197994232, 0.00792443472892046, -0.05392037332057953, 0.9971457123756409, -0.07441297918558121, -0.1739978790283203, 1.481689453125, 1.546875, 0.2949676513671875, 1.48681640625, 1.4853515625, 10.0, 1.0, 10.0, 1.3723665475845337
36059, 4.544561386108398, -6.065627098083496, 1.6591758728027344, 0.008538667112588882, -0.006051736883819103, -3.546753168106079, 0.13599425554275513, -0.0963558480143547, -0.2175852209329605, -0.8280704021453857, -0.9598119258880615, 0.055943563580513, -0.31899472646600385, -0.14469681677624635, -0.3017360919647884, 9362.0, 30146.0, 35388.0, 9362.0, 8.390083312988281, 0.029785478487610817, 0.10355351120233536, 0.23774953186511993, 0.006534232757985592, -0.053106267005205154, 0.9986216425895691, -0.07441297918558121, -0.1739978790283203, 1.481689453125, 1.442138671875, 0.0926361083984375, 1.48681640625, 1.05615234375, 10.0, 1.0, 10.0, 1.3728851079940796
36069, 4.5441203117370605, -6.0656514167785645, 1.660942554473877, 0.009951258078217506, -0.007052556611597538, -3.5489344596862793, 0.14652399718761444, -0.10380806773900986, -0.21868360042572021, -0.8272718787193298, -0.9604223966598511, 0.05429421737790108, -0.23246005338516235, -0.871808565306111, -0.3965321482218832, 9362.0, 30146.0, 35388.0, 9362.0, 8.390083312988281, 0.06198974326252937, 0.23078753054141998, 0.06155022233724594, 0.0071523915976285934, -0.054508186876773834, 0.9987397789955139, -0.07441297918558121, -0.1739978790283203, 1.481689453125, 1.5087890625, 0.21337890625, 1.48828125, 1.36083984375, 10.0, 1.0, 10.0, 1.3734437227249146
36079, 4.545467376708984, -6.0674848556518555, 1.6627579927444458, 0.011469186283648014, -0.008127931505441666, -3.55112624168396, 0.1570618748664856, -0.11126651614904404, -0.21969102323055267, -0.8280717134475708, -0.9599209427833557, 0.05579853802919388, -0.20459247453456533, -0.24459169582235063, -0.3492764334614168, 9362.0, 30146.0, 35388.0, 9362.0, 8.390083312988281, 0.06660091131925583, 0.42216622829437256, 0.12138064205646515, 0.006572899408638477, -0.05387292057275772, 1.0002620220184326, -0.07441297918558121, -0.1739978790283203, 1.481689453125, 1.015869140625, 2.6421966552734375, 1.48828125, 1.5, 10.0, 1.0, 10.0, 1.3726106882095337
36089, 4.54658317565918, -6.069742679595947, 1.6645058393478394, 0.013092514127492905, -0.00927789881825447, -3.553328037261963, 0.16760390996932983, -0.11872667074203491, -0.2206626832485199, -0.8280662894248962, -0.9597528576850891, 0.05597386509180069, -0.34413051416731383, -0.1660460263241248, -0.31486099069190826, 9362.0, 30146.0, 35388.0, 9362.0, 8.390083312988281, 0.027818625792860985, 0.046350736171007156, 0.016193481162190437, 0.005505192559212446, -0.052873656153678894, 0.9999873042106628, -0.07441297918558121, -0.1739978790283203, 1.481689453125, 1.12646484375, 0.9649200439453125, 1.48974609375, 1.271484375, 10.0, 1.0, 10.0, 1.3731770515441895
36099, 4.5469255447387695, -6.069947242736816, 1.6653889417648315, 0.01482134684920311, -0.010502524673938751, -3.5555388927459717, 0.17816279828548431, -0.12619823217391968, -0.22151093184947968, -0.8280526995658875, -0.9599267840385437, 0.05580870807170868, -0.19397541002545843, -0.24194673413535384, -0.33516153188134323, 9362.0, 30146.0, 35388.0, 9362.0, 8.390083312988281, 0.2016448825597763, -0.09870149195194244, -0.14815500378608704, 0.005212130956351757, -0.0559249147772789, 0.9999073147773743, -0.07441297918558121, -0.1739978790283203, 1.481689453125, 1.285400390625, 0.0730438232421875, 1.48974609375, 1.365966796875, 10.0, 1.0, 10.0, 1.3735474348068237
36109, 4.547289848327637, -6.0682220458984375, 1.6634067296981812, 0.016655782237648964, -0.011801869608461857, -3.557758331298828, 0.18872451782226562, -0.13367058336734772, -0.2223699390888214, -0.828055739402771, -0.9596765041351318, 0.05600789934396744, -0.3767385677549701, -0.21316251332848424, -0.35019133590815454, 9362.0, 30146.0, 35388.0, 9362.0, 8.390083312988281, -0.000543216010555625, -0.039701443165540695, 0.11766690760850906, 0.0061456975527107716, -0.05423333868384361, 0.9983675479888916, -0.07441297918558121, -0.1739978790283203, 1.481689453125, 1.37109375, 0.0197906494140625, 1.48828125, 1.271484375, 10.0, 1.0, 10.0, 1.3741039037704468
36119, 4.5463032722473145, -6.068844318389893, 1.6658309698104858, 0.018595822155475616, -0.01317592803388834, -3.5599865913391113, 0.19928307831287384, -0.14114154875278473, -0.22325922548770905, -0.8280594944953918, -0.95976322889328, 0.055978525429964066, -0.3436042995374543, -0.1611659997601862, -0.30519171603484657, 9362.0, 30146.0, 35388.0, 9362.0, 8.390083312988281, 0.002926122397184372, -0.02028767205774784, 0.054267629981040955, 0.007668859791010618, -0.05467167869210243, 0.9983694553375244, -0.06818518787622452, 0.0052013397216796875, 1.496337890625, 1.576904296875, 0.36309814453125, 1.48828125, 0.989501953125, 10.0, 1.0, 10.0, 1.3726352453231812
36129, 4.546584129333496, -6.069650650024414, 1.665274739265442, 0.020641354843974113, -0.014624647796154022, -3.5622243881225586, 0.2098238170146942, -0.14860203862190247, -0.22428838908672333, -0.8280340433120728, -0.9597774147987366, 0.055964887142181396, -0.3352521246452085, -0.19456277066259986, -0.2987149894298906, 9362.0, 30146.0, 35388.0, 9362.0, 8.390083312988281, 0.08446148782968521, 0.0672917440533638, 0.15128707885742188, 0.007502102758735418, -0.05532152205705643, 0.9994853138923645, -0.06818518787622452, 0.0052013397216796875, 1.496337890625, 1.17333984375, 0.554962158203125, 1.486083984375, 1.578369140625, 10.0, 1.0, 10.0, 1.3723552227020264
36139, 4.546253681182861, -6.069225311279297, 1.6647342443466187, 0.02279232069849968, -0.016147974878549576, -3.564472198486328, 0.22036908566951752, -0.15606340765953064, -0.22528456151485443, -0.8272824883460999, -0.9604249000549316, 0.05427885428071022, -0.22654952506027148, -0.8630249284544789, -0.40120849665228725, 9362.0, 30146.0, 35388.0, 9362.0, 8.390083312988281, 0.2515285015106201, -0.1079893559217453, 0.026249635964632034, 0.007937796413898468, -0.052523378282785416, 0.9985296130180359, -0.06818518787622452, 0.0052013397216796875, 1.496337890625, 1.32421875, 0.024139404296875, 1.486083984375, 1.576171875, 10.0, 1.0, 10.0, 1.37299644947052
36149, 4.546863555908203, -6.067376136779785, 1.6646952629089355, 0.025048790499567986, -0.01774595119059086, -3.5667295455932617, 0.23092488944530487, -0.1635318547487259, -0.22619597613811493, -0.828046441078186, -0.9597619771957397, 0.05594277381896973, -0.34398469510354956, -0.1833060639888231, -0.309229133179184, 9362.0, 30146.0, 35388.0, 9362.0, 8.390083312988281, 0.021977802738547325, 0.04253440722823143, 0.1693265736103058, 0.0059618172235786915, -0.054355181753635406, 0.9996759295463562, -0.06818518787622452, 0.0052013397216796875, 1.496337890625, 1.07666015625, 1.58135986328125, 1.48681640625, 1.436279296875, 10.0, 1.0, 10.0, 1.3735824823379517
36159, 4.547159194946289, -6.066678047180176, 1.6662770509719849, 0.027410775423049927, -0.019418582320213318, -3.5689964294433594, 0.24147236347198486, -0.17099438607692719, -0.2271772027015686, -0.8280604481697083, -0.9597708582878113, 0.05594686046242714, -0.33608032444110686, -0.1696968916608057, -0.3133251047164071, 9362.0, 30146.0, 35388.0, 9362.0, 8.390083312988281, -0.012388261035084724, -0.31868475675582886, 0.09834698587656021, 0.00689115934073925, -0.056763678789138794, 1.0003561973571777, -0.06818518787622452, 0.0052013397216796875, 1.496337890625, 1.52490234375, 0.247039794921875, 1.48681640625, 1.212890625, 10.0, 1.0, 10.0, 1.3742337226867676
36169, 4.547377109527588, -6.065185546875, 1.6671377420425415, 0.029878268018364906, -0.0211658775806427, -3.571272611618042, 0.25202634930610657, -0.17846442759037018, -0.22807157039642334, -0.8280736804008484, -0.9597796201705933, 0.055952757596969604, -0.33632430060160773, -0.157292308892238, -0.30310330633598837, 9362.0, 30146.0, 35388.0, 9362.0, 8.390083312988281, -0.06308330595493317, -0.23392851650714874, -0.04064081236720085, 0.006175051908940077, -0.05522514134645462, 0.9999724626541138, -0.06818518787622452, 0.0052013397216796875, 1.496337890625, 1.490478515625, 0.1768646240234375, 1.49267578125, 1.24658203125, 10.0, 1.0, 10.0, 1.372887134552002
36179, 4.54691743850708, -6.062691688537598, 1.6663378477096558, 0.032451339066028595, -0.022987905889749527, -3.5735573768615723, 0.26258811354637146, -0.18594112992286682, -0.22888365387916565, -0.8280710577964783, -0.9598899483680725, 0.05581407994031906, -0.21800990686382504, -0.24861205344652149, -0.34784268812066393, 9362.0, 30146.0, 35388.0, 9362.0, 8.390083312988281, 0.006758920848369598, -0.19086220860481262, 0.00379908992908895, 0.00474815908819437, -0.05585290491580963, 1.0000969171524048, -0.06818518787622452, 0.0052013397216796875, 1.496337890625, 1.499267578125, 0.1941070556640625, 1.49267578125, 1.25244140625, 10.0, 1.0, 10.0, 1.373031735420227
36189, 4.546226501464844, -6.060635089874268, 1.6667054891586304, 0.035130005329847336, -0.024884695187211037, -3.575850486755371, 0.2731451392173767, -0.19341689348220825, -0.22971540689468384, -0.8280701041221619, -0.9597580432891846, 0.055949367582798004, -0.35384513981013865, -0.14711328185737216, -0.29816946406047873, 9362.0, 30146.0, 35388.0, 9362.0, 8.390083312988281, -0.05146806687116623, 0.07011708617210388, -0.17310817539691925, 0.006039266474545002, -0.057448241859674454, 1.002258062362671, -0.06818518787622452, 0.0052013397216796875, 1.496337890625, 1.56005859375, 0.324493408203125, 1.489013671875, 1.540283203125, 10.0, 1.0, 10.0, 1.3722186088562012
36199, 4.545687198638916, -6.061978816986084, 1.6664472818374634, 0.037914227694272995, -0.02685624547302723, -3.5781517028808594, 0.2836998403072357, -0.20089322328567505, -0.2305299937725067, -0.8280661702156067, -0.959705114364624, 0.05601022392511368, -0.36645154955267883, -0.20946714114521114, -0.35236259408642223, 9362.0, 30146.0, 35388.0, 9362.0, 8.390083312988281, -0.11635462939739227, 0.09187500923871994, -0.020885979756712914, 0.004874587524682283, -0.05773811787366867, 1.0003561973571777, -0.06818518787622452, 0.0052013397216796875, 1.496337890625, 1.053955078125, 1.93438720703125, 1.489013671875, 1.471435546875, 10.0, 1.0, 10.0, 1.372622013092041
36209, 4.545384407043457, -6.064239501953125, 1.6677263975143433, 0.04080406203866005, -0.028902612626552582, -3.5804603099823, 0.29426711797714233, -0.20838004350662231, -0.23119448125362396, -0.8280864953994751, -0.9598471522331238, 0.0558401457965374, -0.23438801015537936, -0.26541753987280003, -0.3834894133965376, 9362.0, 30146.0, 35388.0, 9362.0, 8.390083312988281, -0.14983347058296204, 0.3995108902454376, 0.07939545810222626, 0.004537615459412336, -0.056315429508686066, 0.9992548823356628, -0.06818518787622452, 0.0052013397216796875, 1.496337890625, 0.98876953125, 3.2432861328125, 1.48974609375, 1.503662109375, 10.0, 1.0, 10.0, 1.373236894607544
36219, 4.54491662979126, -6.066484451293945, 1.6686758995056152, 0.04379948973655701, -0.031023776158690453, -3.5827765464782715, 0.304818332195282, -0.2158524990081787, -0.23203010857105255, -0.8280696272850037, -0.9597901701927185, 0.05596882104873657, -0.32835778047409353, -0.1630930982020118, -0.31858122220999174, 9362.0, 30146.0, 35388.0, 9362.0, 8.390083312988281, -0.165858656167984, 0.2569209337234497, 0.20031817257404327, 0.00540228420868516, -0.052894290536642075, 0.9996761083602905, -0.06916641443967819, -0.09335899353027344, 1.48828125, 1.5732421875, 0.354736328125, 1.48974609375, 0.861328125, 10.0, 1.0, 10.0, 1.3736672401428223
36229, 4.543977737426758, -6.067541599273682, 1.6707165241241455, 0.04690039902925491, -0.03321962431073189, -3.58510160446167, 0.3153633773326874, -0.22331705689430237, -0.23295944929122925, -0.8280852437019348, -0.9598188996315002, 0.055852387100458145, -0.2548699423362827, -0.2739346754641474, -0.38606034685362667, 9362.0, 30146.0, 35388.0, 9362.0, 8.390083312988281, 0.02949594333767891, -0.07409109175205231, -0.17003515362739563, 0.0075101726688444614, -0.05420834943652153, 0.9966405034065247, -0.06916641443967819, -0.09335899353027344, 1.48828125, 1.23046875, 0.235137939453125, 1.494873046875, 0.917724609375, 10.0, 1.0, 10.0, 1.3734787702560425
36239, 4.543495178222656, -6.067485332489014, 1.6700248718261719, 0.05010678246617317, -0.035490117967128754, -3.587435722351074, 0.3259134590625763, -0.23078098893165588, -0.23387998342514038, -0.828056275844574, -0.9599295258522034, 0.05583514645695686, -0.19666893400363353, -0.23280393703709024, -0.33000802424737496, 9362.0, 30146.0, 35388.0, 9362.0, 8.390083312988281, -0.3040892481803894, -0.2547086179256439, -0.059460949152708054, 0.0066925459541380405, -0.05649334564805031, 0.997940719127655, -0.06916641443967819, -0.09335899353027344, 1.48828125, 1.1044921875, 1.2117767333984375, 1.494873046875, 1.569580078125, 10.0, 1.0, 10.0, 1.3741326332092285
36249, 4.541985988616943, -6.067440032958984, 1.6702319383621216, 0.05341854691505432, -0.037835147231817245, -3.589780330657959, 0.3364393413066864, -0.2382250726222992, -0.2350381314754486, -0.828086256980896, -0.9596969485282898, 0.05600220337510109, -0.3672083409472209, -0.1877595138867889, -0.34482598247912183, 9362.0, 30146.0, 35388.0, 9362.0, 8.390083312988281, -0.23761729896068573, 0.26101773977279663, 0.23222754895687103, 0.0064507219940423965, -0.05564821884036064, 0.9997021555900574, -0.06916641443967819, -0.09335899353027344, 1.48828125, 0.90234375, 5.7968292236328125, 1.48828125, 1.402587890625, 10.0, 1.0, 10.0, 1.3746271133422852
36269, 4.541872978210449, -6.070946216583252, 1.6699738502502441, 0.056835636496543884, -0.040254659950733185, -3.5921359062194824, 0.34697845578193665, -0.24567770957946777, -0.23607482016086578, -0.8280839323997498, -0.9597076773643494, 0.05598453804850578, -0.36822690238982203, -0.19765919924893183, -0.34830159509863595, 9362.0, 30146.0, 35388.0, 9362.0, 8.390083312988281, 0.09920861572027206, 0.08188071101903915, 0.050334397703409195, 0.005913307890295982, -0.05394011363387108, 0.9990711212158203, -0.06916641443967819, -0.09335899353027344, 1.48828125, 1.29931640625, 0.0500640869140625, 1.4912109375, 1.587158203125, 10.0, 1.0, 10.0, 1.3746271133422852
36279, 4.541913032531738, -6.071878910064697, 1.6718438863754272, 0.056835636496543884, -0.040254659950733185, -3.5921359062194824, 0.34697845578193665, -0.24567770957946777, -0.23607482016086578, -0.8280704617500305, -0.959772527217865, 0.05595122277736664, -0.3311925241850917, -0.15899684997694408, -0.3068421389674136, 9362.0, 30146.0, 35388.0, 9362.0, 8.390083312988281, 0.07805618643760681, -0.19511887431144714, 0.11601332575082779, 0.005913307890295982, -0.05394011363387108, 0.9990711212158203, -0.06916641443967819, -0.09335899353027344, 1.48828125, 1.03271484375, 2.3103179931640625, 1.4912109375, 1.5673828125, 10.0, 1.0, 10.0, 1.3746271133422852
36289, 4.542386531829834, -6.071635723114014, 1.6723146438598633, 0.056835636496543884, -0.040254659950733185, -3.5921359062194824, 0.34697845578193665, -0.24567770957946777, -0.23607482016086578, -0.8280507326126099, -0.9596434235572815, 0.05601534992456436, -0.3994900176632432, -0.22636728885115076, -0.3476688610262604, 9362.0, 30146.0, 35388.0, 9362.0, 8.390083312988281, -2.4887698600650765e-05, 0.15222740173339844, 0.05426079034805298, 0.008371821604669094, -0.0564633272588253, 0.9989338517189026, -0.06916641443967819, -0.09335899353027344, 1.48828125, 0.990234375, 3.2086029052734375, 1.4912109375, 1.38134765625, 10.0, 1.0, 10.0, 1.3746271133422852
36299, 4.54235315322876, -6.072718620300293, 1.6734362840652466, 0.07155898213386536, -0.050678323954343796, -3.601654291152954, 0.38917627930641174, -0.2754920423030853, -0.2400122880935669, -0.8280789256095886, -0.9598599076271057, 0.05584384500980377, -0.21955324795051862, -0.27690836821994935, -0.3882547039082417, 9362.0, 30146.0, 35388.0, 9362.0, 8.390083312988281, -0.04549573361873627, -0.37892842292785645, -0.06705277413129807, 0.0068368203938007355, -0.05528560280799866, 0.9992095232009888, -0.06916641443967819, -0.09335899353027344, 1.48828125, 0.990234375, 3.2086029052734375, 1.4912109375, 1.38134765625, 10.0, 1.0, 10.0, 1.3746271133422852
36329, 4.543826580047607, -6.067016124725342, 1.6741342544555664, 0.07955364137887955, -0.056337300688028336, -3.606473445892334, 0.4102906584739685, -0.290405809879303, -0.24190543591976166, -0.8280544877052307, -0.9598104953765869, 0.0559345968067646, -0.30908319006907486, -0.1592170209674748, -0.30295882561909915, 9362.0, 30146.0, 35388.0, 9362.0, 8.390083312988281, 0.09153303503990173, -0.30270180106163025, -0.017868615686893463, 0.007526061963289976, -0.0560457818210125, 0.9966859221458435, -0.08629723638296127, -0.12023735046386719, 1.486083984375, 1.225341796875, 0.25689697265625, 1.4912109375, 1.59814453125, 10.0, 1.0, 10.0, 1.3746271133422852
36339, 4.54387903213501, -6.065616130828857, 1.6737017631530762, 0.07955364137887955, -0.056337300688028336, -3.606473445892334, 0.4102906584739685, -0.290405809879303, -0.24190543591976166, -0.8280658721923828, -0.9597039222717285, 0.05600631609559059, -0.3678485189281419, -0.2027364856949987, -0.35432267809524387, 9362.0, 30146.0, 35388.0, 9362.0, 8.390083312988281, -0.17279896140098572, 0.06918883323669434, -0.009777890518307686, 0.005724083632230759, -0.05802908167243004, 0.9999125599861145, -0.08629723638296127, -0.12023735046386719, 1.486083984375, 0.9228515625, 5.0947113037109375, 1.4912109375, 1.396728515625, 10.0, 1.0, 10.0, 1.3746271133422852
36369, 4.542666912078857, -6.063867568969727, 1.67158842086792, 0.0968078076839447, -0.06854895502328873, -3.6162407398223877, 0.4524311125278473, -0.3201949894428253, -0.2462601661682129, -0.828088641166687, -0.959804356098175, 0.05586754530668259, -0.24854886397210446, -0.2796585185209324, -0.3882852010069443, 9362.0, 30146.0, 35388.0, 9362.0, 8.390083312988281, 0.023613393306732178, -0.1555933952331543, 0.0893668532371521, 0.007514531724154949, -0.05741913989186287, 0.9975613355636597, -0.08629723638296127, -0.12023735046386719, 1.486083984375, 1.27294921875, 0.099334716796875, 1.49267578125, 1.396728515625, 10.0, 1.0, 10.0, 1.3746271133422852
36379, 4.54252290725708, -6.063961982727051, 1.671472430229187, 0.0968078076839447, -0.06854895502328873, -3.6162407398223877, 0.4524311125278473, -0.3201949894428253, -0.2462601661682129, -0.8280527591705322, -0.9599190950393677, 0.055821992456912994, -0.19981622004687505, -0.23460170870885122, -0.33858368286619805, 9362.0, 30146.0, 35388.0, 9362.0, 8.390083312988281, 0.007016797084361315, -0.35766369104385376, -0.41057586669921875, 0.00685458816587925, -0.05468113720417023, 1.0003024339675903, -0.08629723638296127, -0.12023735046386719, 1.486083984375, 1.276611328125, 0.0910186767578125, 1.49267578125, 1.60107421875, 10.0, 1.0, 10.0, 1.3746271133422852
36399, 4.541935920715332, -6.060842990875244, 1.6673043966293335, 0.0968078076839447, -0.06854895502328873, -3.6162407398223877, 0.4524311125278473, -0.3201949894428253, -0.2462601661682129, -0.828054666519165, -0.9596865177154541, 0.055985916405916214, -0.3589512302964623, -0.21957609629942, -0.35146087994631225, 9362.0, 30146.0, 35388.0, 9362.0, 8.390083312988281, 0.07903095334768295, -0.022134553641080856, -0.1509120911359787, 0.005770297255367041, -0.05393826588988304, 0.9987013936042786, -0.08629723638296127, -0.12023735046386719, 1.486083984375, 1.1865234375, 0.4651947021484375, 1.49267578125, 1.60107421875, 10.0, 1.0, 10.0, 1.3746271133422852
36429, 4.5416693687438965, -6.059597492218018, 1.6663998365402222, 0.0968078076839447, -0.06854895502328873, -3.6162407398223877, 0.4524311125278473, -0.3201949894428253, -0.2462601661682129, -0.8280724883079529, -0.9599108099937439, 0.05582297220826149, -0.21013608611029494, -0.23111837219332187, -0.3397468366952396, 9362.0, 30146.0, 35388.0, 9362.0, 8.390083312988281, -0.19876672327518463, -0.027051597833633423, 0.08266640454530716, 0.007137184031307697, -0.05564315617084503, 0.9995805621147156, -0.06688898801803589, -0.11127853393554688, 1.48681640625, 1.261962890625, 0.127288818359375, 1.4912109375, 1.562255859375, 10.0, 1.0, 10.0, 1.3746271133422852
36439, 4.5407209396362305, -6.059000015258789, 1.666337013244629, 0.1363731175661087, -0.09654927253723145, -3.6362690925598145, 0.5366948843002319, -0.37982088327407837, -0.254315584897995, -0.8280603885650635, -0.9596771001815796, 0.055992044508457184, -0.3693297986383531, -0.20202619400473054, -0.34654500385151077, 9362.0, 30146.0, 35388.0, 9362.0, 8.390083312988281, 0.09204307198524475, 0.19536496698856354, 0.11204040050506592, 0.006805261597037315, -0.05366872623562813, 0.9992427825927734, -0.06688898801803589, -0.11127853393554688, 1.48681640625, 1.261962890625, 0.127288818359375, 1.4912109375, 1.562255859375, 10.0, 1.0, 10.0, 1.3746271133422852
36449, 4.541351795196533, -6.0591559410095215, 1.6669507026672363, 0.1363731175661087, -0.09654927253723145, -3.6362690925598145, 0.5366948843002319, -0.37982088327407837, -0.254315584897995, -0.8280606865882874, -0.9596793055534363, 0.05601979419589043, -0.3777934687812739, -0.21564594720032915, -0.35527454890165716, 9362.0, 30146.0, 35388.0, 9362.0, 8.390083312988281, 0.11045482009649277, 0.1767326295375824, 0.02649793028831482, 0.006805261597037315, -0.05366872623562813, 0.9992427825927734, -0.06688898801803589, -0.11127853393554688, 1.48681640625, 0.952880859375, 4.1783599853515625, 1.4912109375, 1.562255859375, 10.0, 1.0, 10.0, 1.3746271133422852
36459, 4.542105674743652, -6.061572074890137, 1.667871117591858, 0.1363731175661087, -0.09654927253723145, -3.6362690925598145, 0.5366948843002319, -0.37982088327407837, -0.254315584897995, -0.8280608654022217, -0.9596922993659973, 0.056013323366642, -0.36271077105402444, -0.21772167152855104, -0.35562334341902696, 9362.0, 30146.0, 35388.0, 9362.0, 8.390083312988281, 0.009327699430286884, 0.2630743682384491, 0.1816433072090149, 0.006805261597037315, -0.05366872623562813, 0.9992427825927734, -0.06688898801803589, -0.11127853393554688, 1.48681640625, 0.826904296875, 8.97930908203125, 1.4912109375, 1.374755859375, 10.0, 1.0, 10.0, 1.3746271133422852
36469, 4.5413498878479, -6.063394546508789, 1.6687144041061401, 0.1363731175661087, -0.09654927253723145, -3.6362690925598145, 0.5366948843002319, -0.37982088327407837, -0.254315584897995, -0.8280823230743408, -0.9596742391586304, 0.05599229037761688, -0.3780515544844405, -0.2062071128741536, -0.35228534115670396, 9362.0, 30146.0, 35388.0, 9362.0, 8.390083312988281, -0.2671672999858856, 0.16516658663749695, -0.03331420570611954, 0.006835028994828463, -0.055586185306310654, 0.9992765784263611, -0.06688898801803589, -0.11127853393554688, 1.48681640625, 0.826904296875, 8.97930908203125, 1.4912109375, 1.374755859375, 10.0, 1.0, 10.0, 1.3746271133422852
36479, 4.539850234985352, -6.065704345703125, 1.668683409690857, 0.15868405997753143, -0.11233891546726227, -3.6465139389038086, 0.5788562893867493, -0.409662663936615, -0.25791335105895996, -0.8280690908432007, -0.9596753716468811, 0.055993638932704926, -0.37472282089633147, -0.2108043787258964, -0.35368392795265546, 9362.0, 30146.0, 35388.0, 9362.0, 8.390083312988281, -0.07738851755857468, 0.09154000133275986, 0.2592909634113312, 0.007638269104063511, -0.05575206130743027, 0.9971593618392944, -0.06688898801803589, -0.11127853393554688, 1.48681640625, 0.826904296875, 8.97930908203125, 1.4912109375, 1.374755859375, 10.0, 1.0, 10.0, 1.3746271133422852
36489, 4.539677143096924, -6.066123962402344, 1.671038031578064, 0.15868405997753143, -0.11233891546726227, -3.6465139389038086, 0.5788562893867493, -0.409662663936615, -0.25791335105895996, -0.8280590176582336, -0.9596588611602783, 0.05600784346461296, -0.3842780165447691, -0.21444692600942972, -0.3515325005149559, 9362.0, 30146.0, 35388.0, 9362.0, 8.390083312988281, -0.13131746649742126, -0.10148246586322784, -0.32788312435150146, 0.0079889427870512, -0.05749327316880226, 0.9994003772735596, -0.06688898801803589, -0.11127853393554688, 1.48681640625, 0.826904296875, 8.97930908203125, 1.4912109375, 1.374755859375, 10.0, 1.0, 10.0, 1.3746271133422852
36509, 4.539558410644531, -6.0670952796936035, 1.6700575351715088, 0.15868405997753143, -0.11233891546726227, -3.6465139389038086, 0.5788562893867493, -0.409662663936615, -0.25791335105895996, -0.8280631303787231, -0.9597030878067017, 0.056011736392974854, -0.3494495662377215, -0.20835424132548042, -0.3553335531502754, 9362.0, 30146.0, 35388.0, 9362.0, 8.390083312988281, 0.01694926619529724, -0.16544033586978912, -0.21520273387432098, 0.006389224901795387, -0.05701811611652374, 0.9984176754951477, -0.06688898801803589, -0.11127853393554688, 1.48681640625, 1.23046875, 0.235137939453125, 1.48828125, 1.6083984375, 10.0, 1.0, 10.0, 1.3746271133422852
36529, 4.539306640625, -6.069089412689209, 1.6720640659332275, 0.15868405997753143, -0.11233891546726227, -3.6465139389038086, 0.5788562893867493, -0.409662663936615, -0.25791335105895996, -0.8280683159828186, -0.9597502946853638, 0.0559936985373497, -0.3401787763684387, -0.15769035940783738, -0.3124686546240025, 9362.0, 30146.0, 35388.0, 9362.0, 8.390083312988281, 0.02968435361981392, 0.2931845188140869, -0.11179672926664352, 0.005293805152177811, -0.05826696753501892, 1.0005830526351929, -0.0614805668592453, 0.023120880126953125, 1.497802734375, 1.042236328125, 2.1361236572265625, 1.48828125, 1.55419921875, 10.0, 1.0, 10.0, 1.3746271133422852
36539, 4.539167881011963, -6.071166038513184, 1.6707935333251953, 0.19531264901161194, -0.13825978338718414, -3.6621668338775635, 0.6421188116073608, -0.4543747007846832, -0.26369351148605347, -0.8280704617500305, -0.9596675038337708, 0.05601998791098595, -0.3818428292095693, -0.21046364643015636, -0.3432920853564616, 9362.0, 30146.0, 35388.0, 9362.0, 8.390083312988281, -0.15477082133293152, -0.13294771313667297, 0.07571516931056976, 0.008923576213419437, -0.054473645985126495, 0.9994336366653442, -0.0614805668592453, 0.023120880126953125, 1.497802734375, 1.042236328125, 2.1361236572265625, 1.48828125, 1.55419921875, 10.0, 1.0, 10.0, 1.3746271133422852
36559, 4.537190914154053, -6.071062088012695, 1.6711820363998413, 0.20836620032787323, -0.14749640226364136, -3.6674582958221436, 0.6632339358329773, -0.46928486227989197, -0.2655072808265686, -0.8280577063560486, -0.9597048759460449, 0.055983565747737885, -0.3503030355390692, -0.2201623136655826, -0.3560257587229722, 9362.0, 30146.0, 35388.0, 9362.0, 8.390083312988281, 0.008729665540158749, 0.21605761349201202, -0.17585578560829163, 0.006222516763955355, -0.05564123019576073, 0.9987398386001587, -0.0614805668592453, 0.023120880126953125, 1.497802734375, 1.0458984375, 2.071624755859375, 1.48828125, 1.48974609375, 10.0, 1.0, 10.0, 1.3746271133422852
36569, 4.536292552947998, -6.07314920425415, 1.6696494817733765, 0.20836620032787323, -0.14749640226364136, -3.6674582958221436, 0.6632339358329773, -0.46928486227989197, -0.2655072808265686, -0.8280001282691956, -0.959665834903717, 0.056206513196229935, -0.6133550045906324, -0.004753890485915235, -0.2438685146063027, 9362.0, 30146.0, 35388.0, 9362.0, 8.390083312988281, 0.05409916490316391, -0.2443937212228775, 0.03963020443916321, 0.006222516763955355, -0.05564123019576073, 0.9987398386001587, -0.0614805668592453, 0.023120880126953125, 1.497802734375, 1.0458984375, 2.071624755859375, 1.48828125, 1.50439453125, 10.0, 1.0, 10.0, 1.3746271133422852
36589, 4.534278392791748, -6.075900077819824, 1.6706838607788086, 0.22184160351753235, -0.15703082084655762, -3.672790765762329, 0.6843137145042419, -0.484161913394928, -0.26767560839653015, -0.8280606269836426, -0.9599205255508423, 0.055822208523750305, -0.21005600051667325, -0.24192654043761763, -0.3326610386712707, 9362.0, 30146.0, 35388.0, 9362.0, 8.390083312988281, -0.17206276953220367, 0.2865830659866333, 0.29198190569877625, 0.00701882503926754, -0.05539371445775032, 1.0001840591430664, -0.0614805668592453, 0.023120880126953125, 1.497802734375, 1.390869140625, 0.0319671630859375, 1.48828125, 1.2744140625, 10.0, 1.0, 10.0, 1.3746271133422852
36599, 4.533633708953857, -6.07652473449707, 1.6718031167984009, 0.22184160351753235, -0.15703082084655762, -3.672790765762329, 0.6843137145042419, -0.484161913394928, -0.26767560839653015, -0.8280571699142456, -0.9599053263664246, 0.055821653455495834, -0.20403013917481122, -0.2627219088443553, -0.3364544952967835, 9362.0, 30146.0, 35388.0, 9362.0, 8.390083312988281, -0.06486169248819351, -0.4446149170398712, 0.05098254978656769, 0.00701882503926754, -0.05539371445775032, 1.0001840591430664, -0.0614805668592453, 0.023120880126953125, 1.497802734375, 1.390869140625, 0.0319671630859375, 1.48828125, 1.527099609375, 10.0, 1.0, 10.0, 1.3746271133422852
36609, 4.532961368560791, -6.076031684875488, 1.67364501953125, 0.22184160351753235, -0.15703082084655762, -3.672790765762329, 0.6843137145042419, -0.484161913394928, -0.26767560839653015, -0.8280682563781738, -0.959811270236969, 0.05584048107266426, -0.24882818521614267, -0.30316573714341644, -0.38979923377708586, 9362.0, 30146.0, 35388.0, 9362.0, 8.390083312988281, 0.0031847974751144648, -0.1519308239221573, -0.022111639380455017, 0.004937808960676193, -0.05590466409921646, 0.9993976950645447, -0.0614805668592453, 0.023120880126953125, 1.497802734375, 1.390869140625, 0.0319671630859375, 1.4912109375, 1.527099609375, 10.0, 1.0, 10.0, 1.3746271133422852
36629, 4.534665584564209, -6.077027797698975, 1.6765230894088745, 0.25005996227264404, -0.17699368298053741, -3.6835639476776123, 0.7266132831573486, -0.5139788389205933, -0.27094894647598267, -0.8280600905418396, -0.9597715735435486, 0.055935557931661606, -0.3342051389436954, -0.16951276193194076, -0.30276387354993695, 9362.0, 30146.0, 35388.0, 9362.0, 8.390083312988281, -0.03929641842842102, 0.06510557234287262, 0.18218186497688293, 0.006815305911004543, -0.055950313806533813, 0.9987861514091492, -0.07235972583293915, -0.08439826965332031, 1.489013671875, 1.390869140625, 0.0319671630859375, 1.49560546875, 1.527099609375, 10.0, 1.0, 10.0, 1.3746271133422852
36639, 4.534339904785156, -6.077946186065674, 1.6763932704925537, 0.25005996227264404, -0.17699368298053741, -3.6835639476776123, 0.7266132831573486, -0.5139788389205933, -0.27094894647598267, -0.8280784487724304, -0.9596858620643616, 0.055978886783123016, -0.36492072999934266, -0.2006895189551301, -0.3523750115804075, 9362.0, 30146.0, 35388.0, 9362.0, 8.390083312988281, -0.03929641842842102, 0.06510557234287262, 0.18218186497688293, 0.008213565684854984, -0.05538606271147728, 0.9989336133003235, -0.07235972583293915, -0.08439826965332031, 1.489013671875, 1.09423828125, 1.340240478515625, 1.49560546875, 1.527099609375, 10.0, 1.0, 10.0, 1.3746271133422852
36659, 4.53650426864624, -6.074515342712402, 1.6773922443389893, 0.27996933460235596, -0.1981479525566101, -3.6944801807403564, 0.7688575387001038, -0.5437352061271667, -0.2748664915561676, -0.8280595541000366, -0.9598074555397034, 0.05585898458957672, -0.26020012796763, -0.3158950113366643, -0.3999331646749851, 9362.0, 30146.0, 35388.0, 9362.0, 8.390083312988281, -0.09492986649274826, 0.20839537680149078, 0.24040094017982483, 0.005612535867840052, -0.05510301515460014, 0.9996097087860107, -0.07235972583293915, -0.08439826965332031, 1.489013671875, 1.329345703125, 0.02105712890625, 1.49560546875, 1.5322265625, 10.0, 1.0, 10.0, 1.3746271133422852
36669, 4.535882949829102, -6.076330661773682, 1.6788337230682373, 0.27996933460235596, -0.1981479525566101, -3.6944801807403564, 0.7688575387001038, -0.5437352061271667, -0.2748664915561676, -0.8280614614486694, -0.959882915019989, 0.055806487798690796, -0.23194139333849714, -0.2370029320474032, -0.3394077960157369, 9362.0, 30146.0, 35388.0, 9362.0, 8.390083312988281, 0.06618311256170273, 0.4610288441181183, 0.1864251047372818, 0.006674972828477621, -0.05436786636710167, 1.001096487045288, -0.07235972583293915, -0.08439826965332031, 1.489013671875, 1.329345703125, 0.02105712890625, 1.49560546875, 1.587158203125, 10.0, 1.0, 10.0, 1.3746271133422852
36679, 4.536900520324707, -6.07850456237793, 1.6796987056732178, 0.29555776715278625, -0.20917156338691711, -3.69999623298645, 0.7899884581565857, -0.5586302280426025, -0.2766932249069214, -0.8280558586120605, -0.9597762227058411, 0.05595242232084274, -0.3311439753205223, -0.16881275764026782, -0.30683282854501287, 9362.0, 30146.0, 35388.0, 9362.0, 8.390083312988281, -0.07920927554368973, 0.333998441696167, 0.22132891416549683, 0.005757174454629421, -0.05562940239906311, 0.9994131326675415, -0.07235972583293915, -0.08439826965332031, 1.489013671875, 1.21728515625, 0.2937164306640625, 1.49560546875, 1.587158203125, 10.0, 1.0, 10.0, 1.3746271133422852
36689, 4.537055015563965, -6.081005573272705, 1.6812684535980225, 0.29555776715278625, -0.20917156338691711, -3.69999623298645, 0.7899884581565857, -0.5586302280426025, -0.2766932249069214, -0.8280839323997498, -0.9596735239028931, 0.05599712207913399, -0.38638784043779195, -0.19942091197975742, -0.3572211607203543, 9362.0, 30146.0, 35388.0, 9362.0, 8.390083312988281, 0.005508815869688988, 0.0010565154952928424, 0.15380798280239105, 0.005757174454629421, -0.05562940239906311, 0.9994131326675415, -0.07235972583293915, -0.08439826965332031, 1.489013671875, 1.21728515625, 0.2937164306640625, 1.49560546875, 1.528564453125, 10.0, 1.0, 10.0, 1.3746271133422852
36699, 4.537418365478516, -6.080878734588623, 1.6822680234909058, 0.29555776715278625, -0.20917156338691711, -3.69999623298645, 0.7899884581565857, -0.5586302280426025, -0.2766932249069214, -0.8280806541442871, -0.9596695899963379, 0.05601081997156143, -0.3787908586344104, -0.2049397342740349, -0.3515957024820331, 9362.0, 30146.0, 35388.0, 9362.0, 8.390083312988281, -0.18661649525165558, 0.2835099697113037, 0.21940501034259796, 0.007169290445744991, -0.054842427372932434, 1.0008997917175293, -0.07235972583293915, -0.08439826965332031, 1.489013671875, 0.88623046875, 6.3947601318359375, 1.49560546875, 1.376953125, 10.0, 1.0, 10.0, 1.3746271133422852
36709, 4.537042140960693, -6.082727432250977, 1.6829501390457153, 0.29555776715278625, -0.20917156338691711, -3.69999623298645, 0.7899884581565857, -0.5586302280426025, -0.2766932249069214, -0.828071117401123, -0.9596989154815674, 0.05599585920572281, -0.35370425853184484, -0.20998941454499231, -0.34881303523657664, 9362.0, 30146.0, 35388.0, 9362.0, 8.390083312988281, 0.05607706680893898, -0.09330472350120544, -0.01432689931243658, 0.008397473953664303, -0.0557379275560379, 1.0020148754119873, -0.07235972583293915, -0.08439826965332031, 1.489013671875, 0.89501953125, 6.063446044921875, 1.49560546875, 1.517578125, 10.0, 1.0, 10.0, 1.3746271133422852
36729, 4.537459850311279, -6.08155632019043, 1.6859413385391235, 0.32800358533859253, -0.23211297392845154, -3.711132287979126, 0.8323062062263489, -0.5884391665458679, -0.2801329493522644, -0.8280447125434875, -0.9597557187080383, 0.05597541481256485, -0.34348471676099235, -0.17428777673913487, -0.3101263116443329, 9362.0, 30146.0, 35388.0, 9362.0, 8.390083312988281, 0.10435532033443451, 0.16821341216564178, 0.11312301456928253, 0.005730704870074987, -0.05432281270623207, 0.9988729357719421, -0.07522452622652054, -0.021678924560546875, 1.494140625, 0.89501953125, 6.063446044921875, 1.494140625, 1.517578125, 10.0, 1.0, 10.0, 1.3746271133422852
36739, 4.538095474243164, -6.08249568939209, 1.6883033514022827, 0.3448617160320282, -0.24403102695941925, -3.716749429702759, 0.8534988164901733, -0.603359580039978, -0.2816467583179474, -0.8280696272850037, -0.9596788287162781, 0.05601409822702408, -0.3734021106866752, -0.2114351422764571, -0.3488011289681793, 9362.0, 30146.0, 35388.0, 9362.0, 8.390083312988281, 0.07352660596370697, -0.245106041431427, -0.13939593732357025, 0.005730704870074987, -0.05432281270623207, 0.9988729357719421, -0.07522452622652054, -0.021678924560546875, 1.494140625, 0.89501953125, 6.063446044921875, 1.494140625, 1.517578125, 10.0, 1.0, 10.0, 1.3746271133422852
36759, 4.538816928863525, -6.078803539276123, 1.6892110109329224, 0.3448617160320282, -0.24403102695941925, -3.716749429702759, 0.8534988164901733, -0.603359580039978, -0.2816467583179474, -0.8280557990074158, -0.959748387336731, 0.055994048714637756, -0.3542665668803083, -0.156998049404649, -0.3011295396182738, 9362.0, 30146.0, 35388.0, 9362.0, 8.390083312988281, 0.25801825523376465, 0.3221958875656128, -0.1750943660736084, 0.005998008418828249, -0.0558084212243557, 0.9992895722389221, -0.07522452622652054, -0.021678924560546875, 1.494140625, 1.103759765625, 1.2206573486328125, 1.494140625, 1.58642578125, 10.0, 1.0, 10.0, 1.3746271133422852
36769, 4.5395708084106445, -6.079575538635254, 1.6893175840377808, 0.3448617160320282, -0.24403102695941925, -3.716749429702759, 0.8534988164901733, -0.603359580039978, -0.2816467583179474, -0.8280588984489441, -0.9597427845001221, 0.055978287011384964, -0.3427039124566599, -0.17483026864414342, -0.3096311488793359, 9362.0, 30146.0, 35388.0, 9362.0, 8.390083312988281, 0.050338126718997955, -0.07852454483509064, 0.28925395011901855, 0.005998008418828249, -0.0558084212243557, 0.9992895722389221, -0.07522452622652054, -0.021678924560546875, 1.494140625, 1.103759765625, 1.2206573486328125, 1.48828125, 1.58642578125, 10.0, 1.0, 10.0, 1.3746271133422852
36779, 4.540153503417969, -6.078561305999756, 1.6917495727539062, 0.3448617160320282, -0.24403102695941925, -3.716749429702759, 0.8534988164901733, -0.603359580039978, -0.2816467583179474, -0.8280481696128845, -0.9599056839942932, 0.055842094123363495, -0.19898042690387774, -0.2570608461752215, -0.34443453804592944, 9362.0, 30146.0, 35388.0, 9362.0, 8.390083312988281, 0.10221441835165024, 0.09912242740392685, 0.01643996685743332, 0.005998008418828249, -0.0558084212243557, 0.9992895722389221, -0.07522452622652054, -0.021678924560546875, 1.494140625, 1.119140625, 1.04302978515625, 1.48828125, 1.58642578125, 10.0, 1.0, 10.0, 1.3746271133422852
36799, 4.5414934158325195, -6.077716827392578, 1.6921124458312988, 0.3448617160320282, -0.24403102695941925, -3.716749429702759, 0.8534988164901733, -0.603359580039978, -0.2816467583179474, -0.8280724883079529, -0.9597904086112976, 0.05585502088069916, -0.25408105953158217, -0.29525135016632476, -0.39009995174087453, 9362.0, 30146.0, 35388.0, 9362.0, 8.390083312988281, -0.1401701122522354, -0.23509390652179718, -0.13757681846618652, 0.006055627483874559, -0.05331781134009361, 0.9976809620857239, -0.07522452622652054, -0.021678924560546875, 1.494140625, 1.09423828125, 1.340240478515625, 1.490478515625, 1.559326171875, 10.0, 1.0, 10.0, 1.3746271133422852
36809, 4.540612697601318, -6.07537841796875, 1.6917182207107544, 0.3448617160320282, -0.24403102695941925, -3.716749429702759, 0.8534988164901733, -0.603359580039978, -0.2816467583179474, -0.8272837996482849, -0.9604195356369019, 0.05432099103927612, -0.22695121943322252, -0.8738234240826728, -0.4095504291323886, 9362.0, 30146.0, 35388.0, 9362.0, 8.390083312988281, 0.14038337767124176, -0.20492368936538696, 0.12241959571838379, 0.006223408039659262, -0.056375179439783096, 1.0000038146972656, -0.07522452622652054, -0.021678924560546875, 1.494140625, 1.083251953125, 1.487762451171875, 1.490478515625, 1.50732421875, 10.0, 1.0, 10.0, 1.3746271133422852
36829, 4.541188716888428, -6.073413848876953, 1.6921378374099731, 0.3448617160320282, -0.24403102695941925, -3.716749429702759, 0.8534988164901733, -0.603359580039978, -0.2816467583179474, -0.8273162841796875, -0.9604538083076477, 0.05431431904435158, -0.2444748797425749, -0.8595669758444444, -0.43845960485511765, 9362.0, 30146.0, 35388.0, 9362.0, 8.390083312988281, 0.047093555331230164, -0.25852808356285095, 0.07460488379001617, 0.006573190912604332, -0.05459007993340492, 0.9993712902069092, -0.05498864874243736, 0.05000114440917969, 1.5, 1.203369140625, 0.3649749755859375, 1.490478515625, 1.505859375, 10.0, 1.0, 10.0, 1.3746271133422852
36839, 4.54190731048584, -6.070064067840576, 1.6920245885849, 0.4354994595050812, -0.3080918788909912, -3.7453739643096924, 0.9592413306236267, -0.6778755187988281, -0.29077988862991333, -0.8280729651451111, -0.9596832394599915, 0.056001901626586914, -0.3576917412747021, -0.2125225438162488, -0.35670076229531683, 9362.0, 30146.0, 35388.0, 9362.0, 8.390083312988281, -0.18550756573677063, 0.01779215596616268, 0.06861332803964615, 0.005821102764457464, -0.05319922789931297, 0.9998168349266052, -0.05498864874243736, 0.05000114440917969, 1.5, 1.203369140625, 0.3649749755859375, 1.490478515625, 1.505859375, 10.0, 1.0, 10.0, 1.3746271133422852
36849, 4.542288303375244, -6.07003116607666, 1.6911394596099854, 0.4354994595050812, -0.3080918788909912, -3.7453739643096924, 0.9592413306236267, -0.6778755187988281, -0.29077988862991333, -0.8280462026596069, -0.9597806334495544, 0.05596572160720825, -0.32684307747054736, -0.17836194322126175, -0.30282607891599084, 9362.0, 30146.0, 35388.0, 9362.0, 8.390083312988281, -0.1976456195116043, 0.057752061635255814, 0.09193006902933121, 0.005821102764457464, -0.05319922789931297, 0.9998168349266052, -0.05498864874243736, 0.05000114440917969, 1.5, 1.203369140625, 0.3649749755859375, 1.49267578125, 1.505859375, 10.0, 1.0, 10.0, 1.3746271133422852
36869, 4.541539192199707, -6.0698137283325195, 1.6939722299575806, 0.4354994595050812, -0.3080918788909912, -3.7453739643096924, 0.9592413306236267, -0.6778755187988281, -0.29077988862991333, -0.8280602097511292, -0.959710955619812, 0.05601534619927406, -0.3488613216842816, -0.2192563984242497, -0.35619603856556614, 9362.0, 30146.0, 35388.0, 9362.0, 8.390083312988281, 0.08565187454223633, 0.05075335502624512, -0.048025257885456085, 0.005720789544284344, -0.05573302507400513, 0.9998484253883362, -0.05498864874243736, 0.05000114440917969, 1.5, 1.0400390625, 2.17547607421875, 1.49267578125, 1.4677734375, 10.0, 1.0, 10.0, 1.3746271133422852
36879, 4.542285442352295, -6.069322109222412, 1.6956045627593994, 0.4354994595050812, -0.3080918788909912, -3.7453739643096924, 0.9592413306236267, -0.6778755187988281, -0.29077988862991333, -0.8280729055404663, -0.9598256349563599, 0.055857881903648376, -0.23967351709017312, -0.2888020967151306, -0.3942388130002663, 9362.0, 30146.0, 35388.0, 9362.0, 8.390083312988281, -0.3149887025356293, 0.2816696763038635, 0.6189294457435608, 0.005361389368772507, -0.05529164522886276, 1.000757098197937, -0.05498864874243736, 0.05000114440917969, 1.5, 0.838623046875, 8.41827392578125, 1.49267578125, 1.5205078125, 10.0, 1.0, 10.0, 1.3746271133422852
36899, 4.5402140617370605, -6.070484638214111, 1.7015084028244019, 0.49495577812194824, -0.3501068651676178, -3.7629776000976562, 1.022648811340332, -0.7226346135139465, -0.29584914445877075, -0.8280678391456604, -0.9596834778785706, 0.056027110666036606, -0.3627219820821802, -0.21041498030689354, -0.351562219672371, 9362.0, 30146.0, 35388.0, 9362.0, 8.390083312988281, 0.05752423405647278, 0.02504868432879448, 0.2292730212211609, 0.0069595761597156525, -0.05629117041826248, 0.9999823570251465, -0.05498864874243736, 0.05000114440917969, 1.5, 1.288330078125, 0.0676116943359375, 1.48974609375, 1.283935546875, 10.0, 1.0, 10.0, 1.3746271133422852
36939, 4.539220333099365, -6.070918560028076, 1.7041172981262207, 0.49495577812194824, -0.3501068651676178, -3.7629776000976562, 1.022648811340332, -0.7226346135139465, -0.29584914445877075, -0.8280711770057678, -0.9596670866012573, 0.05601681023836136, -0.3807248583193929, -0.21508738421439944, -0.3570608393116523, 9362.0, 30146.0, 35388.0, 9362.0, 8.390083312988281, 0.14821121096611023, 0.08962377160787582, 0.08164054900407791, 0.0047868965193629265, -0.055112119764089584, 1.000920295715332, -0.06631071865558624, -0.030637741088867188, 1.493408203125, 0.854736328125, 7.6885528564453125, 1.48974609375, 1.395263671875, 10.0, 1.0, 10.0, 1.3746271133422852
36949, 4.54061222076416, -6.072995185852051, 1.7046014070510864, 0.49495577812194824, -0.3501068651676178, -3.7629776000976562, 1.022648811340332, -0.7226346135139465, -0.29584914445877075, -0.8280530571937561, -0.9596898555755615, 0.056001778692007065, -0.3657146947601886, -0.22056604713034744, -0.3587945326903057, 9362.0, 30146.0, 35388.0, 9362.0, 8.390083312988281, -0.1486918330192566, 0.0015311536844819784, 0.160709410905838, 0.008163084276020527, -0.05398203432559967, 1.0011794567108154, -0.06631071865558624, -0.030637741088867188, 1.493408203125, 0.854736328125, 7.6885528564453125, 1.48974609375, 1.560791015625, 10.0, 1.0, 10.0, 1.3746271133422852
36959, 4.539183139801025, -6.071528911590576, 1.7040901184082031, 0.558216392993927, -0.3948062062263489, -3.780888795852661, 1.0860416889190674, -0.767344057559967, -0.3011726438999176, -0.8280676603317261, -0.9599086046218872, 0.055816683918237686, -0.21519520587366564, -0.2375343416817941, -0.34464311278116877, 9362.0, 30146.0, 35388.0, 9362.0, 8.390083312988281, 0.040325988084077835, -0.18361878395080566, -0.24549797177314758, 0.008912053890526295, -0.053830813616514206, 0.9980126023292542, -0.06631071865558624, -0.030637741088867188, 1.493408203125, 0.854736328125, 7.6885528564453125, 1.48974609375, 1.560791015625, 10.0, 1.0, 10.0, 1.3746271133422852
36969, 4.539933204650879, -6.071187496185303, 1.7031660079956055, 0.558216392993927, -0.3948062062263489, -3.780888795852661, 1.0860416889190674, -0.767344057559967, -0.3011726438999176, -0.8280594944953918, -0.9596569538116455, 0.05599755793809891, -0.38796021203927455, -0.22121824870094997, -0.3555563314543377, 9362.0, 30146.0, 35388.0, 9362.0, 8.390083312988281, -0.07672194391489029, 0.05037577077746391, -0.4653404653072357, 0.006953842472285032, -0.054798372089862823, 0.9970815777778625, -0.06631071865558624, -0.030637741088867188, 1.493408203125, 0.854736328125, 7.6885528564453125, 1.4912109375, 1.560791015625, 10.0, 1.0, 10.0, 1.3746271133422852
36989, 4.540482997894287, -6.070378303527832, 1.6989282369613647, 0.558216392993927, -0.3948062062263489, -3.780888795852661, 1.0860416889190674, -0.767344057559967, -0.3011726438999176, -0.8280599117279053, -0.9596765637397766, 0.05599217116832733, -0.3820750252854982, -0.21563235836390504, -0.3600773225524694, 9362.0, 30146.0, 35388.0, 9362.0, 8.390083312988281, -0.13490036129951477, 0.18749350309371948, -0.28698793053627014, 0.006900407839566469, -0.05640299990773201, 0.9995557069778442, -0.06631071865558624, -0.030637741088867188, 1.493408203125, 1.07080078125, 1.667816162109375, 1.4912109375, 1.535888671875, 10.0, 1.0, 10.0, 1.3746271133422852
36999, 4.539597988128662, -6.0719404220581055, 1.698074221611023, 0.558216392993927, -0.3948062062263489, -3.780888795852661, 1.0860416889190674, -0.767344057559967, -0.3011726438999176, -0.828058123588562, -0.9596601128578186, 0.056029386818408966, -0.3831105336659075, -0.21810063637985877, -0.3532835694354447, 9362.0, 30146.0, 35388.0, 9362.0, 8.390083312988281, 0.06800109148025513, 0.20551393926143646, -0.048475734889507294, 0.005999621469527483, -0.05633066967129707, 1.0015602111816406, -0.06631071865558624, -0.030637741088867188, 1.493408203125, 0.79541015625, 10.6201171875, 1.4912109375, 1.535888671875, 10.0, 1.0, 10.0, 1.3746271133422852
37009, 4.540254592895508, -6.074176788330078, 1.6977049112319946, 0.558216392993927, -0.3948062062263489, -3.780888795852661, 1.0860416889190674, -0.767344057559967, -0.3011726438999176, -0.8280477523803711, -0.959821343421936, 0.05587038770318031, -0.25637188789654114, -0.3075797614943667, -0.38889477549444135, 9362.0, 30146.0, 35388.0, 9362.0, 8.390083312988281, 0.10629957914352417, 0.30664193630218506, -0.24425727128982544, 0.006487144622951746, -0.05510600283741951, 1.0025112628936768, -0.06631071865558624, -0.030637741088867188, 1.493408203125, 0.79541015625, 10.6201171875, 1.493408203125, 1.535888671875, 10.0, 1.0, 10.0, 1.3746271133422852
37029, 4.539477825164795, -6.074473857879639, 1.6914883852005005, 0.558216392993927, -0.3948062062263489, -3.780888795852661, 1.0860416889190674, -0.767344057559967, -0.3011726438999176, -0.8280560970306396, -0.9599399566650391, 0.05584484338760376, -0.18960306751010647, -0.25673249600987447, -0.34726605086564555, 9362.0, 30146.0, 35388.0, 9362.0, 8.390083312988281, 0.16358046233654022, 0.17876145243644714, -0.10610126703977585, 0.006487144622951746, -0.05510600283741951, 1.0025112628936768, -0.049815066158771515, -0.04855918884277344, 1.491943359375, 0.79541015625, 10.6201171875, 1.493408203125, 1.464111328125, 10.0, 1.0, 10.0, 1.3746271133422852
37039, 4.5415120124816895, -6.077530860900879, 1.691065788269043, 0.6484802961349487, -0.4585779309272766, -3.8052732944488525, 1.1706050634384155, -0.8269824981689453, -0.3080577850341797, -0.8280572295188904, -0.9598985910415649, 0.05583721399307251, -0.20476537791080107, -0.24480941288445024, -0.33584253317593005, 9362.0, 30146.0, 35388.0, 9362.0, 8.390083312988281, -0.08718832582235336, -0.19262564182281494, -0.3912515640258789, 0.006130384746938944, -0.05673985183238983, 0.9985828995704651, -0.049815066158771515, -0.04855918884277344, 1.491943359375, 0.79541015625, 10.6201171875, 1.493408203125, 1.464111328125, 10.0, 1.0, 10.0, 1.3746271133422852
37049, 4.540165424346924, -6.078023910522461, 1.687723159790039, 0.6484802961349487, -0.4585779309272766, -3.8052732944488525, 1.1706050634384155, -0.8269824981689453, -0.3080577850341797, -0.8280629515647888, -0.9596512317657471, 0.05603001266717911, -0.3870041213140151, -0.2244482299494166, -0.3583047942321995, 9362.0, 30146.0, 35388.0, 9362.0, 8.390083312988281, 0.04279029741883278, 0.1748998910188675, -0.09758910536766052, 0.006130384746938944, -0.05673985183238983, 0.9985828995704651, -0.049815066158771515, -0.04855918884277344, 1.491943359375, 1.10595703125, 1.194122314453125, 1.493408203125, 1.464111328125, 10.0, 1.0, 10.0, 1.3746271133422852
37059, 4.54014778137207, -6.07880973815918, 1.68686044216156, 0.6484802961349487, -0.4585779309272766, -3.8052732944488525, 1.1706050634384155, -0.8269824981689453, -0.3080577850341797, -0.8280608654022217, -0.9596856236457825, 0.056012459099292755, -0.3626916042256231, -0.23309514564974165, -0.356022018982105, 9362.0, 30146.0, 35388.0, 9362.0, 8.390083312988281, 0.20630286633968353, -0.38956212997436523, -0.12100353091955185, 0.005440197419375181, -0.05635674670338631, 0.9982095956802368, -0.049815066158771515, -0.04855918884277344, 1.491943359375, 1.02099609375, 2.53790283203125, 1.493408203125, 1.5029296875, 10.0, 1.0, 10.0, 1.3746271133422852
37069, 4.541347026824951, -6.075868606567383, 1.6852381229400635, 0.6484802961349487, -0.4585779309272766, -3.8052732944488525, 1.1706050634384155, -0.8269824981689453, -0.3080577850341797, -0.8280729651451111, -0.9599105715751648, 0.05580215901136398, -0.20609272908868098, -0.2391014231014026, -0.3354356565079562, 9362.0, 30146.0, 35388.0, 9362.0, 8.390083312988281, -0.043529804795980453, -0.1259407252073288, 0.16697125136852264, 0.004522515460848808, -0.055488768965005875, 0.9985426068305969, -0.049815066158771515, -0.04855918884277344, 1.491943359375, 1.02099609375, 2.53790283203125, 1.491943359375, 1.5029296875, 10.0, 1.0, 10.0, 1.3746271133422852
37089, 4.5412821769714355, -6.074308395385742, 1.6859183311462402, 0.7083315849304199, -0.5008584856987, -3.8207924365997314, 1.2234268188476562, -0.8642274141311646, -0.31291744112968445, -0.8280702233314514, -0.9596605896949768, 0.05602017045021057, -0.3827859634024573, -0.21251561982791145, -0.361376722964321, 9362.0, 30146.0, 35388.0, 9362.0, 8.390083312988281, -0.02608342468738556, 0.21622297167778015, 0.18303589522838593, 0.007014677859842777, -0.05592816323041916, 1.0002025365829468, -0.049815066158771515, -0.04855918884277344, 1.491943359375, 1.31689453125, 0.0298919677734375, 1.491943359375, 1.5703125, 10.0, 1.0, 10.0, 1.3746271133422852
