timeTick, roll, pitch, yaw, stateX, stateY, stateZ, stateVX, stateVY, stateVZ, otX0, otY0, otZ0, otRoll0, otPitch0, otYaw0, left wing, pitch motor, yaw motor, right wing, voltage, roll rate, pitch rate, yaw rate, A_x, A_y, A_z, current, i_raw, v_raw, airflow_voltage, airflow_speed, pot_Pitch, voltage_nKF, kFFx, volt_KF_vel, kP, volt_KF_pos
15084, -0.15581555664539337, 1.4741731882095337, 1.2660472393035889, 0, 0, 0, 0, 0, 0, -0.8300396800041199, -0.9607341289520264, 0.056926827877759933, -0.07708893017639566, 0.33689653127706265, 5.974553638319352, 0, 0, 0, 0, 0, 0, 0, 0, 0, 0, 0, 0, 0, 0, 0, 0, 0, 0, 0, 0, 0, 0
15094, -0.15558579564094543, 1.4744561910629272, 1.2657620906829834, -2.844188202288933e-05, 2.3716593204881065e-06, 0.41327208280563354, -0.004106719512492418, 0.0003425088943913579, 0.06129183992743492, -0.8300269246101379, -0.9607241749763489, 0.05692070722579956, -0.07607108639321934, 0.33308276819587945, 5.976324585177011, 9362.0, 30146.0, 35388.0, 9362.0, 0, 0.13757456839084625, -0.5562386512756348, -0.17811459302902222, 0.012450634501874447, -0.05271551012992859, 0.9986502528190613, 0, 0, 0, 0, 0, 0, 0, 0, 0, 0, 0
15104, -0.1548960953950882, 1.477668046951294, 1.2643078565597534, -8.214825356844813e-05, 6.851025773357833e-06, 0.41388460993766785, -0.006634553894400597, 0.0005533771472983062, 0.061213161796331406, -0.830024778842926, -0.9607237577438354, 0.05691686272621155, -0.0770980853947256, 0.3391006344363632, 5.974325899257584, 9362.0, 30146.0, 35388.0, 9362.0, 0, -0.19859682023525238, 0.15643371641635895, 0.050434429198503494, 0.013505801558494568, -0.056745439767837524, 0.9983265399932861, 0, 0, 0, 1.509521484375, 0.2148895263671875, 0, 1.3681640625, 10.0, 1.4130699634552002, 1.5, 1.4130699634552002
15114, -0.15626217424869537, 1.4772725105285645, 1.2647335529327393, -0.00016112715820781887, 1.3436436347546987e-05, 0.4144960343837738, -0.009161211550235748, 0.0007637702510692179, 0.06107081100344658, -0.8300414681434631, -0.9607200026512146, 0.05693120136857033, -0.07321304869092314, 0.33359472863915585, 5.975494012364337, 9362.0, 30146.0, 35388.0, 9362.0, 0, 0.14181873202323914, 0.12717095017433167, 0.17860740423202515, 0.013124680146574974, -0.054686520248651505, 0.9976603388786316, 0, 0, 0, 1.029052734375, 2.3798828125, 1.49267578125, 1.19677734375, 10.0, 1.4133540391921997, 1.5, 1.4133540391921997
15124, -0.1561768352985382, 1.4780296087265015, 1.2658610343933105, -0.0002653920673765242, 2.211894934589509e-05, 0.4151057302951813, -0.011691775172948837, 0.0009727099095471203, 0.06086777523159981, -0.8300204277038574, -0.9607284665107727, 0.0569421760737896, -0.08267083561851646, 0.3418452889978312, 5.9717107692312625, 9362.0, 30146.0, 35388.0, 9362.0, 0, 0.1037847176194191, 0.2202640026807785, 0.006162635050714016, 0.013940236531198025, -0.05502134561538696, 1.0001251697540283, 0, 0, 0, 1.215087890625, 0.3043060302734375, 1.49267578125, 1.53369140625, 10.0, 1.4124912023544312, 1.5, 1.4124912023544312
15134, -0.15618769824504852, 1.4763447046279907, 1.2667280435562134, -0.00039495452074334025, 3.290209497208707e-05, 0.41571319103240967, -0.014220716431736946, 0.0011838696664199233, 0.06062604859471321, -0.830044150352478, -0.9607226252555847, 0.0569443441927433, -0.07001745287643463, 0.3394053858381767, 5.976272526085081, 9362.0, 30146.0, 35388.0, 9362.0, 0, -0.04977685213088989, -0.030549127608537674, -0.05996913090348244, 0.012963942252099514, -0.05417006462812424, 0.9979536533355713, 0, 0, 0, 1.42529296875, 0.0688018798828125, 1.496337890625, 1.445068359375, 10.0, 1.4124460220336914, 1.5, 1.4124460220336914
15144, -0.1557718962430954, 1.474578619003296, 1.2665133476257324, -0.0005498342216014862, 4.579749656841159e-05, 0.4163190722465515, -0.016755225136876106, 0.0013951724395155907, 0.0605495423078537, -0.8300365209579468, -0.9607191681861877, 0.05694125220179558, -0.07411080258362975, 0.33676657915918895, 5.978210633101581, 9362.0, 30146.0, 35388.0, 9362.0, 0, -0.19526717066764832, 0.3653288185596466, 0.13783195614814758, 0.012009646743535995, -0.05467919260263443, 0.9991410970687866, 0, 0, 0, 1.095703125, 1.3213653564453125, 1.496337890625, 1.546875, 10.0, 1.4128246307373047, 1.5, 1.4128246307373047
15154, -0.15748386085033417, 1.4737545251846313, 1.2664730548858643, -0.0007300289580598474, 6.080484308768064e-05, 0.4169235825538635, -0.019283732399344444, 0.0016063069924712181, 0.06035229191184044, -0.8300307989120483, -0.9607293009757996, 0.05693165585398674, -0.08286150243177796, 0.33587456399502, 5.988322878860455, 9362.0, 30146.0, 35388.0, 9362.0, 0, -0.15866583585739136, -0.2138800472021103, 0.26758942008018494, 0.011569436639547348, -0.05585382878780365, 0.9996138215065002, 0, 0, 0, 1.505126953125, 0.205902099609375, 1.48974609375, 1.3271484375, 10.0, 1.4135608673095703, 1.5, 1.4135608673095703
15164, -0.1582377851009369, 1.475097894668579, 1.2673696279525757, -0.0009355043293908238, 7.792125688865781e-05, 0.4175265431404114, -0.021811341866850853, 0.0018169755348935723, 0.06023779138922691, -0.8300357460975647, -0.9607256650924683, 0.05693858116865158, -0.07889496728789713, 0.33633852748627646, 5.977680889488647, 9362.0, 30146.0, 35388.0, 9362.0, 0, 0.08026968687772751, 0.22450010478496552, 0.11403601616621017, 0.01533072255551815, -0.054811667650938034, 0.9981086850166321, 0, 0, 0, 1.44287109375, 0.0936279296875, 1.48974609375, 1.07373046875, 10.0, 1.4131720066070557, 1.5, 1.4131720066070557
15174, -0.15761320292949677, 1.473570704460144, 1.2686437368392944, -0.001166254747658968, 9.715963096823543e-05, 0.4181285798549652, -0.024338742718100548, 0.0020306608639657497, 0.06016737222671509, -0.8300281763076782, -0.9607140421867371, 0.05693574249744415, -0.07553935066282162, 0.32703914152753555, 5.981108842749934, 9362.0, 30146.0, 35388.0, 9362.0, 0, -0.0234152190387249, -0.13791881501674652, 0.14777305722236633, 0.011576886288821697, -0.05504961311817169, 0.9981389045715332, 0, 0, 0, 1.119140625, 1.04302978515625, 1.489013671875, 1.07373046875, 10.0, 1.4137336015701294, 1.5, 1.4137336015701294
15184, -0.1579790711402893, 1.4742711782455444, 1.267922043800354, -0.0014222721802070737, 0.00011853928299387917, 0.41872918605804443, -0.026864755898714066, 0.0022452145349234343, 0.05995265021920204, -0.8300276398658752, -0.9607291221618652, 0.056957609951496124, -0.08013077068786922, 0.33816608923640956, 5.970517301098731, 9362.0, 30146.0, 35388.0, 9362.0, 8.33057975769043, -0.04410621523857117, 0.00883164256811142, 0.16044217348098755, 0.009534777142107487, -0.05361595004796982, 0.9971124529838562, 0, 0, 0, 1.3857421875, 0.0280914306640625, 1.489013671875, 0.94482421875, 10.0, 1.4132885932922363, 1.5, 1.4132885932922363
15194, -0.1573895812034607, 1.4735785722732544, 1.2681686878204346, -0.001703533693216741, 0.00014205889601726085, 0.4193275272846222, -0.02938753552734852, 0.0024587379302829504, 0.05971517413854599, -0.8300291895866394, -0.96071857213974, 0.056947752833366394, -0.07879729922375836, 0.3406888186693777, 5.975633670621957, 9362.0, 30146.0, 35388.0, 9362.0, 8.33057975769043, -0.1282116323709488, 0.010529905557632446, -0.0180668942630291, 0.011540875770151615, -0.05378298833966255, 0.9966131448745728, -0.07619554549455643, 0.023120880126953125, 1.497802734375, 1.124267578125, 0.9879302978515625, 1.48681640625, 1.5146484375, 10.0, 1.4137941598892212, 1.5, 1.4137941598892212
15204, -0.15803641080856323, 1.4735944271087646, 1.2681248188018799, -0.002010019961744547, 0.0001677161199040711, 0.4199231266975403, -0.03190970420837402, 0.002672696951776743, 0.05940665304660797, -0.8300250172615051, -0.9607213735580444, 0.056950002908706665, -0.07149166075850776, 0.33260745155541827, 5.983624200124225, 9362.0, 30146.0, 35388.0, 9362.0, 8.33057975769043, 0.026137853041291237, -0.18644608557224274, 0.03175003454089165, 0.012598040513694286, -0.05479268357157707, 0.9980442523956299, -0.07619554549455643, 0.023120880126953125, 1.497802734375, 1.465576171875, 0.130889892578125, 1.48681640625, 1.517578125, 10.0, 1.4132795333862305, 1.5, 1.4132795333862305
15214, -0.15756306052207947, 1.4742406606674194, 1.2683581113815308, -0.002341712359338999, 0.00019550719298422337, 0.4205152988433838, -0.03442879766225815, 0.002885514637455344, 0.05902564898133278, -0.830012321472168, -0.9607260823249817, 0.056950826197862625, -0.08122447781256702, 0.3366416714021341, 5.982217600277368, 9362.0, 30146.0, 35388.0, 9362.0, 8.33057975769043, -0.14058968424797058, -0.07050865888595581, 0.11314385384321213, 0.011492296122014523, -0.05477510392665863, 0.9980709552764893, -0.07619554549455643, 0.023120880126953125, 1.497802734375, 1.414306640625, 0.05517578125, 1.49267578125, 0.889892578125, 10.0, 1.41275954246521, 1.5, 1.41275954246521
15224, -0.15858063101768494, 1.4768294095993042, 1.268303394317627, -0.002698612865060568, 0.00022543338127434254, 0.4211043119430542, -0.036951303482055664, 0.0030997153371572495, 0.05877506360411644, -0.8300206065177917, -0.9607195854187012, 0.05696452036499977, -0.07940834261517307, 0.3384631694564746, 5.978674057234979, 9362.0, 30146.0, 35388.0, 9362.0, 8.33057975769043, -0.04859668388962746, -0.3872978985309601, -0.01350024901330471, 0.011299330741167068, -0.05382291227579117, 0.999148428440094, -0.07619554549455643, 0.023120880126953125, 1.497802734375, 1.45751953125, 0.117095947265625, 1.49267578125, 1.46484375, 10.0, 1.4120166301727295, 1.5, 1.4120166301727295
15234, -0.15860022604465485, 1.4795790910720825, 1.2673035860061646, -0.0030807512812316418, 0.0002574980026111007, 0.42169108986854553, -0.03947635740041733, 0.0033132056705653667, 0.05858137458562851, -0.83002769947052, -0.9607242941856384, 0.056965526193380356, -0.076776032178374, 0.33479316859370556, 5.974704749198869, 9362.0, 30146.0, 35388.0, 9362.0, 8.33057975769043, 0.02765725553035736, -0.11447910219430923, 0.23704199492931366, 0.01274092961102724, -0.05567006766796112, 0.997167706489563, -0.07619554549455643, 0.023120880126953125, 1.497802734375, 1.29052734375, 0.06378173828125, 1.494873046875, 1.55712890625, 10.0, 1.4111510515213013, 1.5, 1.4111510515213013
15244, -0.1589994877576828, 1.4802014827728271, 1.2688788175582886, -0.003488171612843871, 0.00029170652851462364, 0.4222762882709503, -0.042007721960544586, 0.0035285414196550846, 0.05845927074551582, -0.8300260305404663, -0.9607359170913696, 0.05693582072854042, -0.07817115076206395, 0.33395782422829257, 5.972512491593287, 9362.0, 30146.0, 35388.0, 9362.0, 8.33057975769043, 0.2551229000091553, -0.12789250910282135, -0.24123528599739075, 0.011725480668246746, -0.05464747175574303, 0.9979779124259949, -0.07619554549455643, 0.023120880126953125, 1.497802734375, 1.355712890625, 0.0155029296875, 1.494873046875, 1.084716796875, 10.0, 1.4113370180130005, 1.5, 1.4113370180130005
15254, -0.1581423431634903, 1.4830013513565063, 1.2660644054412842, -0.0039209118112921715, 0.0003280667879153043, 0.4228595793247223, -0.04454030096530914, 0.0037434387486428022, 0.058202046900987625, -0.8300274014472961, -0.9607236385345459, 0.05694808065891266, -0.06793231615143087, 0.34024299676212877, 5.9764137012519924, 9362.0, 30146.0, 35388.0, 9362.0, 8.33057975769043, 0.014873232692480087, -0.14099088311195374, 0.20084843039512634, 0.011602361686527729, -0.053866803646087646, 0.9964128732681274, -0.07619554549455643, 0.023120880126953125, 1.497802734375, 1.071533203125, 1.656829833984375, 1.494873046875, 1.31982421875, 10.0, 1.4116357564926147, 1.5, 1.4116357564926147
15264, -0.1592962145805359, 1.4842731952667236, 1.2670705318450928, -0.004378982819616795, 0.00036657892633229494, 0.4234403073787689, -0.047073885798454285, 0.003959118854254484, 0.057942524552345276, -0.8300231695175171, -0.9607202410697937, 0.05693729966878891, -0.07690518577620317, 0.3409501944591966, 5.977289866393957, 9362.0, 30146.0, 35388.0, 9362.0, 8.33057975769043, -0.026688940823078156, -0.03496142849326134, 0.14627473056316376, 0.012377098202705383, -0.05354553088545799, 0.9984148740768433, -0.07619554549455643, 0.023120880126953125, 1.497802734375, 1.12646484375, 0.9649200439453125, 1.494873046875, 1.522705078125, 10.0, 1.4119799137115479, 1.5, 1.4119799137115479
15274, -0.15879863500595093, 1.486091136932373, 1.2678529024124146, -0.004862402565777302, 0.0004072397423442453, 0.4240180253982544, -0.049610063433647156, 0.004172993823885918, 0.05759965628385544, -0.8300288915634155, -0.9607342481613159, 0.05693801864981651, -0.07334017943192443, 0.34240512456503325, 5.980660009819085, 9362.0, 30146.0, 35388.0, 9362.0, 8.33057975769043, 0.1871946156024933, 0.11568187922239304, 0.08319546282291412, 0.012552100233733654, -0.05457553267478943, 0.9953919649124146, -0.07619554549455643, 0.023120880126953125, 1.497802734375, 1.614990234375, 0.4530181884765625, 1.493408203125, 1.46630859375, 10.0, 1.4122488498687744, 1.5, 1.4122488498687744
15284, -0.1573822796344757, 1.4862984418869019, 1.2676454782485962, -0.005371209233999252, 0.00045004987623542547, 0.4245928227901459, -0.052151214331388474, 0.0043889968656003475, 0.05736306682229042, -0.8300285339355469, -0.9607279300689697, 0.05694282427430153, -0.08034466866010065, 0.3303740025789068, 5.97741465460002, 9362.0, 30146.0, 35388.0, 9362.0, 8.33057975769043, -0.1377142369747162, -0.2874290347099304, -0.09806761145591736, 0.01285472884774208, -0.054375674575567245, 0.9965047836303711, -0.07619554549455643, 0.023120880126953125, 1.497802734375, 1.169677734375, 0.5817718505859375, 1.493408203125, 1.59375, 10.0, 1.4108895063400269, 1.5, 1.4108895063400269
15294, -0.15817014873027802, 1.4878325462341309, 1.2666935920715332, -0.00590541074052453, 0.0004950125585310161, 0.42516404390335083, -0.05468909814953804, 0.004603561945259571, 0.05688178166747093, -0.8300169706344604, -0.9607113599777222, 0.05695730820298195, -0.07952859244535763, 0.3299887400594912, 5.980467669772323, 9362.0, 30146.0, 35388.0, 9362.0, 8.33057975769043, 0.189014732837677, 0.21747328341007233, -0.14026959240436554, 0.009922770783305168, -0.05412256717681885, 0.9979342222213745, -0.07088033854961395, -0.030637741088867188, 1.493408203125, 1.376953125, 0.0225982666015625, 1.49560546875, 1.0107421875, 10.0, 1.4102567434310913, 1.5, 1.4102567434310913
15304, -0.15665532648563385, 1.4877301454544067, 1.265218734741211, -0.006465003825724125, 0.0005421097739599645, 0.4257308840751648, -0.05722956359386444, 0.004815923515707254, 0.056488461792469025, -0.830013632774353, -0.9607293009757996, 0.05695462226867676, -0.07399386229254219, 0.3334266318893526, 5.977309495452231, 9362.0, 30146.0, 35388.0, 9362.0, 8.33057975769043, -0.21925875544548035, -0.3583123981952667, -0.20198681950569153, 0.010923586785793304, -0.053379420191049576, 0.9993506669998169, -0.07088033854961395, -0.030637741088867188, 1.493408203125, 1.544677734375, 0.2900543212890625, 1.49560546875, 1.385009765625, 10.0, 1.4105172157287598, 1.5, 1.4105172157287598
15314, -0.15753121674060822, 1.489332914352417, 1.2639127969741821, -0.007050038315355778, 0.0005913392524234951, 0.4262946844100952, -0.059777334332466125, 0.0050300369039177895, 0.05627425014972687, -0.8300130367279053, -0.9607266187667847, 0.056936632841825485, -0.08078558813875757, 0.34561641244118846, 5.977872153785768, 9362.0, 30146.0, 35388.0, 9362.0, 8.33057975769043, 0.03609083965420723, -0.04144179821014404, 0.06155303493142128, 0.010570359416306019, -0.05411739647388458, 0.998656690120697, -0.07088033854961395, -0.030637741088867188, 1.493408203125, 1.51171875, 0.21942138671875, 1.4912109375, 1.244384765625, 10.0, 1.4101125001907349, 1.5, 1.4101125001907349
15324, -0.15731070935726166, 1.49037766456604, 1.265145182609558, -0.007660564035177231, 0.0006426984909921885, 0.4268569052219391, -0.06232781335711479, 0.005241864360868931, 0.0561731718480587, -0.8300261497497559, -0.9607086777687073, 0.05695150047540665, -0.07642846886101058, 0.3409434471381587, 5.978340724725326, 9362.0, 30146.0, 35388.0, 9362.0, 8.33057975769043, -0.109299436211586, -0.27541619539260864, -0.037178535014390945, 0.010127139277756214, -0.05415303632616997, 0.9993433952331543, -0.07088033854961395, -0.030637741088867188, 1.493408203125, 1.50732421875, 0.2104644775390625, 1.4912109375, 1.049560546875, 10.0, 1.4098433256149292, 1.5, 1.4098433256149292
15334, -0.15826021134853363, 1.4913146495819092, 1.2652204036712646, -0.008296601474285126, 0.0006961828912608325, 0.4274178743362427, -0.06487968564033508, 0.005454959813505411, 0.05601886659860611, -0.8300167918205261, -0.9607201814651489, 0.05694134533405304, -0.07500897488713983, 0.3361533610124354, 5.972083941069625, 9362.0, 30146.0, 35388.0, 9362.0, 8.33057975769043, -0.058069560676813126, -0.016437986865639687, -0.03963416814804077, 0.01105542667210102, -0.0544932521879673, 0.9991415143013, -0.07088033854961395, -0.030637741088867188, 1.493408203125, 1.60546875, 0.43011474609375, 1.494140625, 1.242919921875, 10.0, 1.410042643547058, 1.5, 1.410042643547058
15344, -0.15813949704170227, 1.4922784566879272, 1.2633041143417358, -0.008958172053098679, 0.0007517962949350476, 0.4279775023460388, -0.0674344003200531, 0.005667723715305328, 0.055905524641275406, -0.8300185203552246, -0.9607186913490295, 0.05696778744459152, -0.07323177848350049, 0.3353087654648732, 5.979129792884092, 9362.0, 30146.0, 35388.0, 9362.0, 8.33057975769043, -0.17492461204528809, 0.1138208732008934, 0.24612784385681152, 0.013083954341709614, -0.055203426629304886, 0.9975137710571289, -0.07088033854961395, -0.030637741088867188, 1.493408203125, 1.4736328125, 0.1452178955078125, 1.494140625, 1.314697265625, 10.0, 1.410104751586914, 1.5, 1.410104751586914
15354, -0.15914641320705414, 1.4928463697433472, 1.2647790908813477, -0.009645296260714531, 0.0008095451048575342, 0.42853590846061707, -0.06999034434556961, 0.005882128607481718, 0.05577627941966057, -0.8300232291221619, -0.9607267379760742, 0.05695323646068573, -0.07281845676852908, 0.34170886320205796, 5.971128916664278, 9362.0, 30146.0, 35388.0, 9362.0, 8.33057975769043, -0.27256983518600464, 0.10267611593008041, -0.1075444296002388, 0.01214444637298584, -0.05343083664774895, 0.9975410103797913, -0.07088033854961395, -0.030637741088867188, 1.493408203125, 1.359375, 0.0160980224609375, 1.49267578125, 1.11767578125, 10.0, 1.4098148345947266, 1.5, 1.4098148345947266
15364, -0.1599179059267044, 1.4923768043518066, 1.2630189657211304, -0.010357971303164959, 0.0008694358402863145, 0.4290924072265625, -0.07254471629858017, 0.00609595188871026, 0.0555243119597435, -0.83001708984375, -0.9607312083244324, 0.05694904178380966, -0.07574274738419422, 0.3425773081935404, 5.983047235426581, 9362.0, 30146.0, 35388.0, 9362.0, 8.33057975769043, -0.07150968164205551, -0.08077315986156464, 0.12602852284908295, 0.011189298704266548, -0.05293918028473854, 0.9982789754867554, -0.07088033854961395, -0.030637741088867188, 1.493408203125, 1.27001953125, 0.10626220703125, 1.49267578125, 1.385009765625, 10.0, 1.4091346263885498, 1.5, 1.4091346263885498
15374, -0.15935947000980377, 1.4918360710144043, 1.263115644454956, -0.01109619066119194, 0.0009314725175499916, 0.42964619398117065, -0.07509907335042953, 0.00631146552041173, 0.05523282289505005, -0.8300099968910217, -0.9607295393943787, 0.05695502832531929, -0.08609361403548085, 0.3416831550557049, 5.980604043032466, 9362.0, 30146.0, 35388.0, 9362.0, 8.33057975769043, -0.12540730834007263, -0.10992004722356796, -0.05154305696487427, 0.009697438217699528, -0.0531315878033638, 0.999259889125824, -0.07088033854961395, -0.030637741088867188, 1.493408203125, 1.635498046875, 0.5028533935546875, 1.49267578125, 1.46630859375, 10.0, 1.4096277952194214, 1.5, 1.4096277952194214
15384, -0.15869784355163574, 1.4910523891448975, 1.2619035243988037, -0.011859961785376072, 0.0009956725407391787, 0.430197536945343, -0.07765514403581619, 0.006528525147587061, 0.055036574602127075, -0.8300068378448486, -0.960719645023346, 0.05695795640349388, -0.08217449735539, 0.3339141931516565, 5.987727616567293, 9362.0, 30146.0, 35388.0, 9362.0, 8.33057975769043, -0.2972811758518219, -0.10703519731760025, 0.16733390092849731, 0.010304506868124008, -0.05561668053269386, 0.999468982219696, -0.07088033854961395, -0.030637741088867188, 1.493408203125, 1.11181640625, 1.125274658203125, 1.49267578125, 1.538818359375, 10.0, 1.4095847606658936, 1.5, 1.4095847606658936
15394, -0.16059528291225433, 1.4916012287139893, 1.2611442804336548, -0.012649301439523697, 0.0010620395187288523, 0.4307474195957184, -0.08021280914545059, 0.0067449212074279785, 0.05493813753128052, -0.8300215005874634, -0.9607324600219727, 0.05693332105875015, -0.07637786738966611, 0.3327806902663042, 5.9785978376239575, 9362.0, 30146.0, 35388.0, 9362.0, 8.33057975769043, -0.014531596563756466, 0.19354045391082764, -0.12847192585468292, 0.01124560460448265, -0.056682419031858444, 0.9987453818321228, -0.06770560890436172, -0.06647872924804688, 1.490478515625, 1.387939453125, 0.0297393798828125, 1.494873046875, 1.644287109375, 10.0, 1.4083797931671143, 1.5, 1.4083797931671143
15404, -0.1603894680738449, 1.4891622066497803, 1.2597713470458984, -0.013464212417602539, 0.0011305653024464846, 0.43129637837409973, -0.08276943862438202, 0.006960273254662752, 0.05485226958990097, -0.8300264477729797, -0.9607256650924683, 0.0569404736161232, -0.08057507215993691, 0.3387410163271056, 5.981348218513456, 9362.0, 30146.0, 35388.0, 9362.0, 8.33057975769043, -0.04688938334584236, -0.20648305118083954, 0.10289352387189865, 0.011458045803010464, -0.05579304322600365, 0.9964640736579895, -0.06770560890436172, -0.06647872924804688, 1.490478515625, 1.509521484375, 0.2148895263671875, 1.494873046875, 1.191650390625, 10.0, 1.4081785678863525, 1.5, 1.4081785678863525
15414, -0.1607639491558075, 1.4917292594909668, 1.258953332901001, -0.014304683543741703, 0.0012012599036097527, 0.431844025850296, -0.08532475680112839, 0.007178716827183962, 0.05467815324664116, -0.8300048112869263, -0.9607203006744385, 0.056954413652420044, -0.07347435973961887, 0.337709307660333, 5.979316684350646, 9362.0, 30146.0, 35388.0, 9362.0, 8.33057975769043, 0.1716032475233078, -0.13011986017227173, -0.07517487555742264, 0.012629598379135132, -0.054913103580474854, 0.9971965551376343, -0.06770560890436172, -0.06647872924804688, 1.490478515625, 1.357177734375, 0.0157928466796875, 1.489013671875, 1.45458984375, 10.0, 1.409077525138855, 1.5, 1.409077525138855
15424, -0.15972846746444702, 1.4933409690856934, 1.2565418481826782, -0.015170663595199585, 0.0012741360114887357, 0.4323890507221222, -0.08787122368812561, 0.007396535016596317, 0.05432431772351265, -0.8300043344497681, -0.9607259035110474, 0.05694248527288437, -0.07956904511148423, 0.33695245921882133, 5.986433491516953, 9362.0, 30146.0, 35388.0, 9362.0, 8.33057975769043, 0.09621882438659668, 0.1278633028268814, -0.07979840040206909, 0.013841696083545685, -0.05548034980893135, 0.9976312518119812, -0.06770560890436172, -0.06647872924804688, 1.490478515625, 1.013671875, 2.6877899169921875, 1.489013671875, 1.4443359375, 10.0, 1.4096078872680664, 1.5, 1.4096078872680664
15434, -0.15903811156749725, 1.493575096130371, 1.2555558681488037, -0.016062134876847267, 0.0013491936260834336, 0.43293070793151855, -0.09042307734489441, 0.007615095004439354, 0.054008763283491135, -0.8300223350524902, -0.96073317527771, 0.05693657696247101, -0.0752031954525822, 0.33519775463895485, 5.9785063012741535, 9362.0, 30146.0, 35388.0, 9362.0, 8.33057975769043, -0.07963979989290237, -0.31063112616539, 0.05583914741873741, 0.01281965896487236, -0.05530606210231781, 0.9977123737335205, -0.06770560890436172, -0.06647872924804688, 1.490478515625, 1.5732421875, 0.354736328125, 1.491943359375, 1.12353515625, 10.0, 1.4094074964523315, 1.5, 1.4094074964523315
15444, -0.1592399626970291, 1.4955415725708008, 1.2570998668670654, -0.016979141160845757, 0.001426428323611617, 0.433469295501709, -0.09297803044319153, 0.007831902243196964, 0.053708069026470184, -0.8300231695175171, -0.9607301354408264, 0.056954964995384216, -0.08682930043818975, 0.3342265936724971, 5.968881601552615, 9362.0, 30146.0, 35388.0, 9362.0, 8.33057975769043, -0.11017652601003647, 0.2659092843532562, 0.3577435314655304, 0.01107326801866293, -0.05299428105354309, 0.998354971408844, -0.06770560890436172, -0.06647872924804688, 1.490478515625, 1.45458984375, 0.11224365234375, 1.491943359375, 1.269287109375, 10.0, 1.4095641374588013, 1.5, 1.4095641374588013
15454, -0.15984511375427246, 1.4933034181594849, 1.2596468925476074, -0.017921702936291695, 0.0015058259014040232, 0.4340050518512726, -0.0955343097448349, 0.00804753229022026, 0.05344461277127266, -0.8300197720527649, -0.9607201814651489, 0.05695328861474991, -0.08139098546959393, 0.3459013524087595, 5.972601702251708, 9362.0, 30146.0, 35388.0, 9362.0, 8.33057975769043, 0.03060036152601242, 0.014238601550459862, -0.21156270802021027, 0.011438047513365746, -0.0537835955619812, 0.9990787506103516, -0.06770560890436172, -0.06647872924804688, 1.490478515625, 1.1630859375, 0.6321258544921875, 1.4912109375, 1.554931640625, 10.0, 1.4101531505584717, 1.5, 1.4101531505584717
15464, -0.16000838577747345, 1.4928278923034668, 1.2585830688476562, -0.018889857456088066, 0.0015873818192631006, 0.43453866243362427, -0.09809649735689163, 0.00826353020966053, 0.053276751190423965, -0.8300188779830933, -0.960729718208313, 0.056955184787511826, -0.07873713750578339, 0.3422461849795013, 5.972490441134018, 9362.0, 30146.0, 35388.0, 9362.0, 8.33057975769043, 0.06987816840410233, 0.05961335822939873, 0.2732292413711548, 0.012935240752995014, -0.05192745104432106, 0.9997711777687073, -0.06770560890436172, -0.06647872924804688, 1.490478515625, 1.43701171875, 0.085052490234375, 1.4912109375, 1.408447265625, 10.0, 1.4095829725265503, 1.5, 1.4095829725265503
15474, -0.1598670482635498, 1.4927960634231567, 1.258862853050232, -0.019883621484041214, 0.0016711032949388027, 0.43507087230682373, -0.10065633058547974, 0.008480818942189217, 0.05316527932882309, -0.8300195932388306, -0.960724949836731, 0.056965917348861694, -0.0772880673612218, 0.33987931673217986, 5.982297608031953, 9362.0, 30146.0, 35388.0, 9362.0, 8.33057975769043, -0.057237882167100906, -0.07109660655260086, -0.22131898999214172, 0.011799379251897335, -0.05258612334728241, 0.9972813725471497, -0.06770560890436172, -0.06647872924804688, 1.490478515625, 1.329345703125, 0.02105712890625, 1.49267578125, 1.380615234375, 10.0, 1.408711314201355, 1.5, 1.408711314201355
15484, -0.16035497188568115, 1.4937498569488525, 1.2559945583343506, -0.020902980118989944, 0.001756999408826232, 0.43560194969177246, -0.10321535170078278, 0.008698390796780586, 0.053052689880132675, -0.8300279974937439, -0.9607202410697937, 0.05694200471043587, -0.07916970785626663, 0.34096316110952785, 5.984745479586082, 9362.0, 30146.0, 35388.0, 9362.0, 8.33057975769043, 0.04539523646235466, 0.05878526717424393, -0.13911862671375275, 0.015001722611486912, -0.054195571690797806, 0.9967910051345825, -0.06770560890436172, -0.06647872924804688, 1.490478515625, 1.083984375, 1.4775848388671875, 1.49267578125, 1.412841796875, 10.0, 1.409300684928894, 1.5, 1.409300684928894
15494, -0.159956693649292, 1.4950034618377686, 1.2542405128479004, -0.021947909146547318, 0.001845068298280239, 0.43613114953041077, -0.10577031970024109, 0.008915511891245842, 0.052788104861974716, -0.8300254940986633, -0.9607188105583191, 0.056945983320474625, -0.08040072889923247, 0.340540247385718, 5.977007839111655, 9362.0, 30146.0, 35388.0, 9362.0, 8.33057975769043, -0.057845234870910645, 0.24826939404010773, 0.07791004329919815, 0.01492012944072485, -0.05385323613882065, 0.9953480362892151, -0.06060722842812538, -0.05751800537109375, 1.4912109375, 1.60986328125, 0.4406585693359375, 1.48974609375, 1.311767578125, 10.0, 1.4096312522888184, 1.5, 1.4096312522888184
15504, -0.16075710952281952, 1.494020938873291, 1.255791187286377, -0.023018386214971542, 0.0019353121751919389, 0.4366573095321655, -0.10832487046718597, 0.009133336134254932, 0.052445340901613235, -0.8300110697746277, -0.9607223868370056, 0.05695327743887901, -0.08346367759062252, 0.34208479403832825, 5.977573203094831, 9362.0, 30146.0, 35388.0, 9362.0, 8.33057975769043, 0.13701267540454865, 0.03847099095582962, -0.056961312890052795, 0.012759514153003693, -0.05423186346888542, 0.9959176182746887, -0.06060722842812538, -0.05751800537109375, 1.4912109375, 1.423095703125, 0.06591796875, 1.48974609375, 1.644287109375, 10.0, 1.4093660116195679, 1.5, 1.4093660116195679
15514, -0.16057336330413818, 1.494606614112854, 1.2553502321243286, -0.024114400148391724, 0.0020277295261621475, 0.4371793866157532, -0.11087808012962341, 0.009350061416625977, 0.05196863040328026, -0.8300196528434753, -0.9607148170471191, 0.05695066601037979, -0.07296957087605573, 0.3439456813227082, 5.977017522983667, 9362.0, 30146.0, 35388.0, 9362.0, 8.33057975769043, 0.09248419851064682, -0.035469502210617065, 0.00034758716356009245, 0.012620293535292149, -0.05438634380698204, 0.9977741241455078, -0.06060722842812538, -0.05751800537109375, 1.4912109375, 1.269287109375, 0.1081085205078125, 1.496337890625, 1.06787109375, 10.0, 1.4087011814117432, 1.5, 1.4087011814117432
15524, -0.16062819957733154, 1.494921088218689, 1.2555228471755981, -0.025235947221517563, 0.002122321631759405, 0.43769702315330505, -0.11343136429786682, 0.009568361565470695, 0.051558200269937515, -0.8300132155418396, -0.9607310891151428, 0.05694537237286568, -0.08418584157385157, 0.34041112791285855, 5.980709143092249, 9362.0, 30146.0, 35388.0, 9362.0, 8.33057975769043, -0.13724453747272491, -0.2246198058128357, 0.29494306445121765, 0.011705446057021618, -0.05322440713644028, 0.999350905418396, -0.06060722842812538, -0.05751800537109375, 1.4912109375, 1.443603515625, 0.0948486328125, 1.496337890625, 1.257568359375, 10.0, 1.408674955368042, 1.5, 1.408674955368042
15534, -0.16192716360092163, 1.49626624584198, 1.2569772005081177, -0.02638305351138115, 0.002219096990302205, 0.4382113814353943, -0.11599002033472061, 0.009786692447960377, 0.05131550878286362, -0.830012321472168, -0.9607311487197876, 0.056945547461509705, -0.08099096649399024, 0.34204443435535836, 5.971586468116564, 9362.0, 30146.0, 35388.0, 9362.0, 8.33057975769043, 0.23132064938545227, -0.25861355662345886, -0.045505374670028687, 0.013044041581451893, -0.05387772619724274, 0.9990028142929077, -0.06060722842812538, -0.05751800537109375, 1.4912109375, 1.083984375, 1.4775848388671875, 1.49560546875, 1.483154296875, 10.0, 1.409199595451355, 1.5, 1.409199595451355
15544, -0.1615303009748459, 1.4970965385437012, 1.2570562362670898, -0.027555767446756363, 0.0023180574644356966, 0.43872401118278503, -0.11855285614728928, 0.010005350224673748, 0.0512116402387619, -0.8300200700759888, -0.9607218503952026, 0.05694491043686867, -0.08617139252822996, 0.34271796230615337, 5.977431635581042, 9362.0, 30146.0, 35388.0, 9362.0, 8.33057975769043, 0.08680830895900726, 0.18630968034267426, 0.13080628216266632, 0.01457564439624548, -0.053203828632831573, 0.9979693293571472, -0.06060722842812538, -0.05751800537109375, 1.4912109375, 1.270751953125, 0.104522705078125, 1.49560546875, 1.237060546875, 10.0, 1.4085699319839478, 1.5, 1.4085699319839478
15554, -0.1609521359205246, 1.4956763982772827, 1.258100986480713, -0.028754116967320442, 0.0024192146956920624, 0.4392354190349579, -0.12111706286668777, 0.010226089507341385, 0.051070407032966614, -0.8300120234489441, -0.9607161283493042, 0.05694112926721573, -0.072005461008558, 0.3402131391771661, 5.976619399360543, 9362.0, 30146.0, 35388.0, 9362.0, 8.33057975769043, 0.07973959296941757, 0.40303999185562134, -0.14119847118854523, 0.015954405069351196, -0.05352599173784256, 1.000035047531128, -0.06060722842812538, -0.05751800537109375, 1.4912109375, 1.47802734375, 0.1532745361328125, 1.4912109375, 1.215087890625, 10.0, 1.4084560871124268, 1.5, 1.4084560871124268
15564, -0.1606358289718628, 1.4940727949142456, 1.25611412525177, -0.029978105798363686, 0.002522574970498681, 0.4397450387477875, -0.12368077784776688, 0.010445913299918175, 0.05085660144686699, -0.830013632774353, -0.9607219099998474, 0.05694722384214401, -0.08134654608893119, 0.3418514980876921, 5.977381952106076, 9362.0, 30146.0, 35388.0, 9362.0, 8.33057975769043, -0.04720259830355644, -0.2603273391723633, 0.12759418785572052, 0.014027810655534267, -0.05489528179168701, 0.9986230134963989, -0.06060722842812538, -0.05751800537109375, 1.4912109375, 1.343994140625, 0.015899658203125, 1.4912109375, 1.289794921875, 10.0, 1.4087430238723755, 1.5, 1.4087430238723755
15574, -0.16059358417987823, 1.496045470237732, 1.257017970085144, -0.03122773766517639, 0.002628130139783025, 0.44025325775146484, -0.12624576687812805, 0.010665204375982285, 0.050785064697265625, -0.8300234079360962, -0.9607135653495789, 0.05694074183702469, -0.07070764068903959, 0.33469371368374823, 5.980087447799505, 9362.0, 30146.0, 35388.0, 9362.0, 8.33057975769043, -0.034454863518476486, -0.2802579998970032, 0.11171408742666245, 0.013124359771609306, -0.05332920327782631, 0.999008297920227, -0.06060722842812538, -0.05751800537109375, 1.4912109375, 1.376220703125, 0.0222930908203125, 1.49560546875, 1.36962890625, 10.0, 1.4092953205108643, 1.5, 1.4092953205108643
15584, -0.16003896296024323, 1.498487949371338, 1.2571033239364624, -0.032502997666597366, 0.0027358755469322205, 0.44076046347618103, -0.12880642712116241, 0.010883845388889313, 0.05065396428108215, -0.8300142288208008, -0.9607189893722534, 0.05695856735110283, -0.07903158034284731, 0.33924074177249963, 5.983266926060655, 9362.0, 30146.0, 35388.0, 9362.0, 8.33057975769043, 0.08424995839595795, 0.16237308084964752, -0.00982994120568037, 0.01272367499768734, -0.054961975663900375, 0.9981549978256226, -0.06060722842812538, -0.05751800537109375, 1.4912109375, 1.1103515625, 1.1422271728515625, 1.49560546875, 1.430419921875, 10.0, 1.4099314212799072, 1.5, 1.4099314212799072
15594, -0.159457728266716, 1.4958317279815674, 1.2570116519927979, -0.03380388393998146, 0.0028458067681640387, 0.4412664473056793, -0.13137100636959076, 0.011102380231022835, 0.05054314807057381, -0.830015242099762, -0.9607182741165161, 0.05695637688040733, -0.07448521252123776, 0.33301695730312986, 5.9852727407282496, 9362.0, 30146.0, 35388.0, 9362.0, 8.33057975769043, -0.01667896844446659, -0.3762541115283966, -0.17280606925487518, 0.01217904593795538, -0.05418789014220238, 0.9983867406845093, -0.06207630783319473, -0.1291980743408203, 1.4853515625, 1.165283203125, 0.615020751953125, 1.48828125, 1.46337890625, 10.0, 1.4106165170669556, 1.5, 1.4106165170669556
15604, -0.15957807004451752, 1.4967458248138428, 1.256575345993042, -0.03513042628765106, 0.0029579170513898134, 0.44177088141441345, -0.13393746316432953, 0.011319687590003014, 0.05034562200307846, -0.8299960494041443, -0.9607231616973877, 0.056955061852931976, -0.08119000911887403, 0.3375580864090182, 5.977526639223111, 9362.0, 30146.0, 35388.0, 9362.0, 8.33057975769043, -0.11040083318948746, 0.19189541041851044, -0.013344897888600826, 0.012763435021042824, -0.052762776613235474, 0.996985912322998, -0.06207630783319473, -0.1291980743408203, 1.4853515625, 1.446533203125, 0.09930419921875, 1.48828125, 1.398193359375, 10.0, 1.4111257791519165, 1.5, 1.4111257791519165
15614, -0.15989477932453156, 1.4953619241714478, 1.2563016414642334, -0.03648260980844498, 0.0030721959192305803, 0.4422733187675476, -0.13649916648864746, 0.011536101810634136, 0.05013952776789665, -0.8297630548477173, -0.9606088995933533, 0.05725596100091934, -0.2111798821505518, 0.20160911480317623, 6.111299922173679, 9362.0, 30146.0, 35388.0, 9362.0, 8.33057975769043, -0.004197628237307072, -0.15393361449241638, -0.05229313299059868, 0.01185787282884121, -0.05206023529171944, 0.9974024295806885, -0.06207630783319473, -0.1291980743408203, 1.4853515625, 1.714599609375, 0.7078094482421875, 1.5, 1.163818359375, 10.0, 1.411096453666687, 1.5, 1.411096453666687
15624, -0.15987442433834076, 1.4959241151809692, 1.2562545537948608, -0.03786040470004082, 0.0031886387150734663, 0.44277313351631165, -0.13905954360961914, 0.01175245363265276, 0.04982398450374603, -0.8300114870071411, -0.9607164263725281, 0.05697837844491005, -0.0803108855002799, 0.3374550952662787, 5.984137760907516, 9362.0, 30146.0, 35388.0, 9362.0, 8.33057975769043, -0.0141896428540349, 0.1229374036192894, 0.19496819376945496, 0.012016350403428078, -0.05360569432377815, 0.9980273246765137, -0.06207630783319473, -0.1291980743408203, 1.4853515625, 1.0166015625, 2.6270904541015625, 1.5, 1.650146484375, 10.0, 1.4112523794174194, 1.5, 1.4112523794174194
15634, -0.1596984565258026, 1.4951306581497192, 1.2571802139282227, -0.03926379233598709, 0.003307248232886195, 0.44326990842819214, -0.14161820709705353, 0.011969457380473614, 0.04953300952911377, -0.8300598859786987, -0.960749626159668, 0.0569719634950161, -0.08661174004323433, 0.3125229307987354, 6.044660659795066, 9362.0, 30146.0, 35388.0, 9362.0, 8.33057975769043, -0.07944870740175247, -0.30430909991264343, -0.27849313616752625, 0.012261247262358665, -0.05348631739616394, 0.9981923699378967, -0.06207630783319473, -0.1291980743408203, 1.4853515625, 1.60107421875, 0.4197540283203125, 1.493408203125, 1.307373046875, 10.0, 1.41150963306427, 1.5, 1.41150963306427
15644, -0.1606370061635971, 1.4969067573547363, 1.2562874555587769, -0.040692780166864395, 0.003428027965128422, 0.4437640309333801, -0.14417913556098938, 0.012186472304165363, 0.04929134249687195, -0.8300621509552002, -0.9607676863670349, 0.05696530640125275, -0.08484331975380825, 0.30522854954514855, 6.045695298933239, 9362.0, 30146.0, 35388.0, 9362.0, 8.33057975769043, -0.026452871039509773, 0.032999906688928604, 0.23839335143566132, 0.010737475007772446, -0.054243460297584534, 0.9980455636978149, -0.06207630783319473, -0.1291980743408203, 1.4853515625, 1.248046875, 0.169647216796875, 1.493408203125, 1.646484375, 10.0, 1.4105324745178223, 1.5, 1.4105324745178223
15654, -0.1613636463880539, 1.497261643409729, 1.2573378086090088, -0.04214737191796303, 0.003550976747646928, 0.44425585865974426, -0.14673925936222076, 0.012403304688632488, 0.04907171055674553, -0.8301246762275696, -0.9607782959938049, 0.056921299546957016, -0.09278514405261291, 0.2924554446005061, 6.06316589774968, 9362.0, 30146.0, 35388.0, 9362.0, 8.33057975769043, -0.055529434233903885, 0.30646950006484985, 0.3129991590976715, 0.012862094677984715, -0.05463794618844986, 0.9984380602836609, -0.06207630783319473, -0.1291980743408203, 1.4853515625, 1.541748046875, 0.2835540771484375, 1.5, 1.185791015625, 10.0, 1.4112781286239624, 1.5, 1.4112781286239624
15664, -0.16142036020755768, 1.4957542419433594, 1.2585958242416382, -0.043627578765153885, 0.003676101565361023, 0.4447454512119293, -0.14930222928524017, 0.01262161135673523, 0.04884500429034233, -0.83006352186203, -0.9607546329498291, 0.05698435753583908, -0.08965520862238911, 0.30797919978462573, 6.0451851738765265, 9362.0, 30146.0, 35388.0, 9362.0, 8.33057975769043, -0.04888522997498512, -0.3107476830482483, -0.11887489259243011, 0.014384265057742596, -0.05399088189005852, 0.9987908601760864, -0.06207630783319473, -0.1291980743408203, 1.4853515625, 1.58349609375, 0.3784332275390625, 1.5, 1.576904296875, 10.0, 1.4105100631713867, 1.5, 1.4105100631713867
15674, -0.16161619126796722, 1.4988117218017578, 1.2570217847824097, -0.04513342306017876, 0.0038034156896173954, 0.44523295760154724, -0.15186691284179688, 0.012841178104281425, 0.048657093197107315, -0.8300573825836182, -0.9607604146003723, 0.056966960430145264, -0.08687366654547411, 0.31194643691688384, 6.033398810185089, 9362.0, 30146.0, 35388.0, 9362.0, 8.33057975769043, -0.12552113831043243, -0.5088231563568115, -0.08553474396467209, 0.012154720723628998, -0.054511748254299164, 0.9974467754364014, -0.06207630783319473, -0.1291980743408203, 1.4853515625, 1.30224609375, 0.0460052490234375, 1.493408203125, 1.341796875, 10.0, 1.4111099243164062, 1.5, 1.4111099243164062
15684, -0.16185158491134644, 1.5015140771865845, 1.256142497062683, -0.04666490852832794, 0.0039329263381659985, 0.44571879506111145, -0.15443018078804016, 0.013061066158115864, 0.048513077199459076, -0.8300662040710449, -0.9607537984848022, 0.05696890503168106, -0.09063256277284473, 0.30390159945318374, 6.045684830796765, 9362.0, 30146.0, 35388.0, 9362.0, 8.350414276123047, -0.049075715243816376, -0.23801079392433167, -0.15543274581432343, 0.011545244604349136, -0.05330648273229599, 0.9964835047721863, -0.06207630783319473, -0.1291980743408203, 1.4853515625, 1.1396484375, 0.83428955078125, 1.493408203125, 1.53076171875, 10.0, 1.411610722541809, 1.5, 1.411610722541809
15694, -0.16226701438426971, 1.5023901462554932, 1.25552237033844, -0.04822203144431114, 0.004064635839313269, 0.4462023675441742, -0.1569942981004715, 0.013280844315886497, 0.04820381850004196, -0.8300495743751526, -0.960756242275238, 0.05699334293603897, -0.08379874755716875, 0.30791538269585317, 6.047316094691342, 9362.0, 30146.0, 35388.0, 9362.0, 8.350414276123047, -0.1344504952430725, 0.04759544879198074, 0.24461673200130463, 0.012317423708736897, -0.055316220968961716, 0.9968617558479309, -0.0668657049536705, -0.030637741088867188, 1.493408203125, 1.516845703125, 0.23004150390625, 1.49560546875, 1.49560546875, 10.0, 1.410422682762146, 1.5, 1.410422682762146
15704, -0.16251568496227264, 1.5024192333221436, 1.2569137811660767, -0.04980481043457985, 0.004198544193059206, 0.44668257236480713, -0.15956158936023712, 0.013500823639333248, 0.047838758677244186, -0.8300576210021973, -0.9607628583908081, 0.05696956440806389, -0.08433806057500125, 0.31321262631624336, 6.044716163479576, 9362.0, 30146.0, 35388.0, 9362.0, 8.350414276123047, 0.09009376168251038, 0.38851845264434814, -0.4363122582435608, 0.011287746019661427, -0.052883926779031754, 0.9987955093383789, -0.0668657049536705, -0.030637741088867188, 1.493408203125, 1.51904296875, 0.2346954345703125, 1.49560546875, 1.62158203125, 10.0, 1.4096735715866089, 1.5, 1.4096735715866089
15714, -0.16209283471107483, 1.5007469654083252, 1.255218267440796, -0.05141328275203705, 0.004334656521677971, 0.4471595585346222, -0.16213269531726837, 0.01372161228209734, 0.047560758888721466, -0.8300731182098389, -0.9607529044151306, 0.05696340650320053, -0.08532714633310681, 0.31114840777618724, 6.049234455408382, 9362.0, 30146.0, 35388.0, 9362.0, 8.350414276123047, -0.08783933520317078, -0.2330746203660965, -0.21883146464824677, 0.012968827970325947, -0.05511846765875816, 0.9987715482711792, -0.0668657049536705, -0.030637741088867188, 1.493408203125, 1.556396484375, 0.316192626953125, 1.491943359375, 1.2861328125, 10.0, 1.4092068672180176, 1.5, 1.4092068672180176
15724, -0.1616644412279129, 1.502374529838562, 1.253911018371582, -0.053047481924295425, 0.00447298027575016, 0.44763439893722534, -0.16470719873905182, 0.01394319161772728, 0.047410424798727036, -0.8300649523735046, -0.9607551097869873, 0.05696997046470642, -0.08319858258120999, 0.30844160719763636, 6.046021198634014, 9362.0, 30146.0, 35388.0, 9362.0, 8.350414276123047, 0.013652289286255836, 0.06355956941843033, 0.1082206517457962, 0.014162709936499596, -0.05486247316002846, 0.9991926550865173, -0.0668657049536705, -0.030637741088867188, 1.493408203125, 1.248046875, 0.169647216796875, 1.491943359375, 1.3740234375, 10.0, 1.4095100164413452, 1.5, 1.4095100164413452
15744, -0.16065505146980286, 1.503517746925354, 1.2528163194656372, -0.05470741167664528, 0.004613516852259636, 0.4481077492237091, -0.16727876663208008, 0.01416416559368372, 0.04725771024823189, -0.830060601234436, -0.9607594013214111, 0.05697524547576904, -0.08658258345928753, 0.3076364928712394, 6.050648762799121, 9362.0, 30146.0, 35388.0, 9362.0, 8.350414276123047, 0.028864722698926926, 0.054586127400398254, 0.045132655650377274, 0.014162709936499596, -0.05486247316002846, 0.9991926550865173, -0.0668657049536705, -0.030637741088867188, 1.493408203125, 1.248046875, 0.169647216796875, 1.491943359375, 1.39453125, 10.0, 1.4095100164413452, 1.5, 1.4095100164413452
15754, -0.16093042492866516, 1.504819393157959, 1.252319574356079, -0.05470741167664528, 0.004613516852259636, 0.4481077492237091, -0.16727876663208008, 0.01416416559368372, 0.04725771024823189, -0.8300668001174927, -0.9607581496238708, 0.05699118226766586, -0.08656282103503696, 0.3045163211347699, 6.046870644975761, 9362.0, 30146.0, 35388.0, 9362.0, 8.350414276123047, 0.028864722698926926, 0.054586127400398254, 0.045132655650377274, 0.014162709936499596, -0.05486247316002846, 0.9991926550865173, -0.0668657049536705, -0.030637741088867188, 1.493408203125, 1.248046875, 0.169647216796875, 1.491943359375, 1.08544921875, 10.0, 1.4099104404449463, 1.5, 1.4099104404449463
15764, -0.16050176322460175, 1.50697922706604, 1.2506053447723389, -0.05470741167664528, 0.004613516852259636, 0.4481077492237091, -0.16727876663208008, 0.01416416559368372, 0.04725771024823189, -0.8300604820251465, -0.9607553482055664, 0.05696338787674904, -0.0874163155196063, 0.3065467670732289, 6.048570654196769, 9362.0, 30146.0, 35388.0, 9362.0, 8.350414276123047, 0.09291676431894302, -0.22896568477153778, -0.18846608698368073, 0.01298345997929573, -0.05354926735162735, 0.9993747472763062, -0.0668657049536705, -0.030637741088867188, 1.493408203125, 1.248046875, 0.169647216796875, 1.491943359375, 1.062744140625, 10.0, 1.4095031023025513, 1.5, 1.4095031023025513
15774, -0.15991659462451935, 1.5086477994918823, 1.2489886283874512, -0.05470741167664528, 0.004613516852259636, 0.4481077492237091, -0.16727876663208008, 0.01416416559368372, 0.04725771024823189, -0.8301239013671875, -0.9607254266738892, 0.05695953220129013, -0.06704240672857965, 0.29103950876827867, 6.05785513717727, 9362.0, 30146.0, 35388.0, 9362.0, 8.350414276123047, 0.2793261408805847, -0.09319772571325302, 0.23582050204277039, 0.012497912161052227, -0.05217338353395462, 1.0001100301742554, -0.0668657049536705, -0.030637741088867188, 1.493408203125, 1.248046875, 0.169647216796875, 1.49560546875, 1.40478515625, 10.0, 1.4085416793823242, 1.5, 1.4085416793823242
15784, -0.15947860479354858, 1.510625958442688, 1.2495968341827393, -0.06339310109615326, 0.005349133629351854, 0.45044413208961487, -0.1801537573337555, 0.015258566476404667, 0.04608722776174545, -0.8300603628158569, -0.9607630372047424, 0.05696333199739456, -0.0895945364989382, 0.3125641325149502, 6.042673772438392, 9362.0, 30146.0, 35388.0, 9362.0, 8.350414276123047, 0.03771837055683136, 0.3742457330226898, -0.14743217825889587, 0.011437431909143925, -0.05366028472781181, 1.000872254371643, -0.0668657049536705, -0.030637741088867188, 1.493408203125, 1.248046875, 0.169647216796875, 1.49560546875, 0.9638671875, 10.0, 1.4080414772033691, 1.5, 1.4080414772033691
15794, -0.15892207622528076, 1.5089023113250732, 1.248746395111084, -0.06339310109615326, 0.005349133629351854, 0.45044413208961487, -0.1801537573337555, 0.015258566476404667, 0.04608722776174545, -0.8300564885139465, -0.9607551693916321, 0.05697621405124664, -0.08537339728235398, 0.3035267080680626, 6.042584071799693, 9362.0, 30146.0, 35388.0, 9362.0, 8.350414276123047, -0.07104726880788803, -0.07927505671977997, 0.10562360286712646, 0.012523215264081955, -0.05454934760928154, 0.9996644854545593, -0.07675325125455856, 0.10376167297363281, 1.50439453125, 1.248046875, 0.169647216796875, 1.49560546875, 1.3974609375, 10.0, 1.4081932306289673, 1.5, 1.4081932306289673
15804, -0.15983164310455322, 1.5079666376113892, 1.2495943307876587, -0.06704796850681305, 0.005658650305122137, 0.4513658583164215, -0.18533602356910706, 0.015692831948399544, 0.04612048342823982, -0.8300628066062927, -0.9607597589492798, 0.05696801096200943, -0.08374005194008609, 0.3107504410013462, 6.042740517022905, 9362.0, 30146.0, 35388.0, 9362.0, 8.350414276123047, 0.14610746502876282, 0.22426284849643707, 0.106167271733284, 0.012231538072228432, -0.055146895349025726, 0.9984278678894043, -0.07675325125455856, 0.10376167297363281, 1.50439453125, 1.248046875, 0.169647216796875, 1.49560546875, 1.38720703125, 10.0, 1.4085041284561157, 1.5, 1.4085041284561157
15824, -0.15951655805110931, 1.5066996812820435, 1.2501264810562134, -0.07080641388893127, 0.005976825952529907, 0.45228609442710876, -0.19050633907318115, 0.016125405207276344, 0.04585915803909302, -0.8301160931587219, -0.9607810974121094, 0.05695876106619835, -0.09495917448688336, 0.2909280633000151, 6.048510954079774, 9362.0, 30146.0, 35388.0, 9362.0, 8.350414276123047, -0.161860853433609, 0.10055377334356308, 0.04485982283949852, 0.01070934347808361, -0.05424703657627106, 0.9986032247543335, -0.07675325125455856, 0.10376167297363281, 1.50439453125, 1.248046875, 0.169647216796875, 1.494140625, 1.201904296875, 10.0, 1.4071760177612305, 1.5, 1.4071760177612305
15834, -0.16020426154136658, 1.5077863931655884, 1.2501319646835327, -0.07272440195083618, 0.0061391605995595455, 0.45274457335472107, -0.1930910348892212, 0.016341472044587135, 0.04583622142672539, -0.8300485610961914, -0.9607594013214111, 0.05698051303625107, -0.08690312735259438, 0.3087181843843041, 6.0542206286182125, 9362.0, 30146.0, 35388.0, 9362.0, 8.350414276123047, 0.1349257230758667, -0.15282180905342102, 0.06823276728391647, 0.01070934347808361, -0.05424703657627106, 0.9986032247543335, -0.07675325125455856, 0.10376167297363281, 1.50439453125, 1.28759765625, 0.068939208984375, 1.493408203125, 1.5146484375, 10.0, 1.4062427282333374, 1.5, 1.4062427282333374
15844, -0.1596694439649582, 1.5081560611724854, 1.2495570182800293, -0.07466821372509003, 0.006303657777607441, 0.4532020390033722, -0.19567203521728516, 0.016557933762669563, 0.04565905034542084, -0.8300681710243225, -0.9607508182525635, 0.05697241052985191, -0.08584630493852047, 0.3113703058451165, 6.047722032393195, 9362.0, 30146.0, 35388.0, 9362.0, 8.350414276123047, 0.011971862055361271, -0.17471159994602203, -0.15816240012645721, 0.011232223361730576, -0.05404524505138397, 0.9990184903144836, -0.07675325125455856, 0.10376167297363281, 1.50439453125, 1.28759765625, 0.068939208984375, 1.493408203125, 1.11328125, 10.0, 1.4059373140335083, 1.5, 1.4059373140335083
15854, -0.15891513228416443, 1.5077775716781616, 1.2483230829238892, -0.07663784176111221, 0.006470324471592903, 0.4536575376987457, -0.19825389981269836, 0.016775472089648247, 0.04544318467378616, -0.8300567865371704, -0.960763692855835, 0.05695917084813118, -0.08855549644046297, 0.3079324559282668, 6.046425037498462, 9362.0, 30146.0, 35388.0, 9362.0, 8.350414276123047, -0.14730508625507355, -0.2337660789489746, 0.0278740543872118, 0.013201599940657616, -0.05277858301997185, 0.9988978505134583, -0.07675325125455856, 0.10376167297363281, 1.50439453125, 1.12353515625, 0.9957122802734375, 1.493408203125, 1.52783203125, 10.0, 1.4058457612991333, 1.5, 1.4058457612991333
15864, -0.15916669368743896, 1.508301019668579, 1.2484482526779175, -0.07863330096006393, 0.006639163009822369, 0.45411112904548645, -0.20083767175674438, 0.016992250457406044, 0.04527746140956879, -0.8301237225532532, -0.9607375860214233, 0.05697356164455414, -0.0713091138145342, 0.28922155521649984, 6.0528772873995935, 9362.0, 30146.0, 35388.0, 9362.0, 8.350414276123047, 0.06356431543827057, 0.24314570426940918, -0.03359414264559746, 0.01429703738540411, -0.05126434192061424, 0.9995665550231934, -0.07675325125455856, 0.10376167297363281, 1.50439453125, 1.12353515625, 0.9957122802734375, 1.493408203125, 1.3154296875, 10.0, 1.4059488773345947, 1.5, 1.4059488773345947
15874, -0.15783779323101044, 1.5048377513885498, 1.2498213052749634, -0.08065459877252579, 0.006810163147747517, 0.4545632004737854, -0.2034214287996292, 0.0172077976167202, 0.04513584077358246, -0.8300508856773376, -0.9607650637626648, 0.056982316076755524, -0.09019718023379268, 0.3019567044744349, 6.049096939756947, 9362.0, 30146.0, 35388.0, 9362.0, 8.350414276123047, -0.03485073521733284, -0.5255110263824463, -0.05977330356836319, 0.012320357374846935, -0.053553007543087006, 1.000457763671875, -0.07675325125455856, 0.10376167297363281, 1.50439453125, 1.478759765625, 0.1546478271484375, 1.491943359375, 1.036376953125, 10.0, 1.4056373834609985, 1.5, 1.4056373834609985
15884, -0.15817908942699432, 1.508043646812439, 1.2502728700637817, -0.08270174264907837, 0.006983321625739336, 0.4550142288208008, -0.20600801706314087, 0.017423853278160095, 0.04506782442331314, -0.8301204442977905, -0.9607915878295898, 0.05694319307804108, -0.09773862391168861, 0.2892980936363756, 6.0562283984364855, 9362.0, 30146.0, 35388.0, 9362.0, 8.33057975769043, 0.11578365415334702, -0.08495085686445236, 0.19808267056941986, 0.009534471668303013, -0.054552771151065826, 0.9996962547302246, -0.07675325125455856, 0.10376167297363281, 1.50439453125, 1.478759765625, 0.1546478271484375, 1.491943359375, 1.47509765625, 10.0, 1.4059101343154907, 1.5, 1.4059101343154907
15894, -0.15749862790107727, 1.50850248336792, 1.250878930091858, -0.08270174264907837, 0.006983321625739336, 0.4550142288208008, -0.20600801706314087, 0.017423853278160095, 0.04506782442331314, -0.8298075199127197, -0.9606422185897827, 0.05728479474782944, -0.2119167365253079, 0.15586040324754435, 6.188176624098153, 9362.0, 30146.0, 35388.0, 9362.0, 8.33057975769043, 0.05314474552869797, -0.3016173541545868, 0.1339864879846573, 0.01090444065630436, -0.05172468349337578, 0.9990125894546509, -0.06191393733024597, -0.14711761474609375, 1.48388671875, 1.478759765625, 0.1546478271484375, 1.496337890625, 1.16162109375, 10.0, 1.4048651456832886, 1.5, 1.4048651456832886
15904, -0.15744361281394958, 1.511143684387207, 1.2516205310821533, -0.08687356859445572, 0.007336081005632877, 0.45591509342193604, -0.21117651462554932, 0.01785222627222538, 0.044999636709690094, -0.8300605416297913, -0.9607594013214111, 0.056974414736032486, -0.08957646803941875, 0.3093031103126407, 6.045131916359556, 9362.0, 30146.0, 35388.0, 9362.0, 8.33057975769043, 0.13913895189762115, 0.23671314120292664, -0.09560497850179672, 0.01308145746588707, -0.055077098309993744, 0.9951767921447754, -0.06191393733024597, -0.14711761474609375, 1.48388671875, 1.478759765625, 0.1546478271484375, 1.496337890625, 1.517578125, 10.0, 1.4041012525558472, 1.5, 1.4041012525558472
15924, -0.15769663453102112, 1.513229489326477, 1.2526136636734009, -0.09114876389503479, 0.007697379216551781, 0.4568100571632385, -0.21634088456630707, 0.01827714405953884, 0.0443355031311512, -0.8300752639770508, -0.9607599377632141, 0.056965529918670654, -0.08368483600699866, 0.300091782094114, 6.0518561970967655, 9362.0, 30146.0, 35388.0, 9362.0, 8.33057975769043, -0.06266683340072632, -0.04851122945547104, 0.02577960304915905, 0.013984235003590584, -0.052464257925748825, 0.9977424740791321, -0.06191393733024597, -0.14711761474609375, 1.48388671875, 1.203369140625, 0.3649749755859375, 1.48974609375, 1.587158203125, 10.0, 1.4028271436691284, 1.5, 1.4028271436691284
15934, -0.15802593529224396, 1.5135799646377563, 1.2514640092849731, -0.09332509338855743, 0.007881204597651958, 0.45725131034851074, -0.21892458200454712, 0.018487844616174698, 0.043916091322898865, -0.8300619721412659, -0.960757315158844, 0.05696989968419075, -0.08807064254254589, 0.3145210781181049, 6.045773081022716, 9362.0, 30146.0, 35388.0, 9362.0, 8.33057975769043, 0.016008447855710983, -0.10187551379203796, -0.039344362914562225, 0.015712721273303032, -0.053127359598875046, 0.9998356699943542, -0.06191393733024597, -0.14711761474609375, 1.48388671875, 1.187255859375, 0.46051025390625, 1.48974609375, 1.552001953125, 10.0, 1.4036108255386353, 1.5, 1.4036108255386353
15944, -0.15691247582435608, 1.515702724456787, 1.2507013082504272, -0.0955272912979126, 0.008067147806286812, 0.4576893448829651, -0.2215154767036438, 0.018700795248150826, 0.04369276016950607, -0.8300618529319763, -0.9607591032981873, 0.05695698410272598, -0.09143076527242375, 0.30600761615394845, 6.050719747757956, 9362.0, 30146.0, 35388.0, 9362.0, 8.33057975769043, -0.13011036813259125, -0.15092632174491882, -0.08581230044364929, 0.013793771155178547, -0.05490626394748688, 0.9989864230155945, -0.06191393733024597, -0.14711761474609375, 1.48388671875, 1.187255859375, 0.46051025390625, 1.48974609375, 1.271484375, 10.0, 1.403191089630127, 1.5, 1.403191089630127
15954, -0.15729132294654846, 1.5176515579223633, 1.2485113143920898, -0.09775542467832565, 0.00825522467494011, 0.45812591910362244, -0.224110946059227, 0.01891465298831463, 0.043620456010103226, -0.8300623297691345, -0.9607622027397156, 0.056977756321430206, -0.09053491731209387, 0.3119921485207158, 6.05090727557271, 9362.0, 30146.0, 35388.0, 9362.0, 8.33057975769043, 0.15191300213336945, 0.6870688199996948, 0.18124130368232727, 0.01403458509594202, -0.05281605198979378, 0.9974060654640198, -0.06191393733024597, -0.14711761474609375, 1.48388671875, 1.349853515625, 0.015350341796875, 1.49560546875, 0.998291015625, 10.0, 1.4027702808380127, 1.5, 1.4027702808380127
15964, -0.15568570792675018, 1.5157233476638794, 1.2486307621002197, -0.10000951588153839, 0.008445429615676403, 0.45856136083602905, -0.22670777142047882, 0.019126448780298233, 0.043465275317430496, -0.8300675749778748, -0.9607601165771484, 0.05697419121861458, -0.0910369072527464, 0.3059658094607016, 6.04397133950394, 9362.0, 30146.0, 35388.0, 9362.0, 8.33057975769043, -0.0668831393122673, -0.17945869266986847, -0.22104041278362274, 0.013373957015573978, -0.05335371941328049, 0.9965040683746338, -0.06191393733024597, -0.14711761474609375, 1.48388671875, 1.349853515625, 0.015350341796875, 1.49560546875, 1.17041015625, 10.0, 1.402679443359375, 1.5, 1.402679443359375
15974, -0.15575075149536133, 1.5155754089355469, 1.247625708580017, -0.102289579808712, 0.008637754246592522, 0.4589945375919342, -0.22930438816547394, 0.01933852769434452, 0.043172553181648254, -0.830072283744812, -0.9607667326927185, 0.05696561560034752, -0.08766374780863583, 0.3015265886605789, 6.049497347789184, 9362.0, 30146.0, 35388.0, 9362.0, 8.33057975769043, -0.12358380854129791, -0.04914776235818863, -0.0211012065410614, 0.012565071694552898, -0.05364060774445534, 0.9968537092208862, -0.06191393733024597, -0.14711761474609375, 1.48388671875, 1.1865234375, 0.4651947021484375, 1.494873046875, 1.5439453125, 10.0, 1.4019571542739868, 1.5, 1.4019571542739868
15984, -0.15632736682891846, 1.5163370370864868, 1.247813105583191, -0.102289579808712, 0.008637754246592522, 0.4589945375919342, -0.22930438816547394, 0.01933852769434452, 0.043172553181648254, -0.8300697207450867, -0.9607613682746887, 0.056977637112140656, -0.08570037756194404, 0.3030994780504557, 6.048104113575747, 9362.0, 30146.0, 35388.0, 9362.0, 8.33057975769043, -0.02384672872722149, -0.4428780674934387, -0.05706620588898659, 0.012666990980505943, -0.055632032454013824, 0.998657763004303, -0.06191393733024597, -0.14711761474609375, 1.48388671875, 1.1865234375, 0.4651947021484375, 1.494873046875, 1.007080078125, 10.0, 1.4018203020095825, 1.5, 1.4018203020095825
16024, -0.15545405447483063, 1.5197960138320923, 1.2443301677703857, -0.11166919767856598, 0.00942806713283062, 0.46069586277008057, -0.23968522250652313, 0.020178060978651047, 0.042027585208415985, -0.8300678730010986, -0.9607614278793335, 0.05697469413280487, -0.09337762781576103, 0.3039103594021242, 6.04428713966524, 9362.0, 30146.0, 35388.0, 9362.0, 8.33057975769043, 0.09697064012289047, 0.15465731918811798, -0.002674936782568693, 0.010883918963372707, -0.05392180010676384, 0.9985508322715759, -0.07079964131116867, -0.24567794799804688, 1.475830078125, 1.1865234375, 0.4651947021484375, 1.493408203125, 0.938232421875, 10.0, 1.4013969898223877, 1.5, 1.4013969898223877
