timeTick, roll, pitch, yaw, stateX, stateY, stateZ, stateVX, stateVY, stateVZ, otX0, otY0, otZ0, otRoll0, otPitch0, otYaw0, left wing, pitch motor, yaw motor, right wing, voltage, roll rate, pitch rate, yaw rate, A_x, A_y, A_z, current, i_raw, v_raw, airflow_voltage, airflow_speed, pot_Pitch, voltage_nKF, kFFx, state_vel, State_vel, volt_KF_vel
19846, -0.4827856123447418, 2.5669963359832764, -1.4459902048110962, 0, 0, 0, 0, 0, 0, -0.8360753655433655, -0.9806814193725586, 0.056302644312381744, 0.12621528955860595, -0.5193248296634465, 1.1919372510471227, 0, 0, 0, 0, 0, 0, 0, 0, 0, 0, 0, 0, 0, 0, 0, 0, 0, 0, 0, 0, 0, 0
19856, -0.48226308822631836, 2.5682718753814697, -1.447535514831543, 0.00010335665865568444, -2.214103915321175e-05, -2.5592041015625, 0.008154243230819702, -0.0017469245940446854, -0.2809157073497772, -0.8360958695411682, -0.9806790947914124, 0.0563022717833519, 0.12240415138139485, -0.5288856542930489, 1.19031580685062, 9362.0, 30146.0, 35388.0, 9362.0, 0, -0.2832399308681488, -0.3935866355895996, 0.005006019491702318, -0.002207861514762044, -0.056379303336143494, 0.9987331628799438, 0, 0, 0, 1.32568359375, 0.0232086181640625, 0, 0, 0, 0, 0, 0
19866, -0.48272305727005005, 2.5694072246551514, -1.4478017091751099, 0.0001630849001230672, -3.4933276765514165e-05, -2.5620148181915283, 0.0037914379499852657, -0.0008114052470773458, -0.28120601177215576, -0.8357046246528625, -0.9808654189109802, 0.05616538226604462, 0.2332651100128564, -0.8061418902168498, 1.1408025551035026, 9362.0, 30146.0, 35388.0, 9362.0, 0, 0.08725836873054504, -0.16925090551376343, 0.10458804666996002, -0.0011291861301288009, -0.054288625717163086, 0.9976815581321716, 0, 0, 0, 1.437744140625, 0.086029052734375, 1.490478515625, 1.437744140625, 10.0, 1.0, 10.0, 1.3771589994430542
19876, -0.48172205686569214, 2.5691909790039062, -1.4479657411575317, 0.000179164984729141, -3.837194526568055e-05, -2.5648281574249268, -0.0005754110170528293, 0.00012369103205855936, -0.28145501017570496, -0.8361632227897644, -0.980828046798706, 0.05632626637816429, 0.21764111292214183, -0.46414224559887884, 1.1563978479780097, 9362.0, 30146.0, 35388.0, 9362.0, 0, -0.04857721924781799, -0.1824968159198761, 0.05636003240942955, -0.0010606033029034734, -0.05476241931319237, 0.9977899193763733, 0, 0, 0, 1.42529296875, 0.0688018798828125, 1.490478515625, 1.39453125, 10.0, 1.0, 10.0, 1.377040147781372
19886, -0.4823862910270691, 2.5680735111236572, -1.4476919174194336, 0.00015158111636992544, -3.2458396162837744e-05, -2.5676443576812744, -0.004941361490637064, 0.0010590333258733153, -0.2817671597003937, -0.8361654877662659, -0.9808152914047241, 0.056329697370529175, 0.22158611003069795, -0.45826230035609683, 1.1548139361768865, 9362.0, 30146.0, 35388.0, 9362.0, 0, 0.02539633959531784, -0.3144601583480835, -0.23817352950572968, 5.449891250464134e-05, -0.055844321846961975, 0.9959321618080139, 0, 0, 0, 1.437744140625, 0.086029052734375, 1.49853515625, 1.379150390625, 10.0, 1.0, 10.0, 1.376926302909851
19896, -0.48279398679733276, 2.569185972213745, -1.4484403133392334, 8.034796337597072e-05, -1.7201793525600806e-05, -2.5704638957977295, -0.009305283427238464, 0.0019922663923352957, -0.2821177542209625, -0.8357098698616028, -0.9808498024940491, 0.05617273971438408, 0.23505028807791958, -0.7907136435167388, 1.1424119417448682, 9362.0, 30146.0, 35388.0, 9362.0, 0, -0.04890856146812439, -0.008482527919113636, -0.350625604391098, -0.0015181417111307383, -0.05349074304103851, 0.9974092245101929, 0, 0, 0, 1.263427734375, 0.1233062744140625, 1.49853515625, 1.318359375, 10.0, 1.0, 10.0, 1.376412034034729
19906, -0.48310714960098267, 2.5699622631073, -1.4502314329147339, -3.448720235610381e-05, 7.386563083855435e-06, -2.5732874870300293, -0.013661726377904415, 0.0029254595283418894, -0.2825917899608612, -0.8360968828201294, -0.9806820750236511, 0.056325435638427734, 0.13571731135270929, -0.524672128137837, 1.184689749668978, 9362.0, 30146.0, 35388.0, 9362.0, 0, 0.1132764145731926, -0.03004704974591732, -0.07942258566617966, -0.002387094311416149, -0.055371783673763275, 0.9983615279197693, 0, 0, 0, 1.37255859375, 0.02044677734375, 1.493408203125, 1.45751953125, 10.0, 1.0, 10.0, 1.3765573501586914
19916, -0.4816037118434906, 2.570535659790039, -1.4500317573547363, -0.0001929188147187233, 4.13157140428666e-05, -2.576115369796753, -0.018024560064077377, 0.0038605055306106806, -0.28296440839767456, -0.8360776305198669, -0.980672299861908, 0.056295908987522125, 0.12627653624177435, -0.5229366313610058, 1.186619869678395, 9362.0, 30146.0, 35388.0, 9362.0, 0, -0.21648132801055908, 0.13222603499889374, -0.10217100381851196, -0.001771936658769846, -0.05689042806625366, 1.0000343322753906, 0, 0, 0, 1.259765625, 0.1334381103515625, 1.493408203125, 1.44580078125, 10.0, 1.0, 10.0, 1.376387119293213
19926, -0.4818931818008423, 2.5690090656280518, -1.4507416486740112, -0.00039501278661191463, 8.460477693006396e-05, -2.578946352005005, -0.022394243627786636, 0.004797292407602072, -0.28321319818496704, -0.835718035697937, -0.980850100517273, 0.056168295443058014, 0.23009642900411612, -0.7906818691023716, 1.1519382492912862, 9362.0, 30146.0, 35388.0, 9362.0, 0, -0.11664174497127533, 0.32108551263809204, 0.05587302893400192, -0.0026377488393336535, -0.05648087337613106, 0.9994458556175232, 0, 0, 0, 1.264892578125, 0.119354248046875, 1.49267578125, 1.271484375, 10.0, 1.0, 10.0, 1.3765742778778076
19936, -0.482441246509552, 2.5657615661621094, -1.4514975547790527, -0.0006408413173630834, 0.00013725583266932517, -2.5817790031433105, -0.02677144668996334, 0.005732974037528038, -0.28331661224365234, -0.8357205390930176, -0.9808529615402222, 0.05620487779378891, 0.23322662740750566, -0.7935325873415309, 1.142724102783428, 9362.0, 30146.0, 35388.0, 9362.0, 0, -0.05417194962501526, -0.03870052099227905, 0.15214410424232483, -0.002728378865867853, -0.05421176925301552, 0.9972017407417297, 0, 0, 0, 1.433349609375, 0.0797576904296875, 1.49267578125, 1.418701171875, 10.0, 1.0, 10.0, 1.3767979145050049
19946, -0.4827280342578888, 2.565476417541504, -1.4512940645217896, -0.0009304139530286193, 0.00019926298409700394, -2.584613084793091, -0.03114308975636959, 0.006668515503406525, -0.2834855616092682, -0.8357083797454834, -0.9808567762374878, 0.05614733323454857, 0.23772820962993704, -0.7973861658560963, 1.1579857879496245, 9362.0, 30146.0, 35388.0, 9362.0, 8.152067184448242, 0.31254908442497253, 0.21460460126399994, 0.07423321902751923, -0.001612574909813702, -0.053815800696611404, 0.9983541965484619, -0.03845858946442604, -0.06647872924804688, 1.490478515625, 1.41943359375, 0.0612945556640625, 1.49560546875, 1.28759765625, 10.0, 1.0, 10.0, 1.376823902130127
19956, -0.4815829396247864, 2.5634706020355225, -1.4512059688568115, -0.0012636353494599462, 0.00027062129811383784, -2.587449789047241, -0.03550120070576668, 0.007603131700307131, -0.2838328182697296, -0.836097240447998, -0.9806690216064453, 0.05629876255989075, 0.1299510047093026, -0.5254845353792632, 1.1865084697379886, 9362.0, 30146.0, 35388.0, 9362.0, 8.152067184448242, 0.03590311110019684, 0.018603568896651268, -0.16423064470291138, -0.0014142526779323816, -0.05595167726278305, 0.9980354309082031, -0.03845858946442604, -0.06647872924804688, 1.490478515625, 1.423095703125, 0.06591796875, 1.49560546875, 1.338134765625, 10.0, 1.0, 10.0, 1.377012014389038
19966, -0.48184576630592346, 2.5622334480285645, -1.4521044492721558, -0.0016404493944719434, 0.00035133108031004667, -2.59028959274292, -0.03986162692308426, 0.008538823574781418, -0.28411707282066345, -0.8357189297676086, -0.9808449149131775, 0.05615813285112381, 0.23893329758194615, -0.7940963838991308, 1.1574748290024797, 9362.0, 30146.0, 35388.0, 9362.0, 8.152067184448242, 0.10838674753904343, 0.062154486775398254, -0.11852112412452698, -0.000565741618629545, -0.0576009601354599, 0.9996222853660583, -0.03845858946442604, -0.06647872924804688, 1.490478515625, 1.414306640625, 0.05517578125, 1.493408203125, 1.390869140625, 10.0, 1.0, 10.0, 1.3769168853759766
19976, -0.48170211911201477, 2.5617661476135254, -1.4522625207901, -0.0020608524791896343, 0.0004413879360072315, -2.593132257461548, -0.044219009578228, 0.009472611360251904, -0.28439322113990784, -0.8357032537460327, -0.9808447957038879, 0.056196682155132294, 0.23410838586168434, -0.795128507598406, 1.1489105724258788, 9362.0, 30146.0, 35388.0, 9362.0, 8.152067184448242, -0.1649012267589569, 0.3070991039276123, -0.03636086732149124, 6.0930273320991546e-05, -0.055839963257312775, 0.999245285987854, -0.03845858946442604, -0.06647872924804688, 1.490478515625, 1.317626953125, 0.0291900634765625, 1.493408203125, 1.307373046875, 10.0, 1.0, 10.0, 1.3769887685775757
19986, -0.48218834400177, 2.5590856075286865, -1.4521461725234985, -0.002524849958717823, 0.000540791661478579, -2.5959768295288086, -0.048580508679151535, 0.010408148169517517, -0.28452932834625244, -0.8357170224189758, -0.9808518290519714, 0.0561593696475029, 0.23662988793277742, -0.7951546644262066, 1.1427588987919415, 9362.0, 30146.0, 35388.0, 9362.0, 8.152067184448242, 0.07514050602912903, -0.516544759273529, -0.2100493460893631, -0.0016069581033661962, -0.05432925745844841, 0.9989574551582336, -0.03845858946442604, -0.06647872924804688, 1.490478515625, 1.402587890625, 0.0425262451171875, 1.49267578125, 1.412109375, 10.0, 1.0, 10.0, 1.3772273063659668
19996, -0.4814859926700592, 2.5602338314056396, -1.4537900686264038, -0.0030324498657137156, 0.0006495476118288934, -2.598823070526123, -0.052939482033252716, 0.011343037709593773, -0.2847039997577667, -0.8357077240943909, -0.9808520078659058, 0.056211210787296295, 0.2433090634222438, -0.7981826716396938, 1.153017162937484, 9362.0, 30146.0, 35388.0, 9362.0, 8.152067184448242, 0.013708614744246006, 0.227013498544693, -0.13162444531917572, 6.891119119245559e-05, -0.05418962985277176, 0.9969850182533264, -0.03845858946442604, -0.06647872924804688, 1.490478515625, 1.273681640625, 0.0975494384765625, 1.49267578125, 1.43115234375, 10.0, 1.0, 10.0, 1.3771106004714966
20006, -0.4806962013244629, 2.5594515800476074, -1.454007863998413, -0.0035836079623550177, 0.000767654157243669, -2.6016712188720703, -0.05729212611913681, 0.012278402224183083, -0.28491702675819397, -0.8357154130935669, -0.9808534383773804, 0.056197360157966614, 0.24173192419618358, -0.7990302649855323, 1.153034044341991, 9362.0, 30146.0, 35388.0, 9362.0, 8.152067184448242, -0.16918736696243286, -0.08508826047182083, -0.47331756353378296, -0.002547884127125144, -0.053708676248788834, 0.9963623285293579, -0.03845858946442604, -0.06647872924804688, 1.490478515625, 1.324951171875, 0.0236663818359375, 1.490478515625, 1.40185546875, 10.0, 1.0, 10.0, 1.3768019676208496
20016, -0.4797680974006653, 2.5594534873962402, -1.4562268257141113, -0.004178262315690517, 0.0008951007039286196, -2.604522466659546, -0.061638787388801575, 0.013210924342274666, -0.2853092849254608, -0.835693359375, -0.9808598160743713, 0.056176844984292984, 0.2358413726583575, -0.7928075036981284, 1.1494717484813561, 9362.0, 30146.0, 35388.0, 9362.0, 8.152067184448242, -0.22301346063613892, 0.04855051264166832, -0.10941826552152634, -0.0023942275438457727, -0.05310865491628647, 0.9989938139915466, -0.03845858946442604, -0.06647872924804688, 1.490478515625, 1.40771484375, 0.0478363037109375, 1.490478515625, 1.385009765625, 10.0, 1.0, 10.0, 1.3768997192382812
20026, -0.47995662689208984, 2.5581400394439697, -1.456425666809082, -0.0048163654282689095, 0.001031863153912127, -2.607377767562866, -0.06598182767629623, 0.014141743071377277, -0.28575295209884644, -0.8360864520072937, -0.9806788563728333, 0.056269336491823196, 0.13281573688304307, -0.5237522336043696, 1.1858652908370009, 9362.0, 30146.0, 35388.0, 9362.0, 8.152067184448242, 0.08528295904397964, 0.14903594553470612, -0.12314007431268692, -0.0007336780545301735, -0.053796928375959396, 0.9981852173805237, -0.03845858946442604, -0.06647872924804688, 1.490478515625, 1.32275390625, 0.0251312255859375, 1.49267578125, 1.3095703125, 10.0, 1.0, 10.0, 1.3770805597305298
20036, -0.4795202314853668, 2.5564780235290527, -1.4580143690109253, -0.005497951991856098, 0.0011779380729421973, -2.610236406326294, -0.0703355148434639, 0.015073262155056, -0.2859579920768738, -0.8357202410697937, -0.9808704257011414, 0.05617404356598854, 0.2337592756061993, -0.7896954859733682, 1.1558585622601918, 9362.0, 30146.0, 35388.0, 9362.0, 8.152067184448242, -0.08481459319591522, 0.35164526104927063, 0.022387884557247162, 0.001241422025486827, -0.05455847457051277, 0.9970702528953552, -0.03845858946442604, -0.06647872924804688, 1.490478515625, 1.418701171875, 0.0603485107421875, 1.49267578125, 1.42236328125, 10.0, 1.0, 10.0, 1.3771750926971436
20046, -0.4798744022846222, 2.553622007369995, -1.4584074020385742, -0.006223043892532587, 0.001333325169980526, -2.6130974292755127, -0.0746828243136406, 0.016004282981157303, -0.28625550866127014, -0.8357065320014954, -0.9808574914932251, 0.05614223703742027, 0.22551109955834292, -0.7894236448225058, 1.1381473601515002, 9362.0, 30146.0, 35388.0, 9362.0, 8.17190170288086, 0.1495445966720581, 0.05897506698966026, 0.09729263186454773, 1.521006561233662e-05, -0.054295070469379425, 0.9974778890609741, -0.02746676281094551, -0.030637741088867188, 1.493408203125, 1.368896484375, 0.01885986328125, 1.49267578125, 1.39013671875, 10.0, 1.0, 10.0, 1.3772809505462646
20056, -0.47879624366760254, 2.552928924560547, -1.458023190498352, -0.006991573143750429, 0.0014980144333094358, -2.615962028503418, -0.07902306318283081, 0.016933610662817955, -0.28664806485176086, -0.8357007503509521, -0.9808438420295715, 0.056167323142290115, 0.22112695786451697, -0.8022003030596352, 1.1420984046924336, 9362.0, 30146.0, 35388.0, 9362.0, 8.17190170288086, 0.060125771909952164, 0.10464686900377274, 0.12558090686798096, -0.001949520781636238, -0.05280502885580063, 0.9975257515907288, -0.02746676281094551, -0.030637741088867188, 1.493408203125, 1.399658203125, 0.0396575927734375, 1.49267578125, 1.428955078125, 10.0, 1.0, 10.0, 1.377120018005371
20066, -0.4781830608844757, 2.5525856018066406, -1.458798885345459, -0.007803494576364756, 0.0016720026032999158, -2.6188302040100098, -0.08336123824119568, 0.01786399818956852, -0.2869771718978882, -0.8357003927230835, -0.9808554649353027, 0.0561799630522728, 0.23624425766748297, -0.7985943594677849, 1.1526664711033976, 9362.0, 30146.0, 35388.0, 9362.0, 8.17190170288086, 0.02066315896809101, 0.1454256772994995, -0.29009708762168884, -0.0019617683719843626, -0.0537460595369339, 0.9962719082832336, -0.02746676281094551, -0.030637741088867188, 1.493408203125, 1.42529296875, 0.0688018798828125, 1.49853515625, 1.398193359375, 10.0, 1.0, 10.0, 1.3769874572753906
20076, -0.47701430320739746, 2.550325870513916, -1.4610224962234497, -0.008658789098262787, 0.0018552845576778054, -2.621701717376709, -0.08769767731428146, 0.018792442977428436, -0.287319540977478, -0.836071252822876, -0.9806853532791138, 0.05625804141163826, 0.12369681262862814, -0.5334589778704242, 1.187246639323714, 9362.0, 30146.0, 35388.0, 9362.0, 8.17190170288086, 0.1932041198015213, 0.25310948491096497, 0.2666475772857666, -0.0007805889472365379, -0.05403675138950348, 0.9961931109428406, -0.02746676281094551, -0.030637741088867188, 1.493408203125, 1.358642578125, 0.0159912109375, 1.49853515625, 1.3740234375, 10.0, 1.0, 10.0, 1.3768669366836548
20086, -0.47597503662109375, 2.548579454421997, -1.4596410989761353, -0.009557417593896389, 0.002047840040177107, -2.624577283859253, -0.09202805906534195, 0.019718829542398453, -0.2877849340438843, -0.8356968760490417, -0.9808536171913147, 0.056186970323324203, 0.23792658811768921, -0.7855401218778013, 1.152384706019039, 9362.0, 30146.0, 35388.0, 9362.0, 8.17190170288086, -0.09064394235610962, 0.051602430641651154, 0.13701662421226501, -0.001575222471728921, -0.05715322494506836, 0.9981234669685364, -0.02746676281094551, -0.030637741088867188, 1.493408203125, 1.440673828125, 0.090423583984375, 1.49853515625, 1.402587890625, 10.0, 1.0, 10.0, 1.3770594596862793
20096, -0.4764237105846405, 2.5478737354278564, -1.4584859609603882, -0.010499331168830395, 0.002249649725854397, -2.6274573802948, -0.09635463356971741, 0.02064300887286663, -0.28825128078460693, -0.8356072902679443, -0.9809153079986572, 0.056287314742803574, 0.18136572753333044, -0.7649256627703949, 1.20308508284507, 9362.0, 30146.0, 35388.0, 9362.0, 8.17190170288086, -0.052743613719940186, -0.092366524040699, -0.2651582360267639, -0.003327659796923399, -0.057611897587776184, 0.998039722442627, -0.02746676281094551, -0.030637741088867188, 1.493408203125, 1.3857421875, 0.0280914306640625, 1.49853515625, 1.339599609375, 10.0, 1.0, 10.0, 1.376822829246521
20106, -0.47602391242980957, 2.5484726428985596, -1.459765076637268, -0.011484534479677677, 0.002460699761286378, -2.6303412914276123, -0.10068604350090027, 0.021566905081272125, -0.2885420620441437, -0.8356173634529114, -0.9809000492095947, 0.056254707276821136, 0.1817615426971191, -0.7436916713471078, 1.195201667480405, 9362.0, 30146.0, 35388.0, 9362.0, 8.17190170288086, 0.07091716676950455, 0.26480966806411743, 0.015602229163050652, -0.003112137084826827, -0.054286155849695206, 0.9976121187210083, -0.02746676281094551, -0.030637741088867188, 1.493408203125, 1.29052734375, 0.06378173828125, 1.494140625, 1.31982421875, 10.0, 1.0, 10.0, 1.3769854307174683
20116, -0.4758950173854828, 2.5489232540130615, -1.459836721420288, -0.012513046152889729, 0.0026809920091181993, -2.633228063583374, -0.10501624643802643, 0.02249164506793022, -0.2888319790363312, -0.8356995582580566, -0.9808588027954102, 0.056194134056568146, 0.24030154973317444, -0.7945555078812276, 1.1540793000079892, 9362.0, 30146.0, 35388.0, 9362.0, 8.17190170288086, -0.01386681105941534, -0.06038301810622215, -0.10120651125907898, -0.0014796231407672167, -0.05594942346215248, 0.998430609703064, -0.02746676281094551, -0.030637741088867188, 1.493408203125, 1.286865234375, 0.070281982421875, 1.494140625, 1.42236328125, 10.0, 1.0, 10.0, 1.3771289587020874
20126, -0.47561395168304443, 2.549522876739502, -1.4610291719436646, -0.013584855943918228, 0.0029105269350111485, -2.636117935180664, -0.10934576392173767, 0.023415369912981987, -0.2891608476638794, -0.8357262015342712, -0.9808540344238281, 0.05617917701601982, 0.2392244012077922, -0.7911428261740241, 1.1436387450665042, 9362.0, 30146.0, 35388.0, 9362.0, 8.17190170288086, 0.09321565926074982, 0.3007287383079529, -0.18505963683128357, -0.000866479822434485, -0.054620299488306046, 0.9988475441932678, -0.02746676281094551, -0.030637741088867188, 1.493408203125, 1.26123046875, 0.129302978515625, 1.48974609375, 1.412109375, 10.0, 1.0, 10.0, 1.3772928714752197
20136, -0.47441691160202026, 2.5468688011169434, -1.4620089530944824, -0.014699982479214668, 0.0031493017449975014, -2.6390109062194824, -0.1136794239282608, 0.024339700117707253, -0.28941330313682556, -0.8356990218162537, -0.9808547496795654, 0.05616297572851181, 0.23515057484646285, -0.7991420805840903, 1.152486782248847, 9362.0, 30146.0, 35388.0, 9362.0, 8.17190170288086, -0.1893819272518158, -0.1822328418493271, -0.2852519452571869, 0.0013448885874822736, -0.053026437759399414, 0.9978106617927551, -0.02746676281094551, -0.030637741088867188, 1.493408203125, 1.417236328125, 0.058624267578125, 1.48974609375, 1.41064453125, 10.0, 1.0, 10.0, 1.3774840831756592
20236, -0.4735713601112366, 2.5499215126037598, -1.4684431552886963, -0.022301020100712776, 0.004776099231094122, -2.6564130783081055, -0.13969101011753082, 0.029888836666941643, -0.2906234860420227, -0.8356986045837402, -0.9808623194694519, 0.05619954317808151, 0.24085418340438736, -0.7853230864928378, 1.16066076146033, 9362.0, 30146.0, 35388.0, 9362.0, 8.17190170288086, -0.1280510127544403, -0.008824747055768967, -0.0010675236117094755, -0.0026896244380623102, -0.053723905235528946, 0.9981482028961182, -0.049112919718027115, -0.07543754577636719, 1.48974609375, 1.408447265625, 0.0485382080078125, 1.49267578125, 1.41064453125, 10.0, 1.0, 10.0, 1.3770793676376343
20296, -0.47329702973365784, 2.5517947673797607, -1.4753762483596802, -0.03843770921230316, 0.008226403035223484, -2.6856255531311035, -0.1830303817987442, 0.03911737725138664, -0.2937193810939789, -0.8357185125350952, -0.9808537364006042, 0.0561550036072731, 0.22987640004768115, -0.7934504515010303, 1.1482204351025225, 9362.0, 30146.0, 35388.0, 9362.0, 8.17190170288086, -0.18826784193515778, 0.230599045753479, 0.17897196114063263, -0.002004152862355113, -0.0540166050195694, 0.9974299073219299, -0.04373575374484062, -0.030637741088867188, 1.493408203125, 1.23486328125, 0.2174835205078125, 1.4912109375, 1.41064453125, 10.0, 1.0, 10.0, 1.3770793676376343
20316, -0.4740513861179352, 2.5509045124053955, -1.4718533754348755, -0.03843770921230316, 0.008226403035223484, -2.6856255531311035, -0.1830303817987442, 0.03911737725138664, -0.2937193810939789, -0.835706889629364, -0.9808657169342041, 0.056200336664915085, 0.23719662528357216, -0.8032024811719225, 1.1439787077631935, 9362.0, 30146.0, 35388.0, 9362.0, 8.17190170288086, -0.07674947381019592, 0.19805799424648285, -0.19924849271774292, -0.00249134236946702, -0.05560193210840225, 0.9989249110221863, -0.04373575374484062, -0.030637741088867188, 1.493408203125, 1.37109375, 0.0197906494140625, 1.4912109375, 1.41064453125, 10.0, 1.0, 10.0, 1.3770793676376343
20416, -0.4737301468849182, 2.54295015335083, -1.4763702154159546, -0.0637580156326294, 0.013634609058499336, -2.72135329246521, -0.23546463251113892, 0.05027705430984497, -0.2966512143611908, -0.8357031345367432, -0.9808627963066101, 0.056141920387744904, 0.22283634970644756, -0.7896318279109096, 1.1401074184170963, 9362.0, 30146.0, 35388.0, 9362.0, 8.17190170288086, -0.07062127441167831, 0.05939045175909996, 0.2783348858356476, -0.00134396948851645, -0.05444128438830376, 0.9981565475463867, -0.03831924498081207, -0.14711761474609375, 1.48388671875, 1.396728515625, 0.0370025634765625, 1.49560546875, 1.41064453125, 10.0, 1.0, 10.0, 1.3776123523712158
20436, -0.47303539514541626, 2.539173126220703, -1.4733490943908691, -0.06855381280183792, 0.014658596366643906, -2.727290391921997, -0.24411790072917938, 0.05212196707725525, -0.29699641466140747, -0.835702121257782, -0.9808651804924011, 0.056200504302978516, 0.2458007469057037, -0.8038168012447215, 1.148011551433689, 9362.0, 30146.0, 35388.0, 9362.0, 8.17190170288086, 0.03779220208525658, 0.1971842348575592, 0.15373492240905762, -0.0006181258941069245, -0.05179290100932121, 1.0011457204818726, -0.03831924498081207, -0.14711761474609375, 1.48388671875, 1.2861328125, 0.0716094970703125, 1.49560546875, 1.41064453125, 10.0, 1.0, 10.0, 1.3776123523712158
20456, -0.4717769920825958, 2.534961462020874, -1.474449872970581, -0.07101660221815109, 0.015184425748884678, -2.7302615642547607, -0.248440682888031, 0.053043775260448456, -0.29722392559051514, -0.8357129096984863, -0.9808669686317444, 0.05615955963730812, 0.23450927064465046, -0.7874979567865807, 1.1523980048615703, 9362.0, 30146.0, 35388.0, 9362.0, 8.152067184448242, 0.13091255724430084, -0.09679881483316422, -0.14911292493343353, -0.0006181258941069245, -0.05179290100932121, 1.0011457204818726, -0.045625559985637665, -0.0037593841552734375, 1.49560546875, 1.388671875, 0.03033447265625, 1.50146484375, 1.41064453125, 10.0, 1.0, 10.0, 1.3776123523712158
20516, -0.46986523270606995, 2.534846305847168, -1.4790936708450317, -0.08669978380203247, 0.018532490357756615, -2.7481319904327393, -0.274319589138031, 0.05855194106698036, -0.2986210882663727, -0.8357093930244446, -0.9808578491210938, 0.056182827800512314, 0.2379163135049546, -0.7999305353301338, 1.1502337577994233, 9362.0, 30146.0, 35388.0, 9362.0, 8.152067184448242, 0.18123018741607666, 0.12368352711200714, 0.16517125070095062, -0.001772001851350069, -0.056367553770542145, 0.9974709749221802, -0.045625559985637665, -0.0037593841552734375, 1.49560546875, 1.402587890625, 0.0425262451171875, 1.49560546875, 1.41064453125, 10.0, 1.0, 10.0, 1.3776123523712158
20536, -0.47030237317085266, 2.5313141345977783, -1.4760122299194336, -0.09227216988801956, 0.01972181349992752, -2.7541136741638184, -0.28291624784469604, 0.0603799931704998, -0.29955247044563293, -0.8356037735939026, -0.9809220433235168, 0.05623093247413635, 0.16554644378481115, -0.7611462729259699, 1.1883312278624032, 9362.0, 30146.0, 35388.0, 9362.0, 8.152067184448242, -0.1163567379117012, 0.16616761684417725, 0.20903515815734863, -0.001459612394683063, -0.05529629811644554, 0.9972046613693237, -0.045625559985637665, -0.0037593841552734375, 1.49560546875, 1.408447265625, 0.0485382080078125, 1.494140625, 1.41064453125, 10.0, 1.0, 10.0, 1.3776123523712158
20556, -0.4696972966194153, 2.5289700031280518, -1.4750624895095825, -0.10095337778329849, 0.02157432585954666, -2.7631144523620605, -0.2958318293094635, 0.06312202662229538, -0.3003993332386017, -0.8360998630523682, -0.9806817173957825, 0.05627504736185074, 0.1312416812311375, -0.5288259879359316, 1.1897739066884, 9362.0, 30146.0, 35388.0, 9362.0, 8.17190170288086, -0.0548214428126812, 0.1771555095911026, 0.11004084348678589, -3.8639958802377805e-05, -0.05362502485513687, 0.9984456896781921, -0.045625559985637665, -0.0037593841552734375, 1.49560546875, 1.4091796875, 0.04937744140625, 1.494140625, 1.41064453125, 10.0, 1.0, 10.0, 1.3776123523712158
20576, -0.4685956537723541, 2.5279176235198975, -1.474556803703308, -0.1069561019539833, 0.022855082526803017, -2.76912522315979, -0.3044382631778717, 0.06495247781276703, -0.30073973536491394, -0.8356966972351074, -0.9808712601661682, 0.05616960674524307, 0.23488182801843335, -0.802234577378556, 1.14705324003667, 9362.0, 30146.0, 35388.0, 9362.0, 8.17190170288086, 0.0520840547978878, 0.26791900396347046, 0.2603331506252289, -0.0008567863260395825, -0.05617956444621086, 0.9972307682037354, -0.045625559985637665, -0.0037593841552734375, 1.49560546875, 1.304443359375, 0.043182373046875, 1.493408203125, 1.41064453125, 10.0, 1.0, 10.0, 1.3776123523712158
20616, -0.46881723403930664, 2.529564380645752, -1.4727157354354858, -0.11947717517614365, 0.025526126846671104, -2.781179666519165, -0.3216102719306946, 0.06859856098890305, -0.30203279852867126, -0.8357149958610535, -0.9808615446090698, 0.05618249624967575, 0.24639076955621536, -0.802947643115516, 1.146308825650913, 9362.0, 30146.0, 35388.0, 9362.0, 8.17190170288086, -0.1906100958585739, -0.10327860713005066, -0.11402853578329086, -0.0025518445763736963, -0.05548427999019623, 0.9991832375526428, -0.045625559985637665, -0.0037593841552734375, 1.49560546875, 1.310302734375, 0.036285400390625, 1.48974609375, 1.41064453125, 10.0, 1.0, 10.0, 1.3776123523712158
20676, -0.46792566776275635, 2.5197391510009766, -1.4759546518325806, -0.13609518110752106, 0.029070116579532623, -2.796309471130371, -0.3431130051612854, 0.07316065579652786, -0.3030111789703369, -0.8357131481170654, -0.9808638095855713, 0.0561860166490078, 0.23104917665560074, -0.8016200181624811, 1.1494241857827303, 9362.0, 30146.0, 35388.0, 9362.0, 8.17190170288086, -0.09510822594165802, -0.32027366757392883, -0.20140403509140015, -0.001704809837974608, -0.054656852036714554, 0.9978480935096741, -0.045625559985637665, -0.0037593841552734375, 1.49560546875, 1.377685546875, 0.023040771484375, 1.4912109375, 1.41064453125, 10.0, 1.0, 10.0, 1.3776123523712158
20696, -0.4677656888961792, 2.5185797214508057, -1.4762059450149536, -0.14304332435131073, 0.030551539734005928, -2.802375316619873, -0.35169675946235657, 0.07498142123222351, -0.3035961389541626, -0.8357178568840027, -0.9808630347251892, 0.05616704002022743, 0.22928423135441536, -0.7990635574736018, 1.1553397165754602, 9362.0, 30146.0, 35388.0, 9362.0, 8.17190170288086, 0.014171263203024864, 0.3394542336463928, -0.30830368399620056, -0.00044076069025322795, -0.053238820284605026, 0.9972562193870544, -0.045625559985637665, -0.0037593841552734375, 1.49560546875, 1.382080078125, 0.0256195068359375, 1.494873046875, 1.311767578125, 10.0, 1.0, 10.0, 1.3776123523712158
20756, -0.4687444269657135, 2.5128042697906494, -1.4780648946762085, -0.15745364129543304, 0.03362360596656799, -2.8145437240600586, -0.36881348490715027, 0.07862093299627304, -0.30482953786849976, -0.8357135653495789, -0.9808527827262878, 0.056178122758865356, 0.2338678702226715, -0.7883664824241237, 1.1429215326037594, 9362.0, 30146.0, 35388.0, 9362.0, 8.17190170288086, 0.1170450747013092, 0.3798278272151947, -0.08476869016885757, -6.598178060812643e-06, -0.0543736107647419, 0.9981423616409302, -0.06038609892129898, -0.14711761474609375, 1.48388671875, 1.396728515625, 0.0370025634765625, 1.496337890625, 1.311767578125, 10.0, 1.0, 10.0, 1.3776123523712158
20776, -0.46787482500076294, 2.5114948749542236, -1.4797475337982178, -0.15745364129543304, 0.03362360596656799, -2.8145437240600586, -0.36881348490715027, 0.07862093299627304, -0.30482953786849976, -0.8356907963752747, -0.9808571338653564, 0.056191615760326385, 0.22933071907218386, -0.8057270856513412, 1.1496336583090987, 9362.0, 30146.0, 35388.0, 9362.0, 8.17190170288086, -0.034246135503053665, 0.2745496928691864, 0.10169226676225662, -0.0032449355348944664, -0.054284822195768356, 0.998619556427002, -0.06038609892129898, -0.14711761474609375, 1.48388671875, 1.39306640625, 0.0337982177734375, 1.49267578125, 1.311767578125, 10.0, 1.0, 10.0, 1.3776123523712158
20796, -0.47018566727638245, 2.5120983123779297, -1.4799983501434326, -0.15745364129543304, 0.03362360596656799, -2.8145437240600586, -0.36881348490715027, 0.07862093299627304, -0.30482953786849976, -0.8357080221176147, -0.9808673858642578, 0.05618314445018768, 0.23266240175999195, -0.7940951547680015, 1.1580610298885565, 9362.0, 30146.0, 35388.0, 9362.0, 8.17190170288086, -0.13288964331150055, -0.2703932225704193, -0.11213673651218414, -0.0023345290683209896, -0.0559794157743454, 0.9995164275169373, -0.06038609892129898, -0.14711761474609375, 1.48388671875, 1.418701171875, 0.0603485107421875, 1.494140625, 1.311767578125, 10.0, 1.0, 10.0, 1.3776123523712158
20816, -0.47091564536094666, 2.5154736042022705, -1.483126163482666, -0.15745364129543304, 0.03362360596656799, -2.8145437240600586, -0.36881348490715027, 0.07862093299627304, -0.30482953786849976, -0.8360827565193176, -0.9806835651397705, 0.0562802329659462, 0.12162101897852147, -0.5246843589451657, 1.1881396663744985, 9362.0, 30146.0, 35388.0, 9362.0, 8.17190170288086, -0.013277688063681126, 0.16631625592708588, -0.3206186592578888, 0.0002085246960632503, -0.0536496601998806, 0.9976161122322083, -0.06038609892129898, -0.14711761474609375, 1.48388671875, 1.42529296875, 0.0688018798828125, 1.49267578125, 1.311767578125, 10.0, 1.0, 10.0, 1.3776123523712158
20836, -0.469879686832428, 2.510344982147217, -1.4861338138580322, -0.20060892403125763, 0.04282347485423088, -2.8482344150543213, -0.41581809520721436, 0.0886586531996727, -0.3076547682285309, -0.8356969952583313, -0.9808582663536072, 0.05620739609003067, 0.23909740051947437, -0.806114602263051, 1.1480647331173919, 9362.0, 30146.0, 35388.0, 9362.0, 8.17190170288086, 0.18374648690223694, -0.13559773564338684, -0.09114900976419449, -0.0024917148984968662, -0.05511750653386116, 0.998866856098175, -0.06038609892129898, -0.14711761474609375, 1.48388671875, 1.31982421875, 0.0273590087890625, 1.49267578125, 1.311767578125, 10.0, 1.0, 10.0, 1.3776123523712158
20876, -0.46722930669784546, 2.5080718994140625, -1.4896626472473145, -0.204788476228714, 0.04371464252471924, -2.8513119220733643, -0.42009279131889343, 0.0895746573805809, -0.3078683018684387, -0.8357078433036804, -0.980861485004425, 0.05620354413986206, 0.22941235808581714, -0.7951336907641746, 1.1581003248703885, 9362.0, 30146.0, 35388.0, 9362.0, 8.17190170288086, 0.1734762042760849, 0.1632104068994522, 0.05755634605884552, 0.0007308205822482705, -0.05461084097623825, 0.9971969723701477, -0.04333163797855377, -0.021678924560546875, 1.494140625, 1.418701171875, 0.0603485107421875, 1.496337890625, 1.311767578125, 10.0, 1.0, 10.0, 1.3776123523712158
20896, -0.4654126465320587, 2.508014440536499, -1.4900195598602295, -0.204788476228714, 0.04371464252471924, -2.8513119220733643, -0.42009279131889343, 0.0895746573805809, -0.3078683018684387, -0.8357070088386536, -0.9808508157730103, 0.05620037019252777, 0.2442192705385695, -0.793860285957777, 1.1529803117140838, 9362.0, 30146.0, 35388.0, 9362.0, 8.17190170288086, 0.03847949951887131, 0.24744455516338348, -0.08608607202768326, 0.0007308205822482705, -0.05461084097623825, 0.9971969723701477, -0.04333163797855377, -0.021678924560546875, 1.494140625, 1.387939453125, 0.0297393798828125, 1.48974609375, 1.311767578125, 10.0, 1.0, 10.0, 1.3776123523712158
20916, -0.4633992314338684, 2.505685806274414, -1.4899022579193115, -0.23524044454097748, 0.050208330154418945, -2.872925043106079, -0.4499562680721283, 0.09594959765672684, -0.3096236288547516, -0.8357213735580444, -0.9808648228645325, 0.056169115006923676, 0.2358294162860557, -0.7904527295193304, 1.1567107144029476, 9362.0, 30146.0, 35388.0, 9362.0, 8.17190170288086, 0.016282564029097557, -0.26917123794555664, 0.19001930952072144, -0.0008927368908189237, -0.05474967136979103, 0.9995970129966736, -0.04333163797855377, -0.021678924560546875, 1.494140625, 1.402587890625, 0.0425262451171875, 1.49267578125, 1.311767578125, 10.0, 1.0, 10.0, 1.3776123523712158
20936, -0.4621162712574005, 2.5073907375335693, -1.491204023361206, -0.23524044454097748, 0.050208330154418945, -2.872925043106079, -0.4499562680721283, 0.09594959765672684, -0.3096236288547516, -0.8357125520706177, -0.9808524250984192, 0.05618339776992798, 0.23875673784612936, -0.7893795339125518, 1.1495619561155401, 9362.0, 30146.0, 35388.0, 9362.0, 8.17190170288086, -0.08388033509254456, 0.5437231063842773, 0.07183194160461426, -0.0010996476048603654, -0.052413128316402435, 0.9974954128265381, -0.04333163797855377, -0.021678924560546875, 1.494140625, 1.42822265625, 0.0726470947265625, 1.496337890625, 1.311767578125, 10.0, 1.0, 10.0, 1.3776123523712158
20976, -0.46300217509269714, 2.5035104751586914, -1.4959282875061035, -0.2630048096179962, 0.05612798407673836, -2.8915469646453857, -0.47550833225250244, 0.10136697441339493, -0.31125515699386597, -0.83608478307724, -0.980678379535675, 0.05627736076712608, 0.1276590293982087, -0.5239031981359403, 1.1875812251279454, 9362.0, 30146.0, 35388.0, 9362.0, 8.152067184448242, 0.11725802719593048, 0.28512319922447205, -0.2279452532529831, 0.00026787989190779626, -0.05373695120215416, 0.9954900741577148, -0.02911398373544216, 0.10376167297363281, 1.50439453125, 1.426025390625, 0.069732666015625, 1.496337890625, 1.311767578125, 10.0, 1.0, 10.0, 1.3776123523712158
21016, -0.4608551561832428, 2.4995739459991455, -1.498772144317627, -0.28236496448516846, 0.060254767537117004, -2.9040281772613525, -0.4925123155117035, 0.10497496277093887, -0.3123927414417267, -0.8360753059387207, -0.9806804060935974, 0.05630156397819519, 0.12526737296461446, -0.5313900416016395, 1.184530548562273, 9362.0, 30146.0, 35388.0, 9362.0, 8.152067184448242, -0.02063055709004402, 0.36403805017471313, -0.004895905964076519, -0.001785716856829822, -0.05245679244399071, 0.9993959069252014, -0.02911398373544216, 0.10376167297363281, 1.50439453125, 1.400390625, 0.04034423828125, 1.496337890625, 1.311767578125, 10.0, 1.0, 10.0, 1.3776123523712158
21026, -0.46056047081947327, 2.497775077819824, -1.4986754655838013, -0.2873113751411438, 0.061309028416872025, -2.9071526527404785, -0.496768593788147, 0.1058773398399353, -0.31248754262924194, -0.8356826305389404, -0.980865478515625, 0.056177809834480286, 0.23182096175149394, -0.8006924009233387, 1.1426015844586743, 9362.0, 30146.0, 35388.0, 9362.0, 8.152067184448242, -0.22293299436569214, 0.23200754821300507, 0.057902391999959946, -0.001785716856829822, -0.05245679244399071, 0.9993959069252014, -0.02911398373544216, 0.10376167297363281, 1.50439453125, 1.4091796875, 0.04937744140625, 1.49560546875, 1.311767578125, 10.0, 1.0, 10.0, 1.3776123523712158
21036, -0.4614371061325073, 2.496476888656616, -1.4992307424545288, -0.2873113751411438, 0.061309028416872025, -2.9071526527404785, -0.496768593788147, 0.1058773398399353, -0.31248754262924194, -0.8357118964195251, -0.980849027633667, 0.056181859225034714, 0.23272756001869802, -0.7873535511151886, 1.1514857226931021, 9362.0, 30146.0, 35388.0, 9362.0, 8.152067184448242, 0.06757652759552002, 0.30342692136764526, 0.2567444145679474, -0.003404059447348118, -0.05436813831329346, 0.997835099697113, -0.02911398373544216, 0.10376167297363281, 1.50439453125, 1.302978515625, 0.0450897216796875, 1.49560546875, 1.311767578125, 10.0, 1.0, 10.0, 1.3776123523712158
21056, -0.4599330723285675, 2.492479085922241, -1.4966057538986206, -0.302405446767807, 0.0645257830619812, -2.916541814804077, -0.5094980597496033, 0.10857319086790085, -0.31347548961639404, -0.8357048630714417, -0.9808667302131653, 0.056152742356061935, 0.22507499617741042, -0.7942243068543462, 1.133582220972244, 9362.0, 30146.0, 35388.0, 9362.0, 8.17190170288086, -0.10262998938560486, 0.04497832432389259, -0.21687431633472443, -0.0008007809519767761, -0.05510389432311058, 0.9996476173400879, -0.032284341752529144, -0.030637741088867188, 1.493408203125, 1.385009765625, 0.0276336669921875, 1.49560546875, 1.311767578125, 10.0, 1.0, 10.0, 1.3776123523712158
21096, -0.4605553150177002, 2.49442982673645, -1.4971822500228882, -0.3231246769428253, 0.06894057989120483, -2.9290952682495117, -0.5264462828636169, 0.11216164380311966, -0.3145342767238617, -0.8357053399085999, -0.9808509945869446, 0.056166332215070724, 0.23179639725355675, -0.7976029721736211, 1.1532515394311524, 9362.0, 30146.0, 35388.0, 9362.0, 8.17190170288086, 0.037729661911726, 0.12383569777011871, -0.09688849002122879, 2.211806713603437e-05, -0.05271366238594055, 1.0007805824279785, -0.032284341752529144, -0.030637741088867188, 1.493408203125, 1.41357421875, 0.0542449951171875, 1.49560546875, 1.311767578125, 10.0, 1.0, 10.0, 1.3776123523712158
21116, -0.45907583832740784, 2.4938387870788574, -1.4986289739608765, -0.3231246769428253, 0.06894057989120483, -2.9290952682495117, -0.5264462828636169, 0.11216164380311966, -0.3145342767238617, -0.8360833525657654, -0.980667233467102, 0.056274592876434326, 0.12221004284040904, -0.521002883014205, 1.18057700402906, 9362.0, 30146.0, 35388.0, 9362.0, 8.17190170288086, 0.1042865514755249, 0.4481717348098755, -0.054171908646821976, -0.0007960480288602412, -0.055889636278152466, 0.9983144998550415, -0.032284341752529144, -0.030637741088867188, 1.493408203125, 1.426025390625, 0.069732666015625, 1.496337890625, 1.35791015625, 10.0, 1.0, 10.0, 1.3776123523712158
21136, -0.45790600776672363, 2.494065284729004, -1.5001963376998901, -0.3231246769428253, 0.06894057989120483, -2.9290952682495117, -0.5264462828636169, 0.11216164380311966, -0.3145342767238617, -0.8356981873512268, -0.9808468222618103, 0.05615748092532158, 0.22538794094815612, -0.7937389717793337, 1.1419006505452216, 9362.0, 30146.0, 35388.0, 9362.0, 8.17190170288086, -0.07186935096979141, 0.028460901230573654, -0.24595755338668823, -0.001959754154086113, -0.055871009826660156, 0.9973060488700867, -0.032284341752529144, -0.030637741088867188, 1.493408203125, 1.431884765625, 0.07769775390625, 1.493408203125, 1.35791015625, 10.0, 1.0, 10.0, 1.3776123523712158
21156, -0.4571961462497711, 2.4950356483459473, -1.5010117292404175, -0.3231246769428253, 0.06894057989120483, -2.9290952682495117, -0.5264462828636169, 0.11216164380311966, -0.3145342767238617, -0.8360857963562012, -0.9806742668151855, 0.056266218423843384, 0.12130064316319594, -0.5241058941063557, 1.182520886016709, 9362.0, 30146.0, 35388.0, 9362.0, 8.17190170288086, 0.06621385365724564, -0.30009886622428894, -0.24296848475933075, -0.001959754154086113, -0.055871009826660156, 0.9973060488700867, -0.025513652712106705, -0.030637741088867188, 1.493408203125, 1.37548828125, 0.021820068359375, 1.497802734375, 1.35791015625, 10.0, 1.0, 10.0, 1.3769023418426514
21176, -0.4571017324924469, 2.4966914653778076, -1.504446029663086, -0.36659783124923706, 0.07820051163434982, -2.9543204307556152, -0.560368001461029, 0.11932739615440369, -0.31648069620132446, -0.8360824584960938, -0.980686366558075, 0.05627748370170593, 0.13027535443935925, -0.5179994554724487, 1.1844965849479896, 9362.0, 30146.0, 35388.0, 9362.0, 8.17190170288086, -0.0311129167675972, -0.03839954361319542, 0.0018939628498628736, -9.327331645181403e-05, -0.05325336754322052, 0.9975849986076355, -0.025513652712106705, -0.030637741088867188, 1.493408203125, 1.3974609375, 0.03759765625, 1.49267578125, 1.35791015625, 10.0, 1.0, 10.0, 1.3769023418426514
21196, -0.45722851157188416, 2.497239112854004, -1.5043407678604126, -0.3778899312019348, 0.08060489594936371, -2.960657835006714, -0.5688467621803284, 0.121111661195755, -0.31718772649765015, -0.8360892534255981, -0.9806815981864929, 0.05630473047494888, 0.12764597298825128, -0.5251504389645447, 1.1867036060318163, 9362.0, 30146.0, 35388.0, 9362.0, 8.17190170288086, -0.10256905853748322, 0.3126014471054077, 0.17139148712158203, -0.00010266511526424438, -0.05487198755145073, 0.9998927712440491, -0.025513652712106705, -0.030637741088867188, 1.493408203125, 1.314697265625, 0.0319061279296875, 1.49267578125, 1.35791015625, 10.0, 1.0, 10.0, 1.3769023418426514
21216, -0.4578445255756378, 2.4923250675201416, -1.5052978992462158, -0.38935184478759766, 0.08304502815008163, -2.9670040607452393, -0.5773467421531677, 0.12290127575397491, -0.31745705008506775, -0.8360694050788879, -0.9806802272796631, 0.05627664923667908, 0.12678866797048138, -0.5243211164999764, 1.1827952433761886, 9362.0, 30146.0, 35388.0, 9362.0, 8.17190170288086, 0.053154222667217255, -0.1553637534379959, -0.03811952471733093, -0.00325071532279253, -0.054485250264406204, 0.9997287392616272, -0.025513652712106705, -0.030637741088867188, 1.493408203125, 1.265625, 0.1174468994140625, 1.49267578125, 1.35791015625, 10.0, 1.0, 10.0, 1.3769023418426514
21236, -0.45675399899482727, 2.4910764694213867, -1.508935809135437, -0.39514651894569397, 0.08427851647138596, -2.970179319381714, -0.5815908312797546, 0.12379597127437592, -0.3175905644893646, -0.8357186317443848, -0.9808483123779297, 0.05619117245078087, 0.23866460352932214, -0.7965713230556162, 1.1532337664027938, 9362.0, 30146.0, 35388.0, 9362.0, 8.17190170288086, 0.1319538801908493, 0.5264540314674377, -0.12293290346860886, -0.0016648665769025683, -0.05512078106403351, 0.9983915686607361, -0.025513652712106705, -0.030637741088867188, 1.493408203125, 1.327880859375, 0.0218353271484375, 1.4970703125, 1.35791015625, 10.0, 1.0, 10.0, 1.3769023418426514
21256, -0.4577188491821289, 2.4880335330963135, -1.5093421936035156, -0.39514651894569397, 0.08427851647138596, -2.970179319381714, -0.5815908312797546, 0.12379597127437592, -0.3175905644893646, -0.8356952667236328, -0.9808554649353027, 0.05615444481372833, 0.22712093992384563, -0.8002947458209917, 1.140872298875149, 9362.0, 30146.0, 35388.0, 9362.0, 8.17190170288086, -0.049505047500133514, 0.17389053106307983, 0.0876888707280159, -0.0016648665769025683, -0.05512078106403351, 0.9983915686607361, -0.04530874267220497, -0.08439826965332031, 1.489013671875, 1.352783203125, 0.015350341796875, 1.4970703125, 1.35791015625, 10.0, 1.0, 10.0, 1.3769023418426514
21276, -0.4581592381000519, 2.4858527183532715, -1.510807991027832, -0.41874873638153076, 0.08930177241563797, -2.9829087257385254, -0.5985130667686462, 0.12736576795578003, -0.3188784718513489, -0.8360716104507446, -0.9806720614433289, 0.056266121566295624, 0.12219838616905293, -0.5209373006604778, 1.1858257215977506, 9362.0, 30146.0, 35388.0, 9362.0, 8.17190170288086, -0.004875764716416597, -0.005541152786463499, -0.01229880377650261, -0.0017518363893032074, -0.0574815459549427, 0.9958951473236084, -0.04530874267220497, -0.08439826965332031, 1.489013671875, 1.34912109375, 0.015380859375, 1.49560546875, 1.35791015625, 10.0, 1.0, 10.0, 1.3769023418426514
21316, -0.45775097608566284, 2.478388786315918, -1.5103158950805664, -0.41874873638153076, 0.08930177241563797, -2.9829087257385254, -0.5985130667686462, 0.12736576795578003, -0.3188784718513489, -0.8360826373100281, -0.9806647300720215, 0.05626848340034485, 0.13040400650311695, -0.5224187325093226, 1.1841362086814151, 9362.0, 30146.0, 35388.0, 9362.0, 8.17190170288086, 0.19010427594184875, 0.0182895977050066, 0.12417753040790558, -0.0007930166902951896, -0.05467933788895607, 0.9976077675819397, -0.04530874267220497, -0.08439826965332031, 1.489013671875, 1.38427734375, 0.027099609375, 1.49560546875, 1.35498046875, 10.0, 1.0, 10.0, 1.3769023418426514
21336, -0.4569953382015228, 2.474315881729126, -1.508678674697876, -0.41874873638153076, 0.08930177241563797, -2.9829087257385254, -0.5985130667686462, 0.12736576795578003, -0.3188784718513489, -0.8360580205917358, -0.9806735515594482, 0.056247562170028687, 0.12206296984779064, -0.5220448781714424, 1.1764185085990282, 9362.0, 30146.0, 35388.0, 9362.0, 8.17190170288086, -0.1343259960412979, 0.03488398343324661, 0.1715008020401001, -0.0007930166902951896, -0.05467933788895607, 0.9976077675819397, -0.04530874267220497, -0.08439826965332031, 1.489013671875, 1.389404296875, 0.03082275390625, 1.494140625, 1.35498046875, 10.0, 1.0, 10.0, 1.3769023418426514
21356, -0.4574892520904541, 2.474660873413086, -1.508436679840088, -0.41874873638153076, 0.08930177241563797, -2.9829087257385254, -0.5985130667686462, 0.12736576795578003, -0.3188784718513489, -0.8357057571411133, -0.9808565974235535, 0.0561923123896122, 0.24099386853569849, -0.8002540360232047, 1.1533573388995522, 9362.0, 30146.0, 35388.0, 9362.0, 8.152067184448242, -0.08648546785116196, -0.2933146059513092, -0.13493986427783966, -0.0017694677226245403, -0.054189786314964294, 0.9970272779464722, -0.028691841289401054, -0.06647872924804688, 1.490478515625, 1.389404296875, 0.03082275390625, 1.494140625, 1.35498046875, 10.0, 1.0, 10.0, 1.3769023418426514
21396, -0.45879995822906494, 2.478090524673462, -1.5101007223129272, -0.49360692501068115, 0.10522879660129547, -3.0214147567749023, -0.6490654349327087, 0.13807927072048187, -0.32288363575935364, -0.8357080817222595, -0.9808557629585266, 0.05615442246198654, 0.23978106391628873, -0.7987094654082512, 1.1532303129550627, 9362.0, 30146.0, 35388.0, 9362.0, 8.152067184448242, -0.16199858486652374, 0.00556902913376689, 0.23169156908988953, -0.00021173933055251837, -0.05613607540726662, 0.9996351599693298, -0.028691841289401054, -0.06647872924804688, 1.490478515625, 1.341064453125, 0.01654052734375, 1.49853515625, 1.35498046875, 10.0, 1.0, 10.0, 1.3769023418426514
21416, -0.4592806100845337, 2.4771509170532227, -1.5102965831756592, -0.49360692501068115, 0.10522879660129547, -3.0214147567749023, -0.6490654349327087, 0.13807927072048187, -0.32288363575935364, -0.8356906771659851, -0.9808515310287476, 0.056192684918642044, 0.23634930010830377, -0.7920345463909371, 1.1471701847046654, 9362.0, 30146.0, 35388.0, 9362.0, 8.152067184448242, 0.06549753993749619, 0.23753216862678528, 0.1356476992368698, -0.001147111295722425, -0.05462295934557915, 0.9999181032180786, -0.028691841289401054, -0.06647872924804688, 1.490478515625, 1.423828125, 0.066802978515625, 1.49853515625, 1.35498046875, 10.0, 1.0, 10.0, 1.3769023418426514
21436, -0.4613301753997803, 2.4754161834716797, -1.5105226039886475, -0.5265870690345764, 0.11224469542503357, -3.037580966949463, -0.6701428294181824, 0.14255975186824799, -0.32371005415916443, -0.8357018232345581, -0.9808540940284729, 0.05616481229662895, 0.2312831018776402, -0.7991971859802334, 1.1546034469194566, 9362.0, 30146.0, 35388.0, 9362.0, 8.152067184448242, -0.028316983953118324, 0.1930631697177887, 0.12495117634534836, -0.0006596666062250733, -0.05333144962787628, 0.9988589286804199, -0.028691841289401054, -0.06647872924804688, 1.490478515625, 1.37255859375, 0.02044677734375, 1.49853515625, 1.35498046875, 10.0, 1.0, 10.0, 1.3769023418426514
21456, -0.4629537761211395, 2.4743058681488037, -1.5121257305145264, -0.5400741696357727, 0.11511385440826416, -3.044058084487915, -0.6785653829574585, 0.1443576216697693, -0.3240397274494171, -0.8357054591178894, -0.9808521270751953, 0.05614877864718437, 0.2284053428464884, -0.7931309991024307, 1.1514131483585857, 9362.0, 30146.0, 35388.0, 9362.0, 8.17190170288086, 0.003325005993247032, 0.007042238488793373, 0.265155553817749, 0.0006643031374551356, -0.05584357678890228, 0.9974615573883057, -0.02532263845205307, 0.03208160400390625, 1.49853515625, 1.439208984375, 0.0882415771484375, 1.49853515625, 1.35498046875, 10.0, 1.0, 10.0, 1.3769023418426514
21476, -0.46376585960388184, 2.470961809158325, -1.5102331638336182, -0.546880841255188, 0.11656193435192108, -3.047299861907959, -0.682771623134613, 0.14525853097438812, -0.3243062496185303, -0.8360573053359985, -0.9806685447692871, 0.05624346435070038, 0.12218002378537045, -0.524953268374162, 1.174897888489526, 9362.0, 30146.0, 35388.0, 9362.0, 8.17190170288086, 0.08190552890300751, 0.2118532955646515, -0.13043367862701416, -0.0003103087074123323, -0.05485456809401512, 0.9965636134147644, -0.02532263845205307, 0.03208160400390625, 1.49853515625, 1.439208984375, 0.0882415771484375, 1.49853515625, 1.35498046875, 10.0, 1.0, 10.0, 1.3769023418426514
21516, -0.46104109287261963, 2.4687306880950928, -1.5170987844467163, -0.5745275616645813, 0.12244444340467453, -3.0603010654449463, -0.6995642781257629, 0.1488688886165619, -0.3255908191204071, -0.8360568881034851, -0.980675220489502, 0.05626699700951576, 0.12408170067725963, -0.5244021375482362, 1.183953078385215, 9362.0, 30146.0, 35388.0, 9362.0, 8.17190170288086, -0.3471744954586029, 0.18211092054843903, 0.02067931741476059, -0.001044713077135384, -0.054927874356508255, 0.9982663989067078, -0.02532263845205307, 0.03208160400390625, 1.49853515625, 1.3037109375, 0.04412841796875, 1.496337890625, 1.35498046875, 10.0, 1.0, 10.0, 1.3769023418426514
21556, -0.45918843150138855, 2.462388038635254, -1.520142674446106, -0.5745275616645813, 0.12244444340467453, -3.0603010654449463, -0.6995642781257629, 0.1488688886165619, -0.3255908191204071, -0.8356955647468567, -0.9808491468429565, 0.05619431287050247, 0.2403322789387833, -0.7969884587361662, 1.150123783617954, 9362.0, 30146.0, 35388.0, 9362.0, 8.152067184448242, 0.11483360826969147, 0.11851935088634491, -0.07546805590391159, -0.001890636864118278, -0.054304808378219604, 0.9981399178504944, -0.04745647683739662, 0.014162063598632812, 1.4970703125, 1.376220703125, 0.0222930908203125, 1.48974609375, 1.35498046875, 10.0, 1.0, 10.0, 1.3769023418426514
21576, -0.45833465456962585, 2.462225914001465, -1.5207878351211548, -0.6245245337486267, 0.13308589160442352, -3.0831573009490967, -0.728897213935852, 0.15516312420368195, -0.32768869400024414, -0.8356881141662598, -0.9808664321899414, 0.05620703846216202, 0.23867719963700512, -0.8136822172906477, 1.151242800404055, 9362.0, 30146.0, 35388.0, 9362.0, 8.152067184448242, 0.09982021152973175, 0.025527875870466232, 0.0914791077375412, -0.001890636864118278, -0.054304808378219604, 0.9981399178504944, -0.04745647683739662, 0.014162063598632812, 1.4970703125, 1.42822265625, 0.0726470947265625, 1.493408203125, 1.35498046875, 10.0, 1.0, 10.0, 1.3769023418426514
21596, -0.45887455344200134, 2.4618263244628906, -1.520350456237793, -0.6245245337486267, 0.13308589160442352, -3.0831573009490967, -0.728897213935852, 0.15516312420368195, -0.32768869400024414, -0.8357018232345581, -0.980863094329834, 0.05617562681436539, 0.24538405316914255, -0.7939737938836515, 1.154024882755153, 9362.0, 30146.0, 35388.0, 9362.0, 8.152067184448242, 0.02787431702017784, 0.5411080121994019, 0.4352928400039673, -0.0032857991755008698, -0.05649449676275253, 0.9974005222320557, -0.04745647683739662, 0.014162063598632812, 1.4970703125, 1.29052734375, 0.06378173828125, 1.493408203125, 1.35498046875, 10.0, 1.0, 10.0, 1.3769023418426514
21606, -0.4589378833770752, 2.4572653770446777, -1.5189383029937744, -0.6465796828269958, 0.1377810686826706, -3.093001127243042, -0.7414470314979553, 0.15784810483455658, -0.32865139842033386, -0.8356903195381165, -0.9808661937713623, 0.056191809475421906, 0.24167390439936318, -0.8028432587409782, 1.1465494914674996, 9362.0, 30146.0, 35388.0, 9362.0, 8.152067184448242, 0.010028270073235035, -0.1276988983154297, 0.04451606050133705, -0.0033830213360488415, -0.054647915065288544, 0.9961079955101013, -0.04745647683739662, 0.014162063598632812, 1.4970703125, 1.283935546875, 0.075897216796875, 1.49560546875, 1.35498046875, 10.0, 1.0, 10.0, 1.3769023418426514
21616, -0.4594166874885559, 2.45770001411438, -1.5194522142410278, -0.654015064239502, 0.13936401903629303, -3.0962893962860107, -0.7456281781196594, 0.1587430238723755, -0.3289813995361328, -0.8360843658447266, -0.9806802272796631, 0.056291840970516205, 0.12850781426126331, -0.5338527616983697, 1.1962931209002883, 9362.0, 30146.0, 35388.0, 9362.0, 8.152067184448242, 0.04697120934724808, -0.0889919251203537, -0.25310996174812317, -0.0009375630179420114, -0.054020851850509644, 0.9980839490890503, -0.04745647683739662, 0.014162063598632812, 1.4970703125, 1.353515625, 0.0154571533203125, 1.49560546875, 1.35498046875, 10.0, 1.0, 10.0, 1.3769023418426514
21626, -0.45966637134552, 2.459324836730957, -1.5220720767974854, -0.6614921689033508, 0.14095592498779297, -3.099581480026245, -0.7497963905334473, 0.15963676571846008, -0.32943299412727356, -0.8356966972351074, -0.9808540344238281, 0.056162476539611816, 0.2314521145683575, -0.7958236074813101, 1.1445970607125338, 9362.0, 30146.0, 35388.0, 9362.0, 8.152067184448242, 0.12362891435623169, -0.09504375606775284, -0.01585482805967331, -0.0025380407460033894, -0.053125880658626556, 0.9964308738708496, -0.04745647683739662, 0.014162063598632812, 1.4970703125, 1.3388671875, 0.017120361328125, 1.49267578125, 1.35498046875, 10.0, 1.0, 10.0, 1.3769023418426514
21636, -0.459586501121521, 2.4599475860595703, -1.522614598274231, -0.6690109968185425, 0.14255677163600922, -3.102877378463745, -0.7539710402488708, 0.16053275763988495, -0.3297494053840637, -0.8356947302818298, -0.9808483719825745, 0.05622144415974617, 0.2400972614085082, -0.7987120088985193, 1.148807705397288, 9362.0, 30146.0, 35388.0, 9362.0, 8.152067184448242, -0.06878897547721863, 0.4877515733242035, 0.06814885139465332, -0.001320871408097446, -0.054575707763433456, 0.9997144341468811, -0.04745647683739662, 0.014162063598632812, 1.4970703125, 1.428955078125, 0.073577880859375, 1.49267578125, 1.35498046875, 10.0, 1.0, 10.0, 1.3772176504135132
21656, -0.4582469165325165, 2.455080986022949, -1.5210027694702148, -0.6765716075897217, 0.14416657388210297, -3.1061768531799316, -0.7581459879875183, 0.161428764462471, -0.33012446761131287, -0.8357056975364685, -0.9808579683303833, 0.05618259310722351, 0.2356418638087943, -0.7901226993299417, 1.156069529045934, 9362.0, 30146.0, 35388.0, 9362.0, 8.152067184448242, -0.09499602764844894, -0.1483994722366333, -0.32132449746131897, -0.0023944012355059385, -0.054449182003736496, 0.9996602535247803, -0.031032539904117584, -0.04855918884277344, 1.491943359375, 1.417236328125, 0.058624267578125, 1.494140625, 1.365966796875, 10.0, 1.0, 10.0, 1.3772176504135132
21676, -0.4589000642299652, 2.4534730911254883, -1.5208773612976074, -0.6765716075897217, 0.14416657388210297, -3.1061768531799316, -0.7581459879875183, 0.161428764462471, -0.33012446761131287, -0.8356971740722656, -0.9808399677276611, 0.05622393637895584, 0.24484099258168995, -0.803943591957875, 1.1514517637041124, 9362.0, 30146.0, 35388.0, 9362.0, 8.152067184448242, 0.07251153886318207, 0.18778829276561737, 0.12450917065143585, -0.0014100335538387299, -0.053231965750455856, 1.000203251838684, -0.031032539904117584, -0.04855918884277344, 1.491943359375, 1.39013671875, 0.0314483642578125, 1.497802734375, 1.365966796875, 10.0, 1.0, 10.0, 1.3772176504135132
21696, -0.4584214687347412, 2.4536616802215576, -1.5234529972076416, -0.7150013446807861, 0.152350053191185, -3.122706174850464, -0.7790352702140808, 0.16590967774391174, -0.3309965133666992, -0.8356947898864746, -0.9808478951454163, 0.05617746710777283, 0.23510817068137418, -0.7856829196381057, 1.1588656941656055, 9362.0, 30146.0, 35388.0, 9362.0, 8.152067184448242, 0.05799400433897972, -0.08240346610546112, -0.14627240598201752, -0.0013752966187894344, -0.055566322058439255, 0.998971700668335, -0.031032539904117584, -0.04855918884277344, 1.491943359375, 1.24365234375, 0.1847381591796875, 1.494873046875, 1.365966796875, 10.0, 1.0, 10.0, 1.3772176504135132
21716, -0.45919278264045715, 2.4532523155212402, -1.5242292881011963, -0.7228125333786011, 0.15401363372802734, -3.1260170936584473, -0.7832070589065552, 0.16680514812469482, -0.331200510263443, -0.8356970548629761, -0.9808548092842102, 0.05616343021392822, 0.23679021939215708, -0.7988941814426482, 1.1646111297561739, 9362.0, 30146.0, 35388.0, 9362.0, 8.152067184448242, -0.06028074026107788, -0.19617408514022827, -0.12878398597240448, -0.0013162372633814812, -0.055522799491882324, 1.0006506443023682, -0.031032539904117584, -0.04855918884277344, 1.491943359375, 1.44140625, 0.0914459228515625, 1.496337890625, 1.365966796875, 10.0, 1.0, 10.0, 1.3772176504135132
21736, -0.45875000953674316, 2.451549768447876, -1.5251978635787964, -0.7228125333786011, 0.15401363372802734, -3.1260170936584473, -0.7832070589065552, 0.16680514812469482, -0.331200510263443, -0.836076021194458, -0.9806761741638184, 0.05629587918519974, 0.1271188784310302, -0.5248310342021796, 1.183425429986161, 9362.0, 30146.0, 35388.0, 9362.0, 8.152067184448242, 0.05524272844195366, 0.1001664400100708, -0.22613804042339325, -0.00010926304821623489, -0.05534379929304123, 0.9987404942512512, -0.031032539904117584, -0.04855918884277344, 1.491943359375, 1.45751953125, 0.117095947265625, 1.49853515625, 1.365966796875, 10.0, 1.0, 10.0, 1.3772176504135132
21776, -0.4587394893169403, 2.4497759342193604, -1.5301671028137207, -0.7705557346343994, 0.16418322920799255, -3.1459298133850098, -0.8082298636436462, 0.17218102514743805, -0.3325076401233673, -0.8360592722892761, -0.980687141418457, 0.056256167590618134, 0.11879954677639624, -0.527392868828457, 1.1829083315394004, 9362.0, 30146.0, 35388.0, 9362.0, 8.152067184448242, 0.08679638057947159, 0.42503172159194946, -0.1473565399646759, -0.0017497207736596465, -0.055158402770757675, 0.9978185892105103, -0.031032539904117584, -0.04855918884277344, 1.491943359375, 1.27880859375, 0.086212158203125, 1.49560546875, 1.365966796875, 10.0, 1.0, 10.0, 1.3772176504135132
21796, -0.45811858773231506, 2.4447598457336426, -1.5328797101974487, -0.7949901223182678, 0.16938894987106323, -3.155916929244995, -0.82072913646698, 0.1748684048652649, -0.33323994278907776, -0.8357049226760864, -0.9808354377746582, 0.056219056248664856, 0.23863398799869354, -0.7881757129117375, 1.145420644836272, 9362.0, 30146.0, 35388.0, 9362.0, 8.152067184448242, 0.3648633360862732, 0.2481698989868164, -0.04901871830224991, -0.0006002311129122972, -0.054398562759160995, 0.9997163414955139, -0.031032539904117584, -0.04855918884277344, 1.491943359375, 1.38427734375, 0.027099609375, 1.496337890625, 1.365966796875, 10.0, 1.0, 10.0, 1.3772176504135132
21806, -0.4567335546016693, 2.4435832500457764, -1.533674955368042, -0.7949901223182678, 0.16938894987106323, -3.155916929244995, -0.82072913646698, 0.1748684048652649, -0.33323994278907776, -0.8356887698173523, -0.9808562994003296, 0.056188903748989105, 0.22952515120791117, -0.7885373203122583, 1.1423719418240055, 9362.0, 30146.0, 35388.0, 9362.0, 8.152067184448242, -0.02167559787631035, -0.087758369743824, -0.1134655550122261, -0.0020208850037306547, -0.05587773397564888, 1.0004627704620361, -0.031032539904117584, -0.04855918884277344, 1.491943359375, 1.36669921875, 0.01806640625, 1.493408203125, 1.365966796875, 10.0, 1.0, 10.0, 1.3772176504135132
