timeTick, roll, pitch, yaw, stateX, stateY, stateZ, stateVX, stateVY, stateVZ, otX0, otY0, otZ0, otRoll0, otPitch0, otYaw0, left wing, pitch motor, yaw motor, right wing, voltage, roll rate, pitch rate, yaw rate, A_x, A_y, A_z, current, i_raw, v_raw, airflow_voltage, airflow_speed, pot_Pitch, voltage_nKF, kFFx, state_vel, State_vel, volt_KF_vel
32763, -0.2772766649723053, -1.9537923336029053, 1.9181389808654785, 0, 0, 0, 0, 0, 0, -0.8344136476516724, -0.9543346166610718, 0.055613722652196884, -0.78429299193658, 1.6290801394319203, 3.4479941426459093, 0, 0, 0, 0, 0, 0, 0, 0, 0, 0, 0, 0, 0, 0, 0, 0, 0, 0, 0, 0, 0, 0
32773, -0.27558907866477966, -1.9559906721115112, 1.916810154914856, -0.0006715311901643872, -0.00011881433601956815, -16.9255428314209, -0.03026476316154003, -0.005355588626116514, -1.0872653722763062, -0.8344043493270874, -0.9543355703353882, 0.05563357472419739, -0.7893304660206252, 1.621687844598057, 3.4310521295823206, 9362.0, 30146.0, 35388.0, 9362.0, 0, 0.09787365049123764, -0.031345169991254807, 0.044076792895793915, 0.029672684147953987, -0.0737539529800415, 0.9936557412147522, 0, 0, 0, 0, 0, 0, 0, 0, 0, 0, 0
32783, -0.273998886346817, -1.95594322681427, 1.916558027267456, -0.0009576005977578461, -0.00016944791423156857, -16.936416625976562, -0.026949113234877586, -0.004771197680383921, -1.087651252746582, -0.8344157934188843, -0.9543193578720093, 0.05559557303786278, -0.7826302995248031, 1.62256014969131, 3.430609759022213, 9362.0, 30146.0, 35388.0, 9362.0, 0, -0.2714679539203644, -0.1626240611076355, 0.14227472245693207, 0.029779769480228424, -0.07443565130233765, 0.9945498108863831, 0, 0, 0, 1.58203125, 0.37493896484375, 0, 1.142578125, 10.0, 1.0, 10.0, 1.3995349407196045
32793, -0.27476876974105835, -1.95484459400177, 1.9165399074554443, -0.0012105385540053248, -0.00021425950399134308, -16.947296142578125, -0.02363847941160202, -0.004191120620816946, -1.0882983207702637, -0.8343979120254517, -0.9543242454528809, 0.05560190975666046, -0.7923809521520419, 1.6262145539613755, 3.439901787806505, 9362.0, 30146.0, 35388.0, 9362.0, 0, 0.10659266263246536, -0.41228553652763367, -0.2612815797328949, 0.029175391420722008, -0.07215402275323868, 0.9962026476860046, 0, 0, 0, 1.339599609375, 0.0168914794921875, 1.491943359375, 1.411376953125, 10.0, 1.0, 10.0, 1.3993457555770874
32803, -0.2748573124408722, -1.9504932165145874, 1.91278076171875, -0.0014303633943200111, -0.00025328274932689965, -16.958181381225586, -0.020326467230916023, -0.003613534849137068, -1.0889053344726562, -0.8344064950942993, -0.9543275237083435, 0.05558745190501213, -0.7882709102427751, 1.631984505526674, 3.4467975709694247, 9362.0, 30146.0, 35388.0, 9362.0, 0, -0.020395200699567795, 0.010390324518084526, 0.3963676393032074, 0.028159454464912415, -0.0740528330206871, 0.9968380331993103, 0, 0, 0, 1.576171875, 0.361328125, 1.491943359375, 1.57470703125, 10.0, 1.0, 10.0, 1.3999040126800537
32813, -0.2751942574977875, -1.9506502151489258, 1.914863109588623, -0.0016170601593330503, -0.0002865208371076733, -16.969072341918945, -0.01701279543340206, -0.0030342971440404654, -1.0894088745117188, -0.8344005942344666, -0.9543231129646301, 0.05558968335390091, -0.7752653038616647, 1.630207751694087, 3.42418594020211, 9362.0, 30146.0, 35388.0, 9362.0, 0, 0.13474206626415253, -0.11290440708398819, -0.27911487221717834, 0.030113497748970985, -0.07364227622747421, 0.9983054995536804, 0, 0, 0, 1.52490234375, 0.247039794921875, 1.491943359375, 1.462646484375, 10.0, 1.0, 10.0, 1.4002987146377563
32823, -0.27418145537376404, -1.950168251991272, 1.9137628078460693, -0.001770635019056499, -0.0003139642649330199, -16.979969024658203, -0.0137022091075778, -0.0024542713072150946, -1.0897828340530396, -0.8343986868858337, -0.9543284177780151, 0.055625759065151215, -0.7795569112701556, 1.627293450835225, 3.4355073043278055, 9362.0, 30146.0, 35388.0, 9362.0, 0, -0.1897011250257492, 0.08692454546689987, 0.030972948297858238, 0.030785536393523216, -0.07186882197856903, 0.9975106716156006, 0, 0, 0, 1.389404296875, 0.03082275390625, 1.491943359375, 1.5615234375, 10.0, 1.0, 10.0, 1.4002642631530762
32833, -0.27403923869132996, -1.9527255296707153, 1.9145262241363525, -0.0018910847138613462, -0.0003356007218826562, -16.990867614746094, -0.010387701913714409, -0.0018730810843408108, -1.0900487899780273, -0.834405243396759, -0.9543181657791138, 0.055609576404094696, -0.7896179514055379, 1.6259063569550847, 3.4465421400833915, 9362.0, 30146.0, 35388.0, 9362.0, 0, -0.0260607972741127, -0.3100373446941376, 0.09253532439470291, 0.03032592684030533, -0.07356151193380356, 0.9969481825828552, 0, 0, 0, 1.4677734375, 0.1347198486328125, 1.4912109375, 1.27294921875, 10.0, 1.0, 10.0, 1.400477409362793
32843, -0.274653822183609, -1.9507821798324585, 1.915818691253662, -0.001978393644094467, -0.000351434457115829, -17.00177001953125, -0.007074080407619476, -0.00129362300503999, -1.0903180837631226, -0.8343862891197205, -0.9543348550796509, 0.055605482310056686, -0.7775162487143001, 1.6163948863625137, 3.4171743936989225, 9362.0, 30146.0, 35388.0, 9362.0, 0, 0.04813888669013977, -0.0016222036210820079, -0.12946629524230957, 0.03193908929824829, -0.07379595190286636, 0.9995216727256775, 0, 0, 0, 1.228271484375, 0.2443389892578125, 1.4912109375, 1.41650390625, 10.0, 1.0, 10.0, 1.3999336957931519
32853, -0.27438411116600037, -1.9515206813812256, 1.9151599407196045, -0.002032569143921137, -0.0003614781890064478, -17.01267433166504, -0.0037610111758112907, -0.0007150513702072203, -1.090732455253601, -0.83440762758255, -0.9543254375457764, 0.05559170991182327, -0.7828075322090812, 1.6374108520960249, 3.4276799105740126, 9362.0, 30146.0, 35388.0, 9362.0, 0, 0.23020313680171967, 0.4617960453033447, -0.1067851260304451, 0.029016345739364624, -0.07551167905330658, 0.9977582693099976, 0, 0, 0, 1.469970703125, 0.1386566162109375, 1.493408203125, 1.210693359375, 10.0, 1.0, 10.0, 1.4001548290252686
32863, -0.2733455300331116, -1.955495834350586, 1.9143620729446411, -0.0020535800140351057, -0.000365722255082801, -17.023582458496094, -0.00044114908087067306, -0.00013380168820731342, -1.0908474922180176, -0.8344006538391113, -0.9543206691741943, 0.055605269968509674, -0.7836412879478446, 1.6231715789454881, 3.4219864068847112, 9362.0, 30146.0, 35388.0, 9362.0, 8.390083312988281, -0.10511215776205063, 0.13719303905963898, -0.011785909533500671, 0.028404884040355682, -0.07519698888063431, 0.9981687664985657, -0.07289957255125046, -0.08439826965332031, 1.489013671875, 1.07958984375, 1.539276123046875, 1.493408203125, 1.34912109375, 10.0, 1.0, 10.0, 1.3991427421569824
32873, -0.2740924060344696, -1.9571161270141602, 1.9136508703231812, -0.002041407162323594, -0.00036415987415239215, -17.03449249267578, 0.002875708043575287, 0.0004462352371774614, -1.0910892486572266, -0.8343994617462158, -0.9543383121490479, 0.055646367371082306, -0.7771390355001225, 1.621428538081119, 3.4438336797780478, 9362.0, 30146.0, 35388.0, 9362.0, 8.390083312988281, 0.16862215101718903, -0.20472760498523712, 0.050530530512332916, 0.02996162325143814, -0.07322812080383301, 0.9973320960998535, -0.07289957255125046, -0.08439826965332031, 1.489013671875, 1.36669921875, 0.01806640625, 1.496337890625, 1.57763671875, 10.0, 1.0, 10.0, 1.3990403413772583
32883, -0.27233070135116577, -1.9554059505462646, 1.9137232303619385, -0.001996029634028673, -0.0003568047541193664, -17.0454044342041, 0.006199788302183151, 0.0010247424943372607, -1.0913200378417969, -0.8344063758850098, -0.9543169140815735, 0.05559946224093437, -0.7860954872188614, 1.6172700038060555, 3.4442880739588, 9362.0, 30146.0, 35388.0, 9362.0, 8.390083312988281, -0.12450568377971649, 0.2547580897808075, -0.11671115458011627, 0.028039073571562767, -0.0721360445022583, 0.9980851411819458, -0.07289957255125046, -0.08439826965332031, 1.489013671875, 1.304443359375, 0.043182373046875, 1.496337890625, 1.553466796875, 10.0, 1.0, 10.0, 1.3987417221069336
32893, -0.2732560634613037, -1.9562950134277344, 1.912943959236145, -0.0019174133194610476, -0.0003436606493778527, -17.056320190429688, 0.0095234839245677, 0.0016040877671912313, -1.0916428565979004, -0.8343750834465027, -0.9542934894561768, 0.05558162182569504, -0.7805009520057176, 1.6342000559950236, 3.431572423970843, 9362.0, 30146.0, 35388.0, 9362.0, 8.390083312988281, 0.19616983830928802, -0.3995971083641052, -0.08057883381843567, 0.027673572301864624, -0.07368654012680054, 0.9966062903404236, -0.07289957255125046, -0.08439826965332031, 1.489013671875, 1.524169921875, 0.2455596923828125, 1.491943359375, 1.4150390625, 10.0, 1.0, 10.0, 1.3991377353668213
32903, -0.27248114347457886, -1.952823281288147, 1.9129916429519653, -0.0018055634573101997, -0.0003247367567382753, -17.067237854003906, 0.012846493162214756, 0.0021806457079946995, -1.0919026136398315, -0.8344027996063232, -0.9543240070343018, 0.055632494390010834, -0.7771069847250597, 1.617119362236906, 3.4311114227449164, 9362.0, 30146.0, 35388.0, 9362.0, 8.390083312988281, 0.01810520887374878, -0.284145712852478, -0.4524984359741211, 0.03132915496826172, -0.07233481109142303, 0.9968120455741882, -0.07289957255125046, -0.08439826965332031, 1.489013671875, 1.28759765625, 0.068939208984375, 1.491943359375, 1.541015625, 10.0, 1.0, 10.0, 1.3987855911254883
32913, -0.2723044753074646, -1.951263666152954, 1.9116411209106445, -0.0016604909906163812, -0.0003000419237650931, -17.07815933227539, 0.016168013215065002, 0.0027583278715610504, -1.0922497510910034, -0.8344172239303589, -0.9543421268463135, 0.055637627840042114, -0.783444632248197, 1.6241471280864346, 3.438809822032091, 9362.0, 30146.0, 35388.0, 9362.0, 8.390083312988281, -0.006380445323884487, 0.015531152486801147, -0.024721456691622734, 0.029391339048743248, -0.0746157318353653, 0.9962940216064453, -0.07289957255125046, -0.08439826965332031, 1.489013671875, 1.5205078125, 0.237762451171875, 1.491943359375, 1.6201171875, 10.0, 1.0, 10.0, 1.399169921875
32923, -0.2719734013080597, -1.9521141052246094, 1.9117000102996826, -0.0014822339871898293, -0.0002695780713111162, -17.089082717895508, 0.019483407959342003, 0.0033343627583235502, -1.092604398727417, -0.8344108462333679, -0.9543206691741943, 0.05562736093997955, -0.7717571466908777, 1.6153870412421156, 3.41201200305054, 9362.0, 30146.0, 35388.0, 9362.0, 8.390083312988281, 0.02800522744655609, -0.02055392414331436, 0.27238789200782776, 0.028063597157597542, -0.07370957732200623, 0.99638831615448, -0.07289957255125046, -0.08439826965332031, 1.489013671875, 1.582763671875, 0.3765869140625, 1.491943359375, 1.59521484375, 10.0, 1.0, 10.0, 1.3997496366500854
32933, -0.2710336148738861, -1.9520641565322876, 1.913284182548523, -0.0012708429712802172, -0.00023335739388130605, -17.10000991821289, 0.02279478684067726, 0.003909775987267494, -1.09299898147583, -0.8344140648841858, -0.9543222784996033, 0.05561354011297226, -0.7795553058150774, 1.621886663087679, 3.4286196458542877, 9362.0, 30146.0, 35388.0, 9362.0, 8.390083312988281, 0.08592578023672104, -0.09114593267440796, -0.02131650596857071, 0.028564617037773132, -0.07312165200710297, 0.9965725541114807, -0.07289957255125046, -0.08439826965332031, 1.489013671875, 1.578369140625, 0.3665008544921875, 1.487548828125, 1.311767578125, 10.0, 1.0, 10.0, 1.4003136157989502
32943, -0.2706029415130615, -1.953239917755127, 1.9135390520095825, -0.001026335172355175, -0.0001913859014166519, -17.110942840576172, 0.026106758043169975, 0.00448461901396513, -1.093419075012207, -0.8344143033027649, -0.9542709589004517, 0.0556827187538147, -0.7680259443589099, 1.5717033555797002, 3.3637950730173816, 9362.0, 30146.0, 35388.0, 9362.0, 8.390083312988281, 0.07579147070646286, -0.10844289511442184, -0.015795275568962097, 0.02982426807284355, -0.07258040457963943, 0.9972403049468994, -0.07289957255125046, -0.08439826965332031, 1.489013671875, 1.584228515625, 0.3801727294921875, 1.487548828125, 1.557861328125, 10.0, 1.0, 10.0, 1.400894284248352
32953, -0.2694147825241089, -1.9528088569641113, 1.913175106048584, -0.0007487001712433994, -0.00014367220865096897, -17.12187957763672, 0.02942022681236267, 0.005058133974671364, -1.0937936305999756, -0.8344218730926514, -0.9542595148086548, 0.05569140985608101, -0.7663731641501864, 1.573054893853481, 3.363874423471923, 9362.0, 30146.0, 35388.0, 9362.0, 8.390083312988281, 0.10161352157592773, -0.18450143933296204, -0.2936939299106598, 0.029367705807089806, -0.07310186326503754, 0.9965919256210327, -0.07289957255125046, -0.08439826965332031, 1.489013671875, 1.53515625, 0.2692413330078125, 1.491943359375, 1.346923828125, 10.0, 1.0, 10.0, 1.4013181924819946
32963, -0.2697255611419678, -1.9512073993682861, 1.911583662033081, -0.0004379109013825655, -9.022499580169097e-05, -17.1328182220459, 0.03273763507604599, 0.00563129223883152, -1.0941123962402344, -0.8343905806541443, -0.9543388485908508, 0.05565737187862396, -0.7745748467445107, 1.6283564181102292, 3.427194592878807, 9362.0, 30146.0, 35388.0, 9362.0, 8.390083312988281, -0.04690422862768173, -0.016738997772336006, 0.18329750001430511, 0.03091098926961422, -0.07300344109535217, 0.9958444237709045, -0.07731574028730392, -0.0037593841552734375, 1.49560546875, 1.554931640625, 0.3128814697265625, 1.491943359375, 1.51611328125, 10.0, 1.0, 10.0, 1.4018032550811768
32973, -0.27001968026161194, -1.9512361288070679, 1.9115461111068726, -9.395708912052214e-05, -3.105765063082799e-05, -17.143760681152344, 0.03605315834283829, 0.006202087737619877, -1.0944677591323853, -0.8344082832336426, -0.9543138146400452, 0.0555841438472271, -0.7869728642605733, 1.6145484854798724, 3.429740324783977, 9362.0, 30146.0, 35388.0, 9362.0, 8.390083312988281, -0.07486112415790558, -0.16860516369342804, -0.11332441121339798, 0.029098665341734886, -0.07292082160711288, 0.9989379644393921, -0.07731574028730392, -0.0037593841552734375, 1.49560546875, 1.52490234375, 0.247039794921875, 1.493408203125, 1.54248046875, 10.0, 1.0, 10.0, 1.4021918773651123
32983, -0.2696007788181305, -1.9498441219329834, 1.9104284048080444, 0.00028311964706517756, 3.381616261322051e-05, -17.154706954956055, 0.03936218097805977, 0.006772671360522509, -1.0949335098266602, -0.8344013690948486, -0.9543275237083435, 0.05561818927526474, -0.7810796003173816, 1.622992557018847, 3.432831129622833, 9362.0, 30146.0, 35388.0, 9362.0, 8.390083312988281, 0.11802114546298981, 0.4235222041606903, 0.30568477511405945, 0.031023254618048668, -0.07528937608003616, 1.000121831893921, -0.07731574028730392, -0.0037593841552734375, 1.49560546875, 1.529296875, 0.2564849853515625, 1.493408203125, 1.40625, 10.0, 1.0, 10.0, 1.4025931358337402
32993, -0.2682530879974365, -1.9509140253067017, 1.911710262298584, 0.0006933195400051773, 0.00010440398909850046, -17.16565704345703, 0.042677827179431915, 0.007344832643866539, -1.0952050685882568, -0.8344250321388245, -0.954322874546051, 0.055630795657634735, -0.7914304785411094, 1.6292830445151765, 3.439262053720247, 9362.0, 30146.0, 35388.0, 9362.0, 8.390083312988281, 0.021531742066144943, 0.11241690069437027, 0.08629003912210464, 0.02996739186346531, -0.07515797019004822, 0.9986237287521362, -0.07731574028730392, -0.0037593841552734375, 1.49560546875, 1.412841796875, 0.0534515380859375, 1.494140625, 1.4091796875, 10.0, 1.0, 10.0, 1.4026254415512085
33003, -0.268421471118927, -1.951778531074524, 1.9124304056167603, 0.0011366992257535458, 0.00018071517115458846, -17.17660903930664, 0.04599810391664505, 0.007917477749288082, -1.095269799232483, -0.8343912363052368, -0.9543362259864807, 0.05562208220362663, -0.7791538186070195, 1.6228974311368347, 3.4275563063126677, 9362.0, 30146.0, 35388.0, 9362.0, 8.390083312988281, 0.09996960312128067, 0.11779583990573883, -0.21551454067230225, 0.03012741543352604, -0.07255421578884125, 0.9982464909553528, -0.07731574028730392, -0.0037593841552734375, 1.49560546875, 1.40771484375, 0.0478363037109375, 1.494140625, 1.4912109375, 10.0, 1.0, 10.0, 1.4026415348052979
33013, -0.26726463437080383, -1.9539308547973633, 1.9102040529251099, 0.0016132749151438475, 0.00026273916591890156, -17.187562942504883, 0.049317046999931335, 0.008487366139888763, -1.095430612564087, -0.8344036936759949, -0.9543101787567139, 0.055606719106435776, -0.7715864848830796, 1.6223856086655815, 3.4117524988024637, 9362.0, 30146.0, 35388.0, 9362.0, 8.390083312988281, 0.199260875582695, 0.02084255777299404, 0.09034384042024612, 0.030156902968883514, -0.07357766479253769, 0.9986294507980347, -0.07731574028730392, -0.0037593841552734375, 1.49560546875, 1.51611328125, 0.2286224365234375, 1.494140625, 1.5791015625, 10.0, 1.0, 10.0, 1.4027061462402344
33023, -0.2664833664894104, -1.9546066522598267, 1.9108328819274902, 0.0021230350248515606, 0.00035046180710196495, -17.198518753051758, 0.05263497307896614, 0.00905703566968441, -1.0956645011901855, -0.8344074487686157, -0.9543371200561523, 0.055614959448575974, -0.7750106528253481, 1.6264212486357508, 3.4279214130718016, 9362.0, 30146.0, 35388.0, 9362.0, 8.390083312988281, -0.06215506047010422, 0.11290010064840317, -0.2557549476623535, 0.03001488372683525, -0.07366219907999039, 0.9974384307861328, -0.07731574028730392, -0.0037593841552734375, 1.49560546875, 1.387939453125, 0.0297393798828125, 1.494140625, 1.56005859375, 10.0, 1.0, 10.0, 1.4024467468261719
33033, -0.26707565784454346, -1.9556697607040405, 1.9104927778244019, 0.0026659960858523846, 0.0004438717442099005, -17.209476470947266, 0.05595725029706955, 0.009624989703297615, -1.0958811044692993, -0.8344054222106934, -0.9543344974517822, 0.05560560151934624, -0.7763620445429654, 1.6167774048840329, 3.428218873586445, 9362.0, 30146.0, 35388.0, 9362.0, 8.390083312988281, 0.034694865345954895, -0.28097638487815857, -0.19932888448238373, 0.028872353956103325, -0.07085762917995453, 0.9962900876998901, -0.07731574028730392, -0.0037593841552734375, 1.49560546875, 1.50732421875, 0.2104644775390625, 1.493408203125, 1.487548828125, 10.0, 1.0, 10.0, 1.4020147323608398
33043, -0.2666242718696594, -1.9539148807525635, 1.9094845056533813, 0.003242179751396179, 0.0005429538432508707, -17.220436096191406, 0.05927947536110878, 0.010191415436565876, -1.096133828163147, -0.8344048857688904, -0.9543238282203674, 0.05563578009605408, -0.7805177653383918, 1.6224417765238286, 3.4277047907687535, 9362.0, 30146.0, 35388.0, 9362.0, 8.390083312988281, -0.003237013006582856, -0.03573001176118851, -0.1400022804737091, 0.028978079557418823, -0.07609841227531433, 0.9962782263755798, -0.07731574028730392, -0.0037593841552734375, 1.49560546875, 1.48681640625, 0.1698150634765625, 1.493408203125, 1.52197265625, 10.0, 1.0, 10.0, 1.4015378952026367
33053, -0.2657356858253479, -1.9531840085983276, 1.9091404676437378, 0.003851576242595911, 0.0006477023707702756, -17.231399536132812, 0.06259987503290176, 0.010758238844573498, -1.0964938402175903, -0.8344181180000305, -0.954346239566803, 0.05561070889234543, -0.774243269555179, 1.6267962585841644, 3.4382280787041153, 9362.0, 30146.0, 35388.0, 9362.0, 8.390083312988281, 0.06571470201015472, -0.3137989342212677, 0.15694159269332886, 0.029371703043580055, -0.07498055696487427, 0.9976198077201843, -0.07731574028730392, -0.0037593841552734375, 1.49560546875, 1.335205078125, 0.018280029296875, 1.4912109375, 1.17919921875, 10.0, 1.0, 10.0, 1.4020384550094604
33063, -0.26558470726013184, -1.951393485069275, 1.9109655618667603, 0.004494144581258297, 0.0007581114768981934, -17.242366790771484, 0.06591377407312393, 0.011323569342494011, -1.0969579219818115, -0.8344239592552185, -0.9542455077171326, 0.05567556247115135, -0.7641960275127759, 1.57258590459017, 3.3589207062192132, 9362.0, 30146.0, 35388.0, 9362.0, 8.390083312988281, -0.013168440200388432, 0.052471864968538284, -0.09188715368509293, 0.03006082959473133, -0.07430063933134079, 0.9981755614280701, -0.07117103040218353, -0.06647872924804688, 1.490478515625, 1.541015625, 0.2819976806640625, 1.4912109375, 1.166015625, 10.0, 1.0, 10.0, 1.4020494222640991
33073, -0.266031414270401, -1.9502334594726562, 1.9101566076278687, 0.005169867072254419, 0.0008741696365177631, -17.253337860107422, 0.06923072040081024, 0.011888168752193451, -1.0972967147827148, -0.8344222903251648, -0.9543165564537048, 0.05561184883117676, -0.7821789793558326, 1.6225956602929443, 3.4162043355778624, 9362.0, 30146.0, 35388.0, 9362.0, 8.390083312988281, -0.09144219756126404, -0.18917591869831085, -0.20647746324539185, 0.029201719909906387, -0.07576140016317368, 0.9984814524650574, -0.07117103040218353, -0.06647872924804688, 1.490478515625, 1.360107421875, 0.0162506103515625, 1.496337890625, 1.263427734375, 10.0, 1.0, 10.0, 1.402497410774231
33083, -0.26595309376716614, -1.9494112730026245, 1.9089643955230713, 0.005878759548068047, 0.0009958752198144794, -17.264312744140625, 0.0725477859377861, 0.012452901341021061, -1.0975420475006104, -0.8343793749809265, -0.9543179869651794, 0.05561760812997818, -0.7696216166889052, 1.620909207575437, 3.4129157881171657, 9362.0, 30146.0, 35388.0, 9362.0, 8.390083312988281, -0.05889098346233368, 0.2409212589263916, 0.0077798254787921906, 0.031448233872652054, -0.07429508864879608, 0.9973170161247253, -0.07117103040218353, -0.06647872924804688, 1.490478515625, 1.5205078125, 0.237762451171875, 1.496337890625, 1.572509765625, 10.0, 1.0, 10.0, 1.402132272720337
33093, -0.26614126563072205, -1.9516997337341309, 1.9104682207107544, 0.006620817817747593, 0.001123232301324606, -17.27528953552246, 0.07586392760276794, 0.013018443249166012, -1.0977559089660645, -0.8344100117683411, -0.9543288350105286, 0.05561959743499756, -0.7782254092342158, 1.6301243809069774, 3.4336212309086043, 9362.0, 30146.0, 35388.0, 9362.0, 8.390083312988281, -0.06249070540070534, -0.16574963927268982, 0.3146173059940338, 0.02822076715528965, -0.07331585884094238, 0.9971930384635925, -0.07117103040218353, -0.06647872924804688, 1.490478515625, 1.5029296875, 0.201446533203125, 1.49267578125, 1.573974609375, 10.0, 1.0, 10.0, 1.4019163846969604
33103, -0.26630714535713196, -1.9509514570236206, 1.9123380184173584, 0.007396013475954533, 0.0012562406482174993, -17.28626823425293, 0.07917517423629761, 0.013583304360508919, -1.0980708599090576, -0.8344150185585022, -0.9543368220329285, 0.05563279986381531, -0.7685981302187268, 1.6182474105102074, 3.4366565005926435, 9362.0, 30146.0, 35388.0, 9362.0, 8.390083312988281, 0.15535157918930054, -0.010825362987816334, -0.15329653024673462, 0.028612805530428886, -0.07283981144428253, 0.9985305070877075, -0.07117103040218353, -0.06647872924804688, 1.490478515625, 1.4091796875, 0.04937744140625, 1.49267578125, 1.37109375, 10.0, 1.0, 10.0, 1.402350902557373
33113, -0.2647177577018738, -1.9511669874191284, 1.911482810974121, 0.00820433720946312, 0.0013948996784165502, -17.297250747680664, 0.08248960226774216, 0.014148598536849022, -1.0984084606170654, -0.8344118595123291, -0.9543150663375854, 0.05560389161109924, -0.7915845288302534, 1.6340118945647077, 3.439479091170782, 9362.0, 30146.0, 35388.0, 9362.0, 8.390083312988281, -0.04591849818825722, -0.20136037468910217, -0.02903846651315689, 0.02845623902976513, -0.0717393010854721, 0.9977082014083862, -0.07117103040218353, -0.06647872924804688, 1.490478515625, 1.399658203125, 0.0396575927734375, 1.493408203125, 1.56591796875, 10.0, 1.0, 10.0, 1.4023747444152832
33133, -0.26410382986068726, -1.9507840871810913, 1.9130864143371582, 0.009045817889273167, 0.001539216609671712, -17.30823516845703, 0.08580660820007324, 0.014714747667312622, -1.098631739616394, -0.834414541721344, -0.9543241858482361, 0.05563535541296005, -0.7791757815868191, 1.6142037740532658, 3.4310847950086805, 9362.0, 30146.0, 35388.0, 9362.0, 8.390083312988281, 0.06553112715482712, 0.29088741540908813, -0.23830002546310425, 0.02845623902976513, -0.0717393010854721, 0.9977082014083862, -0.07117103040218353, -0.06647872924804688, 1.490478515625, 1.503662109375, 0.2029876708984375, 1.493408203125, 1.530029296875, 10.0, 1.0, 10.0, 1.4026991128921509
33153, -0.26389873027801514, -1.9486398696899414, 1.9102123975753784, 0.010828274302184582, 0.0018447769107297063, -17.33021354675293, 0.09243950247764587, 0.01584159955382347, -1.099064826965332, -0.8343886733055115, -0.9543379545211792, 0.055645715445280075, -0.78187977256199, 1.6278570293970347, 3.4342997040433856, 9362.0, 30146.0, 35388.0, 9362.0, 8.390083312988281, -0.125374436378479, -0.41406428813934326, 0.04626169800758362, 0.02845623902976513, -0.0717393010854721, 0.9977082014083862, -0.07117103040218353, -0.06647872924804688, 1.490478515625, 1.503662109375, 0.2029876708984375, 1.493408203125, 1.530029296875, 10.0, 1.0, 10.0, 1.4024372100830078
33183, -0.26354196667671204, -1.9451367855072021, 1.9077229499816895, 0.014791058376431465, 0.002523412462323904, -17.374197006225586, 0.10568752139806747, 0.018089456483721733, -1.1001993417739868, -0.8343992829322815, -0.954311192035675, 0.055591389536857605, -0.7818900888732931, 1.6172173313334213, 3.432976942907175, 9362.0, 30146.0, 35388.0, 9362.0, 8.390083312988281, -0.1346941888332367, -0.026810267940163612, 0.1095723882317543, 0.031245872378349304, -0.07397806644439697, 0.9985703825950623, -0.07117103040218353, -0.06647872924804688, 1.490478515625, 1.503662109375, 0.2029876708984375, 1.493408203125, 1.530029296875, 10.0, 1.0, 10.0, 1.4009225368499756
33203, -0.2633713185787201, -1.9448083639144897, 1.9060863256454468, 0.016970952972769737, 0.002896439516916871, -17.39620590209961, 0.11230289936065674, 0.01921270042657852, -1.1006296873092651, -0.8344059586524963, -0.9543176889419556, 0.055604904890060425, -0.7760110758550127, 1.6229671560062968, 3.4305763822132644, 9362.0, 30146.0, 35388.0, 9362.0, 8.390083312988281, -0.019709231331944466, -0.08714281767606735, -0.1603088527917862, 0.02899082377552986, -0.0763501450419426, 0.996813952922821, -0.07117103040218353, -0.06647872924804688, 1.490478515625, 1.503662109375, 0.2029876708984375, 1.493408203125, 1.530029296875, 10.0, 1.0, 10.0, 1.4003536701202393
33213, -0.2630017101764679, -1.9447860717773438, 1.9050284624099731, 0.016970952972769737, 0.002896439516916871, -17.39620590209961, 0.11230289936065674, 0.01921270042657852, -1.1006296873092651, -0.8344203233718872, -0.9543200135231018, 0.05564752593636513, -0.7913375817288695, 1.6308713402718524, 3.4363693727989304, 9362.0, 30146.0, 35388.0, 9362.0, 8.390083312988281, -0.15950113534927368, 0.04892529174685478, 0.19543713331222534, 0.02899082377552986, -0.0763501450419426, 0.996813952922821, -0.07117103040218353, -0.06647872924804688, 1.490478515625, 1.503662109375, 0.2029876708984375, 1.493408203125, 1.530029296875, 10.0, 1.0, 10.0, 1.3999906778335571
33223, -0.26335564255714417, -1.946760892868042, 1.9059559106826782, 0.016970952972769737, 0.002896439516916871, -17.39620590209961, 0.11230289936065674, 0.01921270042657852, -1.1006296873092651, -0.8344030976295471, -0.9543349742889404, 0.055631473660469055, -0.764447702510938, 1.6226865573842417, 3.4225964976354515, 9362.0, 30146.0, 35388.0, 9362.0, 8.390083312988281, 0.14628729224205017, 0.18839435279369354, -0.075800821185112, 0.02899082377552986, -0.0763501450419426, 0.996813952922821, -0.07117103040218353, -0.06647872924804688, 1.490478515625, 1.503662109375, 0.2029876708984375, 1.493408203125, 1.530029296875, 10.0, 1.0, 10.0, 1.3999906778335571
33233, -0.2630767226219177, -1.9496030807495117, 1.905708909034729, 0.016970952972769737, 0.002896439516916871, -17.39620590209961, 0.11230289936065674, 0.01921270042657852, -1.1006296873092651, -0.8344001173973083, -0.9543273448944092, 0.05563144013285637, -0.7804632907494957, 1.6245670021821468, 3.423602543943529, 9362.0, 30146.0, 35388.0, 9362.0, 8.390083312988281, 0.011953531764447689, -0.29226812720298767, -0.016081929206848145, 0.02899082377552986, -0.0763501450419426, 0.996813952922821, -0.07117103040218353, -0.06647872924804688, 1.490478515625, 1.503662109375, 0.2029876708984375, 1.496337890625, 1.530029296875, 10.0, 1.0, 10.0, 1.399533987045288
33253, -0.2616133689880371, -1.9483072757720947, 1.905758023262024, 0.021727213636040688, 0.0037097258027642965, -17.440258026123047, 0.12551574409008026, 0.02145157754421234, -1.1019773483276367, -0.8343995213508606, -0.9543254971504211, 0.0556199811398983, -0.7725620280628436, 1.6232109146251332, 3.4247810365659324, 9362.0, 30146.0, 35388.0, 9362.0, 8.390083312988281, -0.1057845875620842, -0.5297213792800903, -0.29861658811569214, 0.02899082377552986, -0.0763501450419426, 0.996813952922821, -0.07117103040218353, -0.06647872924804688, 1.490478515625, 1.083251953125, 1.487762451171875, 1.496337890625, 1.530029296875, 10.0, 1.0, 10.0, 1.399533987045288
33283, -0.2610073983669281, -1.9448211193084717, 1.903782844543457, 0.027012698352336884, 0.0046125128865242004, -17.484363555908203, 0.13874943554401398, 0.023684483021497726, -1.1033613681793213, -0.8344137072563171, -0.9543302059173584, 0.05560128390789032, -0.7823632430143131, 1.630125781670472, 3.4300588470757702, 9362.0, 30146.0, 35388.0, 9362.0, 8.390083312988281, 0.20401108264923096, -0.07003256678581238, -0.20008431375026703, 0.030925985425710678, -0.07409817725419998, 0.9976521134376526, -0.07117103040218353, -0.06647872924804688, 1.490478515625, 1.2509765625, 0.1600799560546875, 1.494140625, 1.530029296875, 10.0, 1.0, 10.0, 1.399533987045288
33323, -0.2593361735343933, -1.938768744468689, 1.8997292518615723, 0.029853831976652145, 0.005097325891256332, -17.50643539428711, 0.14536313712596893, 0.02479679323732853, -1.1038734912872314, -0.8344092965126038, -0.9543219208717346, 0.05560743436217308, -0.7775573529582103, 1.6230441299842084, 3.4256710787924822, 9362.0, 30146.0, 35388.0, 9362.0, 8.390083312988281, 0.041050028055906296, -0.2510381042957306, 0.05964871495962143, 0.029794417321681976, -0.07307522743940353, 0.9975303411483765, -0.07117103040218353, -0.06647872924804688, 1.490478515625, 1.552734375, 0.3080596923828125, 1.48974609375, 1.530029296875, 10.0, 1.0, 10.0, 1.4000699520111084
33333, -0.2584174573421478, -1.9375531673431396, 1.9006359577178955, 0.029853831976652145, 0.005097325891256332, -17.50643539428711, 0.14536313712596893, 0.02479679323732853, -1.1038734912872314, -0.8344089388847351, -0.9543201923370361, 0.05561390146613121, -0.7780572708373639, 1.6204041096434594, 3.419839371094354, 9362.0, 30146.0, 35388.0, 9362.0, 8.390083312988281, -0.01593206450343132, -0.08628710359334946, 0.2196911722421646, 0.029794417321681976, -0.07307522743940353, 0.9975303411483765, -0.07117103040218353, -0.06647872924804688, 1.490478515625, 1.552734375, 0.3080596923828125, 1.496337890625, 1.530029296875, 10.0, 1.0, 10.0, 1.400496482849121
33353, -0.2602797746658325, -1.9377533197402954, 1.9018970727920532, 0.03593219071626663, 0.006133515387773514, -17.55061912536621, 0.15855129063129425, 0.027011312544345856, -1.1052448749542236, -0.8344099521636963, -0.954327404499054, 0.05561702698469162, -0.7885330616901497, 1.6265051111874982, 3.4349836385885504, 9362.0, 30146.0, 35388.0, 9362.0, 8.390083312988281, -0.034902412444353104, 0.1379813551902771, -0.11754759401082993, 0.027941204607486725, -0.07287181168794632, 0.9972448348999023, -0.07117103040218353, -0.06647872924804688, 1.490478515625, 1.122802734375, 1.00347900390625, 1.496337890625, 1.530029296875, 10.0, 1.0, 10.0, 1.4001449346542358
33373, -0.26061367988586426, -1.941298007965088, 1.9019725322723389, 0.039168961346149445, 0.006684749387204647, -17.57273292541504, 0.1651262491941452, 0.028112733736634254, -1.106058120727539, -0.8344318270683289, -0.9543328285217285, 0.05562315136194229, -0.7843886640778, 1.625751620726362, 3.424819335249402, 9362.0, 30146.0, 35388.0, 9362.0, 8.390083312988281, -0.070793017745018, -0.0931074321269989, 0.1097499430179596, 0.02907419390976429, -0.0738765224814415, 0.9932355880737305, -0.07117103040218353, -0.06647872924804688, 1.490478515625, 1.122802734375, 1.00347900390625, 1.49560546875, 1.530029296875, 10.0, 1.0, 10.0, 1.4006081819534302
33443, -0.25901278853416443, -1.9443129301071167, 1.8946229219436646, 0.053432073444128036, 0.009110815823078156, -17.661367416381836, 0.19147835671901703, 0.03253888711333275, -1.1092939376831055, -0.834412157535553, -0.9543240666389465, 0.05561040714383125, -0.7795592948597861, 1.618730555385497, 3.4276474596823125, 9362.0, 30146.0, 35388.0, 9362.0, 8.390083312988281, 0.0731317549943924, -0.035595424473285675, -0.17312298715114594, 0.029286060482263565, -0.07279405742883682, 0.9957831501960754, -0.07117103040218353, -0.06647872924804688, 1.490478515625, 1.121337890625, 1.0191802978515625, 1.493408203125, 1.530029296875, 10.0, 1.0, 10.0, 1.4023104906082153
33453, -0.2583853304386139, -1.9430328607559204, 1.8917865753173828, 0.053432073444128036, 0.009110815823078156, -17.661367416381836, 0.19147835671901703, 0.03253888711333275, -1.1092939376831055, -0.8343952894210815, -0.9543201923370361, 0.05562719702720642, -0.7869104023084278, 1.6345597665072091, 3.4272096651457633, 9362.0, 30146.0, 35388.0, 9362.0, 8.390083312988281, -0.10411924868822098, 0.1009281575679779, -0.29095178842544556, 0.027666158974170685, -0.07158496975898743, 0.9982975721359253, -0.07117103040218353, -0.06647872924804688, 1.490478515625, 1.14990234375, 0.7412872314453125, 1.493408203125, 1.530029296875, 10.0, 1.0, 10.0, 1.4023104906082153
33493, -0.25823378562927246, -1.9450303316116333, 1.8892368078231812, 0.05732765048742294, 0.009772622026503086, -17.683561325073242, 0.1980786770582199, 0.03364138305187225, -1.1101020574569702, -0.8344226479530334, -0.9543153047561646, 0.05560664087533951, -0.7886339289572992, 1.636096542092389, 3.4326545553823276, 9362.0, 30146.0, 35388.0, 9362.0, 8.390083312988281, 0.13295811414718628, -0.21605736017227173, -0.3587595522403717, 0.028628837317228317, -0.0746433436870575, 0.9970095753669739, -0.07578878104686737, -0.09335899353027344, 1.48828125, 1.367431640625, 0.0183258056640625, 1.494873046875, 1.530029296875, 10.0, 1.0, 10.0, 1.403525710105896
33503, -0.257130891084671, -1.943476915359497, 1.8879826068878174, 0.06551501154899597, 0.011162356473505497, -17.727985382080078, 0.21128854155540466, 0.03584430366754532, -1.1111946105957031, -0.8344112634658813, -0.9543135166168213, 0.055635325610637665, -0.7901122072022376, 1.6351316371377607, 3.4342267001135993, 9362.0, 30146.0, 35388.0, 9362.0, 8.390083312988281, 0.13295811414718628, -0.21605736017227173, -0.3587595522403717, 0.028628837317228317, -0.0746433436870575, 0.9970095753669739, -0.07578878104686737, -0.09335899353027344, 1.48828125, 1.367431640625, 0.0183258056640625, 1.494873046875, 1.530029296875, 10.0, 1.0, 10.0, 1.4027824401855469
33523, -0.2575167119503021, -1.946036696434021, 1.888979196548462, 0.06551501154899597, 0.011162356473505497, -17.727985382080078, 0.21128854155540466, 0.03584430366754532, -1.1111946105957031, -0.8344172239303589, -0.9543120265007019, 0.05562888830900192, -0.7760559418160761, 1.6301312680505191, 3.4248746146373437, 9362.0, 30146.0, 35388.0, 9362.0, 8.390083312988281, 0.18922390043735504, 0.046252381056547165, 0.23124976456165314, 0.02999565750360489, -0.07467613369226456, 0.9978524446487427, -0.07578878104686737, -0.09335899353027344, 1.48828125, 1.270751953125, 0.104522705078125, 1.494873046875, 1.530029296875, 10.0, 1.0, 10.0, 1.4027824401855469
33553, -0.2547752857208252, -1.9494447708129883, 1.891525387763977, 0.06551501154899597, 0.011162356473505497, -17.727985382080078, 0.21128854155540466, 0.03584430366754532, -1.1111946105957031, -0.8344129920005798, -0.954325795173645, 0.055625371634960175, -0.7846462431409765, 1.6370025937200694, 3.4331469830916115, 9362.0, 30146.0, 35388.0, 9362.0, 8.390083312988281, -0.18860387802124023, -0.09259533137083054, -0.22305260598659515, 0.027433479204773903, -0.07295597344636917, 0.9982054829597473, -0.07578878104686737, -0.09335899353027344, 1.48828125, 1.4091796875, 0.04937744140625, 1.491943359375, 1.530029296875, 10.0, 1.0, 10.0, 1.4045047760009766
33573, -0.25502777099609375, -1.946823239326477, 1.8893190622329712, 0.07878703624010086, 0.01341176312416792, -17.794713973999023, 0.23113061487674713, 0.039131853729486465, -1.112935185432434, -0.8344111442565918, -0.9543185234069824, 0.055624522268772125, -0.780167735887134, 1.6307705562956585, 3.4347404878919567, 9362.0, 30146.0, 35388.0, 9362.0, 8.390083312988281, 0.05050097778439522, -0.07421711087226868, -0.08589058369398117, 0.027433479204773903, -0.07295597344636917, 0.9982054829597473, -0.07119233161211014, 0.09480094909667969, 1.503662109375, 1.329345703125, 0.02105712890625, 1.491943359375, 1.530029296875, 10.0, 1.0, 10.0, 1.4036798477172852
33583, -0.254223108291626, -1.9459352493286133, 1.8885071277618408, 0.0834759920835495, 0.01420531701296568, -17.816974639892578, 0.23776258528232574, 0.04022383317351341, -1.1133077144622803, -0.8344201445579529, -0.9543205499649048, 0.05562508851289749, -0.7794663861320014, 1.6288274648526055, 3.4331925042774096, 9362.0, 30146.0, 35388.0, 9362.0, 8.390083312988281, -0.027976155281066895, -0.15484200417995453, -0.28060683608055115, 0.028595861047506332, -0.07548107206821442, 0.998729407787323, -0.07119233161211014, 0.09480094909667969, 1.503662109375, 1.329345703125, 0.02105712890625, 1.491943359375, 1.530029296875, 10.0, 1.0, 10.0, 1.4036798477172852
33593, -0.2535540759563446, -1.9450017213821411, 1.8871318101882935, 0.0834759920835495, 0.01420531701296568, -17.816974639892578, 0.23776258528232574, 0.04022383317351341, -1.1133077144622803, -0.834405243396759, -0.9543275833129883, 0.05563178285956383, -0.7809529211566814, 1.6213395303769857, 3.4201984678773822, 9362.0, 30146.0, 35388.0, 9362.0, 8.390083312988281, 0.004092556890100241, 0.24964159727096558, -0.09748365730047226, 0.030567429959774017, -0.07437905669212341, 1.000403881072998, -0.07119233161211014, 0.09480094909667969, 1.503662109375, 1.329345703125, 0.02105712890625, 1.48974609375, 1.530029296875, 10.0, 1.0, 10.0, 1.402719497680664
33633, -0.25198718905448914, -1.9448593854904175, 1.8878370523452759, 0.08829741925001144, 0.015020688064396381, -17.83924674987793, 0.24438151717185974, 0.041312750428915024, -1.11379075050354, -0.8344233632087708, -0.9543190002441406, 0.055610671639442444, -0.7820382038659933, 1.6364260217371793, 3.4365049778955576, 9362.0, 30146.0, 35388.0, 9362.0, 8.390083312988281, 0.11607003957033157, -0.2914888560771942, -0.06165361404418945, 0.029121119529008865, -0.07228538393974304, 0.9964784383773804, -0.07119233161211014, 0.09480094909667969, 1.503662109375, 1.242919921875, 0.1873626708984375, 1.49267578125, 1.324951171875, 10.0, 1.0, 10.0, 1.4033137559890747
33653, -0.25206512212753296, -1.9400148391723633, 1.886107087135315, 0.09833753108978271, 0.016716567799448967, -17.883813858032227, 0.2576179504394531, 0.04347744584083557, -1.1149024963378906, -0.8344232439994812, -0.954327404499054, 0.05563496798276901, -0.784005453182241, 1.6314124494506075, 3.4344354222400417, 9362.0, 30146.0, 35388.0, 9362.0, 8.390083312988281, -0.07979035377502441, 0.052246663719415665, -0.13019412755966187, 0.03023228421807289, -0.07202564924955368, 0.9949423670768738, -0.07119233161211014, 0.09480094909667969, 1.503662109375, 1.242919921875, 0.1873626708984375, 1.4912109375, 1.324951171875, 10.0, 1.0, 10.0, 1.4022667407989502
33673, -0.2532268166542053, -1.9415240287780762, 1.8869279623031616, 0.10355590283870697, 0.017596891149878502, -17.90612030029297, 0.26421523094177246, 0.044554103165864944, -1.11576247215271, -0.8344104290008545, -0.9543201327323914, 0.05562209710478783, -0.7833286634566203, 1.6261402830309066, 3.425338472665013, 9362.0, 30146.0, 35388.0, 9362.0, 8.390083312988281, 0.045706234872341156, 0.12162964791059494, 0.20578134059906006, 0.02913839742541313, -0.0711599662899971, 0.9971504807472229, -0.07428621500730515, -0.03959846496582031, 1.49267578125, 1.242919921875, 0.1873626708984375, 1.4912109375, 1.324951171875, 10.0, 1.0, 10.0, 1.4027001857757568
33683, -0.2530001699924469, -1.943028211593628, 1.8876628875732422, 0.10890594869852066, 0.01849873550236225, -17.92844581604004, 0.2707878053188324, 0.04563106223940849, -1.1169495582580566, -0.8344212770462036, -0.954306423664093, 0.05560451000928879, -0.7942648983374334, 1.6418471482870416, 3.4307691784356917, 9362.0, 30146.0, 35388.0, 9362.0, 8.390083312988281, -0.003242718754336238, -0.014320013113319874, -0.03282366693019867, 0.02913839742541313, -0.0711599662899971, 0.9971504807472229, -0.07428621500730515, -0.03959846496582031, 1.49267578125, 1.242919921875, 0.1873626708984375, 1.4912109375, 1.324951171875, 10.0, 1.0, 10.0, 1.4027307033538818
33693, -0.2524237036705017, -1.9429688453674316, 1.8872308731079102, 0.10890594869852066, 0.01849873550236225, -17.92844581604004, 0.2707878053188324, 0.04563106223940849, -1.1169495582580566, -0.8343981504440308, -0.9542784094810486, 0.05558887496590614, -0.7778972083746234, 1.627702429689947, 3.419637259185243, 9362.0, 30146.0, 35388.0, 9362.0, 8.390083312988281, 0.17121243476867676, 0.19448333978652954, 0.022559331730008125, 0.027425682172179222, -0.07330009341239929, 0.9971515536308289, -0.07428621500730515, -0.03959846496582031, 1.49267578125, 1.242919921875, 0.1873626708984375, 1.4912109375, 1.324951171875, 10.0, 1.0, 10.0, 1.4027307033538818
33703, -0.2508185803890228, -1.9444546699523926, 1.887327790260315, 0.10890594869852066, 0.01849873550236225, -17.92844581604004, 0.2707878053188324, 0.04563106223940849, -1.1169495582580566, -0.8344146013259888, -0.9543227553367615, 0.055640123784542084, -0.7753315003776786, 1.6220803907574464, 3.4302956831792875, 9362.0, 30146.0, 35388.0, 9362.0, 8.390083312988281, -0.07970284670591354, 0.33084672689437866, 0.03921325132250786, 0.02853536419570446, -0.0737123042345047, 0.9923134446144104, -0.07428621500730515, -0.03959846496582031, 1.49267578125, 1.242919921875, 0.1873626708984375, 1.4912109375, 1.324951171875, 10.0, 1.0, 10.0, 1.4027307033538818
33733, -0.2501524090766907, -1.9503471851348877, 1.892006278038025, 0.10890594869852066, 0.01849873550236225, -17.92844581604004, 0.2707878053188324, 0.04563106223940849, -1.1169495582580566, -0.8344089388847351, -0.9543079137802124, 0.055633723735809326, -0.779934589184492, 1.6270114067258987, 3.4283972980060193, 9362.0, 30146.0, 35388.0, 9362.0, 8.390083312988281, -0.04972800612449646, -0.025358114391565323, 0.10806392133235931, 0.030270904302597046, -0.07597789168357849, 0.9977571368217468, -0.07428621500730515, -0.03959846496582031, 1.49267578125, 1.18359375, 0.4842071533203125, 1.491943359375, 1.324951171875, 10.0, 1.0, 10.0, 1.4036238193511963
33753, -0.25131744146347046, -1.9513078927993774, 1.8938170671463013, 0.12574727833271027, 0.021333782002329826, -17.995525360107422, 0.29059913754463196, 0.0488647036254406, -1.1193373203277588, -0.8344178795814514, -0.9543333053588867, 0.0556185245513916, -0.7852458156349911, 1.6367108846483518, 3.445770196783449, 9362.0, 30146.0, 35388.0, 9362.0, 8.390083312988281, 0.22060492634773254, -0.016742760315537453, 0.09760881960391998, 0.02930421754717827, -0.07490909099578857, 0.9986844062805176, -0.07428621500730515, -0.03959846496582031, 1.49267578125, 1.18359375, 0.4842071533203125, 1.48974609375, 1.324951171875, 10.0, 1.0, 10.0, 1.402847170829773
33803, -0.24853847920894623, -1.9519686698913574, 1.8957160711288452, 0.14378030598163605, 0.024362467229366302, -18.062728881835938, 0.31050530076026917, 0.052088283002376556, -1.1208751201629639, -0.8344106674194336, -0.9543181657791138, 0.055631816387176514, -0.79276197533668, 1.6309960874249043, 3.432016254647244, 9362.0, 30146.0, 35388.0, 9362.0, 8.390083312988281, -0.1012231856584549, -0.3194829225540161, -0.21652184426784515, 0.030060583725571632, -0.07302132248878479, 0.9973113536834717, -0.07011307775974274, -0.04855918884277344, 1.491943359375, 1.316162109375, 0.030517578125, 1.489013671875, 1.324951171875, 10.0, 1.0, 10.0, 1.4031254053115845
33813, -0.24906115233898163, -1.950156569480896, 1.8956177234649658, 0.14378030598163605, 0.024362467229366302, -18.062728881835938, 0.31050530076026917, 0.052088283002376556, -1.1208751201629639, -0.8344313502311707, -0.9542370438575745, 0.055668704211711884, -0.7654440528827801, 1.5701380459720724, 3.360922615474585, 9362.0, 30146.0, 35388.0, 9362.0, 8.390083312988281, -0.07724004238843918, -0.5471327304840088, 0.12917329370975494, 0.030218297615647316, -0.07474576681852341, 0.9958643913269043, -0.07011307775974274, -0.04855918884277344, 1.491943359375, 1.442138671875, 0.0926361083984375, 1.489013671875, 1.324951171875, 10.0, 1.0, 10.0, 1.4031254053115845
33823, -0.2490059733390808, -1.9478790760040283, 1.8969016075134277, 0.15005674958229065, 0.02541492134332657, -18.08515167236328, 0.3171372413635254, 0.05315682291984558, -1.1215639114379883, -0.834419310092926, -0.9543278813362122, 0.05561593174934387, -0.7914557832842537, 1.6332965230421337, 3.4320274583496344, 9362.0, 30146.0, 35388.0, 9362.0, 8.390083312988281, 0.2058059275150299, -0.03359828516840935, -0.032238926738500595, 0.030218297615647316, -0.07474576681852341, 0.9958643913269043, -0.07011307775974274, -0.04855918884277344, 1.491943359375, 1.442138671875, 0.0926361083984375, 1.489013671875, 1.324951171875, 10.0, 1.0, 10.0, 1.4031254053115845
33873, -0.2437007874250412, -1.9508370161056519, 1.898886799812317, 0.15646566450595856, 0.02648874931037426, -18.107589721679688, 0.3237554132938385, 0.05422629043459892, -1.122349739074707, -0.8344210982322693, -0.9542961716651917, 0.05563049018383026, -0.7903395116662055, 1.6216855872642668, 3.4221449705754714, 9362.0, 30146.0, 35388.0, 9362.0, 8.390083312988281, 0.005937769543379545, 0.06249189004302025, 0.15021343529224396, 0.029218923300504684, -0.0729663297533989, 0.997580885887146, -0.07011307775974274, -0.04855918884277344, 1.491943359375, 1.5380859375, 0.2755889892578125, 1.4912109375, 1.324951171875, 10.0, 1.0, 10.0, 1.403551459312439
33883, -0.24360345304012299, -1.9520347118377686, 1.8993241786956787, 0.15646566450595856, 0.02648874931037426, -18.107589721679688, 0.3237554132938385, 0.05422629043459892, -1.122349739074707, -0.834409773349762, -0.95432049036026, 0.05562456324696541, -0.776042127395416, 1.6250265733181664, 3.412125032110638, 9362.0, 30146.0, 35388.0, 9362.0, 8.390083312988281, 0.04980109632015228, -0.05607740208506584, -0.2516734302043915, 0.030169740319252014, -0.07341404259204865, 0.999538242816925, -0.07011307775974274, -0.04855918884277344, 1.491943359375, 1.5380859375, 0.2755889892578125, 1.4912109375, 1.324951171875, 10.0, 1.0, 10.0, 1.403551459312439
33913, -0.24204131960868835, -1.9536207914352417, 1.895032525062561, 0.15646566450595856, 0.02648874931037426, -18.107589721679688, 0.3237554132938385, 0.05422629043459892, -1.122349739074707, -0.8344141244888306, -0.9543089270591736, 0.055615007877349854, -0.7881122706885226, 1.6342686250842462, 3.434711617506456, 9362.0, 30146.0, 35388.0, 9362.0, 8.390083312988281, 0.21800196170806885, 0.035749275237321854, 0.02606750838458538, 0.030245384201407433, -0.0757143571972847, 0.9979215264320374, -0.07011307775974274, -0.04855918884277344, 1.491943359375, 1.130126953125, 0.9273529052734375, 1.4912109375, 1.543212890625, 10.0, 1.0, 10.0, 1.4059993028640747
33923, -0.24205748736858368, -1.9533978700637817, 1.8939396142959595, 0.18342655897140503, 0.030996307730674744, -18.19746971130371, 0.3502865731716156, 0.05845183506608009, -1.1244487762451172, -0.8344265818595886, -0.9543170928955078, 0.055626943707466125, -0.7809166231089529, 1.6275526317840558, 3.4137933055573386, 9362.0, 30146.0, 35388.0, 9362.0, 8.390083312988281, -0.1263187825679779, -0.2840404212474823, 0.1405000537633896, 0.030245384201407433, -0.0757143571972847, 0.9979215264320374, -0.07011307775974274, -0.04855918884277344, 1.491943359375, 1.130126953125, 0.9273529052734375, 1.4912109375, 1.543212890625, 10.0, 1.0, 10.0, 1.4053363800048828
33933, -0.24336005747318268, -1.9525599479675293, 1.8942854404449463, 0.18342655897140503, 0.030996307730674744, -18.19746971130371, 0.3502865731716156, 0.05845183506608009, -1.1244487762451172, -0.8344172239303589, -0.9543113708496094, 0.055647507309913635, -0.784049901239156, 1.6136219851521503, 3.4354657657706427, 9362.0, 30146.0, 35388.0, 9362.0, 8.390083312988281, 0.06240449473261833, 0.27734771370887756, 0.1560857594013214, 0.030245384201407433, -0.0757143571972847, 0.9979215264320374, -0.07011307775974274, -0.04855918884277344, 1.491943359375, 1.130126953125, 0.9273529052734375, 1.49560546875, 1.543212890625, 10.0, 1.0, 10.0, 1.4053363800048828
33983, -0.2405727505683899, -1.9547038078308105, 1.8921083211898804, 0.1904987096786499, 0.03217581287026405, -18.2199649810791, 0.3569278120994568, 0.05949879065155983, -1.1250308752059937, -0.8343992829322815, -0.9543108344078064, 0.055582720786333084, -0.7898431576290843, 1.6352387000212616, 3.426660624780805, 9362.0, 30146.0, 35388.0, 9362.0, 8.390083312988281, 0.08509771525859833, -0.4619874656200409, -0.014121762476861477, 0.029205502942204475, -0.07416945695877075, 0.9967801570892334, -0.07011307775974274, -0.04855918884277344, 1.491943359375, 1.20263671875, 0.368988037109375, 1.49560546875, 1.543212890625, 10.0, 1.0, 10.0, 1.4066206216812134
33993, -0.2404836118221283, -1.9522628784179688, 1.8921458721160889, 0.1904987096786499, 0.03217581287026405, -18.2199649810791, 0.3569278120994568, 0.05949879065155983, -1.1250308752059937, -0.8344157934188843, -0.9542979598045349, 0.055590927600860596, -0.7804974098987089, 1.6356622081231933, 3.4246411021739265, 9362.0, 30146.0, 35388.0, 9362.0, 8.390083312988281, 0.11063533276319504, -0.03886957839131355, 0.07221539318561554, 0.030617740005254745, -0.07324530184268951, 0.997567892074585, -0.07011307775974274, -0.04855918884277344, 1.491943359375, 1.20263671875, 0.368988037109375, 1.493408203125, 1.543212890625, 10.0, 1.0, 10.0, 1.4066206216812134
34003, -0.2396758645772934, -1.9516003131866455, 1.891683578491211, 0.21251125633716583, 0.03583990037441254, -18.28754234313965, 0.376834511756897, 0.0626324787735939, -1.1273393630981445, -0.834408700466156, -0.9543305039405823, 0.05560826510190964, -0.774506647192163, 1.61315643931286, 3.4241770379494936, 9362.0, 30146.0, 35388.0, 9362.0, 8.390083312988281, -0.010996627621352673, 0.030591433867812157, 0.12375541776418686, 0.030521782115101814, -0.0732111930847168, 0.9969267845153809, -0.07011307775974274, -0.04855918884277344, 1.491943359375, 1.20263671875, 0.368988037109375, 1.493408203125, 1.543212890625, 10.0, 1.0, 10.0, 1.4066206216812134
34013, -0.24002240598201752, -1.9510974884033203, 1.8923206329345703, 0.21251125633716583, 0.03583990037441254, -18.28754234313965, 0.376834511756897, 0.0626324787735939, -1.1273393630981445, -0.834435760974884, -0.9543033838272095, 0.05559954792261124, -0.7813082238178092, 1.6400674223143596, 3.425275565192143, 9362.0, 30146.0, 35388.0, 9362.0, 8.390083312988281, 0.03743268549442291, -0.13443760573863983, -0.07558759301900864, 0.02903912030160427, -0.07374415546655655, 0.9969027638435364, -0.07011307775974274, -0.04855918884277344, 1.491943359375, 1.20263671875, 0.368988037109375, 1.493408203125, 1.543212890625, 10.0, 1.0, 10.0, 1.4066206216812134
34043, -0.23894831538200378, -1.9476457834243774, 1.8908400535583496, 0.2201143205165863, 0.03710295632481575, -18.310094833374023, 0.38346996903419495, 0.06367219239473343, -1.1279411315917969, -0.8344294428825378, -0.9542500376701355, 0.055688075721263885, -0.7566268213511872, 1.5725836267491786, 3.364615068324509, 9362.0, 30146.0, 35388.0, 9362.0, 8.390083312988281, -0.006549638696014881, -0.43377870321273804, -0.25360584259033203, 0.028150774538517, -0.07253669202327728, 0.9982671737670898, -0.07011307775974274, -0.04855918884277344, 1.491943359375, 1.12060546875, 1.0270843505859375, 1.49267578125, 1.543212890625, 10.0, 1.0, 10.0, 1.4058924913406372
34053, -0.23861238360404968, -1.9452770948410034, 1.889086127281189, 0.2201143205165863, 0.03710295632481575, -18.310094833374023, 0.38346996903419495, 0.06367219239473343, -1.1279411315917969, -0.8343972563743591, -0.9543246626853943, 0.05560905486345291, -0.7773454096835772, 1.6271002562785384, 3.4179781263076934, 9362.0, 30146.0, 35388.0, 9362.0, 8.390083312988281, -0.028652528300881386, -0.207254096865654, 0.15561236441135406, 0.029657753184437752, -0.07463367283344269, 0.9967979788780212, -0.07011307775974274, -0.04855918884277344, 1.491943359375, 1.32421875, 0.024139404296875, 1.49267578125, 1.543212890625, 10.0, 1.0, 10.0, 1.4058924913406372
34073, -0.2380095273256302, -1.9447481632232666, 1.8881933689117432, 0.2357182651758194, 0.03969137370586395, -18.355239868164062, 0.3967224061489105, 0.06574703752994537, -1.1292699575424194, -0.8344135880470276, -0.9543049335479736, 0.05561908707022667, -0.7813977134109806, 1.6250756830870614, 3.415475349746904, 9362.0, 30146.0, 35388.0, 9362.0, 8.390083312988281, -0.02889690175652504, -0.07549069821834564, 0.15743084251880646, 0.030951669439673424, -0.07342840731143951, 0.99703449010849, -0.07459934055805206, -0.08439826965332031, 1.489013671875, 1.32421875, 0.024139404296875, 1.502197265625, 1.543212890625, 10.0, 1.0, 10.0, 1.4058924913406372
34113, -0.23886238038539886, -1.9415351152420044, 1.8832236528396606, 0.2357182651758194, 0.03969137370586395, -18.355239868164062, 0.3967224061489105, 0.06574703752994537, -1.1292699575424194, -0.8344221711158752, -0.9543007612228394, 0.05561884492635727, -0.7792355940326894, 1.6197040725962495, 3.420082227938675, 9362.0, 30146.0, 35388.0, 9362.0, 8.390083312988281, 0.00483295414596796, 0.09585461765527725, 0.06455229967832565, 0.030346982181072235, -0.073832206428051, 0.9980905055999756, -0.07459934055805206, -0.08439826965332031, 1.489013671875, 1.270751953125, 0.104522705078125, 1.491943359375, 1.543212890625, 10.0, 1.0, 10.0, 1.407403826713562
34123, -0.238186776638031, -1.9442287683486938, 1.8840358257293701, 0.2601165175437927, 0.04372909665107727, -18.423051834106445, 0.4165411591529846, 0.06884357333183289, -1.1312280893325806, -0.834423840045929, -0.9543079733848572, 0.05562397092580795, -0.7736437332349231, 1.6267060481567057, 3.4133156533728677, 9362.0, 30146.0, 35388.0, 9362.0, 8.390083312988281, -0.02499985881149769, 0.19864758849143982, 0.0554533451795578, 0.027465837076306343, -0.07452106475830078, 0.9986321330070496, -0.07459934055805206, -0.08439826965332031, 1.489013671875, 1.270751953125, 0.104522705078125, 1.491943359375, 1.543212890625, 10.0, 1.0, 10.0, 1.407403826713562
34143, -0.23871579766273499, -1.9478719234466553, 1.884793996810913, 0.2601165175437927, 0.04372909665107727, -18.423051834106445, 0.4165411591529846, 0.06884357333183289, -1.1312280893325806, -0.834424614906311, -0.9543190002441406, 0.05561535060405731, -0.7851734111414276, 1.6349893830076496, 3.4224973426711958, 9362.0, 30146.0, 35388.0, 9362.0, 8.390083312988281, -0.18509995937347412, -0.33121800422668457, 0.022742850705981255, 0.02865380421280861, -0.07635142654180527, 0.997737467288971, -0.07459934055805206, -0.08439826965332031, 1.489013671875, 1.313232421875, 0.0333251953125, 1.491943359375, 1.543212890625, 10.0, 1.0, 10.0, 1.4068654775619507
34173, -0.23832067847251892, -1.9465384483337402, 1.8879331350326538, 0.2770426571369171, 0.04652417451143265, -18.468320846557617, 0.42977774143218994, 0.07091118395328522, -1.1320561170578003, -0.8344197869300842, -0.9543178677558899, 0.055599503219127655, -0.7892180116542717, 1.6398399442240361, 3.427508110418062, 9362.0, 30146.0, 35388.0, 9362.0, 8.390083312988281, 0.08701426535844803, 0.3188537657260895, 0.3285989463329315, 0.030543863773345947, -0.07348354905843735, 0.9967800378799438, -0.07520028203725815, -0.06647872924804688, 1.490478515625, 1.313232421875, 0.0333251953125, 1.49560546875, 1.543212890625, 10.0, 1.0, 10.0, 1.4068654775619507
34183, -0.23810479044914246, -1.947939157485962, 1.8886662721633911, 0.2857043147087097, 0.047952767461538315, -18.490968704223633, 0.436386376619339, 0.07194691896438599, -1.1328030824661255, -0.8343936204910278, -0.954291820526123, 0.055625393986701965, -0.7847371416188893, 1.6305687018067658, 3.419726026607714, 9362.0, 30146.0, 35388.0, 9362.0, 8.390083312988281, 0.006146702449768782, 0.2066056877374649, -0.09800591319799423, 0.030957810580730438, -0.0731729194521904, 0.9987217783927917, -0.07520028203725815, -0.06647872924804688, 1.490478515625, 1.313232421875, 0.0333251953125, 1.49560546875, 1.543212890625, 10.0, 1.0, 10.0, 1.4068654775619507
34233, -0.23695136606693268, -1.953921914100647, 1.8899455070495605, 0.2857043147087097, 0.047952767461538315, -18.490968704223633, 0.436386376619339, 0.07194691896438599, -1.1328030824661255, -0.8344190716743469, -0.9542995095252991, 0.05562373250722885, -0.7761010436700412, 1.626798900699498, 3.4212469935338996, 9362.0, 30146.0, 35388.0, 9362.0, 8.390083312988281, -0.1048847958445549, -0.04408632591366768, -0.28482258319854736, 0.028230363503098488, -0.073994480073452, 0.9966481924057007, -0.07520028203725815, -0.06647872924804688, 1.490478515625, 1.459716796875, 0.120849609375, 1.494140625, 1.543212890625, 10.0, 1.0, 10.0, 1.406166672706604
34243, -0.23583897948265076, -1.953167200088501, 1.8889634609222412, 0.2857043147087097, 0.047952767461538315, -18.490968704223633, 0.436386376619339, 0.07194691896438599, -1.1328030824661255, -0.834410548210144, -0.9543207287788391, 0.0556383952498436, -0.7893124674150244, 1.626156394474691, 3.4268098808554677, 9362.0, 30146.0, 35388.0, 9362.0, 8.390083312988281, 0.1028149276971817, -0.5257576704025269, -0.29302144050598145, 0.028230363503098488, -0.073994480073452, 0.9966481924057007, -0.07520028203725815, -0.06647872924804688, 1.490478515625, 1.459716796875, 0.120849609375, 1.494140625, 1.543212890625, 10.0, 1.0, 10.0, 1.4055289030075073
34283, -0.23158323764801025, -1.9532824754714966, 1.8875064849853516, 0.33099913597106934, 0.0554051473736763, -18.604434967041016, 0.469513475894928, 0.0770871490240097, -1.1368110179901123, -0.8344126343727112, -0.9543055891990662, 0.055641379207372665, -0.782276979796077, 1.629243353631523, 3.419578956819113, 9362.0, 30146.0, 35388.0, 9362.0, 8.390083312988281, -0.07194388657808304, -0.20854878425598145, -0.11572501063346863, 0.029709991067647934, -0.07244018465280533, 0.9965416193008423, -0.06299618631601334, -0.030637741088867188, 1.493408203125, 1.313232421875, 0.0333251953125, 1.494873046875, 1.52197265625, 10.0, 1.0, 10.0, 1.4069488048553467
34313, -0.23370742797851562, -1.9455338716506958, 1.88551926612854, 0.34045571088790894, 0.05695701390504837, -18.627178192138672, 0.47614482045173645, 0.07809852808713913, -1.1376276016235352, -0.8344205021858215, -0.9542980194091797, 0.05561291053891182, -0.783505161571912, 1.637493268949612, 3.4263661220044446, 9362.0, 30146.0, 35388.0, 9362.0, 8.390083312988281, 0.09785497933626175, -0.1195685863494873, -0.20066529512405396, 0.028923379257321358, -0.07482586801052094, 0.9957094788551331, -0.06299618631601334, -0.030637741088867188, 1.493408203125, 1.2626953125, 0.1252593994140625, 1.494873046875, 1.52197265625, 10.0, 1.0, 10.0, 1.4069488048553467
34353, -0.23272299766540527, -1.941591739654541, 1.88266921043396, 0.34045571088790894, 0.05695701390504837, -18.627178192138672, 0.47614482045173645, 0.07809852808713913, -1.1376276016235352, -0.8344281911849976, -0.9543082118034363, 0.05565141886472702, -0.7816441585054555, 1.632532327005805, 3.4141105465712043, 9362.0, 30146.0, 35388.0, 9362.0, 8.390083312988281, 0.10281414538621902, 0.17018595337867737, 0.10457833856344223, 0.02928742952644825, -0.07384438067674637, 0.9960605502128601, -0.06299618631601334, -0.030637741088867188, 1.493408203125, 1.244384765625, 0.18212890625, 1.496337890625, 1.52197265625, 10.0, 1.0, 10.0, 1.4079235792160034
