timeTick, roll, pitch, yaw, stateX, stateY, stateZ, stateVX, stateVY, stateVZ, otX0, otY0, otZ0, otRoll0, otPitch0, otYaw0, left wing, pitch motor, yaw motor, right wing, voltage, roll rate, pitch rate, yaw rate, A_x, A_y, A_z, current, i_raw, v_raw, airflow_voltage, airflow_speed, pot_Pitch, voltage_nKF, kFFx, state_vel, State_vel, volt_KF_vel
34898, -0.5816177129745483, 3.6660282611846924, -0.3627508580684662, 0, 0, 0, 0, 0, 0, -0.8267107605934143, -0.9585902094841003, 0.05724316090345383, -0.4813292110928918, -0.10183444397708286, 2.301599319205398, 0, 0, 0, 0, 0, 0, 0, 0, 0, 0, 0, 0, 0, 0, 0, 0, 0, 0, 0, 0, 0, 0
34908, -0.5811062455177307, 3.6664206981658936, -0.3638329803943634, 0.0008278842433355749, -0.00013638962991535664, -9.63502025604248, 0.01822103187441826, -0.00299963285215199, -0.5788211822509766, -0.8267218470573425, -0.9585839509963989, 0.05720317363739014, -0.47832422968335414, -0.10507012354531753, 2.2994084531338363, 9362.0, 30146.0, 35388.0, 9362.0, 0, 0.018459726125001907, -0.0010784600162878633, -0.2099137008190155, 0.007639408111572266, -0.06533221155405045, 0.9971869587898254, 0, 0, 0, 0, 0, 0, 0, 0, 0, 0, 0
34918, -0.5806627869606018, 3.667203187942505, -0.3643460273742676, 0.0009788995375856757, -0.00016123060777317733, -9.640811920166016, 0.011982040479779243, -0.0019684438593685627, -0.5794456005096436, -0.8270224332809448, -0.958473801612854, 0.056895047426223755, -0.3677348181107792, -0.18459762686433123, 2.1657617308214427, 9362.0, 30146.0, 35388.0, 9362.0, 0, -0.006106489337980747, -0.14144901931285858, 0.059223707765340805, 0.010305273346602917, -0.0624818280339241, 0.9975671172142029, 0, 0, 0, 1.481689453125, 0.1600799560546875, 0, 1.458251953125, 10.0, 1.0, 10.0, 1.45785653591156
34928, -0.5814735889434814, 3.66618275642395, -0.36377590894699097, 0.0010674711083993316, -0.00017575512174516916, -9.646608352661133, 0.005732289049774408, -0.0009364019497297704, -0.5799123644828796, -0.8267347812652588, -0.9585660099983215, 0.05721329152584076, -0.4775300072132631, -0.09782414474943835, 2.2835328674483666, 9362.0, 30146.0, 35388.0, 9362.0, 0, -0.16341064870357513, 0.05453448370099068, 0.18596039712429047, 0.007734911981970072, -0.06584275513887405, 0.9986048936843872, 0, 0, 0, 1.47216796875, 0.142547607421875, 1.494140625, 1.483154296875, 10.0, 1.0, 10.0, 1.4579017162322998
34938, -0.5828489065170288, 3.6627442836761475, -0.36172518134117126, 0.0010935183381661773, -0.0001799593446776271, -9.652409553527832, -0.0005228551453910768, 9.549489186611027e-05, -0.5803160071372986, -0.8270222544670105, -0.958459734916687, 0.056896403431892395, -0.37686610373940166, -0.18476869406387664, 2.168085647449017, 9362.0, 30146.0, 35388.0, 9362.0, 0, 0.014358779415488243, -0.01620996743440628, -0.018802089616656303, 0.007992560975253582, -0.06355960667133331, 0.9966229200363159, 0, 0, 0, 1.428955078125, 0.073577880859375, 1.494140625, 1.48828125, 10.0, 1.0, 10.0, 1.4578102827072144
34948, -0.5823547840118408, 3.665719985961914, -0.36442121863365173, 0.0010570352897047997, -0.0001738401042530313, -9.658214569091797, -0.006773798726499081, 0.001128129311837256, -0.5807583928108215, -0.8267278671264648, -0.9585577845573425, 0.05724131688475609, -0.5033976504457806, -0.09241118978036411, 2.2981275176067997, 9362.0, 30146.0, 35388.0, 9362.0, 0, -0.0475497767329216, 0.07694856822490692, -0.12438098341226578, 0.009675245732069016, -0.06310814619064331, 0.9970661997795105, 0, 0, 0, 1.46630859375, 0.132171630859375, 1.491943359375, 1.48828125, 10.0, 1.0, 10.0, 1.4578371047973633
34958, -0.5821255445480347, 3.663958787918091, -0.3631124198436737, 0.000958097749389708, -0.00015738833462819457, -9.664024353027344, -0.01301362831145525, 0.002162518445402384, -0.5812815427780151, -0.826726496219635, -0.9585604071617126, 0.057245559990406036, -0.5023646092690333, -0.09664105646515964, 2.2986563879808464, 9362.0, 30146.0, 35388.0, 9362.0, 0, 0.16298824548721313, 0.23429356515407562, 0.20611822605133057, 0.008539803326129913, -0.0641203373670578, 0.9979735016822815, 0, 0, 0, 1.433349609375, 0.0797576904296875, 1.491943359375, 1.462646484375, 10.0, 1.0, 10.0, 1.4577597379684448
34968, -0.5814025402069092, 3.6646764278411865, -0.3637309670448303, 0.0007967399433255196, -0.00013059578486718237, -9.669839859008789, -0.019257977604866028, 0.0031958494801074266, -0.5818142890930176, -0.8267316818237305, -0.9585888981819153, 0.05718795955181122, -0.4827170852027655, -0.09782938113355044, 2.287980547867265, 9362.0, 30146.0, 35388.0, 9362.0, 0, 0.1916886419057846, -0.2852937579154968, -0.21937352418899536, 0.0099894804880023, -0.0664156898856163, 0.9972012042999268, 0, 0, 0, 1.452392578125, 0.10870361328125, 1.496337890625, 1.4501953125, 10.0, 1.0, 10.0, 1.4577428102493286
34978, -0.5805536508560181, 3.6665735244750977, -0.36543920636177063, 0.000572910183109343, -9.346552542410791e-05, -9.675660133361816, -0.025507962331175804, 0.0042302715592086315, -0.5822116732597351, -0.8270554542541504, -0.9585084915161133, 0.05690234899520874, -0.36055496203909243, -0.21060378657094248, 2.1282779418520974, 9362.0, 30146.0, 35388.0, 9362.0, 0, 0.05195770040154457, -0.12849266827106476, 0.09094089269638062, 0.010039372369647026, -0.06537078320980072, 0.9966410994529724, 0, 0, 0, 1.48974609375, 0.1755218505859375, 1.496337890625, 1.475830078125, 10.0, 1.0, 10.0, 1.4578438997268677
34988, -0.5826983451843262, 3.6678690910339355, -0.36529436707496643, 0.00028659868985414505, -4.600084139383398e-05, -9.68148422241211, -0.031754303723573685, 0.00526285357773304, -0.5826846957206726, -0.827060341835022, -0.9585009813308716, 0.056897345930337906, -0.3682434515485472, -0.18519193373634835, 2.1279468976426745, 9362.0, 30146.0, 35388.0, 9362.0, 0, -0.2179858535528183, -0.19256120920181274, -0.15725255012512207, 0.008955476805567741, -0.06738249957561493, 0.9961350560188293, 0, 0, 0, 1.47509765625, 0.147857666015625, 1.493408203125, 1.4501953125, 10.0, 1.0, 10.0, 1.4578983783721924
34998, -0.5823826789855957, 3.6667065620422363, -0.3658422827720642, -6.214599125087261e-05, 1.177581725642085e-05, -9.6873140335083, -0.0379946194589138, 0.006292454898357391, -0.5833026170730591, -0.8267167210578918, -0.9585673809051514, 0.05724409967660904, -0.49185676797036176, -0.10562883508862342, 2.293742669018548, 9362.0, 30146.0, 35388.0, 9362.0, 8.350414276123047, -0.01452367939054966, 0.022977955639362335, 0.29951760172843933, 0.009203413501381874, -0.06489816308021545, 0.9990836381912231, -0.08052581548690796, -0.22775840759277344, 1.477294921875, 1.447998046875, 0.1016693115234375, 1.493408203125, 1.4794921875, 10.0, 1.0, 10.0, 1.45786714553833
35008, -0.5817248821258545, 3.666832447052002, -0.36493340134620667, -0.00047337450087070465, 7.98783075879328e-05, -9.693148612976074, -0.04425107687711716, 0.00732810003682971, -0.5837026238441467, -0.8270782828330994, -0.9585039019584656, 0.05689271539449692, -0.36389341109903045, -0.18977236253724072, 2.1285251927814293, 9362.0, 30146.0, 35388.0, 9362.0, 8.350414276123047, 0.20402976870536804, 0.13949435949325562, -0.033197835087776184, 0.008169065229594707, -0.06427854299545288, 0.9977405071258545, -0.08052581548690796, -0.22775840759277344, 1.477294921875, 1.48388671875, 0.1642303466796875, 1.4912109375, 1.465576171875, 10.0, 1.0, 10.0, 1.4579492807388306
35018, -0.5809183120727539, 3.6665494441986084, -0.3656715750694275, -0.0009471693774685264, 0.00015833672659937292, -9.698987007141113, -0.05050791800022125, 0.008363486267626286, -0.5840659141540527, -0.8267090916633606, -0.9585698246955872, 0.0572349950671196, -0.49638649929101647, -0.09895650883967733, 2.300192966466142, 9362.0, 30146.0, 35388.0, 9362.0, 8.350414276123047, -0.036882054060697556, -0.07446874678134918, 0.006255900487303734, 0.007400800008326769, -0.0646466314792633, 0.9975998401641846, -0.08052581548690796, -0.22775840759277344, 1.477294921875, 1.4970703125, 0.18975830078125, 1.4912109375, 1.46044921875, 10.0, 1.0, 10.0, 1.4580727815628052
35028, -0.5829306840896606, 3.666679620742798, -0.3657052218914032, -0.0014835032634437084, 0.00024713785387575626, -9.704830169677734, -0.056758858263492584, 0.009396820329129696, -0.5845245122909546, -0.8267251253128052, -0.9585849046707153, 0.05724859982728958, -0.4898363267316494, -0.09882477694370095, 2.294300789690817, 9362.0, 30146.0, 35388.0, 9362.0, 8.350414276123047, -0.06799235939979553, -0.01921731047332287, 0.0772029310464859, 0.007711633574217558, -0.06639072299003601, 0.9973492622375488, -0.08052581548690796, -0.22775840759277344, 1.477294921875, 1.456787109375, 0.115966796875, 1.49560546875, 1.47216796875, 10.0, 1.0, 10.0, 1.4580687284469604
35038, -0.582289457321167, 3.666743755340576, -0.3671826124191284, -0.002082355320453644, 0.0003462676249910146, -9.710677146911621, -0.0630115270614624, 0.010429137386381626, -0.5849488973617554, -0.8270561099052429, -0.9585020542144775, 0.05688571557402611, -0.3624423841524179, -0.20035738892607924, 2.136069740694918, 9362.0, 30146.0, 35388.0, 9362.0, 8.350414276123047, 0.13827726244926453, 0.14970330893993378, -0.22027231752872467, 0.009781928732991219, -0.06597535312175751, 0.9982998371124268, -0.08052581548690796, -0.22775840759277344, 1.477294921875, 1.51171875, 0.21942138671875, 1.49560546875, 1.4736328125, 10.0, 1.0, 10.0, 1.458238124847412
35048, -0.5830832719802856, 3.6652586460113525, -0.36532777547836304, -0.0027437317185103893, 0.00045573728857561946, -9.71652889251709, -0.06926378607749939, 0.011464960873126984, -0.5853825211524963, -0.8270574808120728, -0.958504855632782, 0.05690649896860123, -0.37294129439422513, -0.19583221122425698, 2.1375801078005843, 9362.0, 30146.0, 35388.0, 9362.0, 8.350414276123047, -0.17892669141292572, 0.32369253039360046, 0.3171798586845398, 0.009079277515411377, -0.06521657854318619, 0.9989233016967773, -0.08052581548690796, -0.22775840759277344, 1.477294921875, 1.409912109375, 0.0501251220703125, 1.493408203125, 1.42529296875, 10.0, 1.0, 10.0, 1.458085536956787
35058, -0.5825125575065613, 3.6651411056518555, -0.36428940296173096, -0.003467664821073413, 0.0005755660822615027, -9.722384452819824, -0.07552286237478256, 0.012500591576099396, -0.585711658000946, -0.8267377614974976, -0.9585749506950378, 0.05723300576210022, -0.48296618533561514, -0.10241555215728226, 2.2991511238098488, 9362.0, 30146.0, 35388.0, 9362.0, 8.350414276123047, -0.16059286892414093, -0.35583779215812683, -0.20540489256381989, 0.009662195108830929, -0.062452640384435654, 0.999997615814209, -0.08052581548690796, -0.22775840759277344, 1.477294921875, 1.469970703125, 0.1386566162109375, 1.493408203125, 1.496337890625, 10.0, 1.0, 10.0, 1.4581230878829956
35068, -0.5839542746543884, 3.667748212814331, -0.36514386534690857, -0.004254192113876343, 0.0007057595066726208, -9.728242874145508, -0.08178262412548065, 0.013537980616092682, -0.5859907865524292, -0.8267233371734619, -0.9585726261138916, 0.05724428594112396, -0.4838091629478592, -0.10047566797268814, 2.290369557883727, 9362.0, 30146.0, 35388.0, 9362.0, 8.350414276123047, -0.197145476937294, 0.12233990430831909, 0.18154995143413544, 0.009748583659529686, -0.06314745545387268, 0.9991291165351868, -0.08052581548690796, -0.22775840759277344, 1.477294921875, 1.508056640625, 0.211883544921875, 1.496337890625, 1.468505859375, 10.0, 1.0, 10.0, 1.4582808017730713
35078, -0.5833754539489746, 3.66615891456604, -0.3666617274284363, -0.005103346426039934, 0.0008463263511657715, -9.73410415649414, -0.08804821223020554, 0.014575490728020668, -0.586175262928009, -0.8267263770103455, -0.9585857391357422, 0.05721957981586456, -0.4766332586604916, -0.1081311010453021, 2.294360445889935, 9362.0, 30146.0, 35388.0, 9362.0, 8.350414276123047, -0.005046825390309095, 0.10960091650485992, -0.06709600239992142, 0.010195565409958363, -0.06483755260705948, 0.9978474378585815, -0.08052581548690796, -0.22775840759277344, 1.477294921875, 1.49560546875, 0.1868743896484375, 1.496337890625, 1.486083984375, 10.0, 1.0, 10.0, 1.458398699760437
35088, -0.5841505527496338, 3.6630101203918457, -0.3663698732852936, -0.00601512286812067, 0.0009972720872610807, -9.739967346191406, -0.09430709481239319, 0.01561381109058857, -0.586533784866333, -0.8267237544059753, -0.9585889577865601, 0.05721088498830795, -0.47172332405123263, -0.10220754936003118, 2.29775181022088, 9362.0, 30146.0, 35388.0, 9362.0, 8.350414276123047, -0.08278800547122955, 0.4364332854747772, 0.17239907383918762, 0.009152458049356937, -0.0635964423418045, 0.9966989159584045, -0.08052581548690796, -0.22775840759277344, 1.477294921875, 1.49267578125, 0.1811065673828125, 1.49560546875, 1.47216796875, 10.0, 1.0, 10.0, 1.4585069417953491
35098, -0.5838613510131836, 3.6609175205230713, -0.3669230341911316, -0.006989446468651295, 0.0011585920583456755, -9.745835304260254, -0.10055771470069885, 0.016650168225169182, -0.5869795083999634, -0.8267329931259155, -0.9585883617401123, 0.05721791088581085, -0.4781832179681608, -0.09734666844227036, 2.2865853096567514, 9362.0, 30146.0, 35388.0, 9362.0, 8.350414276123047, -0.11273518949747086, 0.018819263204932213, -0.26105403900146484, 0.009225155226886272, -0.06404758244752884, 0.9984436631202698, -0.07991188019514084, -0.28151702880859375, 1.472900390625, 1.505859375, 0.2073974609375, 1.49560546875, 1.483154296875, 10.0, 1.0, 10.0, 1.4586564302444458
35108, -0.583789587020874, 3.6612446308135986, -0.36720961332321167, -0.008026228286325932, 0.0013302783481776714, -9.751708030700684, -0.10679861903190613, 0.01768716238439083, -0.5874918103218079, -0.8267256021499634, -0.9585800170898438, 0.057245634496212006, -0.48150501083356373, -0.1089886452760993, 2.299398796643931, 9362.0, 30146.0, 35388.0, 9362.0, 8.350414276123047, 0.061497364193201065, 0.17827075719833374, 0.4681278169155121, 0.008329570293426514, -0.06501398235559464, 0.9985163807868958, -0.07991188019514084, -0.28151702880859375, 1.472900390625, 1.471435546875, 0.14129638671875, 1.490478515625, 1.41064453125, 10.0, 1.0, 10.0, 1.458696722984314
35118, -0.5846888422966003, 3.6603996753692627, -0.36711496114730835, -0.009125466458499432, 0.0015123431803658605, -9.757584571838379, -0.11304902285337448, 0.018725838512182236, -0.5877997875213623, -0.8270146250724792, -0.9584616422653198, 0.05693115293979645, -0.37556864875092605, -0.1862022155504235, 2.1673760707570344, 9362.0, 30146.0, 35388.0, 9362.0, 8.350414276123047, -0.14859743416309357, -0.08955533802509308, -0.1591111570596695, 0.008604856207966805, -0.0635196715593338, 0.9970918893814087, -0.07991188019514084, -0.28151702880859375, 1.472900390625, 1.434814453125, 0.081787109375, 1.490478515625, 1.412841796875, 10.0, 1.0, 10.0, 1.4586212635040283
35128, -0.5843296051025391, 3.6597249507904053, -0.36850422620773315, -0.010287175886332989, 0.0017047884175553918, -9.76346492767334, -0.11929288506507874, 0.019763203337788582, -0.5882190465927124, -0.8267269134521484, -0.9585657715797424, 0.057218268513679504, -0.48566583365253413, -0.10610280455489374, 2.2863644891301447, 9362.0, 30146.0, 35388.0, 9362.0, 8.350414276123047, 0.12541180849075317, 0.028446868062019348, 0.0074500287882983685, 0.009539255872368813, -0.06327652186155319, 0.9969447255134583, -0.07991188019514084, -0.28151702880859375, 1.472900390625, 1.46337890625, 0.1270751953125, 1.49267578125, 1.484619140625, 10.0, 1.0, 10.0, 1.4586362838745117
35138, -0.5832910537719727, 3.660336494445801, -0.37075868248939514, -0.011511284857988358, 0.001907609635964036, -9.769350051879883, -0.12552890181541443, 0.020801188424229622, -0.5887383222579956, -0.8270081281661987, -0.9584752321243286, 0.05690893530845642, -0.3716141814509844, -0.19475931801767388, 2.173708661790699, 9362.0, 30146.0, 35388.0, 9362.0, 8.350414276123047, -0.12784764170646667, 0.03335573151707649, -0.09977125376462936, 0.010434841737151146, -0.06574493646621704, 0.9985276460647583, -0.07991188019514084, -0.28151702880859375, 1.472900390625, 1.490478515625, 0.1768646240234375, 1.49267578125, 1.469970703125, 10.0, 1.0, 10.0, 1.458736777305603
35148, -0.5833414793014526, 3.6590020656585693, -0.37085625529289246, -0.012797776609659195, 0.0021208131220191717, -9.775239944458008, -0.13176947832107544, 0.02183976024389267, -0.589166522026062, -0.8267374634742737, -0.9585745930671692, 0.057215265929698944, -0.4842217634148931, -0.10857687970957386, 2.2980575683432853, 9362.0, 30146.0, 35388.0, 9362.0, 8.350414276123047, -0.03971610963344574, -0.14539046585559845, 0.07891414314508438, 0.009213822893798351, -0.06560053676366806, 0.9970926642417908, -0.07991188019514084, -0.28151702880859375, 1.472900390625, 1.50439453125, 0.2044219970703125, 1.49267578125, 1.4765625, 10.0, 1.0, 10.0, 1.45888090133667
35158, -0.5836353898048401, 3.657437562942505, -0.36996331810951233, -0.014146682806313038, 0.0023443952668458223, -9.781133651733398, -0.13801176846027374, 0.02287667989730835, -0.5895849466323853, -0.8270195722579956, -0.9584729671478271, 0.05693577975034714, -0.3706966508210196, -0.19874601493580712, 2.172203952329351, 9362.0, 30146.0, 35388.0, 9362.0, 8.350414276123047, 0.2783651053905487, 0.2285919338464737, 0.0931723564863205, 0.008981366641819477, -0.06605594605207443, 0.9987180233001709, -0.07991188019514084, -0.28151702880859375, 1.472900390625, 1.505859375, 0.2073974609375, 1.49267578125, 1.442138671875, 10.0, 1.0, 10.0, 1.459029197692871
35168, -0.5834612250328064, 3.6580758094787598, -0.36970487236976624, -0.015557996928691864, 0.002578346524387598, -9.787032127380371, -0.14425109326839447, 0.02391345612704754, -0.5900143980979919, -0.8267048001289368, -0.9585705995559692, 0.05721992999315262, -0.477554489386485, -0.12209202734851488, 2.295383403367493, 9362.0, 30146.0, 35388.0, 9362.0, 8.350414276123047, -0.05472563952207565, -0.13760943710803986, 0.13763628900051117, 0.009916494600474834, -0.06713081151247025, 0.9966453909873962, -0.07991188019514084, -0.28151702880859375, 1.472900390625, 1.452392578125, 0.10870361328125, 1.489013671875, 1.4912109375, 10.0, 1.0, 10.0, 1.4590082168579102
35178, -0.583921492099762, 3.6589856147766113, -0.37093478441238403, -0.017031695693731308, 0.002822668058797717, -9.79293441772461, -0.1504884511232376, 0.02495080605149269, -0.5904327034950256, -0.8270092010498047, -0.9584754705429077, 0.0569259449839592, -0.36123937241089704, -0.19472466253469634, 2.170014202451515, 9362.0, 30146.0, 35388.0, 9362.0, 8.350414276123047, -0.02569582127034664, 0.07103979587554932, 0.05120275914669037, 0.011157869361341, -0.06668659299612045, 0.9977567195892334, -0.07991188019514084, -0.28151702880859375, 1.472900390625, 1.5029296875, 0.201446533203125, 1.489013671875, 1.47216796875, 10.0, 1.0, 10.0, 1.4591468572616577
35188, -0.5840156674385071, 3.65906023979187, -0.3707735538482666, -0.01856774277985096, 0.0030773566104471684, -9.79884147644043, -0.1567210704088211, 0.025987032800912857, -0.5909421443939209, -0.8270249366760254, -0.9584619402885437, 0.0569215789437294, -0.3668373761887623, -0.18143025336519258, 2.1667927660629465, 9362.0, 30146.0, 35388.0, 9362.0, 8.350414276123047, 0.21843843162059784, 0.05499890446662903, 0.032900843769311905, 0.01012746524065733, -0.0667535662651062, 0.9969193935394287, -0.07991188019514084, -0.28151702880859375, 1.472900390625, 1.506591796875, 0.2088775634765625, 1.493408203125, 1.487548828125, 10.0, 1.0, 10.0, 1.459296703338623
35198, -0.5833561420440674, 3.661283493041992, -0.37324944138526917, -0.02016615867614746, 0.0033424177672713995, -9.804753303527832, -0.16296206414699554, 0.02702518180012703, -0.5913446545600891, -0.8267260193824768, -0.9585696458816528, 0.05721556395292282, -0.4791756114910504, -0.09839344792069937, 2.2875156133907435, 9362.0, 30146.0, 35388.0, 9362.0, 8.350414276123047, -0.151796355843544, -0.18060389161109924, -0.2955741584300995, 0.008768022060394287, -0.06479482352733612, 0.9962589144706726, -0.07992814481258392, -0.07543754577636719, 1.48974609375, 1.51611328125, 0.2286224365234375, 1.493408203125, 1.503662109375, 10.0, 1.0, 10.0, 1.459476113319397
35208, -0.5860648155212402, 3.6620616912841797, -0.37300318479537964, -0.021826937794685364, 0.003617853159084916, -9.810669898986816, -0.1691935509443283, 0.028062161058187485, -0.5918967127799988, -0.8270206451416016, -0.9584588408470154, 0.05693555623292923, -0.3665582887411474, -0.19613989901705509, 2.1688158322081508, 9362.0, 30146.0, 35388.0, 9362.0, 8.350414276123047, -0.10340618342161179, 0.09699907153844833, 0.1384747326374054, 0.008036604151129723, -0.06422309577465057, 0.9965765476226807, -0.07992814481258392, -0.07543754577636719, 1.48974609375, 1.497802734375, 0.19122314453125, 1.4912109375, 1.467041015625, 10.0, 1.0, 10.0, 1.459597110748291
35218, -0.5838720798492432, 3.6604766845703125, -0.37411224842071533, -0.021826937794685364, 0.003617853159084916, -9.810669898986816, -0.1691935509443283, 0.028062161058187485, -0.5918967127799988, -0.8267173171043396, -0.9585704207420349, 0.05728570744395256, -0.49247245756686764, -0.09221811814941816, 2.295385764365384, 9362.0, 30146.0, 35388.0, 9362.0, 8.350414276123047, 0.16724108159542084, -0.09450222551822662, -0.29969558119773865, 0.008762609213590622, -0.06490267813205719, 0.9980998039245605, -0.07992814481258392, -0.07543754577636719, 1.48974609375, 1.497802734375, 0.19122314453125, 1.4912109375, 1.467041015625, 10.0, 1.0, 10.0, 1.4595558643341064
35238, -0.5853000283241272, 3.662032127380371, -0.37368762493133545, -0.021826937794685364, 0.003617853159084916, -9.810669898986816, -0.1691935509443283, 0.028062161058187485, -0.5918967127799988, -0.8270015120506287, -0.958464503288269, 0.056925609707832336, -0.36780223836658166, -0.1876556204543931, 2.178667985294536, 9362.0, 30146.0, 35388.0, 9362.0, 8.350414276123047, 0.07233677804470062, 0.07042238116264343, -0.025520818307995796, 0.008045608177781105, -0.06694044917821884, 0.9962286949157715, -0.07992814481258392, -0.07543754577636719, 1.48974609375, 1.497802734375, 0.19122314453125, 1.4912109375, 1.467041015625, 10.0, 1.0, 10.0, 1.459593415260315
35248, -0.5846706032752991, 3.662872314453125, -0.37479594349861145, -0.021826937794685364, 0.003617853159084916, -9.810669898986816, -0.1691935509443283, 0.028062161058187485, -0.5918967127799988, -0.8267228603363037, -0.9585669040679932, 0.05718613415956497, -0.4814013965207498, -0.09490927048361186, 2.3022423552398874, 9362.0, 30146.0, 35388.0, 9362.0, 8.350414276123047, 0.07233677804470062, 0.07042238116264343, -0.025520818307995796, 0.009167976677417755, -0.06535953283309937, 0.9967747330665588, -0.07992814481258392, -0.07543754577636719, 1.48974609375, 1.497802734375, 0.19122314453125, 1.4912109375, 1.467041015625, 10.0, 1.0, 10.0, 1.4595986604690552
35258, -0.5843947529792786, 3.664740800857544, -0.3751434087753296, -0.031066615134477615, 0.005150803830474615, -9.840324401855469, -0.2003941386938095, 0.03325839340686798, -0.594323992729187, -0.8267269730567932, -0.9585710763931274, 0.057217881083488464, -0.4805617365323674, -0.11126840676928396, 2.297274260429012, 9362.0, 30146.0, 35388.0, 9362.0, 8.350414276123047, -0.08284644037485123, 0.16540251672267914, -0.1927727311849594, 0.009020238183438778, -0.06341784447431564, 0.9984955191612244, -0.07992814481258392, -0.07543754577636719, 1.48974609375, 1.497802734375, 0.19122314453125, 1.4912109375, 1.49267578125, 10.0, 1.0, 10.0, 1.4595986604690552
35268, -0.5845667719841003, 3.6613662242889404, -0.3743574619293213, -0.031066615134477615, 0.005150803830474615, -9.840324401855469, -0.2003941386938095, 0.03325839340686798, -0.594323992729187, -0.827017605304718, -0.9584513306617737, 0.05692155286669731, -0.37614271899859764, -0.190485315423075, 2.173004231042749, 9362.0, 30146.0, 35388.0, 9362.0, 8.350414276123047, 0.023572709411382675, 0.3776261508464813, 0.18293866515159607, 0.009470514953136444, -0.06571491062641144, 0.9970543384552002, -0.07992814481258392, -0.07543754577636719, 1.48974609375, 1.497802734375, 0.19122314453125, 1.494140625, 1.4912109375, 10.0, 1.0, 10.0, 1.4595986604690552
35278, -0.5847616195678711, 3.661705255508423, -0.37529629468917847, -0.031066615134477615, 0.005150803830474615, -9.840324401855469, -0.2003941386938095, 0.03325839340686798, -0.594323992729187, -0.8267289400100708, -0.9585625529289246, 0.05725406855344772, -0.4815462152798758, -0.09566837035663411, 2.2926305504034294, 9362.0, 30146.0, 35388.0, 9362.0, 8.350414276123047, -0.018198788166046143, -0.09268533438444138, -0.16830399632453918, 0.009270206093788147, -0.06595548987388611, 0.9952371716499329, -0.07992814481258392, -0.07543754577636719, 1.48974609375, 1.497802734375, 0.19122314453125, 1.494140625, 1.470703125, 10.0, 1.0, 10.0, 1.4595986604690552
35288, -0.5854190587997437, 3.6610372066497803, -0.37449267506599426, -0.031066615134477615, 0.005150803830474615, -9.840324401855469, -0.2003941386938095, 0.03325839340686798, -0.594323992729187, -0.827025294303894, -0.9584673047065735, 0.0569344125688076, -0.37718679192463433, -0.19033442040640125, 2.1703803039861076, 9362.0, 30146.0, 35388.0, 9362.0, 8.350414276123047, -0.051407959312200546, 0.2756927013397217, 0.32925063371658325, 0.010656584054231644, -0.06433583796024323, 0.9962059855461121, -0.07992814481258392, -0.07543754577636719, 1.48974609375, 1.497802734375, 0.19122314453125, 1.494140625, 1.470703125, 10.0, 1.0, 10.0, 1.4596341848373413
35298, -0.5866211652755737, 3.6594905853271484, -0.37377309799194336, -0.031066615134477615, 0.005150803830474615, -9.840324401855469, -0.2003941386938095, 0.03325839340686798, -0.594323992729187, -0.8267397284507751, -0.9585663676261902, 0.057214248925447464, -0.4817429800390339, -0.10975210354195042, 2.291388456901372, 9362.0, 30146.0, 35388.0, 9362.0, 8.350414276123047, -0.18454481661319733, -0.179399311542511, -0.0336998775601387, 0.010170890018343925, -0.06332344561815262, 0.9971983432769775, -0.07992814481258392, -0.07543754577636719, 1.48974609375, 1.497802734375, 0.19122314453125, 1.494140625, 1.474365234375, 10.0, 1.0, 10.0, 1.4596341848373413
35308, -0.5862453579902649, 3.661195993423462, -0.3748268783092499, -0.031066615134477615, 0.005150803830474615, -9.840324401855469, -0.2003941386938095, 0.03325839340686798, -0.594323992729187, -0.8270275592803955, -0.958451509475708, 0.05689806491136551, -0.37843167726581756, -0.1852492925554543, 2.172799958855461, 9362.0, 30146.0, 35388.0, 9362.0, 8.350414276123047, 0.06303699314594269, 0.1328468769788742, 0.022131578996777534, 0.008773337118327618, -0.0637417808175087, 0.997805118560791, -0.07992814481258392, -0.07543754577636719, 1.48974609375, 1.497802734375, 0.19122314453125, 1.494140625, 1.474365234375, 10.0, 1.0, 10.0, 1.4596341848373413
35318, -0.5861706733703613, 3.6620683670043945, -0.3757251501083374, -0.031066615134477615, 0.005150803830474615, -9.840324401855469, -0.2003941386938095, 0.03325839340686798, -0.594323992729187, -0.8267221450805664, -0.958570659160614, 0.0572192519903183, -0.48232880129409333, -0.10713311387348767, 2.295465654952996, 9362.0, 30146.0, 35388.0, 9362.0, 8.350414276123047, 0.06303699314594269, 0.1328468769788742, 0.022131578996777534, 0.008390868082642555, -0.06305256485939026, 0.9994560480117798, -0.07992814481258392, -0.07543754577636719, 1.48974609375, 1.430419921875, 0.0756378173828125, 1.494140625, 1.5146484375, 10.0, 1.0, 10.0, 1.4595561027526855
35338, -0.5873591303825378, 3.661404609680176, -0.37434878945350647, -0.04909555986523628, 0.008144143968820572, -9.888020515441895, -0.2503345012664795, 0.041582684963941574, -0.5979434847831726, -0.8270254135131836, -0.958457350730896, 0.05693010613322258, -0.3778619077804887, -0.1946008293504633, 2.1701768813402667, 9362.0, 30146.0, 35388.0, 9362.0, 8.350414276123047, -0.01782572641968727, -0.02306310646235943, 0.00675328029319644, 0.00990447960793972, -0.06324107199907303, 0.9969397783279419, -0.07992814481258392, -0.07543754577636719, 1.48974609375, 1.430419921875, 0.0756378173828125, 1.49560546875, 1.489013671875, 10.0, 1.0, 10.0, 1.4597209692001343
35358, -0.5868515968322754, 3.6612305641174316, -0.37765851616859436, -0.05422702431678772, 0.008996658027172089, -9.899989128112793, -0.2628118395805359, 0.04366910085082054, -0.5989218950271606, -0.8270562291145325, -0.9584906697273254, 0.05690612643957138, -0.3778711470780632, -0.19715160596641113, 2.132013261792588, 9362.0, 30146.0, 35388.0, 9362.0, 8.350414276123047, 0.09242524951696396, -0.3199450671672821, -0.028144745156168938, 0.007157594431191683, -0.06651584804058075, 0.9998295307159424, -0.07992814481258392, -0.07543754577636719, 1.48974609375, 1.430419921875, 0.0756378173828125, 1.49560546875, 1.489013671875, 10.0, 1.0, 10.0, 1.4597394466400146
35368, -0.5873274803161621, 3.658945322036743, -0.37765711545944214, -0.05422702431678772, 0.008996658027172089, -9.899989128112793, -0.2628118395805359, 0.04366910085082054, -0.5989218950271606, -0.8270629048347473, -0.9584897756576538, 0.05692344158887863, -0.3727852217128045, -0.19218390832071464, 2.1283981183124454, 9362.0, 30146.0, 35388.0, 9362.0, 8.350414276123047, 0.09242524951696396, -0.3199450671672821, -0.028144745156168938, 0.007617643568664789, -0.06568831950426102, 0.9986671805381775, -0.07992814481258392, -0.07543754577636719, 1.48974609375, 1.430419921875, 0.0756378173828125, 1.49560546875, 1.4853515625, 10.0, 1.0, 10.0, 1.459700107574463
35378, -0.5873424410820007, 3.6591298580169678, -0.3771924376487732, -0.059608276933431625, 0.009890943765640259, -9.91197395324707, -0.27531614899635315, 0.04575987160205841, -0.5995209813117981, -0.8267354965209961, -0.9585673809051514, 0.05721430480480194, -0.48261161747357306, -0.09857591358226614, 2.2924031037262225, 9362.0, 30146.0, 35388.0, 9362.0, 8.350414276123047, 0.06870244443416595, 0.06444457173347473, 0.11163483560085297, 0.008535286411643028, -0.06362135708332062, 0.997165858745575, -0.07992814481258392, -0.07543754577636719, 1.48974609375, 1.430419921875, 0.0756378173828125, 1.49560546875, 1.499267578125, 10.0, 1.0, 10.0, 1.459700107574463
35388, -0.5874257683753967, 3.6583032608032227, -0.3770628273487091, -0.059608276933431625, 0.009890943765640259, -9.91197395324707, -0.27531614899635315, 0.04575987160205841, -0.5995209813117981, -0.8267115354537964, -0.9585686922073364, 0.057219065725803375, -0.4838548931104364, -0.10324389927413335, 2.2986833695436393, 9362.0, 30146.0, 35388.0, 9362.0, 8.350414276123047, -0.06321987509727478, -0.017251024022698402, 0.19229161739349365, 0.007843833416700363, -0.06411655247211456, 0.9961382150650024, -0.07992814481258392, -0.07543754577636719, 1.48974609375, 1.430419921875, 0.0756378173828125, 1.48974609375, 1.46630859375, 10.0, 1.0, 10.0, 1.459700107574463
35398, -0.5878944993019104, 3.658536911010742, -0.3779887557029724, -0.06523937731981277, 0.010827028192579746, -9.923973083496094, -0.28778979182243347, 0.04784782975912094, -0.6004544496536255, -0.8267170786857605, -0.9585641026496887, 0.05722888559103012, -0.4829362753981504, -0.09659364224583555, 2.3029340242183287, 9362.0, 30146.0, 35388.0, 9362.0, 8.350414276123047, 0.014921310357749462, 0.19248954951763153, 0.015527630224823952, 0.007835354655981064, -0.06434539705514908, 0.9962368011474609, -0.07992814481258392, -0.07543754577636719, 1.48974609375, 1.430419921875, 0.0756378173828125, 1.48974609375, 1.43701171875, 10.0, 1.0, 10.0, 1.459700107574463
35408, -0.588321328163147, 3.6601688861846924, -0.3760110139846802, -0.06523937731981277, 0.010827028192579746, -9.923973083496094, -0.28778979182243347, 0.04784782975912094, -0.6004544496536255, -0.8270149827003479, -0.9584583044052124, 0.05691356956958771, -0.37149868367796085, -0.20366361504702013, 2.1641615337023907, 9362.0, 30146.0, 35388.0, 9362.0, 8.350414276123047, -0.14240363240242004, -0.454658567905426, -0.16199837625026703, 0.009913426823914051, -0.06262645870447159, 0.9965421557426453, -0.07992814481258392, -0.07543754577636719, 1.48974609375, 1.430419921875, 0.0756378173828125, 1.48974609375, 1.43701171875, 10.0, 1.0, 10.0, 1.4600107669830322
35418, -0.587669312953949, 3.658785343170166, -0.37736058235168457, -0.06523937731981277, 0.010827028192579746, -9.923973083496094, -0.28778979182243347, 0.04784782975912094, -0.6004544496536255, -0.8267186284065247, -0.9585622549057007, 0.057218000292778015, -0.4823892007294698, -0.10833145474606454, 2.295780463375323, 9362.0, 30146.0, 35388.0, 9362.0, 8.350414276123047, 0.2775815427303314, 0.2982812225818634, 0.17782260477542877, 0.010653591714799404, -0.06466193497180939, 0.9967668056488037, -0.07992814481258392, -0.07543754577636719, 1.48974609375, 1.430419921875, 0.0756378173828125, 1.48974609375, 1.44287109375, 10.0, 1.0, 10.0, 1.4600107669830322
35428, -0.5877326726913452, 3.657203197479248, -0.37522614002227783, -0.06523937731981277, 0.010827028192579746, -9.923973083496094, -0.28778979182243347, 0.04784782975912094, -0.6004544496536255, -0.8267198801040649, -0.9585660696029663, 0.05724819004535675, -0.48486990897678345, -0.09867822816232774, 2.3007860777248728, 9362.0, 30146.0, 35388.0, 9362.0, 8.350414276123047, -0.055736079812049866, 0.32075703144073486, 0.18206697702407837, 0.008086060173809528, -0.06513503938913345, 0.9968031644821167, -0.07992814481258392, -0.07543754577636719, 1.48974609375, 1.430419921875, 0.0756378173828125, 1.48974609375, 1.44287109375, 10.0, 1.0, 10.0, 1.4600107669830322
35438, -0.5877705216407776, 3.658067226409912, -0.3750319480895996, -0.07724925875663757, 0.012824413366615772, -9.948039054870605, -0.31271034479141235, 0.052022527903318405, -0.6027306318283081, -0.8270583748817444, -0.9584991931915283, 0.056871939450502396, -0.37285312031950807, -0.1893918428683321, 2.12966233370229, 9362.0, 30146.0, 35388.0, 9362.0, 8.350414276123047, -0.055736079812049866, 0.32075703144073486, 0.18206697702407837, 0.008812879212200642, -0.06452706456184387, 0.997719407081604, -0.07992814481258392, -0.07543754577636719, 1.48974609375, 1.430419921875, 0.0756378173828125, 1.48974609375, 1.50439453125, 10.0, 1.0, 10.0, 1.4600107669830322
35448, -0.5875194668769836, 3.6591298580169678, -0.37746062874794006, -0.07724925875663757, 0.012824413366615772, -9.948039054870605, -0.31271034479141235, 0.052022527903318405, -0.6027306318283081, -0.8270477652549744, -0.9584503173828125, 0.05689423903822899, -0.37952264663005325, -0.1844192775435829, 2.1573320208826177, 9362.0, 30146.0, 35388.0, 9362.0, 8.350414276123047, 0.06828837841749191, -0.3531724512577057, -0.17516052722930908, 0.008812879212200642, -0.06452706456184387, 0.997719407081604, -0.07992814481258392, -0.07543754577636719, 1.48974609375, 1.430419921875, 0.0756378173828125, 1.48974609375, 1.50439453125, 10.0, 1.0, 10.0, 1.4600259065628052
35458, -0.5877783298492432, 3.6616573333740234, -0.3774726092815399, -0.07724925875663757, 0.012824413366615772, -9.948039054870605, -0.31271034479141235, 0.052022527903318405, -0.6027306318283081, -0.8267344832420349, -0.9585627913475037, 0.05723070353269577, -0.4782587052300466, -0.10213258733222119, 2.286530870798223, 9362.0, 30146.0, 35388.0, 9362.0, 8.350414276123047, -0.15220503509044647, -0.09480428695678711, -0.09376632422208786, 0.008700510486960411, -0.06429796665906906, 0.997848391532898, -0.07992814481258392, -0.07543754577636719, 1.48974609375, 1.430419921875, 0.0756378173828125, 1.48974609375, 1.50439453125, 10.0, 1.0, 10.0, 1.4599024057388306
35468, -0.5872422456741333, 3.6633129119873047, -0.3788693845272064, -0.07724925875663757, 0.012824413366615772, -9.948039054870605, -0.31271034479141235, 0.052022527903318405, -0.6027306318283081, -0.8266938328742981, -0.9585571885108948, 0.057278163731098175, -0.4901810552703608, -0.10661767969804714, 2.29344682067419, 9362.0, 30146.0, 35388.0, 9362.0, 8.350414276123047, 0.027103416621685028, -0.017226168885827065, -0.10453570634126663, 0.008700510486960411, -0.06429796665906906, 0.997848391532898, -0.07992814481258392, -0.07543754577636719, 1.48974609375, 1.430419921875, 0.0756378173828125, 1.48974609375, 1.50439453125, 10.0, 1.0, 10.0, 1.4599024057388306
35488, -0.5866362452507019, 3.665452003479004, -0.3791032135486603, -0.07724925875663757, 0.012824413366615772, -9.948039054870605, -0.31271034479141235, 0.052022527903318405, -0.6027306318283081, -0.8270304799079895, -0.9584730863571167, 0.056924715638160706, -0.36885813866062067, -0.18747592326133145, 2.1658045186471733, 9362.0, 30146.0, 35388.0, 9362.0, 8.350414276123047, 0.11326181888580322, -0.1449771374464035, -0.12064776569604874, 0.008936628699302673, -0.06236669793725014, 0.9958931803703308, -0.07992814481258392, -0.07543754577636719, 1.48974609375, 1.430419921875, 0.0756378173828125, 1.494873046875, 1.5, 10.0, 1.0, 10.0, 1.4598941802978516
35498, -0.5862088799476624, 3.6674208641052246, -0.37840375304222107, -0.09713444858789444, 0.016133751720190048, -9.984289169311523, -0.35013899207115173, 0.05828605219721794, -0.6056517362594604, -0.8270199298858643, -0.9584592580795288, 0.05689471215009689, -0.36582586613664525, -0.19339308146118128, 2.172275127079747, 9362.0, 30146.0, 35388.0, 9362.0, 8.350414276123047, -0.03022279217839241, -0.4455820620059967, -0.09270105510950089, 0.008936628699302673, -0.06236669793725014, 0.9958931803703308, -0.07992814481258392, -0.07543754577636719, 1.48974609375, 1.430419921875, 0.0756378173828125, 1.494873046875, 1.48974609375, 10.0, 1.0, 10.0, 1.4598941802978516
35508, -0.586887538433075, 3.6677772998809814, -0.3784349858760834, -0.09713444858789444, 0.016133751720190048, -9.984289169311523, -0.35013899207115173, 0.05828605219721794, -0.6056517362594604, -0.8267338275909424, -0.9585727453231812, 0.05721987038850784, -0.4844943113459689, -0.0994774724746037, 2.286524040403695, 9362.0, 30146.0, 35388.0, 9362.0, 8.350414276123047, 0.18038666248321533, 0.13044880330562592, 0.20957858860492706, 0.008439884521067142, -0.0647277683019638, 0.9983283281326294, -0.07992814481258392, -0.07543754577636719, 1.48974609375, 1.430419921875, 0.0756378173828125, 1.494873046875, 1.44873046875, 10.0, 1.0, 10.0, 1.4598941802978516
35518, -0.5866616368293762, 3.6691572666168213, -0.3798266649246216, -0.09713444858789444, 0.016133751720190048, -9.984289169311523, -0.35013899207115173, 0.05828605219721794, -0.6056517362594604, -0.8267226815223694, -0.9585629105567932, 0.05722113698720932, -0.47740709705524537, -0.11549817484856817, 2.292647395910098, 9362.0, 30146.0, 35388.0, 9362.0, 8.350414276123047, -0.12599129974842072, -0.3088022768497467, -0.23810747265815735, 0.008439884521067142, -0.0647277683019638, 0.9983283281326294, -0.07992814481258392, -0.07543754577636719, 1.48974609375, 1.430419921875, 0.0756378173828125, 1.494873046875, 1.44873046875, 10.0, 1.0, 10.0, 1.4600434303283691
35528, -0.5864859819412231, 3.669227361679077, -0.3814970850944519, -0.09713444858789444, 0.016133751720190048, -9.984289169311523, -0.35013899207115173, 0.05828605219721794, -0.6056517362594604, -0.8267189860343933, -0.9585662484169006, 0.057252008467912674, -0.47610200438737094, -0.1019324073347434, 2.294034086200256, 9362.0, 30146.0, 35388.0, 9362.0, 8.350414276123047, -0.006146263796836138, -0.10037648677825928, 0.08920679241418839, 0.010004103183746338, -0.0641683042049408, 1.0006829500198364, -0.07992814481258392, -0.07543754577636719, 1.48974609375, 1.430419921875, 0.0756378173828125, 1.494873046875, 1.44873046875, 10.0, 1.0, 10.0, 1.4599961042404175
35548, -0.5873056054115295, 3.6687023639678955, -0.3782445788383484, -0.09713444858789444, 0.016133751720190048, -9.984289169311523, -0.35013899207115173, 0.05828605219721794, -0.6056517362594604, -0.8270169496536255, -0.9584555625915527, 0.05692741274833679, -0.37666407566778753, -0.1980252125118227, 2.1681198097731693, 9362.0, 30146.0, 35388.0, 9362.0, 8.350414276123047, 0.029981428757309914, 0.4844313859939575, 0.20947612822055817, 0.00798708200454712, -0.06208831071853638, 0.9958041310310364, -0.07992814481258392, -0.07543754577636719, 1.48974609375, 1.430419921875, 0.0756378173828125, 1.491943359375, 1.455322265625, 10.0, 1.0, 10.0, 1.4599961042404175
35558, -0.5873875617980957, 3.669332265853882, -0.3772229850292206, -0.09713444858789444, 0.016133751720190048, -9.984289169311523, -0.35013899207115173, 0.05828605219721794, -0.6056517362594604, -0.826736330986023, -0.9585659503936768, 0.05721653997898102, -0.47925311141785487, -0.10479657990626379, 2.2942244050306466, 9362.0, 30146.0, 35388.0, 9362.0, 8.350414276123047, 0.004984560888260603, -0.17747147381305695, -0.04963834583759308, 0.009013287723064423, -0.06518305838108063, 0.9977626204490662, -0.07992814481258392, -0.07543754577636719, 1.48974609375, 1.430419921875, 0.0756378173828125, 1.491943359375, 1.45458984375, 10.0, 1.0, 10.0, 1.4599961042404175
35568, -0.586804211139679, 3.6686742305755615, -0.37735307216644287, -0.09713444858789444, 0.016133751720190048, -9.984289169311523, -0.35013899207115173, 0.05828605219721794, -0.6056517362594604, -0.8270114064216614, -0.958472490310669, 0.05694524943828583, -0.37159488098435917, -0.19771077084135413, 2.1729536484324083, 9362.0, 30146.0, 35388.0, 9362.0, 8.350414276123047, -0.02032170630991459, -0.10539049655199051, -0.1329021453857422, 0.009013287723064423, -0.06518305838108063, 0.9977626204490662, -0.07992814481258392, -0.07543754577636719, 1.48974609375, 1.430419921875, 0.0756378173828125, 1.490478515625, 1.47216796875, 10.0, 1.0, 10.0, 1.4599961042404175
35578, -0.5870288014411926, 3.6700148582458496, -0.37816330790519714, -0.12714648246765137, 0.021130496636033058, -10.032882690429688, -0.40017443895339966, 0.06663517653942108, -0.6091325879096985, -0.8270043134689331, -0.9584686160087585, 0.05694054067134857, -0.3743041511588262, -0.2024263548324825, 2.1748783024539167, 9362.0, 30146.0, 35388.0, 9362.0, 8.350414276123047, -0.2628434896469116, -0.15024611353874207, -0.09918981790542603, 0.009193670935928822, -0.06427710503339767, 0.9990527629852295, -0.07992814481258392, -0.07543754577636719, 1.48974609375, 1.430419921875, 0.0756378173828125, 1.490478515625, 1.47216796875, 10.0, 1.0, 10.0, 1.4601211547851562
35608, -0.5869283080101013, 3.672285556793213, -0.38213568925857544, -0.13527528941631317, 0.022484108805656433, -10.045071601867676, -0.41270530223846436, 0.06872600317001343, -0.6097221374511719, -0.8270238041877747, -0.9584664106369019, 0.056932151317596436, -0.36738998994916133, -0.1898946431596471, 2.165522070061418, 9362.0, 30146.0, 35388.0, 9362.0, 8.350414276123047, -0.1340426802635193, -0.01595066860318184, -0.09166819602251053, 0.008895964361727238, -0.0679125040769577, 0.995266318321228, -0.07992814481258392, -0.07543754577636719, 1.48974609375, 1.430419921875, 0.0756378173828125, 1.490478515625, 1.513916015625, 10.0, 1.0, 10.0, 1.4601433277130127
35618, -0.5856565237045288, 3.670881509780884, -0.38186439871788025, -0.14365452527999878, 0.02387952245771885, -10.057275772094727, -0.42521166801452637, 0.07081495970487595, -0.6108051538467407, -0.826732337474823, -0.9585494995117188, 0.05729338899254799, -0.497043537428592, -0.0959558234886515, 2.288985518071177, 9362.0, 30146.0, 35388.0, 9362.0, 8.350414276123047, -0.1226145550608635, -0.21581678092479706, 0.24315674602985382, 0.008895964361727238, -0.0679125040769577, 0.995266318321228, -0.07992814481258392, -0.07543754577636719, 1.48974609375, 1.430419921875, 0.0756378173828125, 1.490478515625, 1.513916015625, 10.0, 1.0, 10.0, 1.4601433277130127
35628, -0.5851393938064575, 3.670175075531006, -0.3808306157588959, -0.14365452527999878, 0.02387952245771885, -10.057275772094727, -0.42521166801452637, 0.07081495970487595, -0.6108051538467407, -0.8270359039306641, -0.9584564566612244, 0.0568808987736702, -0.36393586609594003, -0.1837571424780151, 2.175546198441937, 9362.0, 30146.0, 35388.0, 9362.0, 8.350414276123047, 0.04997782036662102, 0.34837332367897034, 0.15783579647541046, 0.00693841278553009, -0.06546398997306824, 0.9986040592193604, -0.07992814481258392, -0.07543754577636719, 1.48974609375, 1.430419921875, 0.0756378173828125, 1.493408203125, 1.48681640625, 10.0, 1.0, 10.0, 1.4601433277130127
35638, -0.5856934785842896, 3.668450117111206, -0.3784599304199219, -0.14365452527999878, 0.02387952245771885, -10.057275772094727, -0.42521166801452637, 0.07081495970487595, -0.6108051538467407, -0.8270289301872253, -0.9584582448005676, 0.056891947984695435, -0.373470884394269, -0.1787973635580613, 2.1671439950458287, 9362.0, 30146.0, 35388.0, 9362.0, 8.350414276123047, 0.04997782036662102, 0.34837332367897034, 0.15783579647541046, 0.008927491493523121, -0.06728827208280563, 0.998822033405304, -0.07992814481258392, -0.07543754577636719, 1.48974609375, 1.430419921875, 0.0756378173828125, 1.493408203125, 1.48681640625, 10.0, 1.0, 10.0, 1.4601433277130127
35648, -0.5861077904701233, 3.670889139175415, -0.37907618284225464, -0.14365452527999878, 0.02387952245771885, -10.057275772094727, -0.42521166801452637, 0.07081495970487595, -0.6108051538467407, -0.8267224431037903, -0.9585772752761841, 0.05724954605102539, -0.4791022159468031, -0.11010557699688661, 2.3002335876349242, 9362.0, 30146.0, 35388.0, 9362.0, 8.350414276123047, 0.021252276375889778, -0.00046611425932496786, -0.2599886357784271, 0.008927491493523121, -0.06728827208280563, 0.998822033405304, -0.07992814481258392, -0.07543754577636719, 1.48974609375, 1.430419921875, 0.0756378173828125, 1.493408203125, 1.48681640625, 10.0, 1.0, 10.0, 1.4603211879730225
35668, -0.5866594314575195, 3.673215866088867, -0.3798598051071167, -0.14365452527999878, 0.02387952245771885, -10.057275772094727, -0.42521166801452637, 0.07081495970487595, -0.6108051538467407, -0.8267372846603394, -0.9585649967193604, 0.05720008537173271, -0.483015834537375, -0.10008700125555947, 2.2937471217133383, 9362.0, 30146.0, 35388.0, 9362.0, 8.350414276123047, 0.035346806049346924, -0.5327053666114807, -0.3018561601638794, 0.010552254505455494, -0.06716534495353699, 0.9961069822311401, -0.07992814481258392, -0.07543754577636719, 1.48974609375, 1.41357421875, 0.0542449951171875, 1.496337890625, 1.494873046875, 10.0, 1.0, 10.0, 1.4603211879730225
35678, -0.5862194299697876, 3.67464017868042, -0.3798944652080536, -0.14365452527999878, 0.02387952245771885, -10.057275772094727, -0.42521166801452637, 0.07081495970487595, -0.6108051538467407, -0.8270062208175659, -0.9584612846374512, 0.056941594928503036, -0.36612178486971647, -0.19678027328612302, 2.176790413587086, 9362.0, 30146.0, 35388.0, 9362.0, 8.350414276123047, 0.035346806049346924, -0.5327053666114807, -0.3018561601638794, 0.010639716871082783, -0.06615977734327316, 0.9962276816368103, -0.07992814481258392, -0.07543754577636719, 1.48974609375, 1.41357421875, 0.0542449951171875, 1.496337890625, 1.4794921875, 10.0, 1.0, 10.0, 1.4603211879730225
35708, -0.5871950387954712, 3.6804592609405518, -0.3828628659248352, -0.14365452527999878, 0.02387952245771885, -10.057275772094727, -0.42521166801452637, 0.07081495970487595, -0.6108051538467407, -0.8267344236373901, -0.958544135093689, 0.057222530245780945, -0.4986519253082741, -0.10292179256956047, 2.28957086401541, 9362.0, 30146.0, 35388.0, 9362.0, 8.350414276123047, 0.08402026444673538, -0.03184118494391441, 0.10393129289150238, 0.007753000129014254, -0.06239743158221245, 0.99750155210495, -0.07922983169555664, -0.15607833862304688, 1.483154296875, 1.42822265625, 0.0726470947265625, 1.496337890625, 1.44873046875, 10.0, 1.0, 10.0, 1.4601327180862427
35718, -0.5866954326629639, 3.680337429046631, -0.3845408856868744, -0.14365452527999878, 0.02387952245771885, -10.057275772094727, -0.42521166801452637, 0.07081495970487595, -0.6108051538467407, -0.8270160555839539, -0.9584459066390991, 0.05693545937538147, -0.37327543492284776, -0.19002133237972885, 2.1668170784243355, 9362.0, 30146.0, 35388.0, 9362.0, 8.350414276123047, 0.007276636548340321, 0.1611122339963913, -0.172356978058815, 0.00892538670450449, -0.06460999697446823, 0.997833251953125, -0.07922983169555664, -0.15607833862304688, 1.483154296875, 1.42822265625, 0.0726470947265625, 1.496337890625, 1.44873046875, 10.0, 1.0, 10.0, 1.4601327180862427
35738, -0.5872398018836975, 3.6784720420837402, -0.38526734709739685, -0.19918771088123322, 0.03312806785106659, -10.130887031555176, -0.5003630518913269, 0.08332889527082443, -0.6163372993469238, -0.827036440372467, -0.9584664106369019, 0.05695193260908127, -0.3732034205790343, -0.194784151458947, 2.1730090774659514, 9362.0, 30146.0, 35388.0, 9362.0, 8.350414276123047, -0.26092204451560974, 0.02011474221944809, 0.22980329394340515, 0.008732016198337078, -0.06588976085186005, 0.996731698513031, -0.07922983169555664, -0.15607833862304688, 1.483154296875, 1.42822265625, 0.0726470947265625, 1.496337890625, 1.512451171875, 10.0, 1.0, 10.0, 1.4601327180862427
35748, -0.587286114692688, 3.680487871170044, -0.3844505846500397, -0.19918771088123322, 0.03312806785106659, -10.130887031555176, -0.5003630518913269, 0.08332889527082443, -0.6163372993469238, -0.8270136713981628, -0.9584621787071228, 0.056905560195446014, -0.37322186369588656, -0.18140820679431613, 2.1702090419829148, 9362.0, 30146.0, 35388.0, 9362.0, 8.350414276123047, -0.26092204451560974, 0.02011474221944809, 0.22980329394340515, 0.010221620090305805, -0.06395933032035828, 0.9966561794281006, -0.07922983169555664, -0.15607833862304688, 1.483154296875, 1.42822265625, 0.0726470947265625, 1.493408203125, 1.512451171875, 10.0, 1.0, 10.0, 1.4600516557693481
35758, -0.5871230363845825, 3.679408550262451, -0.3849185109138489, -0.19918771088123322, 0.03312806785106659, -10.130887031555176, -0.5003630518913269, 0.08332889527082443, -0.6163372993469238, -0.8267195224761963, -0.9585676789283752, 0.0572497695684433, -0.49034560982471737, -0.1043893244449805, 2.3013618767002733, 9362.0, 30146.0, 35388.0, 9362.0, 8.350414276123047, 0.0842205286026001, -0.07892624288797379, -0.05913936719298363, 0.007791070267558098, -0.06499293446540833, 0.9990853667259216, -0.07922983169555664, -0.15607833862304688, 1.483154296875, 1.42822265625, 0.0726470947265625, 1.493408203125, 1.512451171875, 10.0, 1.0, 10.0, 1.4600516557693481
35768, -0.587136447429657, 3.6808831691741943, -0.3840654790401459, -0.19918771088123322, 0.03312806785106659, -10.130887031555176, -0.5003630518913269, 0.08332889527082443, -0.6163372993469238, -0.8270206451416016, -0.9584492444992065, 0.05690336599946022, -0.36425453528621327, -0.19122349011220763, 2.16942922489497, 9362.0, 30146.0, 35388.0, 9362.0, 8.350414276123047, 0.04175479710102081, -0.24375729262828827, 0.10672341287136078, 0.007791070267558098, -0.06499293446540833, 0.9990853667259216, -0.07922983169555664, -0.15607833862304688, 1.483154296875, 1.42822265625, 0.0726470947265625, 1.493408203125, 1.512451171875, 10.0, 1.0, 10.0, 1.4598093032836914
35778, -0.5876792073249817, 3.6800169944763184, -0.3849065899848938, -0.19918771088123322, 0.03312806785106659, -10.130887031555176, -0.5003630518913269, 0.08332889527082443, -0.6163372993469238, -0.8267117738723755, -0.9585657119750977, 0.05721006169915199, -0.47750433178209256, -0.11131272353736676, 2.294626751046394, 9362.0, 30146.0, 35388.0, 9362.0, 8.350414276123047, 0.02111734449863434, -0.21717065572738647, -0.09121743589639664, 0.008863466791808605, -0.06604733318090439, 0.9974486827850342, -0.07922983169555664, -0.15607833862304688, 1.483154296875, 1.42822265625, 0.0726470947265625, 1.493408203125, 1.494140625, 10.0, 1.0, 10.0, 1.4598093032836914
35808, -0.5876740217208862, 3.679079055786133, -0.3856039345264435, -0.19918771088123322, 0.03312806785106659, -10.130887031555176, -0.5003630518913269, 0.08332889527082443, -0.6163372993469238, -0.8270325660705566, -0.9584488868713379, 0.05691196769475937, -0.37530721891764446, -0.19645831984618667, 2.1760551391278327, 9362.0, 30146.0, 35388.0, 9362.0, 8.350414276123047, 0.002981683472171426, -0.3545762598514557, -0.13212190568447113, 0.009361703880131245, -0.06666462868452072, 0.9985982775688171, -0.06822685152292252, -0.08439826965332031, 1.489013671875, 1.42822265625, 0.0726470947265625, 1.493408203125, 1.500732421875, 10.0, 1.0, 10.0, 1.4598093032836914
35818, -0.5886837244033813, 3.6784634590148926, -0.38692620396614075, -0.24122421443462372, 0.0401286706328392, -10.180337905883789, -0.55054771900177, 0.0916871652007103, -0.6199299097061157, -0.8270140290260315, -0.9584464430809021, 0.0569232776761055, -0.37976459383410793, -0.1924566581110696, 2.1816399838101983, 9362.0, 30146.0, 35388.0, 9362.0, 8.350414276123047, 0.03713085502386093, -0.03749546408653259, -0.33116552233695984, 0.009361703880131245, -0.06666462868452072, 0.9985982775688171, -0.06822685152292252, -0.08439826965332031, 1.489013671875, 1.42822265625, 0.0726470947265625, 1.493408203125, 1.500732421875, 10.0, 1.0, 10.0, 1.459833025932312
35838, -0.5882759094238281, 3.6802175045013428, -0.38848793506622314, -0.24122421443462372, 0.0401286706328392, -10.180337905883789, -0.55054771900177, 0.0916871652007103, -0.6199299097061157, -0.8270142674446106, -0.958453893661499, 0.05690411478281021, -0.3761315195840878, -0.1910240299009729, 2.1727614168516856, 9362.0, 30146.0, 35388.0, 9362.0, 8.350414276123047, 0.15518654882907867, -0.10406982153654099, -0.0390908382833004, 0.009591572917997837, -0.06325297057628632, 0.997897744178772, -0.06822685152292252, -0.08439826965332031, 1.489013671875, 1.470703125, 0.1399383544921875, 1.493408203125, 1.500732421875, 10.0, 1.0, 10.0, 1.4599337577819824
35858, -0.5864940285682678, 3.6836817264556885, -0.3886827230453491, -0.263747900724411, 0.043879952281713486, -10.205170631408691, -0.5756455659866333, 0.09587971121072769, -0.6215866208076477, -0.8270167708396912, -0.9584708213806152, 0.056929245591163635, -0.3668609186556796, -0.18959793714881812, 2.1738546928520575, 9362.0, 30146.0, 35388.0, 9362.0, 8.350414276123047, -0.3143746554851532, -0.18915098905563354, 0.052586864680051804, 0.009681223891675472, -0.06559400260448456, 0.9974012970924377, -0.06822685152292252, -0.08439826965332031, 1.489013671875, 1.470703125, 0.1399383544921875, 1.493408203125, 1.50732421875, 10.0, 1.0, 10.0, 1.4599337577819824
35868, -0.586534321308136, 3.684748888015747, -0.3874132037162781, -0.263747900724411, 0.043879952281713486, -10.205170631408691, -0.5756455659866333, 0.09587971121072769, -0.6215866208076477, -0.826712965965271, -0.9585651159286499, 0.05724991112947464, -0.48957684682135244, -0.11637266136304447, 2.3017324621629767, 9362.0, 30146.0, 35388.0, 9362.0, 8.350414276123047, -0.3143746554851532, -0.18915098905563354, 0.052586864680051804, 0.007687785662710667, -0.06592921167612076, 0.9964432716369629, -0.06822685152292252, -0.08439826965332031, 1.489013671875, 1.470703125, 0.1399383544921875, 1.493408203125, 1.48974609375, 10.0, 1.0, 10.0, 1.4596691131591797
35878, -0.5859491229057312, 3.682441234588623, -0.38775792717933655, -0.27538639307022095, 0.04581845551729202, -10.217611312866211, -0.5882017612457275, 0.09796923398971558, -0.622507631778717, -0.8270120024681091, -0.9584656357765198, 0.05693346634507179, -0.3688085028117407, -0.18079698265222532, 2.1721165689955817, 9362.0, 30146.0, 35388.0, 9362.0, 8.350414276123047, -0.051834795624017715, 0.07988761365413666, -0.059748586267232895, 0.005705150309950113, -0.06631170958280563, 0.9982175230979919, -0.06822685152292252, -0.08439826965332031, 1.489013671875, 1.470703125, 0.1399383544921875, 1.493408203125, 1.47216796875, 10.0, 1.0, 10.0, 1.4596691131591797
35888, -0.5873482823371887, 3.6816210746765137, -0.386209636926651, -0.27538639307022095, 0.04581845551729202, -10.217611312866211, -0.5882017612457275, 0.09796923398971558, -0.622507631778717, -0.8270227313041687, -0.9584559202194214, 0.056924350559711456, -0.37350902008367864, -0.19832187924214395, 2.159065229108505, 9362.0, 30146.0, 35388.0, 9362.0, 8.350414276123047, -0.051834795624017715, 0.07988761365413666, -0.059748586267232895, 0.008543209172785282, -0.06318861991167068, 0.9961626529693604, -0.06822685152292252, -0.08439826965332031, 1.489013671875, 1.470703125, 0.1399383544921875, 1.493408203125, 1.47216796875, 10.0, 1.0, 10.0, 1.4597986936569214
35908, -0.587056577205658, 3.6798481941223145, -0.38665905594825745, -0.27538639307022095, 0.04581845551729202, -10.217611312866211, -0.5882017612457275, 0.09796923398971558, -0.622507631778717, -0.826716423034668, -0.9585580825805664, 0.05722256004810333, -0.47815341860155985, -0.10480922258523151, 2.293483175123605, 9362.0, 30146.0, 35388.0, 9362.0, 8.350414276123047, -0.051834795624017715, 0.07988761365413666, -0.059748586267232895, 0.008974989876151085, -0.06504496186971664, 0.9960582256317139, -0.0788627564907074, -0.12023735046386719, 1.486083984375, 1.470703125, 0.1399383544921875, 1.49267578125, 1.47216796875, 10.0, 1.0, 10.0, 1.460022211074829
35918, -0.587856650352478, 3.6805944442749023, -0.38721102476119995, -0.2994164228439331, 0.04982070252299309, -10.2425537109375, -0.6132861971855164, 0.10214381664991379, -0.6247437596321106, -0.8270256519317627, -0.9584512710571289, 0.05693831294775009, -0.37797389054589176, -0.1900007520709437, 2.1667663732098332, 9362.0, 30146.0, 35388.0, 9362.0, 8.350414276123047, -0.051834795624017715, 0.07988761365413666, -0.059748586267232895, 0.007968240417540073, -0.06320817768573761, 0.9971571564674377, -0.0788627564907074, -0.12023735046386719, 1.486083984375, 1.470703125, 0.1399383544921875, 1.49267578125, 1.51611328125, 10.0, 1.0, 10.0, 1.4600906372070312
35928, -0.5876609086990356, 3.6786556243896484, -0.3861444294452667, -0.30558061599731445, 0.050847362726926804, -10.248804092407227, -0.6195554137229919, 0.10318819433450699, -0.6252573132514954, -0.8267143368721008, -0.9585881233215332, 0.05725643038749695, -0.47640748636237706, -0.09813676358885459, 2.2820044272733924, 9362.0, 30146.0, 35388.0, 9362.0, 8.350414276123047, 0.1257612109184265, 0.13564594089984894, -0.1497098207473755, 0.007811032701283693, -0.0632299929857254, 0.9956358075141907, -0.0788627564907074, -0.12023735046386719, 1.486083984375, 1.470703125, 0.1399383544921875, 1.49267578125, 1.51611328125, 10.0, 1.0, 10.0, 1.4600906372070312
35938, -0.5864936113357544, 3.6781177520751953, -0.38635897636413574, -0.30558061599731445, 0.050847362726926804, -10.248804092407227, -0.6195554137229919, 0.10318819433450699, -0.6252573132514954, -0.8270072340965271, -0.9584642648696899, 0.05694085359573364, -0.37076840814561535, -0.18949762744557574, 2.1754491410498455, 9362.0, 30146.0, 35388.0, 9362.0, 8.350414276123047, -0.14880621433258057, 0.020374024286866188, 0.08315801620483398, 0.00928869005292654, -0.06480102241039276, 0.9965052008628845, -0.0788627564907074, -0.12023735046386719, 1.486083984375, 1.470703125, 0.1399383544921875, 1.49267578125, 1.471435546875, 10.0, 1.0, 10.0, 1.4600906372070312
35948, -0.5864787697792053, 3.679370164871216, -0.3847547173500061, -0.30558061599731445, 0.050847362726926804, -10.248804092407227, -0.6195554137229919, 0.10318819433450699, -0.6252573132514954, -0.8270171880722046, -0.9584556818008423, 0.05692220479249954, -0.374033368621434, -0.1983050655593388, 2.175183841331324, 9362.0, 30146.0, 35388.0, 9362.0, 8.350414276123047, 0.04643913358449936, -0.025512542575597763, 0.21055489778518677, 0.00928869005292654, -0.06480102241039276, 0.9965052008628845, -0.0788627564907074, -0.12023735046386719, 1.486083984375, 1.470703125, 0.1399383544921875, 1.49267578125, 1.471435546875, 10.0, 1.0, 10.0, 1.4603590965270996
35958, -0.5872619152069092, 3.6811764240264893, -0.38316866755485535, -0.32444924116134644, 0.05399002134799957, -10.267586708068848, -0.6383504867553711, 0.10632072389125824, -0.6269379258155823, -0.826717734336853, -0.9585566520690918, 0.057202037423849106, -0.48892753577503406, -0.09542197370325312, 2.307743082582989, 9362.0, 30146.0, 35388.0, 9362.0, 8.350414276123047, 0.04643913358449936, -0.025512542575597763, 0.21055489778518677, 0.009673744440078735, -0.06322798132896423, 0.996941864490509, -0.0788627564907074, -0.12023735046386719, 1.486083984375, 1.470703125, 0.1399383544921875, 1.49267578125, 1.471435546875, 10.0, 1.0, 10.0, 1.4603590965270996
