timeTick, roll, pitch, yaw, stateX, stateY, stateZ, stateVX, stateVY, stateVZ, otX0, otY0, otZ0, otRoll0, otPitch0, otYaw0, left wing, pitch motor, yaw motor, right wing, voltage, roll rate, pitch rate, yaw rate, A_x, A_y, A_z, current, i_raw, v_raw, airflow_voltage, airflow_speed, pot_Pitch, voltage_nKF, kFFx, state_vel, State_vel, volt_KF_vel
13716, -1.8291196823120117, -3.325218439102173, 0.5589938163757324, 0, 0, 0, 0, 0, 0, -0.8320271372795105, -0.9622931480407715, 0.05625734105706215, 0.15340538655214447, -0.2590643456774444, 7.512746707148726, 0, 0, 0, 0, 0, 0, 0, 0, 0, 0, 0, 0, 0, 0, 0, 0, 0, 0, 0, 0, 0, 0
13726, -1.8296067714691162, -3.324066638946533, 0.5603612661361694, -0.0001801771140890196, -0.00010157833457924426, -1.5387728214263916, -0.0033618586603552103, -0.0018961242167279124, -0.25440317392349243, -0.8320371508598328, -0.9622980356216431, 0.05627137050032616, 0.16020334151069943, -0.2564360130547527, 7.508755177610391, 9362.0, 30146.0, 35388.0, 9362.0, 0, -0.006206871476024389, -0.1893339455127716, 0.28655239939689636, -0.0024452130310237408, -0.056300703436136246, 0.9990097880363464, 0, 0, 0, 0, 0, 0, 0, 0, 0, 0, 0
13736, -1.8299000263214111, -3.3239574432373047, 0.5609092116355896, -0.0001855816226452589, -0.00010464510705787688, -1.5413191318511963, 0.002280886285007, 0.0012829020852223039, -0.25485336780548096, -0.8320205807685852, -0.9622809886932373, 0.05629008263349533, 0.16350329633009886, -0.25864204974652694, 7.512972886379915, 9362.0, 30146.0, 35388.0, 9362.0, 0, -0.1504593789577484, 0.00279269739985466, 0.1653057336807251, -0.0026382545474916697, -0.05445226654410362, 0.9983871579170227, 0, 0, 0, 1.005615234375, 2.859588623046875, 0, 1.6259765625, 10.0, 1.0, 10.0, 1.46144437789917
13746, -1.830036997795105, -3.3247718811035156, 0.562223494052887, -0.00013453408610075712, -7.589723099954426e-05, -1.5438692569732666, 0.007928594946861267, 0.004466729238629341, -0.2551828920841217, -0.8320253491401672, -0.9622846245765686, 0.05625704675912857, 0.14965851615957376, -0.2592684775289058, 7.508325164257192, 9362.0, 30146.0, 35388.0, 9362.0, 0, -0.1405642330646515, -0.22847458720207214, 0.09689109772443771, -0.002607906237244606, -0.053394634276628494, 0.9991479516029358, 0, 0, 0, 1.66845703125, 0.5852813720703125, 1.49267578125, 1.212158203125, 10.0, 1.0, 10.0, 1.4596742391586304
13756, -1.830732822418213, -3.3247435092926025, 0.5625969767570496, -2.7020978450309485e-05, -1.5314188203774393e-05, -1.5464229583740234, 0.013573952950537205, 0.007650010287761688, -0.2555485665798187, -0.8320393562316895, -0.9622998237609863, 0.05627843365073204, 0.1605409793648351, -0.2516646444342143, 7.515402926004002, 9362.0, 30146.0, 35388.0, 9362.0, 0, 0.03872176632285118, 0.3357667922973633, 0.208444282412529, -0.004250724799931049, -0.05522969737648964, 1.001253366470337, 0, 0, 0, 1.617919921875, 0.4600677490234375, 1.49267578125, 1.59814453125, 10.0, 1.0, 10.0, 1.4582473039627075
13766, -1.8297626972198486, -3.326478958129883, 0.5638798475265503, 0.00013699207920581102, 7.712598744546995e-05, -1.548979640007019, 0.019228635355830193, 0.010838063433766365, -0.2557764947414398, -0.8320264220237732, -0.9622896909713745, 0.05627494305372238, 0.160738956606958, -0.2564017125203293, 7.512076885936188, 9362.0, 30146.0, 35388.0, 9362.0, 0, 0.05170808359980583, -0.026558618992567062, 0.09235961735248566, -0.004247867036610842, -0.052724603563547134, 1.0006455183029175, 0, 0, 0, 1.62451171875, 0.475982666015625, 1.494873046875, 1.22314453125, 10.0, 1.0, 10.0, 1.456337809562683
13776, -1.8298112154006958, -3.328218936920166, 0.56505286693573, 0.00035758630838245153, 0.0002014724595937878, -1.5515379905700684, 0.024890143424272537, 0.01403135247528553, -0.2558840811252594, -0.8320322632789612, -0.9622824192047119, 0.05623432621359825, 0.15378108150663902, -0.25191329999100276, 7.514948293213661, 9362.0, 30146.0, 35388.0, 9362.0, 0, -0.08272925019264221, 0.43625423312187195, 0.37671804428100586, -0.0015215426683425903, -0.05448266491293907, 0.9980969429016113, 0, 0, 0, 1.4150390625, 0.05596923828125, 1.494873046875, 1.716796875, 10.0, 1.0, 10.0, 1.457192301750183
13786, -1.8297126293182373, -3.32853364944458, 0.5658870935440063, 0.0006347781745716929, 0.0003577262395992875, -1.5540978908538818, 0.03054816462099552, 0.01721951737999916, -0.25610271096229553, -0.8320246338844299, -0.9623042941093445, 0.056261707097291946, 0.15947863914784793, -0.2674083312342077, 7.501490524790321, 9362.0, 30146.0, 35388.0, 9362.0, 0, -0.14104032516479492, 0.12392222136259079, -0.014376486651599407, -0.0022199824452400208, -0.0535118542611599, 0.9962173104286194, 0, 0, 0, 1.361572265625, 0.016571044921875, 1.49560546875, 1.55712890625, 10.0, 1.0, 10.0, 1.4567298889160156
13796, -1.8297768831253052, -3.329169273376465, 0.5655055642127991, 0.000968504580669105, 0.0005458289524540305, -1.5566610097885132, 0.03619707375764847, 0.02040109783411026, -0.25652945041656494, -0.8320340514183044, -0.9622899889945984, 0.05627046898007393, 0.16237724138560258, -0.24654053999790904, 7.506737943688273, 9362.0, 30146.0, 35388.0, 9362.0, 0, 0.18641215562820435, -0.25246497988700867, -0.14740781486034393, -0.002806131960824132, -0.05420148745179176, 0.997967004776001, 0, 0, 0, 1.271484375, 0.1027679443359375, 1.49560546875, 1.4853515625, 10.0, 1.0, 10.0, 1.455891728401184
13806, -1.8303323984146118, -3.3304383754730225, 0.5666454434394836, 0.001358682056888938, 0.0007657242240384221, -1.5592291355133057, 0.04183844476938248, 0.023577921092510223, -0.2570963501930237, -0.832022488117218, -0.9623034000396729, 0.056273285299539566, 0.16821199927898894, -0.26049185555118015, 7.51287183606075, 9362.0, 30146.0, 35388.0, 9362.0, 0, 0.08064112067222595, 0.039811111986637115, 0.1195671334862709, -0.001995077123865485, -0.05082956328988075, 0.9997559785842896, 0, 0, 0, 1.55712890625, 0.31793212890625, 1.49560546875, 1.3447265625, 10.0, 1.0, 10.0, 1.4568402767181396
13816, -1.829480528831482, -3.3315322399139404, 0.5681582093238831, 0.0018053306266665459, 0.0010174172930419445, -1.5618020296096802, 0.04749118164181709, 0.026760809123516083, -0.2574842572212219, -0.8320404291152954, -0.9623003602027893, 0.05627777799963951, 0.15849559304068225, -0.2509105145838646, 7.520550560602298, 9362.0, 30146.0, 35388.0, 9362.0, 8.152067184448242, -0.03833649307489395, 0.05870439484715462, 0.13518325984477997, -0.003065736498683691, -0.05143964663147926, 0.9983118772506714, -0.06263437122106552, -0.0037593841552734375, 1.49560546875, 1.3916015625, 0.0325927734375, 1.49560546875, 1.606201171875, 10.0, 1.0, 10.0, 1.45717191696167
13826, -1.8297048807144165, -3.3309683799743652, 0.5655999183654785, 0.002308550989255309, 0.001300963805988431, -1.564378261566162, 0.053152795881032944, 0.029948638752102852, -0.2577548623085022, -0.8320314884185791, -0.9622781276702881, 0.056263841688632965, 0.15548403860042811, -0.24939481998501378, 7.513588860946952, 9362.0, 30146.0, 35388.0, 9362.0, 8.152067184448242, 0.04531646892428398, -0.006053756922483444, -0.21704737842082977, -0.00357032404281199, -0.053135357797145844, 0.9999712109565735, -0.06263437122106552, -0.0037593841552734375, 1.49560546875, 1.72119140625, 0.726104736328125, 1.494140625, 1.144775390625, 10.0, 1.0, 10.0, 1.4563663005828857
13836, -1.829656720161438, -3.330502510070801, 0.5658067464828491, 0.002868377137929201, 0.0016163712134584785, -1.5669574737548828, 0.05881256237626076, 0.03313259780406952, -0.25809240341186523, -0.8320316672325134, -0.9622937440872192, 0.056270748376846313, 0.15444948989084167, -0.25392659630807657, 7.505016109817887, 9362.0, 30146.0, 35388.0, 9362.0, 8.152067184448242, -0.05243155360221863, 0.10694947838783264, 0.2174111306667328, -0.004520644899457693, -0.05298273265361786, 0.9991976022720337, -0.06263437122106552, -0.0037593841552734375, 1.49560546875, 1.74609375, 0.7981414794921875, 1.494140625, 1.681640625, 10.0, 1.0, 10.0, 1.4554297924041748
13846, -1.8303672075271606, -3.3317182064056396, 0.566105842590332, 0.0034848367795348167, 0.001963641494512558, -1.5695394277572632, 0.06447937339544296, 0.03632146492600441, -0.2582913935184479, -0.8320252299308777, -0.9621798992156982, 0.05611070990562439, 0.1444894994405751, -0.20588303636461092, 7.426263179729235, 9362.0, 30146.0, 35388.0, 9362.0, 8.152067184448242, 0.06361155956983566, -0.20948266983032227, -0.08648005872964859, -0.005663829855620861, -0.0535205602645874, 0.9987236261367798, -0.06263437122106552, -0.0037593841552734375, 1.49560546875, 1.6435546875, 0.5228118896484375, 1.496337890625, 1.56005859375, 10.0, 1.0, 10.0, 1.4544010162353516
13856, -1.8287266492843628, -3.331705093383789, 0.5665172338485718, 0.0041579073294997215, 0.0023427701089531183, -1.5721242427825928, 0.07013469934463501, 0.039504274725914, -0.2586744427680969, -0.8320243954658508, -0.9622835516929626, 0.05627765879034996, 0.15783982387837323, -0.25767566131401054, 7.508654374812208, 9362.0, 30146.0, 35388.0, 9362.0, 8.152067184448242, 0.09717132896184921, -0.07692726701498032, 0.19696365296840668, -0.0019631374161690474, -0.053628675639629364, 0.9998753666877747, -0.06263437122106552, -0.0037593841552734375, 1.49560546875, 1.09423828125, 1.340240478515625, 1.496337890625, 1.70947265625, 10.0, 1.0, 10.0, 1.455250859260559
13866, -1.829315185546875, -3.330066204071045, 0.5677928924560547, 0.004887565970420837, 0.0027537469286471605, -1.5747125148773193, 0.07579703629016876, 0.042691148817539215, -0.25897207856178284, -0.8320305347442627, -0.9622878432273865, 0.05625227466225624, 0.16296551713424942, -0.2493440030830527, 7.512774656189691, 9362.0, 30146.0, 35388.0, 9362.0, 8.152067184448242, 0.12200552225112915, 0.0627024918794632, 0.10450159013271332, -0.0039377594366669655, -0.054145507514476776, 1.0000782012939453, -0.06263437122106552, -0.0037593841552734375, 1.49560546875, 1.699951171875, 0.6678619384765625, 1.490478515625, 1.27001953125, 10.0, 1.0, 10.0, 1.4555611610412598
13876, -1.8281792402267456, -3.3282787799835205, 0.5668876767158508, 0.005673874169588089, 0.0031965933740139008, -1.5773032903671265, 0.08146453648805618, 0.04587827995419502, -0.259179025888443, -0.8320388793945312, -0.9622901678085327, 0.05625452101230621, 0.15304277049200724, -0.25296216690185247, 7.521166428065435, 9362.0, 30146.0, 35388.0, 9362.0, 8.152067184448242, 0.1565590351819992, -0.061006154865026474, -0.1752903312444687, -0.002615163801237941, -0.05361036956310272, 0.9991308450698853, -0.06263437122106552, -0.0037593841552734375, 1.49560546875, 1.365966796875, 0.017791748046875, 1.490478515625, 1.71533203125, 10.0, 1.0, 10.0, 1.4561302661895752
13886, -1.8300461769104004, -3.3256442546844482, 0.5665268898010254, 0.006516842637211084, 0.0036713166628032923, -1.579896092414856, 0.08712920546531677, 0.04906626418232918, -0.2593871057033539, -0.8317713737487793, -0.9624695777893066, 0.0564710907638073, 0.32917778352809524, -0.42870684220119415, 7.433736479615868, 9362.0, 30146.0, 35388.0, 9362.0, 8.152067184448242, 0.0072507052682340145, -0.4823361337184906, -0.06783692538738251, -0.0007848668028600514, -0.05206693336367607, 0.9989994168281555, -0.06263437122106552, -0.0037593841552734375, 1.49560546875, 1.36669921875, 0.01806640625, 1.491943359375, 1.323486328125, 10.0, 1.0, 10.0, 1.4566688537597656
13896, -1.8299206495285034, -3.322117805480957, 0.5642057061195374, 0.007416414096951485, 0.004177893046289682, -1.5824915170669556, 0.09278512746095657, 0.0522490069270134, -0.25969457626342773, -0.8320343494415283, -0.9622865319252014, 0.056262996047735214, 0.15797264754827586, -0.26028998904635614, 7.504861962075397, 9362.0, 30146.0, 35388.0, 9362.0, 8.152067184448242, -0.08404712378978729, 0.3515985310077667, -0.09325698018074036, -0.0017778860637918115, -0.05321596935391426, 1.0002866983413696, -0.06263437122106552, -0.0037593841552734375, 1.49560546875, 1.644287109375, 0.524505615234375, 1.491943359375, 1.685302734375, 10.0, 1.0, 10.0, 1.4551842212677002
13906, -1.8303636312484741, -3.3240623474121094, 0.565331220626831, 0.008372524753212929, 0.004716313909739256, -1.585089921951294, 0.09843706339597702, 0.055434901267290115, -0.2599942982196808, -0.832035481929779, -0.9623019099235535, 0.05627822130918503, 0.15241523363943343, -0.2541780240149478, 7.514204856725861, 9362.0, 30146.0, 35388.0, 9362.0, 8.152067184448242, -0.1834193468093872, 0.11153766512870789, -0.11639897525310516, -0.0031492768321186304, -0.05388093367218971, 0.9997094869613647, -0.06263437122106552, -0.0037593841552734375, 1.49560546875, 1.646484375, 0.5300445556640625, 1.490478515625, 1.00634765625, 10.0, 1.0, 10.0, 1.454646110534668
13916, -1.8313462734222412, -3.3253097534179688, 0.56419438123703, 0.009385162964463234, 0.005286612547934055, -1.5876907110214233, 0.10409045964479446, 0.05862489715218544, -0.2601630985736847, -0.8320430517196655, -0.9622889757156372, 0.0562523752450943, 0.15768563627314097, -0.26518534934132276, 7.508309978219075, 9362.0, 30146.0, 35388.0, 9362.0, 8.152067184448242, 0.06694308668375015, 0.1341772973537445, 0.00355538004077971, -0.003443322377279401, -0.052126139402389526, 0.997669517993927, -0.0751715674996376, -0.31735801696777344, 1.469970703125, 1.083984375, 1.4775848388671875, 1.490478515625, 0.941162109375, 10.0, 1.0, 10.0, 1.4555132389068604
13926, -1.831795573234558, -3.325079917907715, 0.564530074596405, 0.010454296134412289, 0.005888784304261208, -1.5902941226959229, 0.10973627120256424, 0.06180938333272934, -0.26052212715148926, -0.8320288062095642, -0.962281346321106, 0.056269727647304535, 0.15094044477777885, -0.24905024195359715, 7.502499887315617, 9362.0, 30146.0, 35388.0, 9362.0, 8.152067184448242, -0.2228594869375229, -0.1806887984275818, 0.2350381761789322, -0.002921694191172719, -0.05227454751729965, 0.9970291256904602, -0.0751715674996376, -0.31735801696777344, 1.469970703125, 1.39306640625, 0.0337982177734375, 1.49267578125, 1.67724609375, 10.0, 1.0, 10.0, 1.4561986923217773
13936, -1.8321274518966675, -3.3286519050598145, 0.5663643479347229, 0.011579858139157295, 0.00652278633788228, -1.5929018259048462, 0.11537600308656693, 0.06499100476503372, -0.26102226972579956, -0.8320291042327881, -0.9622806310653687, 0.05624254420399666, 0.15245646000256063, -0.25499811511190273, 7.517885243446158, 9362.0, 30146.0, 35388.0, 9362.0, 8.152067184448242, -0.13850554823875427, 0.2945060133934021, -0.01705251634120941, -0.003843914018943906, -0.04973691329360008, 1.0016895532608032, -0.0751715674996376, -0.31735801696777344, 1.469970703125, 1.406982421875, 0.046966552734375, 1.49267578125, 1.50146484375, 10.0, 1.0, 10.0, 1.4567793607711792
13946, -1.8324846029281616, -3.330338716506958, 0.5636074542999268, 0.012761866673827171, 0.007188637740910053, -1.5955137014389038, 0.1210256814956665, 0.06817946583032608, -0.26134204864501953, -0.8320276737213135, -0.9622905254364014, 0.05626167729496956, 0.16100688020385148, -0.25891224735127594, 7.512050608493438, 9362.0, 30146.0, 35388.0, 9362.0, 8.152067184448242, -0.07447004318237305, 0.10287045687437057, 0.14981375634670258, -0.002439116360619664, -0.05370413139462471, 0.9981989860534668, -0.0751715674996376, -0.31735801696777344, 1.469970703125, 0.9755859375, 3.5675811767578125, 1.494140625, 1.694091796875, 10.0, 1.0, 10.0, 1.4576176404953003
13956, -1.8331336975097656, -3.332653522491455, 0.5662004947662354, 0.014000440947711468, 0.007886399514973164, -1.598128080368042, 0.1266893446445465, 0.07137264311313629, -0.2615284025669098, -0.8320266604423523, -0.9622718095779419, 0.05625029280781746, 0.15207169371801982, -0.2616414882932929, 7.514153564609952, 9362.0, 30146.0, 35388.0, 9362.0, 8.152067184448242, -0.16031022369861603, 0.11349642276763916, 0.08691295981407166, -0.002449351130053401, -0.05553765594959259, 0.99729984998703, -0.0751715674996376, -0.31735801696777344, 1.469970703125, 1.27880859375, 0.086212158203125, 1.494140625, 1.20703125, 10.0, 1.0, 10.0, 1.457760214805603
13966, -1.8343037366867065, -3.3339409828186035, 0.5674509406089783, 0.015295600518584251, 0.00861605815589428, -1.600745439529419, 0.13234253227710724, 0.0745592787861824, -0.2619427442550659, -0.8320428133010864, -0.9622806906700134, 0.056245673447847366, 0.15602565972256316, -0.2611971420739394, 7.514438700373205, 9362.0, 30146.0, 35388.0, 9362.0, 8.152067184448242, 0.028602788224816322, 0.35111263394355774, 0.13683126866817474, -0.003512520808726549, -0.05539148300886154, 0.998866617679596, -0.0751715674996376, -0.31735801696777344, 1.469970703125, 1.7109375, 0.6976776123046875, 1.49267578125, 1.71826171875, 10.0, 1.0, 10.0, 1.4579212665557861
13976, -1.835376262664795, -3.3365254402160645, 0.5697242021560669, 0.01664729230105877, 0.00937757920473814, -1.6033673286437988, 0.13799573481082916, 0.07774502038955688, -0.262423574924469, -0.8320174813270569, -0.9623002409934998, 0.05626589432358742, 0.1636144647905537, -0.24797031462048835, 7.5137347075966145, 9362.0, 30146.0, 35388.0, 9362.0, 8.152067184448242, -0.03417659178376198, -0.20472297072410583, 0.09431134909391403, -0.0036062647122889757, -0.0551699697971344, 0.9992879033088684, -0.0751715674996376, -0.31735801696777344, 1.469970703125, 1.509521484375, 0.2148895263671875, 1.49267578125, 1.664794921875, 10.0, 1.0, 10.0, 1.4559277296066284
13986, -1.8354721069335938, -3.333282470703125, 0.5700444579124451, 0.018055586144328117, 0.01017100177705288, -1.6059929132461548, 0.14366300404071808, 0.08093977719545364, -0.26269736886024475, -0.8320320248603821, -0.9622870683670044, 0.056285012513399124, 0.1604318420162513, -0.25391051576858104, 7.5074101285165336, 9362.0, 30146.0, 35388.0, 9362.0, 8.152067184448242, 0.16521066427230835, 0.28234565258026123, 0.0665232241153717, -0.0012079679872840643, -0.054484546184539795, 0.9975136518478394, -0.0751715674996376, -0.31735801696777344, 1.469970703125, 1.5966796875, 0.409210205078125, 1.490478515625, 1.6259765625, 10.0, 1.0, 10.0, 1.4543431997299194
13996, -1.834952473640442, -3.3341853618621826, 0.5686250925064087, 0.01952056586742401, 0.010996377095580101, -1.6086214780807495, 0.14933277666568756, 0.08413537591695786, -0.2630038261413574, -0.8320160508155823, -0.9622988700866699, 0.05623803660273552, 0.1560769897619395, -0.25901424312800714, 7.512001077494503, 9362.0, 30146.0, 35388.0, 9362.0, 8.152067184448242, -0.036345064640045166, 0.10526730865240097, -0.09580069035291672, -0.0027167056687176228, -0.054835300892591476, 0.9956136345863342, -0.0751715674996376, -0.31735801696777344, 1.469970703125, 0.933837890625, 4.7445220947265625, 1.490478515625, 1.579833984375, 10.0, 1.0, 10.0, 1.4552196264266968
14006, -1.835284948348999, -3.3372840881347656, 0.5690117478370667, 0.021042145788669586, 0.011853670701384544, -1.6112542152404785, 0.15498346090316772, 0.08732327818870544, -0.26354503631591797, -0.8320420384407043, -0.9622781872749329, 0.056272316724061966, 0.1500112356771975, -0.2485140091802407, 7.517561674108339, 9362.0, 30146.0, 35388.0, 9362.0, 8.152067184448242, -0.09426213800907135, 0.3980800211429596, 0.21550127863883972, -0.0036957995034754276, -0.0537768118083477, 0.9971807599067688, -0.0751715674996376, -0.31735801696777344, 1.469970703125, 0.98291015625, 3.3847503662109375, 1.48828125, 1.121337890625, 10.0, 1.0, 10.0, 1.4552009105682373
14016, -1.833971619606018, -3.3385138511657715, 0.5712530612945557, 0.022620225325226784, 0.012742829509079456, -1.613892674446106, 0.16063252091407776, 0.09050856530666351, -0.2641405165195465, -0.8320236206054688, -0.96229487657547, 0.056269850581884384, 0.15876599981421652, -0.25980312802388994, 7.512948296935489, 9362.0, 30146.0, 35388.0, 9362.0, 8.152067184448242, 0.13555370271205902, -0.07902269810438156, -0.012698067352175713, -0.004346650093793869, -0.05443320423364639, 0.9992286562919617, -0.08319728076457977, -0.05751800537109375, 1.4912109375, 1.680908203125, 0.6174774169921875, 1.48828125, 1.15283203125, 10.0, 1.0, 10.0, 1.4557554721832275
14026, -1.83328115940094, -3.337930202484131, 0.5717368721961975, 0.024254867807030678, 0.01366387028247118, -1.616536259651184, 0.16629596054553986, 0.09369990229606628, -0.26457732915878296, -0.8320371508598328, -0.9622799754142761, 0.056269753724336624, 0.16086723262054187, -0.26473481254797093, 7.522286549435241, 9362.0, 30146.0, 35388.0, 9362.0, 8.152067184448242, -0.09256844222545624, -0.0402132123708725, 0.0169605053961277, -0.004746805876493454, -0.05329503118991852, 0.9999210238456726, -0.08319728076457977, -0.05751800537109375, 1.4912109375, 1.64794921875, 0.533660888671875, 1.494873046875, 1.644287109375, 10.0, 1.0, 10.0, 1.4545389413833618
14046, -1.8329787254333496, -3.3369081020355225, 0.5728080868721008, 0.027694271877408028, 0.015601746737957, -1.6218334436416626, 0.17764927446842194, 0.10009002685546875, -0.26505130529403687, -0.8320331573486328, -0.9622887969017029, 0.05628378316760063, 0.15602320795995525, -0.245093914304789, 7.519978436391698, 9362.0, 30146.0, 35388.0, 9362.0, 8.152067184448242, 0.14005254209041595, 0.28677260875701904, 0.11080223321914673, -0.002717304974794388, -0.053023096174001694, 0.9992241859436035, -0.08319728076457977, -0.05751800537109375, 1.4912109375, 1.64794921875, 0.533660888671875, 1.496337890625, 1.699951171875, 10.0, 1.0, 10.0, 1.4545389413833618
14056, -1.8321495056152344, -3.336571455001831, 0.5733358263969421, 0.02949906885623932, 0.016618579626083374, -1.6244862079620361, 0.18331000208854675, 0.10327661782503128, -0.265505313873291, -0.8317834734916687, -0.9624708890914917, 0.056483518332242966, 0.3344622164417364, -0.41979961797022725, 7.432749941071009, 9362.0, 30146.0, 35388.0, 9362.0, 8.152067184448242, -0.037106018513441086, -0.13125082850456238, -0.12766234576702118, -0.002717304974794388, -0.053023096174001694, 0.9992241859436035, -0.08319728076457977, -0.05751800537109375, 1.4912109375, 1.64794921875, 0.533660888671875, 1.496337890625, 1.699951171875, 10.0, 1.0, 10.0, 1.4545389413833618
14076, -1.8311434984207153, -3.341237783432007, 0.5742371082305908, 0.0332784578204155, 0.01874782145023346, -1.6298061609268188, 0.19463187456130981, 0.10964848846197128, -0.2664322555065155, -0.8320357203483582, -0.9621515274047852, 0.0561104416847229, 0.13408707612109577, -0.20270321189667584, 7.426231882655468, 9362.0, 30146.0, 35388.0, 9362.0, 8.152067184448242, -0.18038851022720337, 0.5419880747795105, 0.3321181535720825, -0.004102036356925964, -0.05166352540254593, 0.9994460344314575, -0.08319728076457977, -0.05751800537109375, 1.4912109375, 1.64794921875, 0.533660888671875, 1.490478515625, 1.1220703125, 10.0, 1.0, 10.0, 1.4564311504364014
14096, -1.8299967050552368, -3.340555191040039, 0.5744494795799255, 0.03728455305099487, 0.021004557609558105, -1.6351412534713745, 0.2059788554906845, 0.11602459102869034, -0.2671012580394745, -0.8320528864860535, -0.9622881412506104, 0.056249234825372696, 0.15423300069679252, -0.25509544991706434, 7.518386042507139, 9362.0, 30146.0, 35388.0, 9362.0, 8.152067184448242, -0.18038851022720337, 0.5419880747795105, 0.3321181535720825, -0.002607378177344799, -0.05384253337979317, 0.9967471957206726, -0.08319728076457977, -0.05751800537109375, 1.4912109375, 1.64794921875, 0.533660888671875, 1.491943359375, 0.9873046875, 10.0, 1.0, 10.0, 1.4567395448684692
14166, -1.8278506994247437, -3.3375468254089355, 0.5749772191047668, 0.0530923455953598, 0.02990633063018322, -1.6539288759231567, 0.2456687092781067, 0.13830532133579254, -0.2696389853954315, -0.8320236206054688, -0.9621804356575012, 0.05612509325146675, 0.14193352420112612, -0.19783447761903972, 7.435904919009933, 9362.0, 30146.0, 35388.0, 9362.0, 8.152067184448242, 0.031163686886429787, -0.12231140583753586, -0.07434748858213425, -0.00497701158747077, -0.05264075845479965, 0.9984888434410095, -0.0659961849451065, 0.03208160400390625, 1.49853515625, 1.64794921875, 0.533660888671875, 1.49267578125, 1.728515625, 10.0, 1.0, 10.0, 1.4545903205871582
14186, -1.8261544704437256, -3.3391644954681396, 0.5755212903022766, 0.05811915546655655, 0.03273608535528183, -1.6593284606933594, 0.25701239705085754, 0.14467108249664307, -0.270290732383728, -0.8320337533950806, -0.962276041507721, 0.05621718615293503, 0.1515578325181366, -0.25089084599486, 7.520468612694903, 9362.0, 30146.0, 35388.0, 9362.0, 8.152067184448242, 0.11603975296020508, 0.3175342082977295, 0.06282863020896912, -0.00497701158747077, -0.05264075845479965, 0.9984888434410095, -0.0659961849451065, 0.03208160400390625, 1.49853515625, 1.64794921875, 0.533660888671875, 1.49267578125, 1.727783203125, 10.0, 1.0, 10.0, 1.4545903205871582
14226, -1.8286620378494263, -3.3451504707336426, 0.5781614184379578, 0.06885352730751038, 0.03877731040120125, -1.6701668500900269, 0.2797035872936249, 0.1573854386806488, -0.27177563309669495, -0.8320316672325134, -0.9622793793678284, 0.05624416470527649, 0.15793907737515814, -0.2599330444625423, 7.5144305652568, 9362.0, 30146.0, 35388.0, 9362.0, 8.152067184448242, 0.11042553186416626, 0.2960059642791748, -0.3185847997665405, -0.004434810485690832, -0.05248377472162247, 0.9978553056716919, -0.08051873743534088, -0.10231781005859375, 1.487548828125, 1.64794921875, 0.533660888671875, 1.493408203125, 1.42822265625, 10.0, 1.0, 10.0, 1.457162618637085
14246, -1.827060341835022, -3.345616579055786, 0.5770938992500305, 0.07456117123365402, 0.041988618671894073, -1.6756107807159424, 0.2910573184490204, 0.1637444645166397, -0.2726588547229767, -0.8320465683937073, -0.962283194065094, 0.05624065548181534, 0.1511358432596877, -0.2537082790057923, 7.520842465341888, 9362.0, 30146.0, 35388.0, 9362.0, 8.152067184448242, 0.03180604800581932, 0.10912104696035385, -0.05500863492488861, -0.004434810485690832, -0.05248377472162247, 0.9978553056716919, -0.08051873743534088, -0.10231781005859375, 1.487548828125, 1.64794921875, 0.533660888671875, 1.493408203125, 1.3974609375, 10.0, 1.0, 10.0, 1.457162618637085
14276, -1.8270853757858276, -3.3460733890533447, 0.5740033388137817, 0.08354820311069489, 0.04704385995864868, -1.6838141679763794, 0.3080889582633972, 0.17327801883220673, -0.27404889464378357, -0.8320218920707703, -0.962274968624115, 0.05624452233314514, 0.16027420884597998, -0.25975713834048975, 7.509281262825239, 9362.0, 30146.0, 35388.0, 9362.0, 8.152067184448242, -0.23758293688297272, -0.12806840240955353, 0.05592922866344452, -0.003936604131013155, -0.05422002449631691, 1.0006515979766846, -0.08051873743534088, -0.10231781005859375, 1.487548828125, 1.64794921875, 0.533660888671875, 1.48974609375, 1.02685546875, 10.0, 1.0, 10.0, 1.4585208892822266
14306, -1.8276597261428833, -3.346222162246704, 0.5753210783004761, 0.09304723143577576, 0.05238564684987068, -1.6920427083969116, 0.3251829445362091, 0.18284377455711365, -0.2744087874889374, -0.8320409655570984, -0.9622827172279358, 0.05623694509267807, 0.15835312444547642, -0.24300777490336145, 7.519871951451, 9362.0, 30146.0, 35388.0, 9362.0, 8.152067184448242, -0.16017816960811615, 0.10226856172084808, 0.44824665784835815, -0.0017506459262222052, -0.05216417834162712, 1.002049207687378, -0.08051873743534088, -0.10231781005859375, 1.487548828125, 1.532958984375, 0.2644195556640625, 1.491943359375, 1.65673828125, 10.0, 1.0, 10.0, 1.458217978477478
14346, -1.827799677848816, -3.34447979927063, 0.580984354019165, 0.1065092533826828, 0.059954021126031876, -1.7030442953109741, 0.3479071259498596, 0.19557078182697296, -0.2757878005504608, -0.832038164138794, -0.9622846841812134, 0.056238848716020584, 0.1562399755526, -0.24960315406465838, 7.505546774768291, 9362.0, 30146.0, 35388.0, 9362.0, 8.152067184448242, 0.21738950908184052, 0.6006951332092285, 0.45551496744155884, -0.004080219194293022, -0.054558102041482925, 0.9983004331588745, -0.08051873743534088, -0.10231781005859375, 1.487548828125, 1.532958984375, 0.2644195556640625, 1.49267578125, 1.721923828125, 10.0, 1.0, 10.0, 1.4587821960449219
14366, -1.8265745639801025, -3.347576379776001, 0.5828996896743774, 0.11358112096786499, 0.06392917037010193, -1.7085645198822021, 0.35928574204444885, 0.20194745063781738, -0.2761407494544983, -0.8320387601852417, -0.9622863531112671, 0.056228313595056534, 0.15535967136315731, -0.24824260938834186, 7.513055544969763, 9362.0, 30146.0, 35388.0, 9362.0, 8.152067184448242, 0.06751732528209686, 0.09082774072885513, -0.10716921091079712, -0.0018217276083305478, -0.053853049874305725, 0.9983052015304565, -0.08051873743534088, -0.10231781005859375, 1.487548828125, 1.532958984375, 0.2644195556640625, 1.494873046875, 0.96240234375, 10.0, 1.0, 10.0, 1.4587821960449219
14406, -1.8270025253295898, -3.3455026149749756, 0.5891067981719971, 0.12840746343135834, 0.07226170599460602, -1.7196354866027832, 0.38202983140945435, 0.2146814465522766, -0.2773725688457489, -0.8320252895355225, -0.9622783660888672, 0.056242361664772034, 0.1538058656320018, -0.2706674503342299, 7.5077956823526035, 9362.0, 30146.0, 35388.0, 9362.0, 8.152067184448242, -0.07545382529497147, -0.10882554948329926, 0.271686315536499, -0.00021238649787846953, -0.05204019322991371, 0.9993997812271118, -0.08051873743534088, -0.10231781005859375, 1.487548828125, 1.44873046875, 0.102813720703125, 1.48681640625, 1.670654296875, 10.0, 1.0, 10.0, 1.4578263759613037
14426, -1.8277567625045776, -3.346242666244507, 0.5907807350158691, 0.13616184890270233, 0.07661903649568558, -1.7251876592636108, 0.39340683817863464, 0.22105146944522858, -0.27786019444465637, -0.8320135474205017, -0.9621544480323792, 0.056090403348207474, 0.13225823601100675, -0.20098179480717704, 7.4298428108396015, 9362.0, 30146.0, 35388.0, 9362.0, 8.152067184448242, 0.055807940661907196, 0.16011685132980347, 0.18905387818813324, -0.00021238649787846953, -0.05204019322991371, 0.9993997812271118, -0.044010061770677567, -0.12023735046386719, 1.486083984375, 1.44873046875, 0.102813720703125, 1.496337890625, 1.746826171875, 10.0, 1.0, 10.0, 1.4578263759613037
14456, -1.8267868757247925, -3.3482959270477295, 0.5916960835456848, 0.14821955561637878, 0.08339373767375946, -1.733542561531067, 0.41045331954956055, 0.23060062527656555, -0.27896562218666077, -0.8320335745811462, -0.9622853994369507, 0.05622941255569458, 0.15629339854694788, -0.26803578551846385, 7.506046122416491, 9362.0, 30146.0, 35388.0, 9362.0, 8.152067184448242, -0.038976818323135376, 0.16361336410045624, 0.12862102687358856, -0.004137089941650629, -0.05262376368045807, 0.9974452257156372, -0.044010061770677567, -0.12023735046386719, 1.486083984375, 1.44873046875, 0.102813720703125, 1.4912109375, 0.7529296875, 10.0, 1.0, 10.0, 1.4577124118804932
14476, -1.8270246982574463, -3.3490383625030518, 0.5944868326187134, 0.15654228627681732, 0.08806941658258438, -1.7391293048858643, 0.4218214452266693, 0.2369661182165146, -0.279699444770813, -0.8320193886756897, -0.9622747302055359, 0.05625472962856293, 0.15214426611774004, -0.2584422924338128, 7.507738631510824, 9362.0, 30146.0, 35388.0, 9362.0, 8.152067184448242, 0.17183808982372284, 0.06597612053155899, -0.06943988054990768, -0.0035616494715213776, -0.052813589572906494, 1.0000754594802856, -0.044010061770677567, -0.12023735046386719, 1.486083984375, 1.44873046875, 0.102813720703125, 1.49267578125, 0.7763671875, 10.0, 1.0, 10.0, 1.4574960470199585
14486, -1.8256244659423828, -3.3512141704559326, 0.5933454036712646, 0.15654228627681732, 0.08806941658258438, -1.7391293048858643, 0.4218214452266693, 0.2369661182165146, -0.279699444770813, -0.8320133090019226, -0.9621732831001282, 0.056108251214027405, 0.1385912027850793, -0.21194595239720115, 7.431309708950039, 9362.0, 30146.0, 35388.0, 9362.0, 8.152067184448242, 0.04687231034040451, -0.2432110458612442, -0.03216300904750824, -0.0035616494715213776, -0.052813589572906494, 1.0000754594802856, -0.044010061770677567, -0.12023735046386719, 1.486083984375, 1.44873046875, 0.102813720703125, 1.491943359375, 1.241455078125, 10.0, 1.0, 10.0, 1.4574960470199585
14526, -1.827414870262146, -3.3490915298461914, 0.5933658480644226, 0.17834514379501343, 0.1003158688545227, -1.7531462907791138, 0.4502849578857422, 0.2528846561908722, -0.2811442017555237, -0.832061231136322, -0.96219801902771, 0.05618725344538689, 0.10345263638487992, -0.234454927120197, 7.399447776662041, 9362.0, 30146.0, 35388.0, 9362.0, 8.152067184448242, 0.04687231034040451, -0.2432110458612442, -0.03216300904750824, -0.0025970153510570526, -0.05632606893777847, 0.9962869882583618, -0.044010061770677567, -0.12023735046386719, 1.486083984375, 1.44873046875, 0.102813720703125, 1.491943359375, 1.16455078125, 10.0, 1.0, 10.0, 1.4541680812835693
14536, -1.8267111778259277, -3.3504819869995117, 0.5955272316932678, 0.18287640810012817, 0.10286059975624084, -1.7559603452682495, 0.455967515707016, 0.2560613751411438, -0.281663179397583, -0.8320293426513672, -0.9622800946235657, 0.05621137470006943, 0.15498036995073197, -0.24892412390607888, 7.515797149721671, 9362.0, 30146.0, 35388.0, 9362.0, 8.152067184448242, 0.06092369556427002, 0.11960934102535248, 0.3289313018321991, -0.0025970153510570526, -0.05632606893777847, 0.9962869882583618, -0.044010061770677567, -0.12023735046386719, 1.486083984375, 1.44873046875, 0.102813720703125, 1.491943359375, 1.661865234375, 10.0, 1.0, 10.0, 1.4541680812835693
14546, -1.8273452520370483, -3.3480732440948486, 0.5976279973983765, 0.18746455013751984, 0.10543714463710785, -1.7587782144546509, 0.46166151762008667, 0.2592483460903168, -0.2819019854068756, -0.8320183157920837, -0.9622862339019775, 0.05624612793326378, 0.15260549587862252, -0.2599298878997729, 7.512116348981104, 9362.0, 30146.0, 35388.0, 9362.0, 8.152067184448242, 0.18846473097801208, -0.1886674165725708, 0.09556505084037781, -0.0025970153510570526, -0.05632606893777847, 0.9962869882583618, -0.044010061770677567, -0.12023735046386719, 1.486083984375, 1.44873046875, 0.102813720703125, 1.4912109375, 1.66259765625, 10.0, 1.0, 10.0, 1.4541680812835693
14556, -1.826843500137329, -3.345460891723633, 0.597352921962738, 0.19210965931415558, 0.1080455631017685, -1.7615983486175537, 0.4673592150211334, 0.2624351978302002, -0.282113254070282, -0.8320220708847046, -0.9622694253921509, 0.05625014379620552, 0.15659969328362341, -0.26475409423761675, 7.5026460549323195, 9362.0, 30146.0, 35388.0, 9362.0, 8.152067184448242, -0.14425870776176453, 0.19408303499221802, 0.35453206300735474, -0.0025970153510570526, -0.05632606893777847, 0.9962869882583618, -0.044010061770677567, -0.12023735046386719, 1.486083984375, 1.44873046875, 0.102813720703125, 1.4912109375, 1.44287109375, 10.0, 1.0, 10.0, 1.4541680812835693
14576, -1.8265291452407837, -3.3429648876190186, 0.5995764136314392, 0.20157061517238617, 0.11335796862840652, -1.7672464847564697, 0.4787311255931854, 0.26880404353141785, -0.282725065946579, -0.832038938999176, -0.9622941017150879, 0.05623134225606918, 0.14984807548903475, -0.2593306557926951, 7.517479367538026, 9362.0, 30146.0, 35388.0, 9362.0, 8.152067184448242, -0.14425870776176453, 0.19408303499221802, 0.35453206300735474, -0.00208128965459764, -0.05206737667322159, 0.9986794590950012, -0.044010061770677567, -0.12023735046386719, 1.486083984375, 1.44873046875, 0.102813720703125, 1.494873046875, 0.785888671875, 10.0, 1.0, 10.0, 1.4536479711532593
14586, -1.8262975215911865, -3.3420886993408203, 0.600045919418335, 0.20638632774353027, 0.11606193333864212, -1.7700753211975098, 0.4844125211238861, 0.27198871970176697, -0.28305044770240784, -0.8320395350456238, -0.9622864127159119, 0.056244976818561554, 0.16214247234960724, -0.2614239790515569, 7.513695088386092, 9362.0, 30146.0, 35388.0, 9362.0, 8.152067184448242, -0.001214211224578321, -0.03265116363763809, -0.2498370260000229, -0.00208128965459764, -0.05206737667322159, 0.9986794590950012, -0.044010061770677567, -0.12023735046386719, 1.486083984375, 1.44873046875, 0.102813720703125, 1.494873046875, 1.67431640625, 10.0, 1.0, 10.0, 1.4536479711532593
14596, -1.8277450799942017, -3.3427975177764893, 0.5986576676368713, 0.21125879883766174, 0.11879770457744598, -1.772908329963684, 0.4900810718536377, 0.27516627311706543, -0.28354179859161377, -0.8320196866989136, -0.9621690511703491, 0.056092001497745514, 0.1452910297689777, -0.20731174885025894, 7.424718461427585, 9362.0, 30146.0, 35388.0, 9362.0, 8.152067184448242, -0.001214211224578321, -0.03265116363763809, -0.2498370260000229, -0.00208128965459764, -0.05206737667322159, 0.9986794590950012, -0.044010061770677567, -0.12023735046386719, 1.486083984375, 1.44873046875, 0.102813720703125, 1.494873046875, 1.727783203125, 10.0, 1.0, 10.0, 1.4536479711532593
14606, -1.829177975654602, -3.3428971767425537, 0.5961848497390747, 0.21618801355361938, 0.12156528979539871, -1.7757450342178345, 0.4957611858844757, 0.2783505618572235, -0.2838090658187866, -0.8320409059524536, -0.9622992277145386, 0.05625270679593086, 0.1630134977263838, -0.25534106612178675, 7.509282187471064, 9362.0, 30146.0, 35388.0, 9362.0, 8.152067184448242, -0.001214211224578321, -0.03265116363763809, -0.2498370260000229, -0.002653422299772501, -0.053127240389585495, 0.997866153717041, -0.044010061770677567, -0.12023735046386719, 1.486083984375, 1.44873046875, 0.102813720703125, 1.494873046875, 1.271484375, 10.0, 1.0, 10.0, 1.4514390230178833
14626, -1.830422282218933, -3.3458073139190674, 0.5951059460639954, 0.22621676325798035, 0.12719598412513733, -1.781428337097168, 0.5071144104003906, 0.28472068905830383, -0.2845124304294586, -0.8320299983024597, -0.9622833132743835, 0.05626499280333519, 0.15873141897572082, -0.2671551121433424, 7.50512388299388, 9362.0, 30146.0, 35388.0, 9362.0, 8.152067184448242, -0.001214211224578321, -0.03265116363763809, -0.2498370260000229, -0.0024187525268644094, -0.0534270741045475, 0.9989404678344727, -0.044010061770677567, -0.12023735046386719, 1.486083984375, 1.44873046875, 0.102813720703125, 1.494873046875, 1.2099609375, 10.0, 1.0, 10.0, 1.451529860496521
14646, -1.8308110237121582, -3.3425991535186768, 0.5950812101364136, 0.23647277057170868, 0.1329541802406311, -1.787123680114746, 0.5184871554374695, 0.2910999655723572, -0.28502556681632996, -0.8320483565330505, -0.9622895121574402, 0.056235529482364655, 0.15257737926431175, -0.24623771057181898, 7.51538110238724, 9362.0, 30146.0, 35388.0, 9362.0, 8.152067184448242, 0.19717782735824585, -0.03383546695113182, 0.03381485491991043, -0.0024187525268644094, -0.0534270741045475, 0.9989404678344727, -0.044010061770677567, -0.12023735046386719, 1.486083984375, 1.44873046875, 0.102813720703125, 1.490478515625, 1.228271484375, 10.0, 1.0, 10.0, 1.4502009153366089
14656, -1.83042573928833, -3.3450424671173096, 0.5933432579040527, 0.24168606102466583, 0.13588114082813263, -1.7899752855300903, 0.524172306060791, 0.2942919135093689, -0.28530383110046387, -0.832003653049469, -0.9621846675872803, 0.056118499487638474, 0.1427334252207604, -0.20930954828907034, 7.423757727934564, 9362.0, 30146.0, 35388.0, 9362.0, 8.152067184448242, -0.11400351673364639, 0.11235276609659195, 0.001247706008143723, -0.0024187525268644094, -0.0534270741045475, 0.9989404678344727, -0.044010061770677567, -0.12023735046386719, 1.486083984375, 1.44873046875, 0.102813720703125, 1.490478515625, 1.01513671875, 10.0, 1.0, 10.0, 1.4502009153366089
14726, -1.8305778503417969, -3.3486227989196777, 0.5991391539573669, 0.2797694504261017, 0.1572626233100891, -1.8100417852401733, 0.5639352202415466, 0.3166087865829468, -0.28803160786628723, -0.8320416808128357, -0.96229088306427, 0.05624270439147949, 0.15687120521814302, -0.26163294010692084, 7.513912145970059, 9362.0, 30146.0, 35388.0, 9362.0, 8.152067184448242, 0.04363743215799332, -0.18186204135417938, 0.11572228372097015, -0.002889336319640279, -0.054438959807157516, 0.9983869194984436, -0.08051696419715881, -0.03959846496582031, 1.49267578125, 1.44873046875, 0.102813720703125, 1.493408203125, 1.29638671875, 10.0, 1.0, 10.0, 1.4490050077438354
14756, -1.8296551704406738, -3.3462538719177246, 0.601581335067749, 0.29694366455078125, 0.16690458357334137, -1.8186936378479004, 0.581010639667511, 0.32618623971939087, -0.2888219356536865, -0.8320649862289429, -0.9623336791992188, 0.05638287588953972, 0.12135584145507348, -0.29510313801230836, 7.493067793910238, 9362.0, 30146.0, 35388.0, 9362.0, 8.152067184448242, 0.019145624712109566, -0.09486962854862213, 0.16648225486278534, -0.0017307568341493607, -0.05128951743245125, 0.9988336563110352, -0.08051696419715881, -0.03959846496582031, 1.49267578125, 1.44873046875, 0.102813720703125, 1.493408203125, 1.27880859375, 10.0, 1.0, 10.0, 1.4477360248565674
14766, -1.8307478427886963, -3.3466193675994873, 0.6037527918815613, 0.30278217792510986, 0.17018236219882965, -1.8215842247009277, 0.5866912603378296, 0.3293698728084564, -0.2892884314060211, -0.8320381045341492, -0.962267279624939, 0.05622824653983116, 0.15018993091356014, -0.2591511251671932, 7.505275221112763, 9362.0, 30146.0, 35388.0, 9362.0, 8.152067184448242, 0.045468948781490326, -0.05411859601736069, -0.005910702049732208, -0.0017307568341493607, -0.05128951743245125, 0.9988336563110352, -0.08051696419715881, -0.03959846496582031, 1.49267578125, 1.44873046875, 0.102813720703125, 1.493408203125, 1.61279296875, 10.0, 1.0, 10.0, 1.4477360248565674
14776, -1.8298676013946533, -3.343015432357788, 0.6028920412063599, 0.30278217792510986, 0.17018236219882965, -1.8215842247009277, 0.5866912603378296, 0.3293698728084564, -0.2892884314060211, -0.8320321440696716, -0.9622830152511597, 0.056235816329717636, 0.14847074800479246, -0.25545530047742204, 7.513193217566941, 9362.0, 30146.0, 35388.0, 9362.0, 8.152067184448242, -0.054229985922575, -0.12291808426380157, 0.10100112110376358, -0.0017307568341493607, -0.05128951743245125, 0.9988336563110352, -0.08051696419715881, -0.03959846496582031, 1.49267578125, 1.44873046875, 0.102813720703125, 1.493408203125, 1.269287109375, 10.0, 1.0, 10.0, 1.4477360248565674
14786, -1.8297102451324463, -3.3435685634613037, 0.6052649021148682, 0.314629465341568, 0.17683342099189758, -1.8273802995681763, 0.5980429649353027, 0.3357401192188263, -0.2902141809463501, -0.8320351243019104, -0.9622839689254761, 0.0562669076025486, 0.15696045988520618, -0.26160253685188195, 7.51014943648234, 9362.0, 30146.0, 35388.0, 9362.0, 8.152067184448242, -0.054229985922575, -0.12291808426380157, 0.10100112110376358, -0.0017307568341493607, -0.05128951743245125, 0.9988336563110352, -0.08051696419715881, -0.03959846496582031, 1.49267578125, 1.44873046875, 0.102813720703125, 1.493408203125, 1.269287109375, 10.0, 1.0, 10.0, 1.4496195316314697
14826, -1.8278449773788452, -3.347482442855835, 0.6042736172676086, 0.3328264653682709, 0.18704922497272491, -1.8360977172851562, 0.6150933504104614, 0.3453119099140167, -0.2909772992134094, -0.832021176815033, -0.9622940421104431, 0.056251734495162964, 0.1602468091958289, -0.25598524983297466, 7.515458465473004, 9362.0, 30146.0, 35388.0, 9362.0, 8.152067184448242, -0.054229985922575, -0.12291808426380157, 0.10100112110376358, -0.002957784803584218, -0.05313977226614952, 0.9990679025650024, -0.08051696419715881, -0.03959846496582031, 1.49267578125, 1.44873046875, 0.102813720703125, 1.493408203125, 1.6171875, 10.0, 1.0, 10.0, 1.4475955963134766
14836, -1.8285877704620361, -3.3470849990844727, 0.6054738759994507, 0.3328264653682709, 0.18704922497272491, -1.8360977172851562, 0.6150933504104614, 0.3453119099140167, -0.2909772992134094, -0.8320198059082031, -0.9622775912284851, 0.056265007704496384, 0.15512650075527767, -0.26656119619863716, 7.509099700892357, 9362.0, 30146.0, 35388.0, 9362.0, 8.152067184448242, -0.054229985922575, -0.12291808426380157, 0.10100112110376358, -0.002957784803584218, -0.05313977226614952, 0.9990679025650024, -0.08051696419715881, -0.03959846496582031, 1.49267578125, 1.44873046875, 0.102813720703125, 1.493408203125, 1.670654296875, 10.0, 1.0, 10.0, 1.4475955963134766
14846, -1.8289437294006348, -3.3486568927764893, 0.6071459650993347, 0.3515346944332123, 0.19755177199840546, -1.8448472023010254, 0.632135272026062, 0.3548625409603119, -0.2921600639820099, -0.8320517539978027, -0.9622992277145386, 0.05624974146485329, 0.15590068448383976, -0.2534357208047595, 7.511287702971021, 9362.0, 30146.0, 35388.0, 9362.0, 8.152067184448242, -0.030238313600420952, 0.08604532480239868, 0.009798414073884487, -0.002957784803584218, -0.05313977226614952, 0.9990679025650024, -0.08051696419715881, -0.03959846496582031, 1.49267578125, 1.44873046875, 0.102813720703125, 1.49560546875, 1.55126953125, 10.0, 1.0, 10.0, 1.4475955963134766
14886, -1.8285901546478271, -3.358522653579712, 0.6117969155311584, 0.37727534770965576, 0.21200142800807953, -1.8565552234649658, 0.6549095511436462, 0.3676243722438812, -0.29318180680274963, -0.8320214152336121, -0.9622613787651062, 0.05622090771794319, 0.14962024147977862, -0.26702358527944625, 7.519746745510179, 9362.0, 30146.0, 35388.0, 9362.0, 8.152067184448242, -0.19535303115844727, 0.3134237825870514, 0.07202181965112686, -0.003912961110472679, -0.050041090697050095, 1.0009151697158813, -0.08051696419715881, -0.03959846496582031, 1.49267578125, 1.44873046875, 0.102813720703125, 1.49267578125, 1.66259765625, 10.0, 1.0, 10.0, 1.4452087879180908
14896, -1.8279006481170654, -3.3596389293670654, 0.6105543375015259, 0.383853018283844, 0.2156936526298523, -1.859487771987915, 0.660621702671051, 0.37082013487815857, -0.29333725571632385, -0.8317669034004211, -0.9624732136726379, 0.05651365593075752, 0.3357064594674734, -0.42609568799963426, 7.428921425315743, 9362.0, 30146.0, 35388.0, 9362.0, 8.152067184448242, 0.11735731363296509, -0.22456194460391998, -0.5269308090209961, -0.003912961110472679, -0.050041090697050095, 1.0009151697158813, -0.08051696419715881, -0.03959846496582031, 1.49267578125, 1.44873046875, 0.102813720703125, 1.49267578125, 1.66259765625, 10.0, 1.0, 10.0, 1.4452087879180908
14906, -1.8286288976669312, -3.3564109802246094, 0.6102927923202515, 0.383853018283844, 0.2156936526298523, -1.859487771987915, 0.660621702671051, 0.37082013487815857, -0.29333725571632385, -0.8320514559745789, -0.9622828364372253, 0.056286316365003586, 0.1578371312706483, -0.26078474231246673, 7.505501526225628, 9362.0, 30146.0, 35388.0, 9362.0, 8.152067184448242, 0.11735731363296509, -0.22456194460391998, -0.5269308090209961, -0.003912961110472679, -0.050041090697050095, 1.0009151697158813, -0.08051696419715881, -0.03959846496582031, 1.49267578125, 1.44873046875, 0.102813720703125, 1.4912109375, 1.66259765625, 10.0, 1.0, 10.0, 1.4465802907943726
14966, -1.8311264514923096, -3.3550362586975098, 0.610303521156311, 0.43149352073669434, 0.2424321472644806, -1.8801007270812988, 0.7005300521850586, 0.3931441605091095, -0.2955368161201477, -0.8320009112358093, -0.9621628522872925, 0.05609608069062233, 0.13173199949508402, -0.22688960964165972, 7.427375313725543, 9362.0, 30146.0, 35388.0, 9362.0, 8.152067184448242, 0.0008569021592848003, 0.19526877999305725, 0.042907021939754486, -0.002026451751589775, -0.05386810749769211, 0.9996984004974365, -0.06914683431386948, -0.04855918884277344, 1.491943359375, 1.44873046875, 0.102813720703125, 1.4970703125, 1.300048828125, 10.0, 1.0, 10.0, 1.4444082975387573
14976, -1.8312290906906128, -3.3536651134490967, 0.61039799451828, 0.43852734565734863, 0.246379554271698, -1.8830573558807373, 0.706232488155365, 0.3963386118412018, -0.29578688740730286, -0.8320171236991882, -0.9622849822044373, 0.05627021938562393, 0.15626163769048684, -0.26583195835260653, 7.510061369324395, 9362.0, 30146.0, 35388.0, 9362.0, 8.152067184448242, -0.03328746184706688, -0.03145909309387207, -0.08907564729452133, -0.002026451751589775, -0.05386810749769211, 0.9996984004974365, -0.06914683431386948, -0.04855918884277344, 1.491943359375, 1.44873046875, 0.102813720703125, 1.4970703125, 1.66259765625, 10.0, 1.0, 10.0, 1.4444082975387573
14986, -1.832597255706787, -3.354266405105591, 0.6112491488456726, 0.4456181526184082, 0.250358909368515, -1.886016845703125, 0.7119314670562744, 0.3995310962200165, -0.296099990606308, -0.8317663669586182, -0.9624757170677185, 0.056493520736694336, 0.33855466155444164, -0.4291973447631392, 7.436809422610626, 9362.0, 30146.0, 35388.0, 9362.0, 8.152067184448242, -0.03328746184706688, -0.03145909309387207, -0.08907564729452133, -0.0027235671877861023, -0.05513022840023041, 0.9986498355865479, -0.06914683431386948, -0.04855918884277344, 1.491943359375, 1.44873046875, 0.102813720703125, 1.4970703125, 1.62158203125, 10.0, 1.0, 10.0, 1.4444082975387573
15006, -1.834219217300415, -3.3595082759857178, 0.6138911843299866, 0.459970623254776, 0.2584133744239807, -1.89194655418396, 0.7233200073242188, 0.4059159755706787, -0.2968195378780365, -0.8320297598838806, -0.9622970223426819, 0.05625062808394432, 0.16234130846501496, -0.2584803059864669, 7.5154920402954035, 9362.0, 30146.0, 35388.0, 9362.0, 8.152067184448242, -0.03328746184706688, -0.03145909309387207, -0.08907564729452133, -0.0021537470165640116, -0.05334049463272095, 0.9998490214347839, -0.06914683431386948, -0.04855918884277344, 1.491943359375, 1.44873046875, 0.102813720703125, 1.4912109375, 1.598876953125, 10.0, 1.0, 10.0, 1.442339301109314
15026, -1.8326911926269531, -3.3563153743743896, 0.6130215525627136, 0.47455111145973206, 0.26659566164016724, -1.897888422012329, 0.7347286939620972, 0.41231104731559753, -0.2974494695663452, -0.8320282697677612, -0.9622809886932373, 0.056273944675922394, 0.15611095583813203, -0.2586565975412327, 7.504078088705059, 9362.0, 30146.0, 35388.0, 9362.0, 8.152067184448242, -0.08747579902410507, -0.16081085801124573, -0.057575929909944534, -0.004237587098032236, -0.05282944068312645, 0.998437762260437, -0.06914683431386948, -0.04855918884277344, 1.491943359375, 1.44873046875, 0.102813720703125, 1.48974609375, 1.658935546875, 10.0, 1.0, 10.0, 1.4428057670593262
15036, -1.8337225914001465, -3.3563482761383057, 0.6134368777275085, 0.48192691802978516, 0.2707347571849823, -1.9008644819259644, 0.7404338121414185, 0.41550707817077637, -0.2977663576602936, -0.8317691683769226, -0.9623641967773438, 0.056419599801301956, 0.3325088110986208, -0.38897371564002015, 7.36280529988066, 9362.0, 30146.0, 35388.0, 9362.0, 8.152067184448242, -0.08747579902410507, -0.16081085801124573, -0.057575929909944534, -0.002622467465698719, -0.053117867559194565, 0.9992696642875671, -0.06914683431386948, -0.04855918884277344, 1.491943359375, 1.44873046875, 0.102813720703125, 1.48974609375, 1.311767578125, 10.0, 1.0, 10.0, 1.4436135292053223
15046, -1.8338522911071777, -3.357323169708252, 0.6128459572792053, 0.4893597662448883, 0.274905800819397, -1.903843641281128, 0.7461353540420532, 0.4187029302120209, -0.29806798696517944, -0.8317611813545227, -0.9624663591384888, 0.05645805969834328, 0.32966890588297637, -0.43478655282501677, 7.4334735166657735, 9362.0, 30146.0, 35388.0, 9362.0, 8.152067184448242, 0.15581971406936646, -0.0415835976600647, -0.1619371622800827, -0.002622467465698719, -0.053117867559194565, 0.9992696642875671, -0.06914683431386948, -0.04855918884277344, 1.491943359375, 1.44873046875, 0.102813720703125, 1.496337890625, 1.60400390625, 10.0, 1.0, 10.0, 1.4436135292053223
15056, -1.8324573040008545, -3.3582770824432373, 0.6129876971244812, 0.4968496561050415, 0.27910882234573364, -1.9068254232406616, 0.7518417239189148, 0.421903133392334, -0.29828959703445435, -0.8320322036743164, -0.9622767567634583, 0.05626104399561882, 0.14655269017477346, -0.26272539712121556, 7.51747696789894, 9362.0, 30146.0, 35388.0, 9362.0, 8.152067184448242, 0.15581971406936646, -0.0415835976600647, -0.1619371622800827, -0.002622467465698719, -0.053117867559194565, 0.9992696642875671, -0.06914683431386948, -0.04855918884277344, 1.491943359375, 1.44873046875, 0.102813720703125, 1.496337890625, 0.788818359375, 10.0, 1.0, 10.0, 1.4449325799942017
15066, -1.8332409858703613, -3.3569703102111816, 0.6124879121780396, 0.5043966174125671, 0.2833438515663147, -1.9098094701766968, 0.7575498223304749, 0.42510369420051575, -0.2985086441040039, -0.8320363163948059, -0.962306559085846, 0.05627728998661041, 0.16376315636794206, -0.25940192486862657, 7.515903349893718, 9362.0, 30146.0, 35388.0, 9362.0, 8.152067184448242, -0.06671081483364105, -0.2987406849861145, -0.09363371133804321, -0.002622467465698719, -0.053117867559194565, 0.9992696642875671, -0.06914683431386948, -0.04855918884277344, 1.491943359375, 1.44873046875, 0.102813720703125, 1.493408203125, 1.632568359375, 10.0, 1.0, 10.0, 1.4449325799942017
15076, -1.8328771591186523, -3.3546345233917236, 0.612583339214325, 0.5120006203651428, 0.28761085867881775, -1.9127960205078125, 0.7632546424865723, 0.42829906940460205, -0.2988125681877136, -0.8320148587226868, -0.9621627926826477, 0.05611969158053398, 0.1412756648809229, -0.20023056932791405, 7.422886619740148, 9362.0, 30146.0, 35388.0, 9362.0, 8.152067184448242, -0.1052163615822792, -0.27800482511520386, -0.13936284184455872, -0.002622467465698719, -0.053117867559194565, 0.9992696642875671, -0.06914683431386948, -0.04855918884277344, 1.491943359375, 1.44873046875, 0.102813720703125, 1.493408203125, 1.4794921875, 10.0, 1.0, 10.0, 1.4449325799942017
15146, -1.8320528268814087, -3.356036424636841, 0.6131261587142944, 0.5668243169784546, 0.31837502121925354, -1.9337873458862305, 0.8031244874000549, 0.4506746828556061, -0.3010293245315552, -0.8320214152336121, -0.9622882604598999, 0.05627765879034996, 0.15998204721889075, -0.2585723638411537, 7.506793687429255, 9362.0, 30146.0, 35388.0, 9362.0, 8.152067184448242, -0.03034183941781521, -0.24794211983680725, 0.010810176841914654, -0.003396510612219572, -0.05291469767689705, 0.9994438886642456, -0.06914683431386948, -0.04855918884277344, 1.491943359375, 1.33740234375, 0.0175323486328125, 1.49560546875, 1.63330078125, 10.0, 1.0, 10.0, 1.4450916051864624
15206, -1.8365764617919922, -3.357036828994751, 0.6126577854156494, 0.6160370111465454, 0.34599077701568604, -1.9519129991531372, 0.8373106718063354, 0.4698665738105774, -0.30295565724372864, -0.8320547938346863, -0.9623854160308838, 0.056362006813287735, 0.16220440082743393, -0.28938875028453026, 7.616029669228071, 9362.0, 30146.0, 35388.0, 9362.0, 8.152067184448242, -0.005889850202947855, 0.17250703275203705, 0.06027176231145859, -0.002703643636777997, -0.05214483290910721, 0.9992124438285828, -0.06914683431386948, -0.04855918884277344, 1.491943359375, 1.33740234375, 0.0175323486328125, 1.4912109375, 1.579833984375, 10.0, 1.0, 10.0, 1.4448926448822021
15246, -1.839997410774231, -3.3558194637298584, 0.6173722743988037, 0.6499860882759094, 0.36504197120666504, -1.964048981666565, 0.8601343631744385, 0.48269209265708923, -0.3039584457874298, -0.8320223093032837, -0.9622915387153625, 0.05626470223069191, 0.15438281059444178, -0.2588488178882926, 7.5157212245875185, 9362.0, 30146.0, 35388.0, 9362.0, 8.152067184448242, -0.3152112662792206, -0.22601696848869324, 0.18454277515411377, -0.0038977970834821463, -0.05225900188088417, 0.9985909461975098, -0.061977487057447433, -0.01271820068359375, 1.494873046875, 1.33740234375, 0.0175323486328125, 1.494140625, 1.43115234375, 10.0, 1.0, 10.0, 1.4451645612716675
15276, -1.8421369791030884, -3.352149248123169, 0.6183761358261108, 0.6760464310646057, 0.3796669840812683, -1.973185420036316, 0.8772249817848206, 0.49231305718421936, -0.3050583302974701, -0.8320232033729553, -0.9622657299041748, 0.056257255375385284, 0.153729812210335, -0.26047021456983543, 7.5180016472997675, 9362.0, 30146.0, 35388.0, 9362.0, 8.152067184448242, 0.003601768286898732, -0.05176325514912605, -0.21650873124599457, -0.001999229658395052, -0.05471165478229523, 0.9995017051696777, -0.061977487057447433, -0.01271820068359375, 1.494873046875, 1.33740234375, 0.0175323486328125, 1.494140625, 1.517578125, 10.0, 1.0, 10.0, 1.4451645612716675
15326, -1.844165325164795, -3.3499369621276855, 0.6200586557388306, 0.7206196784973145, 0.4046843945980072, -1.98847234249115, 0.9056947827339172, 0.5083866715431213, -0.3064936399459839, -0.8320413827896118, -0.9622823596000671, 0.0562409870326519, 0.14677895889639542, -0.25953180459023883, 7.513800226426632, 9362.0, 30146.0, 35388.0, 9362.0, 8.152067184448242, 0.011540235951542854, -0.3986971378326416, 0.2653381824493408, -0.0034688422456383705, -0.053810786455869675, 1.0006067752838135, -0.07858386635780334, -0.07543754577636719, 1.48974609375, 1.33740234375, 0.0175323486328125, 1.493408203125, 1.094970703125, 10.0, 1.0, 10.0, 1.4406790733337402
15386, -1.8440111875534058, -3.3472559452056885, 0.6217299699783325, 0.775985598564148, 0.4357665479183197, -2.0069143772125244, 0.9398189783096313, 0.5276827812194824, -0.3083573579788208, -0.8320252895355225, -0.9622718691825867, 0.056279256939888, 0.15617731862115972, -0.25990527739841696, 7.501777628463299, 9362.0, 30146.0, 35388.0, 9362.0, 8.152067184448242, -0.1894988864660263, -0.17207130789756775, 0.1644347608089447, -0.0025017322041094303, -0.05207351595163345, 1.0008093118667603, -0.07858386635780334, -0.07543754577636719, 1.48974609375, 1.0986328125, 1.2841033935546875, 1.48974609375, 0.800537109375, 10.0, 1.0, 10.0, 1.4369275569915771
15426, -1.843467354774475, -3.3490984439849854, 0.6213810443878174, 0.814033567905426, 0.4571313261985779, -2.0192677974700928, 0.9625793695449829, 0.540556788444519, -0.30931878089904785, -0.8320267200469971, -0.9622750878334045, 0.05623907223343849, 0.14977368659250392, -0.25358454885576975, 7.504268964868119, 9362.0, 30146.0, 35388.0, 9362.0, 8.152067184448242, 0.2173357903957367, -0.055606380105018616, -0.029331276193261147, -0.0017779815243557096, -0.052187781780958176, 1.0005629062652588, -0.06039557605981827, -0.021678924560546875, 1.494140625, 1.2158203125, 0.300750732421875, 1.49267578125, 1.4033203125, 10.0, 1.0, 10.0, 1.4377015829086304
15436, -1.8434889316558838, -3.3497304916381836, 0.6217523813247681, 0.8236877918243408, 0.4625529646873474, -2.022362470626831, 0.9682702422142029, 0.5437731146812439, -0.30963370203971863, -0.8320403695106506, -0.9622718691825867, 0.05625907704234123, 0.15392788845587427, -0.2511647192804105, 7.509005879477776, 9362.0, 30146.0, 35388.0, 9362.0, 8.152067184448242, 0.2173357903957367, -0.055606380105018616, -0.029331276193261147, -0.0031844142358750105, -0.05048386752605438, 0.999485969543457, -0.06039557605981827, -0.021678924560546875, 1.494140625, 1.2158203125, 0.300750732421875, 1.49267578125, 1.24658203125, 10.0, 1.0, 10.0, 1.4381297826766968
15476, -1.8452523946762085, -3.354201555252075, 0.6236473917961121, 0.8628738522529602, 0.48456117510795593, -2.0347704887390137, 0.991039514541626, 0.5566409230232239, -0.3107365071773529, -0.8320180773735046, -0.9622864723205566, 0.05627572908997536, 0.1579592808598977, -0.25915350731295916, 7.512513888957854, 9362.0, 30146.0, 35388.0, 9362.0, 8.152067184448242, 0.12250757962465286, 0.15619328618049622, 0.2983803153038025, -0.0015316244680434465, -0.04974841699004173, 1.0003774166107178, -0.06039557605981827, -0.021678924560546875, 1.494140625, 1.00634765625, 2.84368896484375, 1.4912109375, 1.3681640625, 10.0, 1.0, 10.0, 1.4395209550857544
15486, -1.8444702625274658, -3.3552417755126953, 0.6220852136611938, 0.8728127479553223, 0.49014368653297424, -2.03787899017334, 0.9967389106750488, 0.5598609447479248, -0.3109787404537201, -0.8320319056510925, -0.962286651134491, 0.05626422166824341, 0.15685401397636, -0.25958036176425026, 7.514940053327377, 9362.0, 30146.0, 35388.0, 9362.0, 8.152067184448242, 0.12250757962465286, 0.15619328618049622, 0.2983803153038025, -0.0036272339057177305, -0.05499750003218651, 0.9963365197181702, -0.06039557605981827, -0.021678924560546875, 1.494140625, 1.00634765625, 2.84368896484375, 1.4912109375, 1.58203125, 10.0, 1.0, 10.0, 1.4394404888153076
