timeTick, roll, pitch, yaw, stateX, stateY, stateZ, stateVX, stateVY, stateVZ, otX0, otY0, otZ0, otRoll0, otPitch0, otYaw0, left wing, pitch motor, yaw motor, right wing, voltage, roll rate, pitch rate, yaw rate, A_x, A_y, A_z, current, i_raw, v_raw, airflow_voltage, airflow_speed, pot_Pitch, voltage_nKF, kFFx, volt_KF_vel, kP, volt_KF_pos
17057, 3.1338934898376465, -1.2872107028961182, 0.23580864071846008, 0, 0, 0, 0, 0, 0, -0.8285901546478271, -0.9719459414482117, 0.055283308029174805, -0.41833415970795246, -0.5329022905173417, 5.20022846282949, 0, 0, 0, 0, 0, 0, 0, 0, 0, 0, 0, 0, 0, 0, 0, 0, 0, 0, 0, 0, 0, 0
17067, 3.1346263885498047, -1.2873785495758057, 0.23450569808483124, 0.00019929514382965863, -0.00048141239676624537, 0.189801886677742, 0.009413699619472027, -0.022718576714396477, 0.023212751373648643, -0.8286046981811523, -0.9719560742378235, 0.05529484897851944, -0.4222867537044576, -0.5375720628905754, 5.202582798709164, 9362.0, 30146.0, 35388.0, 9362.0, 0, 0.09026554971933365, 0.1771199107170105, -0.24085836112499237, 0, 0, 0, 0, 0, 0, 0, 0, 0, 0, 0, 0, 0, 0
17077, 3.1347811222076416, -1.2891446352005005, 0.23359322547912598, 0.00030452883220277727, -0.0007353344699367881, 0.19003242254257202, 0.011632943525910378, -0.028065869584679604, 0.02289494313299656, -0.8286049365997314, -0.9719420075416565, 0.05528208613395691, -0.4175265015929405, -0.5388936044892034, 5.191981391126878, 9362.0, 30146.0, 35388.0, 9362.0, 0, 0.04042616859078407, -0.0017170003848150373, 0.028919968754053116, -0.004707895219326019, -0.0579528883099556, 0.9987534284591675, 0, 0, 0, 0.97705078125, 3.5305023193359375, 0, 1.552001953125, 10.0, 1.3874329328536987, 1.5, 1.3874329328536987
17087, 3.1351892948150635, -1.2907133102416992, 0.23321495950222015, 0.00043196030310355127, -0.001042708521708846, 0.19025936722755432, 0.013853303156793118, -0.03340894728899002, 0.022495128214359283, -0.828597366809845, -0.971942663192749, 0.05527471750974655, -0.41633436796412154, -0.5264119425415856, 5.191331199058186, 9362.0, 30146.0, 35388.0, 9362.0, 0, 0.1190279945731163, -0.14752717316150665, 0.06935398280620575, -0.004142862278968096, -0.057848405092954636, 0.9970592856407166, 0, 0, 0, 1.33154296875, 0.0198516845703125, 1.4912109375, 1.19091796875, 10.0, 1.3868110179901123, 1.5, 1.3868110179901123
17097, 3.1361379623413086, -1.2898370027542114, 0.23242662847042084, 0.0005816066404804587, -0.0014035122003406286, 0.1904822289943695, 0.016075894236564636, -0.03875180706381798, 0.022078124806284904, -0.8286146521568298, -0.9719418287277222, 0.0552796795964241, -0.41306572889242543, -0.5356817673955447, 5.191444421660068, 9362.0, 30146.0, 35388.0, 9362.0, 0, 0.08010739088058472, 0.2819674611091614, 0.4894982576370239, -0.003509719856083393, -0.058923590928316116, 0.9980084300041199, 0, 0, 0, 1.505126953125, 0.205902099609375, 1.4912109375, 1.0078125, 10.0, 1.385611653327942, 1.5, 1.385611653327942
17107, 3.136488437652588, -1.2906404733657837, 0.23436245322227478, 0.0007534720934927464, -0.0018177551683038473, 0.190700963139534, 0.01829737238585949, -0.04409671202301979, 0.021670205518603325, -0.8285834789276123, -0.9719711542129517, 0.05528201162815094, -0.40703305228000564, -0.5339353378230669, 5.200287509562322, 9362.0, 30146.0, 35388.0, 9362.0, 0, 0.2433709055185318, 0.08318918943405151, -0.23131705820560455, -0.0045522949658334255, -0.061453282833099365, 0.9974009990692139, 0, 0, 0, 1.40185546875, 0.0417938232421875, 1.494140625, 0.990966796875, 10.0, 1.384362816810608, 1.5, 1.384362816810608
17117, 3.1369380950927734, -1.2906577587127686, 0.23271293938159943, 0.0009475519764237106, -0.002285430207848549, 0.1909152716398239, 0.020518451929092407, -0.04943837970495224, 0.02119109407067299, -0.8285849094390869, -0.971963107585907, 0.055302731692790985, -0.41880992546266427, -0.5294620914233406, 5.19579298412808, 9362.0, 30146.0, 35388.0, 9362.0, 0, -0.1704479157924652, -0.2664252817630768, -0.09202409535646439, -0.0038668413180857897, -0.06271199882030487, 0.9965254664421082, 0, 0, 0, 1.55859375, 0.3211212158203125, 1.494140625, 1.420166015625, 10.0, 1.3844760656356812, 1.5, 1.3844760656356812
17127, 3.1353089809417725, -1.2892112731933594, 0.23074276745319366, 0.0011638484429568052, -0.002806541509926319, 0.1911250650882721, 0.0227406844496727, -0.05478399991989136, 0.02076869271695614, -0.8286072611808777, -0.9719506502151489, 0.05528907850384712, -0.4199849249454222, -0.5320444463000342, 5.196095384726126, 9362.0, 30146.0, 35388.0, 9362.0, 0, -0.08102788031101227, 0.3359137773513794, 0.07355667650699615, -0.003604657482355833, -0.06128089874982834, 0.9976406097412109, 0, 0, 0, 1.1923828125, 0.4285125732421875, 1.493408203125, 1.5205078125, 10.0, 1.384906530380249, 1.5, 1.384906530380249
17137, 3.135748863220215, -1.2907835245132446, 0.2314850240945816, 0.0014023517724126577, -0.00338109047152102, 0.19133053719997406, 0.024960044771432877, -0.06012575328350067, 0.020326871424913406, -0.8286059498786926, -0.9719591736793518, 0.05527482554316521, -0.41643666340374097, -0.5312552791984047, 5.198925879941743, 9362.0, 30146.0, 35388.0, 9362.0, 0, -0.05210027098655701, -0.13665930926799774, -0.05704115331172943, -0.001955881481990218, -0.06275887787342072, 0.9972792863845825, 0, 0, 0, 1.547607421875, 0.296478271484375, 1.493408203125, 1.248779296875, 10.0, 1.3844757080078125, 1.5, 1.3844757080078125
17147, 3.135925054550171, -1.289123773574829, 0.2313300371170044, 0.0016630478203296661, -0.0040090251713991165, 0.19153094291687012, 0.0271791722625494, -0.06546120345592499, 0.019756196066737175, -0.8285415768623352, -0.9720004200935364, 0.055346883833408356, -0.36964443565910204, -0.5562659285982363, 5.185025909138317, 9362.0, 30146.0, 35388.0, 9362.0, 0, 0.017092011868953705, -0.27506351470947266, 0.14429594576358795, -0.00286952406167984, -0.06125805154442787, 0.9959918856620789, 0, 0, 0, 1.635498046875, 0.5028533935546875, 1.49267578125, 1.37548828125, 10.0, 1.3844472169876099, 1.5, 1.3844472169876099
17157, 3.136593818664551, -1.286737322807312, 0.23277059197425842, 0.0019459296017885208, -0.004690336994826794, 0.19172602891921997, 0.029397329315543175, -0.07080104947090149, 0.019261434674263, -0.8285831212997437, -0.9719729423522949, 0.05529643967747688, -0.40622534351030176, -0.5355084068343956, 5.201702396912411, 9362.0, 30146.0, 35388.0, 9362.0, 8.152067184448242, -0.042355015873909, 0.4097454845905304, -0.021596092730760574, -0.003968536853790283, -0.06081666424870491, 0.9972764849662781, 0, 0, 0, 1.305908203125, 0.0413360595703125, 1.49267578125, 0.989501953125, 10.0, 1.3831974267959595, 1.5, 1.3831974267959595
17167, 3.1361019611358643, -1.289725422859192, 0.2339392751455307, 0.0022509898990392685, -0.00542509276419878, 0.19191689789295197, 0.031614840030670166, -0.0761500671505928, 0.018913663923740387, -0.8285704255104065, -0.9719800353050232, 0.055336061865091324, -0.3839392853522473, -0.5638794778855925, 5.176117111808906, 9362.0, 30146.0, 35388.0, 9362.0, 8.152067184448242, 0.025536684319376945, 0.02341052144765854, 0.1482486128807068, -0.005237871315330267, -0.061591893434524536, 0.9988231658935547, -0.05130767449736595, 0.0052013397216796875, 1.496337890625, 1.6259765625, 0.4795989990234375, 1.494140625, 1.294189453125, 10.0, 1.382915735244751, 1.5, 1.382915735244751
17177, 3.1368672847747803, -1.2895207405090332, 0.23459351062774658, 0.002578256418928504, -0.006213346496224403, 0.1921045184135437, 0.03383852541446686, -0.08150060474872589, 0.0186100322753191, -0.8285908699035645, -0.9719785451889038, 0.055291466414928436, -0.4037193148432629, -0.5286824704664923, 5.206840839331243, 9362.0, 30146.0, 35388.0, 9362.0, 8.152067184448242, 0.13228674232959747, -0.09377932548522949, -0.12220713496208191, -0.005004870239645243, -0.06070529296994209, 0.9983185529708862, -0.05130767449736595, 0.0052013397216796875, 1.496337890625, 1.393798828125, 0.0344085693359375, 1.494140625, 1.544677734375, 10.0, 1.383427619934082, 1.5, 1.383427619934082
17187, 3.1376047134399414, -1.2878320217132568, 0.23274226486682892, 0.0029277503490448, -0.007055092602968216, 0.19228874146938324, 0.036060091108083725, -0.0868486613035202, 0.01823553815484047, -0.8285968899726868, -0.9719551205635071, 0.05528338998556137, -0.41803178388415146, -0.5308657143723678, 5.186664403039068, 9362.0, 30146.0, 35388.0, 9362.0, 8.152067184448242, 0.11562393605709076, 0.030335670337080956, -0.014786701649427414, -0.005661132279783487, -0.059159111231565475, 0.9975685477256775, -0.05130767449736595, 0.0052013397216796875, 1.496337890625, 1.53955078125, 0.278778076171875, 1.490478515625, 0.92138671875, 10.0, 1.3819656372070312, 1.5, 1.3819656372070312
17197, 3.1375794410705566, -1.2873564958572388, 0.23187769949436188, 0.0032994518987834454, -0.007950343191623688, 0.1924695372581482, 0.038280144333839417, -0.09220151603221893, 0.017924921587109566, -0.8285849690437317, -0.9719145894050598, 0.055339500308036804, -0.3947248061898729, -0.5083450142558377, 5.1991954850673245, 9362.0, 30146.0, 35388.0, 9362.0, 8.152067184448242, -0.050133176147937775, -0.02585512399673462, 0.12443116307258606, -0.004126298241317272, -0.05924413353204727, 0.9988940358161926, -0.05130767449736595, 0.0052013397216796875, 1.496337890625, 0.974853515625, 3.5862579345703125, 1.490478515625, 1.0986328125, 10.0, 1.3810690641403198, 1.5, 1.3810690641403198
17207, 3.13877272605896, -1.2869468927383423, 0.23247236013412476, 0.00369336549192667, -0.008899160660803318, 0.19264793395996094, 0.04050261899828911, -0.09756194800138474, 0.01775437779724598, -0.8285975456237793, -0.9719638824462891, 0.05527219921350479, -0.416828704984765, -0.5349052953397688, 5.194655033465778, 9362.0, 30146.0, 35388.0, 9362.0, 8.152067184448242, -0.03507157042622566, 0.049613919109106064, -0.351192444562912, -0.0037128422409296036, -0.060362156480550766, 0.9990274310112, -0.05130767449736595, 0.0052013397216796875, 1.496337890625, 1.011474609375, 2.733917236328125, 1.48681640625, 1.686767578125, 10.0, 1.3820363283157349, 1.5, 1.3820363283157349
17217, 3.139117479324341, -1.2862215042114258, 0.23035646975040436, 0.004109468776732683, -0.009901516139507294, 0.19282321631908417, 0.0427178293466568, -0.102909155189991, 0.017302969470620155, -0.8285676836967468, -0.9720255136489868, 0.05534936860203743, -0.36409907293789706, -0.5602757101184466, 5.186217664113387, 9362.0, 30146.0, 35388.0, 9362.0, 8.152067184448242, 0.06414491683244705, 0.18092113733291626, -0.08055543154478073, -0.00454758619889617, -0.05919424444437027, 0.9976565837860107, -0.05130767449736595, 0.0052013397216796875, 1.496337890625, 1.48388671875, 0.1642303466796875, 1.48681640625, 1.122802734375, 10.0, 1.381216049194336, 1.5, 1.381216049194336
17227, 3.139639139175415, -1.2870198488235474, 0.22967427968978882, 0.0045477342791855335, -0.010957388207316399, 0.19299474358558655, 0.044935185462236404, -0.10826529562473297, 0.017003357410430908, -0.8285621404647827, -0.971992552280426, 0.05532309412956238, -0.3840365537036205, -0.5547454613528942, 5.17030000948974, 9362.0, 30146.0, 35388.0, 9362.0, 8.152067184448242, 0.3023379445075989, 0.09738606959581375, 0.01855854131281376, -0.004018394276499748, -0.05948880687355995, 0.9984632134437561, -0.05130767449736595, 0.0052013397216796875, 1.496337890625, 1.094970703125, 1.3307952880859375, 1.489013671875, 1.642822265625, 10.0, 1.3820438385009766, 1.5, 1.3820438385009766
17237, 3.141801118850708, -1.2878190279006958, 0.2299157679080963, 0.005008179694414139, -0.012066825293004513, 0.19316326081752777, 0.04715387523174286, -0.11362219601869583, 0.01670154370367527, -0.8285691142082214, -0.9719863533973694, 0.055299945175647736, -0.38488166632635634, -0.55733614099438, 5.172284564047655, 9362.0, 30146.0, 35388.0, 9362.0, 8.152067184448242, 0.12929478287696838, -0.26369404792785645, 0.1040813997387886, -0.004334626253694296, -0.060829177498817444, 0.9985619783401489, -0.05130767449736595, 0.0052013397216796875, 1.496337890625, 1.58203125, 0.37493896484375, 1.489013671875, 1.2041015625, 10.0, 1.3814808130264282, 1.5, 1.3814808130264282
17247, 3.1426026821136475, -1.2861281633377075, 0.2302340865135193, 0.005490805488079786, -0.01322981808334589, 0.19332817196846008, 0.04937128350138664, -0.11897624284029007, 0.0162808857858181, -0.8285611867904663, -0.9719794392585754, 0.05533456802368164, -0.38577895794578665, -0.5575198553683549, 5.172348279846354, 9362.0, 30146.0, 35388.0, 9362.0, 8.152067184448242, 0.08681964874267578, -0.07901181280612946, 0.06542705744504929, -0.004186369013041258, -0.05932985991239548, 0.9971562027931213, -0.05130767449736595, 0.0052013397216796875, 1.496337890625, 0.99462890625, 3.105987548828125, 1.4912109375, 1.609130859375, 10.0, 1.382201075553894, 1.5, 1.382201075553894
17257, 3.142749309539795, -1.2860671281814575, 0.23058867454528809, 0.005995591636747122, -0.014446359127759933, 0.19348891079425812, 0.05158597603440285, -0.124331995844841, 0.01586599461734295, -0.8285868763923645, -0.9719815850257874, 0.05528847873210907, -0.40098615873940263, -0.5396301741376988, 5.207789695412234, 9362.0, 30146.0, 35388.0, 9362.0, 8.152067184448242, 0.13700847327709198, 0.07165758311748505, -0.17645102739334106, -0.004728646017611027, -0.059799231588840485, 0.9977185130119324, -0.05130767449736595, 0.0052013397216796875, 1.496337890625, 1.48095703125, 0.1587677001953125, 1.4912109375, 0.881103515625, 10.0, 1.3806155920028687, 1.5, 1.3806155920028687
17267, 3.14376163482666, -1.2866759300231934, 0.22981354594230652, 0.006522536277770996, -0.015716489404439926, 0.19364602863788605, 0.05380292981863022, -0.1296939253807068, 0.015558423474431038, -0.8285965323448181, -0.9719810485839844, 0.05527225136756897, -0.4025095087284533, -0.5458815805775146, 5.194564174996469, 9362.0, 30146.0, 35388.0, 9362.0, 8.152067184448242, 0.07734139263629913, 0.06863468885421753, 0.17738336324691772, -0.004002626519650221, -0.06253265589475632, 0.9991771578788757, -0.0739593580365181, -0.22775840759277344, 1.477294921875, 1.53515625, 0.2692413330078125, 1.491943359375, 1.5498046875, 10.0, 1.3811508417129517, 1.5, 1.3811508417129517
17277, 3.1438844203948975, -1.286889910697937, 0.22955463826656342, 0.007071655243635178, -0.017040247097611427, 0.19380006194114685, 0.05602085590362549, -0.1350574940443039, 0.015249112620949745, -0.8285552859306335, -0.972013533115387, 0.05531837418675423, -0.36648057526974, -0.5602571676695618, 5.185821673353826, 9362.0, 30146.0, 35388.0, 9362.0, 8.152067184448242, -0.12857036292552948, 0.16594763100147247, 0.23327159881591797, -0.004322143271565437, -0.06064107269048691, 0.9984956979751587, -0.0739593580365181, -0.22775840759277344, 1.477294921875, 1.541748046875, 0.2835540771484375, 1.491943359375, 1.5146484375, 10.0, 1.38157320022583, 1.5, 1.38157320022583
17287, 3.1428256034851074, -1.287078857421875, 0.23055841028690338, 0.007642954587936401, -0.018417639657855034, 0.19395098090171814, 0.058239132165908813, -0.14042094349861145, 0.014934923499822617, -0.8285375833511353, -0.9719976186752319, 0.05531420558691025, -0.36920718253524093, -0.5644639616225504, 5.179258523680095, 9362.0, 30146.0, 35388.0, 9362.0, 8.152067184448242, -0.2133680135011673, -0.29502642154693604, 0.12072530388832092, -0.00503021664917469, -0.060214340686798096, 0.9983005523681641, -0.0739593580365181, -0.22775840759277344, 1.477294921875, 1.5439453125, 0.2884979248046875, 1.49267578125, 1.51171875, 10.0, 1.3819849491119385, 1.5, 1.3819849491119385
17297, 3.141493797302246, -1.2843234539031982, 0.23120303452014923, 0.008236425928771496, -0.019848626106977463, 0.19409817457199097, 0.06045518070459366, -0.14577621221542358, 0.014504844322800636, -0.8285682797431946, -0.9719915390014648, 0.05528877675533295, -0.4096785701724271, -0.5324472896049599, 5.20094664233951, 9362.0, 30146.0, 35388.0, 9362.0, 8.152067184448242, -0.04067053645849228, 0.04280794784426689, -0.08306997269392014, -0.003594976617023349, -0.06088825315237045, 0.9971743226051331, -0.0739593580365181, -0.22775840759277344, 1.477294921875, 1.379150390625, 0.0238189697265625, 1.49267578125, 1.491943359375, 10.0, 1.3823328018188477, 1.5, 1.3823328018188477
17307, 3.142198085784912, -1.2842156887054443, 0.22974348068237305, 0.008852052502334118, -0.021333197131752968, 0.19424186646938324, 0.06266993284225464, -0.15113790333271027, 0.014232524670660496, -0.8288342952728271, -0.9716728925704956, 0.05514072999358177, -0.30038219187534326, -0.5121993058723717, 4.883089841017181, 9362.0, 30146.0, 35388.0, 9362.0, 8.152067184448242, 0.04113904759287834, -0.24512052536010742, -0.09120785444974899, -0.0030588286463171244, -0.06243220716714859, 0.9996116161346436, -0.0739593580365181, -0.22775840759277344, 1.477294921875, 1.465576171875, 0.130889892578125, 1.494140625, 1.08837890625, 10.0, 1.381402850151062, 1.5, 1.381402850151062
17317, 3.1427295207977295, -1.2830052375793457, 0.2272496372461319, 0.009489830583333969, -0.022871404886245728, 0.19438306987285614, 0.06488539278507233, -0.1565036177635193, 0.014009521342813969, -0.8286005258560181, -0.9719563722610474, 0.05525628477334976, -0.4195957843189498, -0.5321729686908725, 5.189157890509725, 9362.0, 30146.0, 35388.0, 9362.0, 8.152067184448242, 0.007280248682945967, -0.14254090189933777, -0.2010478675365448, -0.0029787488747388124, -0.06144241243600845, 0.9990536570549011, -0.0739593580365181, -0.22775840759277344, 1.477294921875, 1.08251953125, 1.497955322265625, 1.494140625, 1.1396484375, 10.0, 1.3806380033493042, 1.5, 1.3806380033493042
17327, 3.142608404159546, -1.2831711769104004, 0.22557413578033447, 0.010149739682674408, -0.024463245645165443, 0.19452153146266937, 0.06709632277488708, -0.1618647277355194, 0.013684479519724846, -0.8285889029502869, -0.9719892740249634, 0.0552636981010437, -0.4013954051122362, -0.5328742238332609, 5.207229966090446, 9362.0, 30146.0, 35388.0, 9362.0, 8.152067184448242, -0.2682564854621887, -0.2737906575202942, -0.009060664102435112, -0.004641859792172909, -0.061404038220644, 0.9979978203773499, -0.0739593580365181, -0.22775840759277344, 1.477294921875, 1.55859375, 0.3211212158203125, 1.491943359375, 1.530029296875, 10.0, 1.381110668182373, 1.5, 1.381110668182373
17337, 3.141265630722046, -1.2825716733932495, 0.22602549195289612, 0.010831755585968494, -0.026108689606189728, 0.1946565955877304, 0.06930691003799438, -0.1672239750623703, 0.013329961337149143, -0.8286036252975464, -0.9719658493995667, 0.05526265501976013, -0.42253822672835545, -0.532358910915093, 5.18495519198501, 9362.0, 30146.0, 35388.0, 9362.0, 8.152067184448242, -0.09435813128948212, -0.03397250175476074, 0.05677429959177971, -0.0037611552979797125, -0.06153921037912369, 0.9986098408699036, -0.0739593580365181, -0.22775840759277344, 1.477294921875, 1.5703125, 0.34783935546875, 1.491943359375, 1.261962890625, 10.0, 1.3807337284088135, 1.5, 1.3807337284088135
17347, 3.141185998916626, -1.2830866575241089, 0.22560542821884155, 0.01153586432337761, -0.02780769392848015, 0.19478774070739746, 0.07151471823453903, -0.17257685959339142, 0.01290033757686615, -0.8285844922065735, -0.9719846844673157, 0.05526875704526901, -0.40960253860672646, -0.5404546263567909, 5.196136284752153, 9362.0, 30146.0, 35388.0, 9362.0, 8.152067184448242, -0.009381246753036976, -0.052359677851200104, 0.07049763202667236, -0.0048878611996769905, -0.062042441219091415, 0.9973630309104919, -0.0739593580365181, -0.22775840759277344, 1.477294921875, 1.556396484375, 0.316192626953125, 1.493408203125, 1.6435546875, 10.0, 1.3815652132034302, 1.5, 1.3815652132034302
17357, 3.141620635986328, -1.2826899290084839, 0.22625091671943665, 0.012262072414159775, -0.0295602697879076, 0.19491538405418396, 0.07372701913118362, -0.17793816328048706, 0.012628155760467052, -0.8285676836967468, -0.9719711542129517, 0.05526174604892731, -0.40937409075511655, -0.5269364115406745, 5.188434787881946, 9362.0, 30146.0, 35388.0, 9362.0, 8.152067184448242, 0.15444470942020416, -0.14085641503334045, 0.1540927141904831, -0.006113073788583279, -0.06188841164112091, 0.9994511604309082, -0.0739593580365181, -0.22775840759277344, 1.477294921875, 1.625244140625, 0.477783203125, 1.493408203125, 1.4296875, 10.0, 1.3817174434661865, 1.5, 1.3817174434661865
17377, 3.1423747539520264, -1.2821401357650757, 0.2285931259393692, 0.013780815526843071, -0.03322623670101166, 0.19516167044639587, 0.07814527302980423, -0.18865706026554108, 0.011967012658715248, -0.8285337686538696, -0.9720042943954468, 0.05530105158686638, -0.36664041963172506, -0.5567817222080009, 5.18692732957809, 9362.0, 30146.0, 35388.0, 9362.0, 8.152067184448242, 0.09276405721902847, -0.21470466256141663, 0.043679848313331604, -0.00569418678060174, -0.059984322637319565, 0.9983510971069336, -0.07571177929639816, 0.05896186828613281, 1.500732421875, 1.4619140625, 0.1246185302734375, 1.48828125, 1.566650390625, 10.0, 1.3823025226593018, 1.5, 1.3823025226593018
17397, 3.141719102859497, -1.2805901765823364, 0.23099210858345032, 0.013780815526843071, -0.03322623670101166, 0.19516167044639587, 0.07814527302980423, -0.18865706026554108, 0.011967012658715248, -0.828555703163147, -0.9719778895378113, 0.055302854627370834, -0.38633304903212773, -0.5556775727592935, 5.171599714972035, 9362.0, 30146.0, 35388.0, 9362.0, 8.152067184448242, -0.04988032579421997, 0.2678505778312683, 0.24286343157291412, -0.00569418678060174, -0.059984322637319565, 0.9983510971069336, -0.07571177929639816, 0.05896186828613281, 1.500732421875, 1.52783203125, 0.253387451171875, 1.490478515625, 1.566650390625, 10.0, 1.3808001279830933, 1.5, 1.3808001279830933
17407, 3.1409380435943604, -1.2806150913238525, 0.23294255137443542, 0.013780815526843071, -0.03322623670101166, 0.19516167044639587, 0.07814527302980423, -0.18865706026554108, 0.011967012658715248, -0.828554093837738, -0.9720012545585632, 0.055291373282670975, -0.3680910804493696, -0.5660092232905924, 5.18633677497458, 9362.0, 30146.0, 35388.0, 9362.0, 8.152067184448242, 0.02813536673784256, -0.19344888627529144, -0.3695017695426941, -0.00569418678060174, -0.059984322637319565, 0.9983510971069336, -0.07571177929639816, 0.05896186828613281, 1.500732421875, 1.58642578125, 0.3851776123046875, 1.491943359375, 1.566650390625, 10.0, 1.3808001279830933, 1.5, 1.3808001279830933
17417, 3.140995740890503, -1.2783303260803223, 0.23020564019680023, 0.01708340458571911, -0.04120161756873131, 0.19562004506587982, 0.08698130398988724, -0.21010662615299225, 0.010892640799283981, -0.8285601139068604, -0.9719730019569397, 0.055268414318561554, -0.40801163764681764, -0.5276569706612406, 5.193855465171202, 9362.0, 30146.0, 35388.0, 9362.0, 8.152067184448242, 0.02813536673784256, -0.19344888627529144, -0.3695017695426941, -0.00569418678060174, -0.059984322637319565, 0.9983510971069336, -0.07571177929639816, 0.05896186828613281, 1.500732421875, 1.27001953125, 0.10626220703125, 1.491943359375, 1.566650390625, 10.0, 1.381649374961853, 1.5, 1.381649374961853
17427, 3.1417429447174072, -1.2759102582931519, 0.22834937274456024, 0.01708340458571911, -0.04120161756873131, 0.19562004506587982, 0.08698130398988724, -0.21010662615299225, 0.010892640799283981, -0.828535258769989, -0.9720031023025513, 0.055309511721134186, -0.3763658322188991, -0.5535579779051716, 5.182969942250274, 9362.0, 30146.0, 35388.0, 9362.0, 8.152067184448242, -0.09263317286968231, -0.09617483615875244, 0.12754765152931213, -0.004362843930721283, -0.0583665668964386, 0.9970673322677612, -0.07571177929639816, 0.05896186828613281, 1.500732421875, 1.27001953125, 0.10626220703125, 1.490478515625, 1.566650390625, 10.0, 1.381649374961853, 1.5, 1.381649374961853
17467, 3.1391522884368896, -1.2746831178665161, 0.23024462163448334, 0.02073846198618412, -0.05003396421670914, 0.19601893424987793, 0.095767080783844, -0.23151323199272156, 0.00910888984799385, -0.8285319209098816, -0.9720078110694885, 0.05531274899840355, -0.36979714707695044, -0.5603539899654777, 5.182487553693562, 9362.0, 30146.0, 35388.0, 9362.0, 8.152067184448242, 0.19710396230220795, -0.0023537473753094673, 0.10906480252742767, -0.004484750796109438, -0.06064201146364212, 0.9971123337745667, -0.07407095283269882, -0.11127853393554688, 1.48681640625, 1.0458984375, 2.071624755859375, 1.491943359375, 1.566650390625, 10.0, 1.3802164793014526, 1.5, 1.3802164793014526
17477, 3.140188694000244, -1.2746930122375488, 0.23087134957313538, 0.022697681561112404, -0.054771263152360916, 0.19619272649288177, 0.10015647858381271, -0.24221710860729218, 0.008305085822939873, -0.8285924792289734, -0.9719565510749817, 0.0552603080868721, -0.4130334840133485, -0.5281540046341036, 5.189111499659091, 9362.0, 30146.0, 35388.0, 9362.0, 8.152067184448242, 0.026708664372563362, -0.24314942955970764, -0.22196008265018463, -0.004484750796109438, -0.06064201146364212, 0.9971123337745667, -0.07407095283269882, -0.11127853393554688, 1.48681640625, 1.55859375, 0.3211212158203125, 1.491943359375, 1.566650390625, 10.0, 1.3802164793014526, 1.5, 1.3802164793014526
17507, 3.140861988067627, -1.2703620195388794, 0.22658534348011017, 0.024744704365730286, -0.059722647070884705, 0.19635070860385895, 0.10454180091619492, -0.25291529297828674, 0.0073789386078715324, -0.8285502195358276, -0.9720073938369751, 0.055313292890787125, -0.370904126850407, -0.5654018263292073, 5.184382322257708, 9362.0, 30146.0, 35388.0, 9362.0, 8.152067184448242, 0.07611338794231415, -0.11863025277853012, -0.09973809868097305, -0.004076060373336077, -0.05873066559433937, 0.9955236315727234, -0.07407095283269882, -0.11127853393554688, 1.48681640625, 0.99609375, 3.0723114013671875, 1.4970703125, 1.566650390625, 10.0, 1.3793655633926392, 1.5, 1.3793655633926392
17517, 3.14196515083313, -1.268998384475708, 0.22571377456188202, 0.026879265904426575, -0.0648878961801529, 0.19648805260658264, 0.10891520977020264, -0.26361405849456787, 0.006429367698729038, -0.8285537362098694, -0.9720135927200317, 0.0553264394402504, -0.36472317596509274, -0.5536486832333196, 5.178258867450335, 9362.0, 30146.0, 35388.0, 9362.0, 8.152067184448242, 0.07611338794231415, -0.11863025277853012, -0.09973809868097305, -0.004076060373336077, -0.05873066559433937, 0.9955236315727234, -0.07407095283269882, -0.11127853393554688, 1.48681640625, 1.547607421875, 0.296478271484375, 1.4970703125, 1.566650390625, 10.0, 1.3793655633926392, 1.5, 1.3793655633926392
17527, 3.1417925357818604, -1.2672119140625, 0.22494572401046753, 0.026879265904426575, -0.0648878961801529, 0.19648805260658264, 0.10891520977020264, -0.26361405849456787, 0.006429367698729038, -0.8285843133926392, -0.9719502329826355, 0.05525532364845276, -0.41570946482542154, -0.5250362375372788, 5.187609274293159, 9362.0, 30146.0, 35388.0, 9362.0, 8.152067184448242, 0.10545995831489563, 0.03404487669467926, 0.028515655547380447, -0.004076060373336077, -0.05873066559433937, 0.9955236315727234, -0.07407095283269882, -0.11127853393554688, 1.48681640625, 1.576171875, 0.361328125, 1.486083984375, 1.566650390625, 10.0, 1.3793655633926392, 1.5, 1.3793655633926392
17537, 3.142359972000122, -1.2661052942276, 0.22549934685230255, 0.0291012991219759, -0.07026738673448563, 0.19661034643650055, 0.11328542977571487, -0.2743317782878876, 0.005747640039771795, -0.8285486102104187, -0.9719817638397217, 0.05529061332345009, -0.37860443022690377, -0.5508180197591628, 5.1705260409054725, 9362.0, 30146.0, 35388.0, 9362.0, 8.152067184448242, 0.10545995831489563, 0.03404487669467926, 0.028515655547380447, -0.004076060373336077, -0.05873066559433937, 0.9955236315727234, -0.07407095283269882, -0.11127853393554688, 1.48681640625, 1.343994140625, 0.015899658203125, 1.486083984375, 1.566650390625, 10.0, 1.3801555633544922, 1.5, 1.3801555633544922
17567, 3.141681671142578, -1.2697988748550415, 0.22399596869945526, 0.03141070529818535, -0.07586132735013962, 0.19672057032585144, 0.1176576018333435, -0.2850634455680847, 0.005310866981744766, -0.828580915927887, -0.9719563722610474, 0.05525976046919823, -0.4221951018491007, -0.5367698725102628, 5.207704538331728, 9362.0, 30146.0, 35388.0, 9362.0, 8.152067184448242, -0.09367277473211288, 0.11600980907678604, -0.01890270970761776, -0.0057710204273462296, -0.059542201459407806, 0.9989548921585083, -0.07407095283269882, -0.11127853393554688, 1.48681640625, 1.53955078125, 0.278778076171875, 1.49560546875, 1.566650390625, 10.0, 1.3804054260253906, 1.5, 1.3804054260253906
17577, 3.1421396732330322, -1.2687920331954956, 0.2234206348657608, 0.03380764275789261, -0.0816698670387268, 0.19682154059410095, 0.12203895300626755, -0.2957962453365326, 0.004899096675217152, -0.8285760283470154, -0.9719734191894531, 0.05526360869407654, -0.3950436746806654, -0.5272944302499241, 5.2033094208759, 9362.0, 30146.0, 35388.0, 9362.0, 8.152067184448242, -0.13428565859794617, -0.7325477600097656, 0.04998120665550232, -0.0057710204273462296, -0.059542201459407806, 0.9989548921585083, -0.07407095283269882, -0.11127853393554688, 1.48681640625, 1.645751953125, 0.5281219482421875, 1.49560546875, 1.566650390625, 10.0, 1.3804054260253906, 1.5, 1.3804054260253906
17587, 3.1415200233459473, -1.2653729915618896, 0.2229422628879547, 0.03380764275789261, -0.0816698670387268, 0.19682154059410095, 0.12203895300626755, -0.2957962453365326, 0.004899096675217152, -0.8285290598869324, -0.9720015525817871, 0.05529225990176201, -0.37212005546020394, -0.5617747433472857, 5.196413633538194, 9362.0, 30146.0, 35388.0, 9362.0, 8.152067184448242, 0.1489822417497635, 0.16914376616477966, -0.1673460602760315, -0.0057710204273462296, -0.059542201459407806, 0.9989548921585083, -0.07407095283269882, -0.11127853393554688, 1.48681640625, 1.6083984375, 0.437225341796875, 1.4912109375, 1.566650390625, 10.0, 1.3804054260253906, 1.5, 1.3804054260253906
17607, 3.141718626022339, -1.266598105430603, 0.22130997478961945, 0.036292191594839096, -0.08769316226243973, 0.19691607356071472, 0.12641005218029022, -0.3065263032913208, 0.004440492019057274, -0.8285267353057861, -0.9720086455345154, 0.055328261107206345, -0.36786332745643413, -0.554609964654901, 5.184718588058363, 9362.0, 30146.0, 35388.0, 9362.0, 8.152067184448242, -0.044793933629989624, -0.21607241034507751, 0.059878770262002945, -0.0057710204273462296, -0.059542201459407806, 0.9989548921585083, -0.07407095283269882, -0.11127853393554688, 1.48681640625, 1.44873046875, 0.102813720703125, 1.49267578125, 1.566650390625, 10.0, 1.3798613548278809, 1.5, 1.3798613548278809
17617, 3.14091157913208, -1.2674602270126343, 0.22105617821216583, 0.03886399418115616, -0.09393075108528137, 0.19699585437774658, 0.13077032566070557, -0.3172334134578705, 0.0035539057571440935, -0.8285291194915771, -0.972005307674408, 0.05532798171043396, -0.37256102544576675, -0.566918348921746, 5.188662564357357, 9362.0, 30146.0, 35388.0, 9362.0, 8.152067184448242, -0.044793933629989624, -0.21607241034507751, 0.059878770262002945, -0.0057710204273462296, -0.059542201459407806, 0.9989548921585083, -0.07407095283269882, -0.11127853393554688, 1.48681640625, 1.521240234375, 0.2393646240234375, 1.49267578125, 1.566650390625, 10.0, 1.3786545991897583, 1.5, 1.3786545991897583
17657, 3.141456127166748, -1.270884394645691, 0.21943841874599457, 0.04426952451467514, -0.10704879462718964, 0.19711220264434814, 0.13951414823532104, -0.33868321776390076, 0.002519524423405528, -0.8285466432571411, -0.9720044136047363, 0.05529452860355377, -0.36945712434125727, -0.5581684551820842, 5.182426199080517, 9362.0, 30146.0, 35388.0, 9362.0, 8.152067184448242, 0.08827592432498932, 0.12465297430753708, 0.037766844034194946, -0.005404406692832708, -0.05743177980184555, 1.0002933740615845, -0.07407095283269882, -0.11127853393554688, 1.48681640625, 1.484619140625, 0.1656646728515625, 1.494140625, 1.566650390625, 10.0, 1.3786545991897583, 1.5, 1.3786545991897583
17717, 3.142972707748413, -1.2729803323745728, 0.21884216368198395, 0.053034741431474686, -0.1283349096775055, 0.1972091645002365, 0.15266110002994537, -0.370850145816803, 0.0006190367275848985, -0.8286004662513733, -0.9719588160514832, 0.05525098368525505, -0.4188745358998946, -0.5233418902577682, 5.188869456408025, 9362.0, 30146.0, 35388.0, 9362.0, 8.152067184448242, -0.17324180901050568, 0.04169367626309395, -0.008307890966534615, -0.005361870862543583, -0.059225112199783325, 0.999485433101654, -0.07407095283269882, -0.11127853393554688, 1.48681640625, 1.02392578125, 2.4796295166015625, 1.48974609375, 1.566650390625, 10.0, 1.3796361684799194, 1.5, 1.3796361684799194
17727, 3.1432173252105713, -1.2728610038757324, 0.21957927942276, 0.053034741431474686, -0.1283349096775055, 0.1972091645002365, 0.15266110002994537, -0.370850145816803, 0.0006190367275848985, -0.8285754323005676, -0.9719957709312439, 0.055265337228775024, -0.4096239051824628, -0.5329990445995065, 5.196599112373306, 9362.0, 30146.0, 35388.0, 9362.0, 8.152067184448242, -0.06582225859165192, 0.2100488543510437, -0.1487317532300949, -0.005361870862543583, -0.059225112199783325, 0.999485433101654, -0.07407095283269882, -0.11127853393554688, 1.48681640625, 1.513916015625, 0.224029541015625, 1.48828125, 1.566650390625, 10.0, 1.3796361684799194, 1.5, 1.3796361684799194
17737, 3.1433498859405518, -1.273878574371338, 0.2200617790222168, 0.056131839752197266, -0.1358591914176941, 0.1972157508134842, 0.1570487767457962, -0.38157740235328674, 2.9497807190637104e-05, -0.8285586833953857, -0.9719858169555664, 0.05530105158686638, -0.3890279082063464, -0.560792819265572, 5.178500896086509, 9362.0, 30146.0, 35388.0, 9362.0, 8.152067184448242, -0.028675979003310204, 0.07853058725595474, 0.16853703558444977, -0.005361870862543583, -0.059225112199783325, 0.999485433101654, -0.07407095283269882, -0.11127853393554688, 1.48681640625, 1.6376953125, 0.5082244873046875, 1.48828125, 1.566650390625, 10.0, 1.3796361684799194, 1.5, 1.3796361684799194
17777, 3.140108585357666, -1.2746926546096802, 0.22261939942836761, 0.06258943676948547, -0.1515512317419052, 0.19719217717647552, 0.16582944989204407, -0.40301433205604553, -0.0013050459092482924, -0.8285656571388245, -0.9719875454902649, 0.055302467197179794, -0.3844639279852717, -0.5709963894631187, 5.171492456021204, 9362.0, 30146.0, 35388.0, 9362.0, 8.152067184448242, 0.14023493230342865, 0.15871576964855194, 0.3022824823856354, -0.004740450531244278, -0.06103747710585594, 0.9974902868270874, -0.07407095283269882, -0.11127853393554688, 1.48681640625, 1.39306640625, 0.0337982177734375, 1.487548828125, 1.566650390625, 10.0, 1.379384994506836, 1.5, 1.379384994506836
17787, 3.1391427516937256, -1.2710740566253662, 0.22137625515460968, 0.06425870209932327, -0.155608132481575, 0.19717705249786377, 0.16802385449409485, -0.4083663821220398, -0.0017178984126076102, -0.8285335302352905, -0.9720185399055481, 0.05531784147024155, -0.3804876812863033, -0.5585325524378391, 5.186870695903329, 9362.0, 30146.0, 35388.0, 9362.0, 8.152067184448242, -0.00698508508503437, 0.18520058691501617, -0.1329674869775772, -0.005479354411363602, -0.059884946793317795, 0.9974327087402344, -0.07407095283269882, -0.11127853393554688, 1.48681640625, 1.39306640625, 0.0337982177734375, 1.48974609375, 1.566650390625, 10.0, 1.379384994506836, 1.5, 1.379384994506836
17797, 3.139968156814575, -1.2723459005355835, 0.2207784354686737, 0.06594987213611603, -0.15971852838993073, 0.19715750217437744, 0.17021061480045319, -0.4137134253978729, -0.0021906127221882343, -0.8285764455795288, -0.9719889760017395, 0.05526948720216751, -0.40826244355486113, -0.5377095191803676, 5.201347773893254, 9362.0, 30146.0, 35388.0, 9362.0, 8.152067184448242, -0.06805670261383057, -0.38423633575439453, -0.017399577423930168, -0.005479354411363602, -0.059884946793317795, 0.9974327087402344, -0.07407095283269882, -0.11127853393554688, 1.48681640625, 1.5908203125, 0.395538330078125, 1.48974609375, 1.566650390625, 10.0, 1.379384994506836, 1.5, 1.379384994506836
17827, 3.140554189682007, -1.2718963623046875, 0.2215418815612793, 0.06939784437417984, -0.1680997759103775, 0.1971042901277542, 0.17458434402942657, -0.4244084358215332, -0.0031900033354759216, -0.8285605311393738, -0.9719830751419067, 0.05528050288558006, -0.41356119605192493, -0.5376077484683321, 5.208255741088751, 9362.0, 30146.0, 35388.0, 9362.0, 8.152067184448242, 0.06262306123971939, 0.09914859384298325, 0.052391860634088516, -0.0026339429896324873, -0.06087169796228409, 0.9963459372520447, -0.07407095283269882, -0.11127853393554688, 1.48681640625, 1.462646484375, 0.125823974609375, 1.4912109375, 1.566650390625, 10.0, 1.3794667720794678, 1.5, 1.3794667720794678
17837, 3.140150308609009, -1.2706161737442017, 0.22400090098381042, 0.07293334603309631, -0.17669503390789032, 0.19703316688537598, 0.17896601557731628, -0.4351186156272888, -0.003915224224328995, -0.8285790681838989, -0.9719814658164978, 0.055271346122026443, -0.40685893289242386, -0.5342350864191872, 5.190129556405816, 9362.0, 30146.0, 35388.0, 9362.0, 8.152067184448242, 0.03281174600124359, 0.00952973309904337, -0.05531150475144386, -0.0026339429896324873, -0.06087169796228409, 0.9963459372520447, -0.07407095283269882, -0.11127853393554688, 1.48681640625, 1.59228515625, 0.3989715576171875, 1.4912109375, 1.566650390625, 10.0, 1.3794667720794678, 1.5, 1.3794667720794678
17847, 3.1400649547576904, -1.2695837020874023, 0.2238827794790268, 0.07293334603309631, -0.17669503390789032, 0.19703316688537598, 0.17896601557731628, -0.4351186156272888, -0.003915224224328995, -0.828542172908783, -0.9720056653022766, 0.0553082674741745, -0.3764654717304372, -0.5641051768108412, 5.1772448365194155, 9362.0, 30146.0, 35388.0, 9362.0, 8.152067184448242, 0.03281174600124359, 0.00952973309904337, -0.05531150475144386, -0.0026339429896324873, -0.06087169796228409, 0.9963459372520447, -0.07407095283269882, -0.11127853393554688, 1.48681640625, 1.57763671875, 0.3647918701171875, 1.491943359375, 1.566650390625, 10.0, 1.3801382780075073, 1.5, 1.3801382780075073
17857, 3.1397831439971924, -1.2702692747116089, 0.22243379056453705, 0.07655639201402664, -0.18550439178943634, 0.19694556295871735, 0.1833389848470688, -0.445821613073349, -0.004758676514029503, -0.8285669684410095, -0.9719725847244263, 0.055273737758398056, -0.4079861322020358, -0.528047348544618, 5.202329170149726, 9362.0, 30146.0, 35388.0, 9362.0, 8.152067184448242, 0.03281174600124359, 0.00952973309904337, -0.05531150475144386, -0.0026339429896324873, -0.06087169796228409, 0.9963459372520447, -0.07407095283269882, -0.11127853393554688, 1.48681640625, 1.5615234375, 0.3278350830078125, 1.491943359375, 1.566650390625, 10.0, 1.3796974420547485, 1.5, 1.3796974420547485
17877, 3.1428160667419434, -1.2729473114013672, 0.22129474580287933, 0.07655639201402664, -0.18550439178943634, 0.19694556295871735, 0.1833389848470688, -0.445821613073349, -0.004758676514029503, -0.8285545706748962, -0.9719754457473755, 0.055285099893808365, -0.4091284274931387, -0.5293754236150789, 5.194269041681153, 9362.0, 30146.0, 35388.0, 9362.0, 8.152067184448242, -0.013443201780319214, 0.04033539816737175, -0.03407343477010727, -0.004754858091473579, -0.06240084022283554, 0.997643768787384, -0.07407095283269882, -0.11127853393554688, 1.48681640625, 1.14111328125, 0.8206024169921875, 1.490478515625, 1.566650390625, 10.0, 1.3802777528762817, 1.5, 1.3802777528762817
17907, 3.1455953121185303, -1.274276852607727, 0.22004331648349762, 0.0840652734041214, -0.2037660777568817, 0.19673098623752594, 0.19210626184940338, -0.467257559299469, -0.006148173473775387, -0.8285617828369141, -0.9719790816307068, 0.05526123195886612, -0.4058705588884921, -0.5332866220057326, 5.196467454034415, 9362.0, 30146.0, 35388.0, 9362.0, 8.152067184448242, -0.008466003462672234, -0.1313999444246292, -0.009412981569766998, -0.002387541113421321, -0.05893349647521973, 0.9983646869659424, -0.07407095283269882, -0.11127853393554688, 1.48681640625, 1.140380859375, 0.8274688720703125, 1.48974609375, 1.566650390625, 10.0, 1.3795409202575684, 1.5, 1.3795409202575684
17967, 3.1487362384796143, -1.2761749029159546, 0.21865005791187286, 0.09805057942867279, -0.2377888262271881, 0.19621843099594116, 0.20747745037078857, -0.5048314332962036, -0.00841686874628067, -0.8285603523254395, -0.9719818234443665, 0.05526752024888992, -0.4052101379353844, -0.5398733592554947, 5.201438334483874, 9362.0, 30146.0, 35388.0, 9362.0, 8.152067184448242, -0.0941416397690773, -0.1328265219926834, -0.11698076128959656, -0.002768889768049121, -0.06142731383442879, 0.9995437860488892, -0.07346325367689133, -0.021678924560546875, 1.494140625, 1.2216796875, 0.27325439453125, 1.48974609375, 1.566650390625, 10.0, 1.3780096769332886, 1.5, 1.3780096769332886
17977, 3.1479649543762207, -1.2755037546157837, 0.2176371067762375, 0.10013633221387863, -0.2428639531135559, 0.19613182544708252, 0.20967240631580353, -0.5101943016052246, -0.00890364684164524, -0.8285596370697021, -0.9719654321670532, 0.055266913026571274, -0.40911560041599565, -0.5382534921699573, 5.203150563376751, 9362.0, 30146.0, 35388.0, 9362.0, 8.152067184448242, 0.05187775567173958, 0.10800358653068542, 0.0754692479968071, -0.0035924664698541164, -0.06014421582221985, 0.9963717460632324, -0.07346325367689133, -0.021678924560546875, 1.494140625, 1.519775390625, 0.236236572265625, 1.48974609375, 1.566650390625, 10.0, 1.3777446746826172, 1.5, 1.3777446746826172
17987, 3.147031784057617, -1.2753065824508667, 0.2173389494419098, 0.10224403440952301, -0.24799272418022156, 0.19604083895683289, 0.21186837553977966, -0.5155613422393799, -0.00929196085780859, -0.8285603523254395, -0.9719778299331665, 0.05525440722703934, -0.4042273295547741, -0.5290865818296879, 5.20570008461351, 9362.0, 30146.0, 35388.0, 9362.0, 8.152067184448242, 0.1406676322221756, 0.09265664219856262, 0.14050710201263428, -0.0035924664698541164, -0.06014421582221985, 0.9963717460632324, -0.07346325367689133, -0.021678924560546875, 1.494140625, 1.055419921875, 1.9101409912109375, 1.48828125, 1.566650390625, 10.0, 1.3783233165740967, 1.5, 1.3783233165740967
17997, 3.147264242172241, -1.2747197151184082, 0.21782907843589783, 0.10437370091676712, -0.25317516922950745, 0.19594617187976837, 0.21406491100788116, -0.5209287405014038, -0.009640655480325222, -0.828571617603302, -0.9719522595405579, 0.05526308715343475, -0.4234064444886138, -0.5338696923702457, 5.192792176038029, 9362.0, 30146.0, 35388.0, 9362.0, 8.152067184448242, -0.06998834013938904, -0.22687479853630066, -0.07114911079406738, -0.004660069942474365, -0.0597146637737751, 0.9990490674972534, -0.07346325367689133, -0.021678924560546875, 1.494140625, 1.1513671875, 0.72857666015625, 1.48828125, 1.566650390625, 10.0, 1.3783233165740967, 1.5, 1.3783233165740967
18017, 3.1456656455993652, -1.27202308177948, 0.21690595149993896, 0.10652533918619156, -0.25841131806373596, 0.19584842026233673, 0.21626229584217072, -0.5263010859489441, -0.009908098727464676, -0.8285284042358398, -0.9719986319541931, 0.05529720336198807, -0.37439305575668913, -0.5486048722845567, 5.177481015495169, 9362.0, 30146.0, 35388.0, 9362.0, 8.152067184448242, -0.23278482258319855, -0.010615253821015358, 0.037959273904561996, -0.0037883527111262083, -0.06051868200302124, 0.9969834089279175, -0.07346325367689133, -0.021678924560546875, 1.494140625, 1.35205078125, 0.015380859375, 1.494873046875, 1.566650390625, 10.0, 1.3796652555465698, 1.5, 1.3796652555465698
18077, 3.1466598510742188, -1.2711889743804932, 0.21355564892292023, 0.12220095098018646, -0.29656729102134705, 0.1950758695602417, 0.23161748051643372, -0.5638861656188965, -0.01183836068958044, -0.8285902142524719, -0.9719489216804504, 0.05523303896188736, -0.41993939880529924, -0.5218629156082386, 5.191089949298857, 9362.0, 30146.0, 35388.0, 9362.0, 8.152067184448242, -0.04473283514380455, -0.12725873291492462, 0.24710437655448914, -0.005269135348498821, -0.06199513003230095, 1.0007367134094238, -0.0774969607591629, -0.07543754577636719, 1.48974609375, 1.5732421875, 0.354736328125, 1.48974609375, 1.566650390625, 10.0, 1.379550814628601, 1.5, 1.379550814628601
18117, 3.1459364891052246, -1.26544189453125, 0.21620163321495056, 0.13164064288139343, -0.31955188512802124, 0.19457101821899414, 0.24036630988121033, -0.5853559970855713, -0.013114011846482754, -0.8285316824913025, -0.9719967246055603, 0.0552925206720829, -0.38318837915729853, -0.5575960128495296, 5.188191143984498, 9362.0, 30146.0, 35388.0, 9362.0, 8.152067184448242, 0.12485933303833008, -0.22711145877838135, 0.027967553585767746, -0.003642423776909709, -0.06371770799160004, 0.998039186000824, -0.0774969607591629, -0.07543754577636719, 1.48974609375, 1.5439453125, 0.2884979248046875, 1.4912109375, 1.566650390625, 10.0, 1.380873680114746, 1.5, 1.380873680114746
18177, 3.1493821144104004, -1.2690534591674805, 0.22018811106681824, 0.14645521342754364, -0.35563987493515015, 0.1937338262796402, 0.2534516751766205, -0.6175765991210938, -0.014948802068829536, -0.8285334706306458, -0.9720070958137512, 0.055286962538957596, -0.36558469793431503, -0.57051131835604, 5.182291939513455, 9362.0, 30146.0, 35388.0, 9362.0, 8.152067184448242, 0.13098284602165222, -0.14099065959453583, 0.10191797465085983, -0.003184335771948099, -0.06057623401284218, 0.9973715543746948, -0.0774969607591629, -0.07543754577636719, 1.48974609375, 1.122802734375, 1.00347900390625, 1.49267578125, 1.566650390625, 10.0, 1.381217360496521, 1.5, 1.381217360496521
18187, 3.1506283283233643, -1.2687352895736694, 0.22097118198871613, 0.14645521342754364, -0.35563987493515015, 0.1937338262796402, 0.2534516751766205, -0.6175765991210938, -0.014948802068829536, -0.8285276293754578, -0.9720134139060974, 0.055289655923843384, -0.37581766418800844, -0.5608131715395928, 5.192362407743424, 9362.0, 30146.0, 35388.0, 9362.0, 8.152067184448242, 0.13098284602165222, -0.14099065959453583, 0.10191797465085983, -0.003184335771948099, -0.06057623401284218, 0.9973715543746948, -0.0774969607591629, -0.07543754577636719, 1.48974609375, 1.207763671875, 0.341400146484375, 1.493408203125, 1.566650390625, 10.0, 1.3807913064956665, 1.5, 1.3807913064956665
18197, 3.150120258331299, -1.2667429447174072, 0.22040481865406036, 0.15156789124011993, -0.368098646402359, 0.1934240609407425, 0.25781458616256714, -0.6282995939254761, -0.01604625955224037, -0.828583300113678, -0.9719585180282593, 0.055239561945199966, -0.4223316655090944, -0.5326613328457483, 5.195157289812643, 9362.0, 30146.0, 35388.0, 9362.0, 8.152067184448242, 0.1855960339307785, 0.18638908863067627, -0.14862489700317383, -0.004168045707046986, -0.06038854271173477, 0.9961732029914856, -0.0774969607591629, -0.07543754577636719, 1.48974609375, 1.207763671875, 0.341400146484375, 1.493408203125, 1.566650390625, 10.0, 1.3807913064956665, 1.5, 1.3807913064956665
18217, 3.152069568634033, -1.2713550329208374, 0.22001755237579346, 0.1567678451538086, -0.38077211380004883, 0.1930963695049286, 0.26218298077583313, -0.6390507221221924, -0.01667485386133194, -0.8285923004150391, -0.9719627499580383, 0.055236633867025375, -0.4212619937648646, -0.5354219131858997, 5.186975051256827, 9362.0, 30146.0, 35388.0, 9362.0, 8.152067184448242, 0.21054120361804962, 0.47141382098197937, 0.09520094096660614, -0.00439798878505826, -0.05983492359519005, 0.9990907311439514, -0.0774969607591629, -0.07543754577636719, 1.48974609375, 1.370361328125, 0.0194549560546875, 1.493408203125, 1.566650390625, 10.0, 1.37962806224823, 1.5, 1.37962806224823
18237, 3.152132987976074, -1.2699189186096191, 0.2189658135175705, 0.1567678451538086, -0.38077211380004883, 0.1930963695049286, 0.26218298077583313, -0.6390507221221924, -0.01667485386133194, -0.8285412788391113, -0.9720097780227661, 0.05528257414698601, -0.3710440640866526, -0.5661946717135606, 5.186609071728507, 9362.0, 30146.0, 35388.0, 9362.0, 8.152067184448242, -0.017237797379493713, -0.3425176441669464, -0.14215058088302612, -0.005552131682634354, -0.05860766023397446, 0.99867844581604, -0.0774969607591629, -0.07543754577636719, 1.48974609375, 1.074462890625, 1.6134033203125, 1.493408203125, 1.566650390625, 10.0, 1.3809819221496582, 1.5, 1.3809819221496582
18247, 3.151127576828003, -1.270885705947876, 0.21728193759918213, 0.16473187506198883, -0.40018561482429504, 0.19258099794387817, 0.26874926686286926, -0.6551778316497803, -0.01776026375591755, -0.8285781741142273, -0.9719643592834473, 0.055231016129255295, -0.4268627690027403, -0.5231572874999983, 5.193028127474664, 9362.0, 30146.0, 35388.0, 9362.0, 8.152067184448242, 0.09363064169883728, 0.058342404663562775, -0.1048227921128273, -0.005373260471969843, -0.06002875417470932, 0.9971233606338501, -0.0774969607591629, -0.07543754577636719, 1.48974609375, 1.074462890625, 1.6134033203125, 1.494873046875, 1.566650390625, 10.0, 1.3809819221496582, 1.5, 1.3809819221496582
18257, 3.151933431625366, -1.2718675136566162, 0.21746474504470825, 0.1674303114414215, -0.4067642390727997, 0.19240137934684753, 0.2709369361400604, -0.6605492234230042, -0.018163658678531647, -0.8285714983940125, -0.9719805717468262, 0.05523545295000076, -0.40391378433106834, -0.5340762563589578, 5.196140670077791, 9362.0, 30146.0, 35388.0, 9362.0, 8.152067184448242, 0.09363064169883728, 0.058342404663562775, -0.1048227921128273, -0.005373260471969843, -0.06002875417470932, 0.9971233606338501, -0.0774969607591629, -0.07543754577636719, 1.48974609375, 1.58056640625, 0.3715972900390625, 1.494873046875, 1.566650390625, 10.0, 1.3809819221496582, 1.5, 1.3809819221496582
18267, 3.151475191116333, -1.2699111700057983, 0.21665242314338684, 0.1674303114414215, -0.4067642390727997, 0.19240137934684753, 0.2709369361400604, -0.6605492234230042, -0.018163658678531647, -0.8285348415374756, -0.9720167517662048, 0.0552629716694355, -0.3736767859113742, -0.5522626024717283, 5.177500484140921, 9362.0, 30146.0, 35388.0, 9362.0, 8.152067184448242, -0.2071809023618698, 0.007714762352406979, 0.19546858966350555, -0.005373260471969843, -0.06002875417470932, 0.9971233606338501, -0.0711618959903717, -0.13815879821777344, 1.484619140625, 1.58056640625, 0.3715972900390625, 1.494140625, 1.566650390625, 10.0, 1.3809819221496582, 1.5, 1.3809819221496582
18317, 3.1482760906219482, -1.2740130424499512, 0.21991099417209625, 0.18408052623271942, -0.4473646581172943, 0.1912539154291153, 0.2840690612792969, -0.6927868723869324, -0.020133215934038162, -0.8285291790962219, -0.9719986915588379, 0.055294595658779144, -0.3805116075109394, -0.5580741663970912, 5.186716000758735, 9362.0, 30146.0, 35388.0, 9362.0, 8.152067184448242, -0.10058489441871643, -0.1329026222229004, -0.18511755764484406, -0.004381424747407436, -0.058559123426675797, 0.9977230429649353, -0.0711618959903717, -0.13815879821777344, 1.484619140625, 0.92578125, 4.9995880126953125, 1.4912109375, 1.566650390625, 10.0, 1.3794645071029663, 1.5, 1.3794645071029663
18327, 3.1464507579803467, -1.2723112106323242, 0.21955958008766174, 0.18408052623271942, -0.4473646581172943, 0.1912539154291153, 0.2840690612792969, -0.6927868723869324, -0.020133215934038162, -0.8285428285598755, -0.9719910621643066, 0.05528007447719574, -0.3947677570935125, -0.5514882910146639, 5.179558341893578, 9362.0, 30146.0, 35388.0, 9362.0, 8.152067184448242, -0.10058489441871643, -0.1329026222229004, -0.18511755764484406, -0.004381424747407436, -0.058559123426675797, 0.9977230429649353, -0.0711618959903717, -0.13815879821777344, 1.484619140625, 1.516845703125, 0.23004150390625, 1.48974609375, 1.566650390625, 10.0, 1.3790793418884277, 1.5, 1.3790793418884277
18357, 3.14727520942688, -1.2714840173721313, 0.22228656709194183, 0.19561854004859924, -0.47550511360168457, 0.19041337072849274, 0.2928270995616913, -0.7142342329025269, -0.021875647827982903, -0.8285495042800903, -0.9719769358634949, 0.055291760712862015, -0.3901092033906818, -0.5568628025406497, 5.179432986490172, 9362.0, 30146.0, 35388.0, 9362.0, 8.152067184448242, 0.18425166606903076, 0.1010153740644455, -0.034522686153650284, -0.003709302516654134, -0.061122406274080276, 0.997767984867096, -0.0711618959903717, -0.13815879821777344, 1.484619140625, 1.505859375, 0.2073974609375, 1.494140625, 1.566650390625, 10.0, 1.3785042762756348, 1.5, 1.3785042762756348
18367, 3.1486332416534424, -1.2721905708312988, 0.2239714413881302, 0.19561854004859924, -0.47550511360168457, 0.19041337072849274, 0.2928270995616913, -0.7142342329025269, -0.021875647827982903, -0.8285318613052368, -0.9720029830932617, 0.05528309568762779, -0.38212247015402667, -0.5612258204829459, 5.183076231189721, 9362.0, 30146.0, 35388.0, 9362.0, 8.152067184448242, -0.14250750839710236, 0.11813463270664215, -0.2069077342748642, -0.004099687095731497, -0.06003212183713913, 0.9957542419433594, -0.0711618959903717, -0.13815879821777344, 1.484619140625, 1.505859375, 0.2073974609375, 1.48828125, 1.566650390625, 10.0, 1.3785042762756348, 1.5, 1.3785042762756348
18387, 3.149564743041992, -1.2720763683319092, 0.22365394234657288, 0.20151881873607635, -0.4898969531059265, 0.18996532261371613, 0.2972011864185333, -0.7249516248703003, -0.02294263429939747, -0.8285323977470398, -0.9720094203948975, 0.05529588460922241, -0.3850236391830042, -0.5637643095357987, 5.1872783297687866, 9362.0, 30146.0, 35388.0, 9362.0, 8.152067184448242, 0.2509850263595581, 0.1587228775024414, 0.14893656969070435, -0.004209401085972786, -0.06062931567430496, 0.998313307762146, -0.0711618959903717, -0.13815879821777344, 1.484619140625, 1.585693359375, 0.383544921875, 1.491943359375, 1.566650390625, 10.0, 1.3785042762756348, 1.5, 1.3785042762756348
18407, 3.1512701511383057, -1.273493766784668, 0.224624902009964, 0.2075066864490509, -0.5045033693313599, 0.18949978053569794, 0.3015863299369812, -0.7356960773468018, -0.023576484993100166, -0.8285624384880066, -0.9719859957695007, 0.05524582415819168, -0.4120107167533618, -0.532905605829626, 5.201557052729576, 9362.0, 30146.0, 35388.0, 9362.0, 8.152067184448242, 0.2509850263595581, 0.1587228775024414, 0.14893656969070435, -0.002952785696834326, -0.06035199761390686, 1.0000464916229248, -0.0711618959903717, -0.13815879821777344, 1.484619140625, 1.26123046875, 0.129302978515625, 1.494873046875, 1.566650390625, 10.0, 1.3771429061889648, 1.5, 1.3771429061889648
18427, 3.154214859008789, -1.2734665870666504, 0.22620275616645813, 0.21358230710029602, -0.5193248987197876, 0.1890232115983963, 0.30597519874572754, -0.7464504837989807, -0.02416255883872509, -0.8285505175590515, -0.9719780683517456, 0.05527597665786743, -0.39248889052322794, -0.562297818361202, 5.184011486185889, 9362.0, 30146.0, 35388.0, 9362.0, 8.152067184448242, 0.13168300688266754, 0.006006356328725815, 0.17188313603401184, -0.002952785696834326, -0.06035199761390686, 1.0000464916229248, -0.0711618959903717, -0.13815879821777344, 1.484619140625, 1.629638671875, 0.4884490966796875, 1.493408203125, 1.566650390625, 10.0, 1.374801516532898, 1.5, 1.374801516532898
18447, 3.1556310653686523, -1.275172233581543, 0.22874200344085693, 0.2197456657886505, -0.5343613624572754, 0.18853193521499634, 0.31036344170570374, -0.7572075128555298, -0.024843476712703705, -0.8285397291183472, -0.972011387348175, 0.055285289883613586, -0.3719440975434896, -0.5575501798299172, 5.182366675920366, 9362.0, 30146.0, 35388.0, 9362.0, 8.152067184448242, -0.005134538281708956, -0.12980248034000397, 0.022288266569375992, -0.002952785696834326, -0.06035199761390686, 1.0000464916229248, -0.0711618959903717, -0.13815879821777344, 1.484619140625, 1.51904296875, 0.2346954345703125, 1.4853515625, 1.566650390625, 10.0, 1.374801516532898, 1.5, 1.374801516532898
18487, 3.1568586826324463, -1.2722773551940918, 0.2267960160970688, 0.2259969264268875, -0.5496131777763367, 0.18802975118160248, 0.31475937366485596, -0.7679725885391235, -0.025488724932074547, -0.8285397291183472, -0.9719380736351013, 0.05529731884598732, -0.38068991769808547, -0.5093123698249826, 5.206351288546288, 9362.0, 30146.0, 35388.0, 9362.0, 8.152067184448242, -0.09280335158109665, 0.1874929666519165, 0.15871651470661163, -0.005170819815248251, -0.060554806143045425, 0.9970155954360962, -0.0711618959903717, -0.13815879821777344, 1.484619140625, 1.0693359375, 1.6899566650390625, 1.487548828125, 1.566650390625, 10.0, 1.3753330707550049, 1.5, 1.3753330707550049
18497, 3.1565301418304443, -1.2733980417251587, 0.22795487940311432, 0.23876287043094635, -0.5807628631591797, 0.18698343634605408, 0.32353368401527405, -0.7895069718360901, -0.02692192979156971, -0.8285548090934753, -0.9719687104225159, 0.05523867905139923, -0.41570554154309197, -0.5303847410135063, 5.202829991867429, 9362.0, 30146.0, 35388.0, 9362.0, 8.152067184448242, -0.15181522071361542, -0.28619080781936646, 0.008318896405398846, -0.005170819815248251, -0.060554806143045425, 0.9970155954360962, -0.0711618959903717, -0.13815879821777344, 1.484619140625, 1.3154296875, 0.03118896484375, 1.487548828125, 1.566650390625, 10.0, 1.3770884275436401, 1.5, 1.3770884275436401
18507, 3.1555633544921875, -1.2719905376434326, 0.2288794368505478, 0.23876287043094635, -0.5807628631591797, 0.18698343634605408, 0.32353368401527405, -0.7895069718360901, -0.02692192979156971, -0.8285804986953735, -0.9719759225845337, 0.05524793639779091, -0.4041165481668599, -0.5381914505264831, 5.2078831421700675, 9362.0, 30146.0, 35388.0, 9362.0, 8.152067184448242, 0.003716917708516121, 0.470796138048172, -0.018762385472655296, -0.005170819815248251, -0.060554806143045425, 0.9970155954360962, -0.0711618959903717, -0.13815879821777344, 1.484619140625, 1.5380859375, 0.2755889892578125, 1.491943359375, 1.566650390625, 10.0, 1.3770884275436401, 1.5, 1.3770884275436401
18547, 3.1544644832611084, -1.273594617843628, 0.22707156836986542, 0.25187981128692627, -0.6127738952636719, 0.18588203191757202, 0.3323102295398712, -0.8110312819480896, -0.028396809473633766, -0.8285827040672302, -0.9719605445861816, 0.055218372493982315, -0.4292149758353312, -0.5334755214433926, 5.203006444849556, 9362.0, 30146.0, 35388.0, 9362.0, 8.152067184448242, -0.27880072593688965, 0.012622571550309658, 0.2852151691913605, -0.005121422465890646, -0.0627448633313179, 0.9968476891517639, -0.0711618959903717, -0.13815879821777344, 1.484619140625, 1.2099609375, 0.329986572265625, 1.491943359375, 1.566650390625, 10.0, 1.3763387203216553, 1.5, 1.3763387203216553
18557, 3.153296709060669, -1.2739002704620361, 0.22780363261699677, 0.2585699260234833, -0.6291022300720215, 0.18530815839767456, 0.3367031514644623, -0.821803092956543, -0.02891545556485653, -0.8285291790962219, -0.9720056653022766, 0.05527298152446747, -0.37391604748735124, -0.5573586753363884, 5.181299546099163, 9362.0, 30146.0, 35388.0, 9362.0, 8.152067184448242, -0.27880072593688965, 0.012622571550309658, 0.2852151691913605, -0.005121422465890646, -0.0627448633313179, 0.9968476891517639, -0.0711618959903717, -0.13815879821777344, 1.484619140625, 1.2099609375, 0.329986572265625, 1.491943359375, 1.566650390625, 10.0, 1.3763387203216553, 1.5, 1.3763387203216553
18577, 3.15335750579834, -1.2678805589675903, 0.22759433090686798, 0.2653478682041168, -0.6456458568572998, 0.1847228854894638, 0.3410888612270355, -0.8325570821762085, -0.02965131774544716, -0.8285196423530579, -0.9720014929771423, 0.05528172478079796, -0.3786189760382214, -0.5522888232342211, 5.179165029292225, 9362.0, 30146.0, 35388.0, 9362.0, 8.152067184448242, -0.17005150020122528, 0.15929490327835083, -0.11552918702363968, -0.003938344307243824, -0.06194853037595749, 0.9975497126579285, -0.0714937299489975, -0.01271820068359375, 1.494873046875, 1.2099609375, 0.329986572265625, 1.491943359375, 1.566650390625, 10.0, 1.3770763874053955, 1.5, 1.3770763874053955
