timeTick, roll, pitch, yaw, stateX, stateY, stateZ, stateVX, stateVY, stateVZ, otX0, otY0, otZ0, otRoll0, otPitch0, otYaw0, left wing, pitch motor, yaw motor, right wing, voltage, roll rate, pitch rate, yaw rate, A_x, A_y, A_z, current, i_raw, v_raw, airflow_voltage, airflow_speed, pot_Pitch, voltage_nKF, kFFx, volt_KF_vel, kP, volt_KF_pos
27191, 0.3796810209751129, -2.3051791191101074, 2.628791093826294, 0, 0, 0, 0, 0, 0, -0.8290259838104248, -0.963962972164154, 0.05551563948392868, -0.8154770694289933, 0.4215916380833846, -4.071590330890558, 0, 0, 0, 0, 0, 0, 0, 0, 0, 0, 0, 0, 0, 0, 0, 0, 0, 0, 0, 0, 0, 0
27201, 0.3788810670375824, -2.3050317764282227, 2.6292660236358643, -0.0006463464233092964, 7.606198778375983e-05, -8.696642875671387, -0.01559412106871605, 0.0018338043009862304, -0.6793744564056396, -0.8290036916732788, -0.9639308452606201, 0.055607400834560394, -0.7872694614189264, 0.4472312811722077, -4.050361052465634, 0, 0, 0, 0, 0, 0, 0, 0, 0, 0, 0, 0, 0, 0, 0, 0, 0, 0, 0, 0, 0, 0
27211, 0.3798540234565735, -2.307429552078247, 2.63037109375, -0.0007824870408512652, 9.207132097799331e-05, -8.703438758850098, -0.011634007096290588, 0.0013681419659405947, -0.6797259449958801, -0.8289859890937805, -0.9639968276023865, 0.055554382503032684, -0.8441149686540742, 0.44121097447890634, -4.056076694520533, 9362.0, 30146.0, 35388.0, 9362.0, 0, 0.03715386241674423, 0.23483893275260925, 0.08001647144556046, 0.008913260884582996, -0.06473370641469955, 0.997853696346283, 0, 0, 0, 1.54833984375, 0.298126220703125, 0, 0, 0, 0, 0, 0
27221, 0.37949299812316895, -2.3082382678985596, 2.6312711238861084, -0.0008789872517809272, 0.00010341488086851314, -8.710237503051758, -0.007666030433028936, 0.0009006321197375655, -0.6799867749214172, -0.8290280103683472, -0.963963508605957, 0.0555349625647068, -0.8187988929613405, 0.4159416241191707, -4.08185221440732, 9362.0, 30146.0, 35388.0, 9362.0, 0, 0.0576491504907608, 0.009251178242266178, 0.2588014006614685, 0.007233951240777969, -0.06350002437829971, 0.9988219738006592, 0, 0, 0, 1.40185546875, 0.0417938232421875, 1.493408203125, 1.494140625, 10.0, 1.3940036296844482, 1.5, 1.3940036296844482
27231, 0.3790709376335144, -2.3075151443481445, 2.6321828365325928, -0.0009357778471894562, 0.00011008434375980869, -8.71703815460205, -0.0036920837592333555, 0.000433324312325567, -0.6801337599754333, -0.8289767503738403, -0.9640023708343506, 0.05556309595704079, -0.8376600862175971, 0.44556677817928403, -4.0417461365472205, 9362.0, 30146.0, 35388.0, 9362.0, 0, -0.2605326473712921, -0.039063528180122375, 0.11362165212631226, 0.006283725146204233, -0.06384503096342087, 0.9990325570106506, 0, 0, 0, 1.0927734375, 1.3592987060546875, 1.493408203125, 1.02392578125, 10.0, 1.394063115119934, 1.5, 1.394063115119934
27241, 0.3792093098163605, -2.3046956062316895, 2.632906913757324, -0.0009528793161734939, 0.00011208954674657434, -8.723841667175293, 0.00027180559118278325, -3.2233168894890696e-05, -0.6804978847503662, -0.8289880156517029, -0.9639980792999268, 0.055573344230651855, -0.8390731231883852, 0.43956082883931913, -4.04618068282075, 9362.0, 30146.0, 35388.0, 9362.0, 0, -0.07065949589014053, -0.43902382254600525, 0.14395713806152344, 0.007668083533644676, -0.06482099741697311, 0.9968817830085754, 0, 0, 0, 1.11181640625, 1.125274658203125, 1.493408203125, 1.45166015625, 10.0, 1.3930424451828003, 1.5, 1.3930424451828003
27251, 0.3778989911079407, -2.3050849437713623, 2.6339128017425537, -0.0009303752449341118, 0.00010943824599962682, -8.7306489944458, 0.004229017533361912, -0.0004979635123163462, -0.6809085011482239, -0.8290238380432129, -0.9639679193496704, 0.05556558445096016, -0.8195008504623792, 0.41456465796954944, -4.076940697556174, 9362.0, 30146.0, 35388.0, 9362.0, 0, -0.19060316681861877, -0.14092573523521423, 0.02643764205276966, 0.00950278714299202, -0.06420343369245529, 0.9964554905891418, 0, 0, 0, 1.24951171875, 0.1648101806640625, 1.493408203125, 1.316162109375, 10.0, 1.3929407596588135, 1.5, 1.3929407596588135
27261, 0.37952399253845215, -2.3050334453582764, 2.6325247287750244, -0.0008683036430738866, 0.00010214217036264017, -8.737460136413574, 0.008185289800167084, -0.00096133939223364, -0.6813556551933289, -0.8290286660194397, -0.9639736413955688, 0.05553559958934784, -0.8262653195901707, 0.42560400366124895, -4.073959685913665, 9362.0, 30146.0, 35388.0, 9362.0, 0, 0.2783786952495575, 0.07410091906785965, -0.12247836589813232, 0.009042296558618546, -0.06399225443601608, 0.9962086081504822, 0, 0, 0, 1.5791015625, 0.368133544921875, 1.48681640625, 1.47509765625, 10.0, 1.3937065601348877, 1.5, 1.3937065601348877
27271, 0.37964126467704773, -2.3059287071228027, 2.633225440979004, -0.0007667068275623024, 9.0202440333087e-05, -8.744277000427246, 0.012134057469666004, -0.001426558243110776, -0.6819887757301331, -0.8290200233459473, -0.963955819606781, 0.05552664399147034, -0.8184842124204748, 0.4196744885926762, -4.075598736858204, 9362.0, 30146.0, 35388.0, 9362.0, 0, -0.02727024257183075, 0.2645716667175293, 0.2457127571105957, 0.00813903845846653, -0.06429330259561539, 0.9938308000564575, 0, 0, 0, 1.36962890625, 0.01910400390625, 1.48681640625, 1.482421875, 10.0, 1.394469976425171, 1.5, 1.394469976425171
27281, 0.3804362118244171, -2.3064303398132324, 2.63472580909729, -0.00062557467026636, 7.360539893852547e-05, -8.7510986328125, 0.01609238237142563, -0.0018927422352135181, -0.6824246048927307, -0.82902991771698, -0.9639694690704346, 0.05551490932703018, -0.8186249563060513, 0.40833595062554195, -4.073063923578217, 9362.0, 30146.0, 35388.0, 9362.0, 0, -0.04356840252876282, 0.23542839288711548, 0.3426068425178528, 0.006477497983723879, -0.06183575838804245, 0.9967638254165649, 0, 0, 0, 1.319091796875, 0.0279998779296875, 1.4912109375, 1.52490234375, 10.0, 1.3923333883285522, 1.5, 1.3923333883285522
27291, 0.3799145519733429, -2.306844711303711, 2.634967803955078, -0.0004448711115401238, 5.234240961726755e-05, -8.757925033569336, 0.02004832774400711, -0.0023598424158990383, -0.6829419732093811, -0.828976571559906, -0.9639863967895508, 0.0555872917175293, -0.840181558380892, 0.43522575404634267, -4.048545998348488, 9362.0, 30146.0, 35388.0, 9362.0, 0, -0.1472037434577942, -0.11730736494064331, 0.04597514867782593, 0.008228808641433716, -0.06174422428011894, 0.9952573776245117, 0, 0, 0, 1.47509765625, 0.147857666015625, 1.4912109375, 1.2099609375, 10.0, 1.3916234970092773, 1.5, 1.3916234970092773
27301, 0.3799861967563629, -2.304023265838623, 2.631791353225708, -0.00022457298473455012, 2.6409361453261226e-05, -8.764756202697754, 0.024011287838220596, -0.0028269861359149218, -0.6833022832870483, -0.829023540019989, -0.963955283164978, 0.05553584173321724, -0.8199487303355719, 0.42247581275910306, -4.074080234544261, 9362.0, 30146.0, 35388.0, 9362.0, 8.152067184448242, -0.016019346192479134, -0.29606565833091736, -0.3768079876899719, 0.008374648168683052, -0.06223680078983307, 0.9977521896362305, -0.06351856887340546, -0.0037593841552734375, 1.49560546875, 1.210693359375, 0.326202392578125, 1.493408203125, 1.03564453125, 10.0, 1.392435073852539, 1.5, 1.392435073852539
27311, 0.38019102811813354, -2.3041276931762695, 2.6307342052459717, 3.532215487211943e-05, -4.196936060907319e-06, -8.771591186523438, 0.027967724949121475, -0.0032943475525826216, -0.6837042570114136, -0.8290174007415771, -0.9639668464660645, 0.05552881211042404, -0.8236581824511121, 0.41144487127226625, -4.06454639363966, 9362.0, 30146.0, 35388.0, 9362.0, 8.152067184448242, -0.013388343155384064, 0.08985190838575363, -0.07703263312578201, 0.008028704673051834, -0.0631442442536354, 0.9962638020515442, -0.06351856887340546, -0.0037593841552734375, 1.49560546875, 1.257568359375, 0.1398162841796875, 1.493408203125, 1.51318359375, 10.0, 1.3928625583648682, 1.5, 1.3928625583648682
27321, 0.37889835238456726, -2.3023359775543213, 2.6296515464782715, 0.00033477784018032253, -3.9478363760281354e-05, -8.778429985046387, 0.03192342445254326, -0.003762019332498312, -0.6841295957565308, -0.8290367126464844, -0.9639672636985779, 0.055553145706653595, -0.8157796385213766, 0.4092432861399118, -4.065303288657467, 9362.0, 30146.0, 35388.0, 9362.0, 8.152067184448242, -0.05024275928735733, -0.2810252010822296, -0.366862028837204, 0.008891790173947811, -0.06509518623352051, 0.9966062307357788, -0.06351856887340546, -0.0037593841552734375, 1.49560546875, 1.607666015625, 0.43548583984375, 1.489013671875, 1.01513671875, 10.0, 1.3933672904968262, 1.5, 1.3933672904968262
27331, 0.37883785367012024, -2.300800323486328, 2.62914776802063, 0.0006738040247000754, -7.943002856336534e-05, -8.785272598266602, 0.03588181734085083, -0.004228346049785614, -0.6844097971916199, -0.8290241956710815, -0.9639559984207153, 0.05553709715604782, -0.8208020958378291, 0.4169378267419006, -4.072452084552721, 9362.0, 30146.0, 35388.0, 9362.0, 8.152067184448242, -0.0592631958425045, -0.09808877855539322, 0.13854597508907318, 0.007127183023840189, -0.06436506658792496, 0.9984119534492493, -0.06351856887340546, -0.0037593841552734375, 1.49560546875, 1.557861328125, 0.3195037841796875, 1.489013671875, 1.484619140625, 10.0, 1.392543077468872, 1.5, 1.392543077468872
27341, 0.37965792417526245, -2.300049304962158, 2.629361152648926, 0.0010523945093154907, -0.0001240444544237107, -8.792118072509766, 0.03983628749847412, -0.00469452328979969, -0.684721827507019, -0.829013466835022, -0.9639701247215271, 0.055527471005916595, -0.8227775715754185, 0.41960847914330657, -4.063845855905166, 9362.0, 30146.0, 35388.0, 9362.0, 8.152067184448242, 0.12731677293777466, -0.11621369421482086, 0.01580255664885044, 0.008733551017940044, -0.0646095722913742, 0.997586727142334, -0.06351856887340546, -0.0037593841552734375, 1.49560546875, 1.228271484375, 0.2443389892578125, 1.48828125, 1.201171875, 10.0, 1.3931182622909546, 1.5, 1.3931182622909546
27351, 0.3790906071662903, -2.300302267074585, 2.629122495651245, 0.001470542629249394, -0.00017333010328002274, -8.798966407775879, 0.043793316930532455, -0.005162621382623911, -0.6849406361579895, -0.8290435075759888, -0.9639540314674377, 0.055619977414608, -0.8131397534977388, 0.4238857773040081, -4.067963623939313, 9362.0, 30146.0, 35388.0, 9362.0, 8.152067184448242, -0.06949557363986969, 0.15073996782302856, -0.018870938569307327, 0.007558957673609257, -0.06465429067611694, 0.9990615844726562, -0.06351856887340546, -0.0037593841552734375, 1.49560546875, 0.93896484375, 4.5870819091796875, 1.48828125, 1.20849609375, 10.0, 1.3921445608139038, 1.5, 1.3921445608139038
27361, 0.3784264326095581, -2.298478364944458, 2.627866268157959, 0.0019282742869108915, -0.00022729321790393442, -8.805816650390625, 0.04775300621986389, -0.005630087573081255, -0.6851029396057129, -0.8290095925331116, -0.9639689922332764, 0.055546581745147705, -0.8140201612620233, 0.41788545154520307, -4.074666817177862, 9362.0, 30146.0, 35388.0, 9362.0, 8.152067184448242, -0.06414642184972763, 0.007476362865418196, -0.15850712358951569, 0.008420048281550407, -0.06403306126594543, 0.9988430738449097, -0.06351856887340546, -0.0037593841552734375, 1.49560546875, 1.61279296875, 0.4476470947265625, 1.489013671875, 0.88037109375, 10.0, 1.391849160194397, 1.5, 1.391849160194397
27371, 0.37859565019607544, -2.2986252307891846, 2.6271088123321533, 0.002425549551844597, -0.000285922025796026, -8.81266975402832, 0.051702048629522324, -0.0060957311652600765, -0.6854503154754639, -0.8290195465087891, -0.9639589190483093, 0.055552151054143906, -0.8148109832420595, 0.4140480968723068, -4.071675396380056, 9362.0, 30146.0, 35388.0, 9362.0, 8.152067184448242, 0.010924991220235825, 0.04471214860677719, -0.1778014600276947, 0.008684081956744194, -0.06410413235425949, 0.9965814352035522, -0.06351856887340546, -0.0037593841552734375, 1.49560546875, 0.9345703125, 4.7218170166015625, 1.489013671875, 1.012939453125, 10.0, 1.3925374746322632, 1.5, 1.3925374746322632
27381, 0.3795014023780823, -2.298724889755249, 2.627049207687378, 0.0029623215086758137, -0.00034920955658890307, -8.819525718688965, 0.055652372539043427, -0.006561778020113707, -0.6857724189758301, -0.8290164470672607, -0.9639610648155212, 0.05554324388504028, -0.8183664816700118, 0.4139335303877658, -4.070686916790898, 9362.0, 30146.0, 35388.0, 9362.0, 8.152067184448242, 0.1840561479330063, 0.1594344973564148, 0.10963613539934158, 0.009078001603484154, -0.06406118720769882, 0.9981278777122498, -0.06351856887340546, -0.0037593841552734375, 1.49560546875, 1.34033203125, 0.0166168212890625, 1.491943359375, 1.584228515625, 10.0, 1.3908209800720215, 1.5, 1.3908209800720215
27391, 0.3806561827659607, -2.298099994659424, 2.625051975250244, 0.0035386173985898495, -0.00041716755367815495, -8.826384544372559, 0.05960681661963463, -0.007029957603663206, -0.685998260974884, -0.8290165662765503, -0.963959813117981, 0.05556856095790863, -0.8177732858551419, 0.4095457674741567, -4.083187563536339, 9362.0, 30146.0, 35388.0, 9362.0, 8.152067184448242, 0.17977270483970642, -0.26373299956321716, -0.1523972600698471, 0.009438124485313892, -0.06414010375738144, 0.9994540810585022, -0.06351856887340546, -0.0037593841552734375, 1.49560546875, 0.949951171875, 4.26220703125, 1.491943359375, 1.078857421875, 10.0, 1.3913923501968384, 1.5, 1.3913923501968384
27401, 0.3802588880062103, -2.2985172271728516, 2.626115560531616, 0.004154467023909092, -0.0004898198531009257, -8.833245277404785, 0.06356311589479446, -0.007500425446778536, -0.6861538290977478, -0.8290277719497681, -0.9639683961868286, 0.055554185062646866, -0.8231344767472178, 0.42193758659200853, -4.06723395506404, 9362.0, 30146.0, 35388.0, 9362.0, 8.152067184448242, 0.08603261411190033, 0.02548353187739849, 0.1690339595079422, 0.008702294901013374, -0.06381972879171371, 0.9989321827888489, -0.06191672757267952, -0.06647872924804688, 1.490478515625, 1.236328125, 0.211822509765625, 1.494140625, 1.080322265625, 10.0, 1.3919734954833984, 1.5, 1.3919734954833984
27411, 0.38050583004951477, -2.2988181114196777, 2.6248042583465576, 0.00480987410992384, -0.0005671718390658498, -8.840107917785645, 0.06751827150583267, -0.007970056496560574, -0.6863541007041931, -0.8290225863456726, -0.9639675617218018, 0.05556405335664749, -0.8231592068460168, 0.4188998335167753, -4.071211383010194, 9362.0, 30146.0, 35388.0, 9362.0, 8.152067184448242, 0.18023112416267395, 0.03229871764779091, -0.1442624032497406, 0.009390746243298054, -0.0644853413105011, 0.9989875555038452, -0.06191672757267952, -0.06647872924804688, 1.490478515625, 1.278076171875, 0.087799072265625, 1.494140625, 1.55712890625, 10.0, 1.3924139738082886, 1.5, 1.3924139738082886
27421, 0.3817274570465088, -2.3012197017669678, 2.6240808963775635, 0.0055048419162631035, -0.0006492233369499445, -8.846972465515137, 0.07147528231143951, -0.008440293371677399, -0.6865218877792358, -0.8290194272994995, -0.963964581489563, 0.05554359033703804, -0.8245594030292569, 0.4131450541224808, -4.078298571079259, 9362.0, 30146.0, 35388.0, 9362.0, 8.152067184448242, 0.2420034557580948, 0.48470214009284973, -0.07458945363759995, 0.00812483113259077, -0.0635809525847435, 0.9993796348571777, -0.06191672757267952, -0.06647872924804688, 1.490478515625, 1.5146484375, 0.225494384765625, 1.496337890625, 1.358642578125, 10.0, 1.3910424709320068, 1.5, 1.3910424709320068
27431, 0.38077184557914734, -2.3021721839904785, 2.6238200664520264, 0.00623941607773304, -0.0007359887822531164, -8.853837966918945, 0.07543959468603134, -0.008912816643714905, -0.6866133809089661, -0.8289737701416016, -0.9639685750007629, 0.05550065636634827, -0.8230440805430127, 0.3683855122538091, -4.083682178149606, 9362.0, 30146.0, 35388.0, 9362.0, 8.152067184448242, -0.0787849947810173, 0.04312389716506004, 0.0739469975233078, 0.007639201357960701, -0.06306122243404388, 0.9999159574508667, -0.06191672757267952, -0.06647872924804688, 1.490478515625, 1.040771484375, 2.162322998046875, 1.496337890625, 1.364501953125, 10.0, 1.3911505937576294, 1.5, 1.3911505937576294
27441, 0.38135260343551636, -2.302459955215454, 2.6241371631622314, 0.007013585884124041, -0.0008274644496850669, -8.860706329345703, 0.0793944001197815, -0.009382293559610844, -0.6869775652885437, -0.8290225267410278, -0.9639580249786377, 0.05555157735943794, -0.8224630512673389, 0.42344648688714415, -4.076018003077173, 9362.0, 30146.0, 35388.0, 9362.0, 8.152067184448242, 0.03133418411016464, 0.12608003616333008, 0.11295350641012192, 0.01007850095629692, -0.06411805748939514, 0.9963043928146362, -0.06191672757267952, -0.06647872924804688, 1.490478515625, 1.361572265625, 0.016571044921875, 1.486083984375, 1.477294921875, 10.0, 1.390222430229187, 1.5, 1.390222430229187
27451, 0.381579726934433, -2.300626039505005, 2.625795841217041, 0.00782728847116232, -0.0009236375335603952, -8.867578506469727, 0.08334621042013168, -0.009852202609181404, -0.6874300837516785, -0.8290202021598816, -0.963948130607605, 0.05557665601372719, -0.8247300917728708, 0.4195298839464954, -4.074075924480195, 9362.0, 30146.0, 35388.0, 9362.0, 8.152067184448242, 0.06374555081129074, -0.3953327238559723, 0.32894396781921387, 0.008307818323373795, -0.06548067927360535, 0.9963884949684143, -0.06191672757267952, -0.06647872924804688, 1.490478515625, 0.886962890625, 6.366668701171875, 1.486083984375, 1.359375, 10.0, 1.3900649547576904, 1.5, 1.3900649547576904
27461, 0.38083338737487793, -2.3018150329589844, 2.6255075931549072, 0.008680511265993118, -0.0010245138546451926, -8.874454498291016, 0.0872984230518341, -0.010323085822165012, -0.6877951622009277, -0.8290097117424011, -0.9639653563499451, 0.05555454641580582, -0.817733658873786, 0.4155718809298605, -4.0690598996617675, 9362.0, 30146.0, 35388.0, 9362.0, 8.152067184448242, -0.19001884758472443, -0.08885651081800461, -0.006092094350606203, 0.00898211169987917, -0.06566397100687027, 0.9971387982368469, -0.06191672757267952, -0.06647872924804688, 1.490478515625, 1.669921875, 0.589080810546875, 1.494873046875, 1.459716796875, 10.0, 1.3892419338226318, 1.5, 1.3892419338226318
27471, 0.38117268681526184, -2.3006033897399902, 2.625073194503784, 0.009573242627084255, -0.0011300895130261779, -8.881335258483887, 0.09124787151813507, -0.01079206820577383, -0.6882777214050293, -0.8290234208106995, -0.9639546871185303, 0.05556846037507057, -0.8132038293645035, 0.42465939713557077, -4.07262075986997, 9362.0, 30146.0, 35388.0, 9362.0, 8.152067184448242, 0.02127353474497795, -0.14301972091197968, -0.009199696592986584, 0.009380589239299297, -0.06566419452428818, 0.9954400062561035, -0.06191672757267952, -0.06647872924804688, 1.490478515625, 0.8935546875, 6.1177825927734375, 1.494873046875, 1.382080078125, 10.0, 1.3891152143478394, 1.5, 1.3891152143478394
27481, 0.38133329153060913, -2.298182725906372, 2.624972343444824, 0.010505503043532372, -0.0012403636937960982, -8.888218879699707, 0.09520416706800461, -0.011262786574661732, -0.6885400414466858, -0.8290331363677979, -0.9639466404914856, 0.05557394027709961, -0.8212370374990041, 0.41932218478896743, -4.062321808244285, 9362.0, 30146.0, 35388.0, 9362.0, 8.152067184448242, 0.019852539524435997, -0.5160934925079346, 0.0023585576564073563, 0.008858087472617626, -0.06282653659582138, 0.9990040063858032, -0.06191672757267952, -0.06647872924804688, 1.490478515625, 1.629638671875, 0.4884490966796875, 1.489013671875, 1.24365234375, 10.0, 1.3890398740768433, 1.5, 1.3890398740768433
27491, 0.3814481198787689, -2.29879093170166, 2.62436580657959, 0.010505503043532372, -0.0012403636937960982, -8.888218879699707, 0.09520416706800461, -0.011262786574661732, -0.6887480616569519, -0.8290254473686218, -0.9639473557472229, 0.055544547736644745, -0.8188007901314458, 0.4176788725162339, -4.077049399686282, 9362.0, 30146.0, 35388.0, 9362.0, 8.152067184448242, -0.014153998345136642, 0.11406395584344864, 0.04442634433507919, 0.006743717007339001, -0.06349239498376846, 0.9985761642456055, -0.06191672757267952, -0.06647872924804688, 1.490478515625, 1.489013671875, 0.174041748046875, 1.489013671875, 1.505126953125, 10.0, 1.389639973640442, 1.5, 1.389639973640442
27501, 0.381073921918869, -2.298279285430908, 2.6220948696136475, 0.012488652020692825, -0.0014750466216355562, -8.901994705200195, 0.10310859233140945, -0.012205429375171661, -0.6890884637832642, -0.8290238976478577, -0.96394944190979, 0.055566851049661636, -0.8178110893824716, 0.4139774112335317, -4.073120969683377, 9362.0, 30146.0, 35388.0, 9362.0, 8.152067184448242, 0.003228031797334552, -0.006437306292355061, -0.24554094672203064, 0.0098425829783082, -0.0645594671368599, 0.9969395995140076, -0.07410287857055664, -0.0037593841552734375, 1.49560546875, 1.59228515625, 0.3989715576171875, 1.489013671875, 1.62451171875, 10.0, 1.389819622039795, 1.5, 1.389819622039795
27511, 0.38006412982940674, -2.2966384887695312, 2.6202690601348877, 0.012488652020692825, -0.0014750466216355562, -8.901994705200195, 0.10310859233140945, -0.012205429375171661, -0.6890884637832642, -0.8289989233016968, -0.9639711976051331, 0.05559149384498596, -0.8389365796500422, 0.4411947563120009, -4.044958311026214, 9362.0, 30146.0, 35388.0, 9362.0, 8.152067184448242, -0.1920033097267151, -0.40800827741622925, -0.15930895507335663, 0.007674088701605797, -0.06475521624088287, 0.9954532980918884, -0.07410287857055664, -0.0037593841552734375, 1.49560546875, 1.540283203125, 0.280364990234375, 1.489013671875, 1.529296875, 10.0, 1.3891199827194214, 1.5, 1.3891199827194214
27521, 0.38145768642425537, -2.299027442932129, 2.6199660301208496, 0.014629706740379333, -0.0017285500653088093, -8.91578483581543, 0.11099768429994583, -0.013144473545253277, -0.6899242401123047, -0.8289644718170166, -0.9639756679534912, 0.05559629201889038, -0.8367396477135122, 0.4350408797360217, -4.0514865428840405, 9362.0, 30146.0, 35388.0, 9362.0, 8.152067184448242, 0.09995858371257782, 0.3718031942844391, 0.01173326838761568, 0.005898086354136467, -0.06436365097761154, 0.9976413249969482, -0.07410287857055664, -0.0037593841552734375, 1.49560546875, 1.020263671875, 2.552642822265625, 1.4970703125, 1.63037109375, 10.0, 1.3897498846054077, 1.5, 1.3897498846054077
27551, 0.38230183720588684, -2.3035194873809814, 2.619034767150879, 0.01692868396639824, -0.00200085761025548, -8.929590225219727, 0.1189044639468193, -0.01408605370670557, -0.6906058192253113, -0.8290124535560608, -0.963963508605957, 0.05553002655506134, -0.8174168917301968, 0.4121004745958601, -4.075610221618165, 9362.0, 30146.0, 35388.0, 9362.0, 8.152067184448242, 0.09442313015460968, 0.22228871285915375, -0.17016929388046265, 0.005898086354136467, -0.06436365097761154, 0.9976413249969482, -0.07410287857055664, -0.0037593841552734375, 1.49560546875, 1.6171875, 0.4583282470703125, 1.489013671875, 1.63037109375, 10.0, 1.3869034051895142, 1.5, 1.3869034051895142
27671, 0.382668673992157, -2.3092784881591797, 2.6140456199645996, 0.03405274823307991, -0.004031028598546982, -9.01266098022461, 0.16652506589889526, -0.019749002531170845, -0.6942073106765747, -0.8289954662322998, -0.9639646410942078, 0.055434003472328186, -0.817291541192323, 0.37025628595336, -4.093499405562065, 9362.0, 30146.0, 35388.0, 9362.0, 8.152067184448242, 0.0235971137881279, 0.4381024241447449, 0.3013416528701782, 0.00679495744407177, -0.06448990106582642, 0.9970157146453857, -0.059525493532419205, -0.07543754577636719, 1.48974609375, 0.8642578125, 7.27935791015625, 1.491943359375, 1.4677734375, 10.0, 1.3855922222137451, 1.5, 1.3855922222137451
27691, 0.3827763795852661, -2.3073887825012207, 2.615121841430664, 0.037462733685970306, -0.004435469396412373, -9.026549339294434, 0.17447243630886078, -0.020695436745882034, -0.6946598887443542, -0.828982949256897, -0.9639716148376465, 0.055543746799230576, -0.8441732427501643, 0.43626223374411666, -4.053036687984946, 9362.0, 30146.0, 35388.0, 9362.0, 8.152067184448242, -0.03199073672294617, 0.05411429703235626, 0.10616429895162582, 0.007324223406612873, -0.060524631291627884, 0.9966480135917664, -0.059525493532419205, -0.07543754577636719, 1.48974609375, 1.329345703125, 0.02105712890625, 1.4912109375, 1.41796875, 10.0, 1.3824207782745361, 1.5, 1.3824207782745361
27711, 0.38299283385276794, -2.307865619659424, 2.617924690246582, 0.041031479835510254, -0.004858829081058502, -9.040449142456055, 0.18240436911582947, -0.02164117805659771, -0.6952988505363464, -0.8290419578552246, -0.9639567136764526, 0.05550554022192955, -0.8213871543697603, 0.4152209309665409, -4.06579929986108, 9362.0, 30146.0, 35388.0, 9362.0, 8.132232666015625, 0.1645718365907669, 0.16954700648784637, 0.3914177715778351, 0.007448096293956041, -0.0645696297287941, 0.9984731078147888, -0.08535848557949066, -0.030637741088867188, 1.493408203125, 1.4794921875, 0.155975341796875, 1.4912109375, 1.41796875, 10.0, 1.3823450803756714, 1.5, 1.3823450803756714
27731, 0.3847705125808716, -2.3064842224121094, 2.6151387691497803, 0.04475890100002289, -0.005301129538565874, -9.054360389709473, 0.19034063816070557, -0.02258905954658985, -0.6957861185073853, -0.8289275169372559, -0.9639700651168823, 0.05550169572234154, -0.8359063843272833, 0.39417630508859247, -4.061533517902611, 9362.0, 30146.0, 35388.0, 9362.0, 8.132232666015625, 0.13094539940357208, -0.3279421627521515, -0.2911405861377716, 0.007448096293956041, -0.0645696297287941, 0.9984731078147888, -0.08535848557949066, -0.030637741088867188, 1.493408203125, 1.226806640625, 0.2505340576171875, 1.4912109375, 1.634033203125, 10.0, 1.3824913501739502, 1.5, 1.3824913501739502
27771, 0.3843614459037781, -2.3111720085144043, 2.6146156787872314, 0.0526893325150013, -0.006242747884243727, -9.082230567932129, 0.20619504153728485, -0.024494044482707977, -0.6974612474441528, -0.8290325999259949, -0.9639409184455872, 0.05551633983850479, -0.8126379190724988, 0.41814114479456066, -4.068293234952137, 9362.0, 30146.0, 35388.0, 9362.0, 8.132232666015625, -0.12024922668933868, 0.17332665622234344, -0.02329791523516178, 0.007448096293956041, -0.0645696297287941, 0.9984731078147888, -0.08535848557949066, -0.030637741088867188, 1.493408203125, 1.5732421875, 0.354736328125, 1.49560546875, 1.58203125, 10.0, 1.379807710647583, 1.5, 1.379807710647583
27811, 0.38441288471221924, -2.316279888153076, 2.61403751373291, 0.06125491112470627, -0.0072605726309120655, -9.110156059265137, 0.22208082675933838, -0.026397040113806725, -0.698910653591156, -0.8289680480957031, -0.9639407396316528, 0.05546444654464722, -0.8152243749015607, 0.3701315317669014, -4.089693144159406, 9362.0, 30146.0, 35388.0, 9362.0, 8.152067184448242, -0.0558742918074131, 0.22538667917251587, 0.2965454161167145, 0.008643267676234245, -0.06320926547050476, 0.9951671957969666, -0.09565071016550064, -0.10231781005859375, 1.487548828125, 1.4912109375, 0.178253173828125, 1.48974609375, 1.60107421875, 10.0, 1.3792920112609863, 1.5, 1.3792920112609863
27831, 0.3838037848472595, -2.314850330352783, 2.6124448776245117, 0.065776027739048, -0.007798036094754934, -9.12414264678955, 0.23003187775611877, -0.027348646894097328, -0.6997390985488892, -0.8290344476699829, -0.9639352560043335, 0.05549536272883415, -0.8218497395754929, 0.4130584504544572, -4.075027035065102, 9362.0, 30146.0, 35388.0, 9362.0, 8.152067184448242, -0.03464256227016449, -0.2878614366054535, -0.15683849155902863, 0.008643267676234245, -0.06320926547050476, 0.9951671957969666, -0.09565071016550064, -0.10231781005859375, 1.487548828125, 1.52490234375, 0.247039794921875, 1.48974609375, 1.587890625, 10.0, 1.3801310062408447, 1.5, 1.3801310062408447
27841, 0.38448140025138855, -2.31538462638855, 2.612527370452881, 0.065776027739048, -0.007798036094754934, -9.12414264678955, 0.23003187775611877, -0.027348646894097328, -0.6997390985488892, -0.8290421962738037, -0.9639471173286438, 0.05548196658492088, -0.8265776694454663, 0.41396622074731226, -4.075133995773178, 9362.0, 30146.0, 35388.0, 9362.0, 8.152067184448242, -0.03464256227016449, -0.2878614366054535, -0.15683849155902863, 0.008183613419532776, -0.06368951499462128, 0.9956445097923279, -0.09565071016550064, -0.10231781005859375, 1.487548828125, 0.908935546875, 5.5641326904296875, 1.48974609375, 1.587890625, 10.0, 1.3802580833435059, 1.5, 1.3802580833435059
27931, 0.38552412390708923, -2.312290668487549, 2.6062300205230713, 0.07777498662471771, -0.009224859066307545, -9.159173011779785, 0.24993456900119781, -0.02972826547920704, -0.7012943625450134, -0.8290533423423767, -0.9639383554458618, 0.05551529675722122, -0.8228556025948368, 0.4187929323051094, -4.076617266656156, 9362.0, 30146.0, 35388.0, 9362.0, 8.152067184448242, 0.10327732563018799, -0.20441222190856934, -0.3800140917301178, 0.007482441142201424, -0.06615146994590759, 0.9992554783821106, -0.06137479469180107, -0.01271820068359375, 1.494873046875, 1.320556640625, 0.02685546875, 1.494140625, 1.527099609375, 10.0, 1.3816767930984497, 1.5, 1.3816767930984497
27951, 0.38556209206581116, -2.3103086948394775, 2.6057615280151367, 0.09624612331390381, -0.011422524228692055, -9.208319664001465, 0.27780401706695557, -0.03306451067328453, -0.7028207182884216, -0.8290353417396545, -0.9639489054679871, 0.055543411523103714, -0.816552278374659, 0.4136578886954396, -4.0627325718078, 9362.0, 30146.0, 35388.0, 9362.0, 8.152067184448242, 0.10327732563018799, -0.20441222190856934, -0.3800140917301178, 0.008941290900111198, -0.06414039433002472, 0.9959582686424255, -0.06137479469180107, -0.01271820068359375, 1.494873046875, 1.4208984375, 0.063079833984375, 1.494140625, 1.60107421875, 10.0, 1.382399559020996, 1.5, 1.382399559020996
27991, 0.3868521451950073, -2.30672550201416, 2.6046388149261475, 0.11063272505998611, -0.013135611079633236, -9.243499755859375, 0.2976692020893097, -0.03546566888689995, -0.7039202451705933, -0.8290094137191772, -0.9639685750007629, 0.05556153506040573, -0.8375938728206046, 0.4457464539084697, -4.0595440430492955, 9362.0, 30146.0, 35388.0, 9362.0, 8.152067184448242, 0.12359482049942017, -0.16826267540454865, -0.2929937541484833, 0.007958256639540195, -0.06809362769126892, 0.9995566606521606, -0.06137479469180107, -0.01271820068359375, 1.494873046875, 1.343994140625, 0.015899658203125, 1.4912109375, 1.635498046875, 10.0, 1.3842661380767822, 1.5, 1.3842661380767822
28031, 0.3859134316444397, -2.3063926696777344, 2.608602285385132, 0.11974112689495087, -0.014221221208572388, -9.26463508605957, 0.30955344438552856, -0.036908335983753204, -0.7051876187324524, -0.8290337920188904, -0.9639424085617065, 0.05554202198982239, -0.8253333342539628, 0.42420050776135554, -4.067361711449011, 9362.0, 30146.0, 35388.0, 9362.0, 8.152067184448242, -0.05163120478391647, -0.18463477492332458, 0.02184489741921425, 0.007488077040761709, -0.06663999706506729, 0.9966007471084595, -0.06724068522453308, 0.13064002990722656, 1.506591796875, 1.56298828125, 0.3311767578125, 1.4912109375, 1.6171875, 10.0, 1.384225606918335, 1.5, 1.384225606918335
28051, 0.38543254137039185, -2.3112165927886963, 2.6090917587280273, 0.12920595705509186, -0.015350044704973698, -9.285809516906738, 0.3214384615421295, -0.03834651783108711, -0.7064178586006165, -0.829025387763977, -0.9639313817024231, 0.05553562566637993, -0.8270795752648423, 0.4169140126480215, -4.0682873249142615, 9362.0, 30146.0, 35388.0, 9362.0, 8.152067184448242, -0.060584407299757004, 0.10610013455152512, 0.1071176826953888, 0.007588293869048357, -0.06406254321336746, 0.9960930943489075, -0.06724068522453308, 0.13064002990722656, 1.506591796875, 1.67431640625, 0.6003570556640625, 1.4912109375, 1.5498046875, 10.0, 1.3824949264526367, 1.5, 1.3824949264526367
28071, 0.38448724150657654, -2.312492847442627, 2.6091530323028564, 0.13571421802043915, -0.01612653024494648, -9.299943923950195, 0.329389750957489, -0.03930118307471275, -0.7069907784461975, -0.8289690017700195, -0.9639482498168945, 0.05562348663806915, -0.8285453995015388, 0.45220467105809803, -4.06243706814195, 9362.0, 30146.0, 35388.0, 9362.0, 8.152067184448242, -0.17395353317260742, 0.14265437424182892, -0.2726522982120514, 0.008633377030491829, -0.06409084796905518, 0.9987924695014954, -0.06724068522453308, 0.13064002990722656, 1.506591796875, 1.629638671875, 0.4884490966796875, 1.4912109375, 1.610595703125, 10.0, 1.38027822971344, 1.5, 1.38027822971344
28091, 0.385696679353714, -2.317553758621216, 2.6109721660614014, 0.13902798295021057, -0.01652192324399948, -9.307015419006348, 0.33336344361305237, -0.03977726027369499, -0.7073286771774292, -0.829018235206604, -0.9639405012130737, 0.05555589869618416, -0.8202857183009801, 0.40712746819676227, -4.064291353585671, 9362.0, 30146.0, 35388.0, 9362.0, 8.152067184448242, 0.16888877749443054, 0.6566909551620483, -0.011570812202990055, 0.009937658905982971, -0.06511418521404266, 0.9986263513565063, -0.06724068522453308, 0.13064002990722656, 1.506591796875, 1.171142578125, 0.5709228515625, 1.4912109375, 1.6201171875, 10.0, 1.3810386657714844, 1.5, 1.3810386657714844
28131, 0.38441237807273865, -2.3215034008026123, 2.6101455688476562, 0.15268146991729736, -0.018151238560676575, -9.335320472717285, 0.3493151366710663, -0.04168723523616791, -0.7079880237579346, -0.8290019035339355, -0.9639422297477722, 0.0555657260119915, -0.8124355704506719, 0.41936833570665044, -4.074341950252076, 9362.0, 30146.0, 35388.0, 9362.0, 8.132232666015625, -0.07123537361621857, -0.2427363097667694, -0.2005739063024521, 0.007057609502226114, -0.0646127387881279, 0.9956857562065125, -0.07493340224027634, -0.12023735046386719, 1.486083984375, 1.39599609375, 0.0362701416015625, 1.493408203125, 1.39453125, 10.0, 1.380149245262146, 1.5, 1.380149245262146
28151, 0.3846096098423004, -2.3220479488372803, 2.610771894454956, 0.16334007680416107, -0.019423192366957664, -9.356581687927246, 0.36127156019210815, -0.04311097040772438, -0.7091450095176697, -0.8290231823921204, -0.9639546871185303, 0.0555570013821125, -0.8098749549907027, 0.4068791512689245, -4.073632352623941, 9362.0, 30146.0, 35388.0, 9362.0, 8.132232666015625, -0.07123537361621857, -0.2427363097667694, -0.2005739063024521, 0.00793417263776064, -0.0669669508934021, 0.9984980225563049, -0.07493340224027634, -0.12023735046386719, 1.486083984375, 1.661865234375, 0.568572998046875, 1.49267578125, 1.39453125, 10.0, 1.3812530040740967, 1.5, 1.3812530040740967
28231, 0.38384735584259033, -2.3315024375915527, 2.6084043979644775, 0.18960823118686676, -0.022557804360985756, -9.406286239624023, 0.3892482817173004, -0.04644642397761345, -0.7115753889083862, -0.8290234208106995, -0.9639402031898499, 0.055555395781993866, -0.8199250229730659, 0.4212386139714397, -4.073260519389404, 9362.0, 30146.0, 35388.0, 9362.0, 8.132232666015625, -0.09263275563716888, -0.23416757583618164, 0.16448594629764557, 0.008006987161934376, -0.06475619971752167, 0.9988434314727783, -0.06740934401750565, 0.014162063598632812, 1.4970703125, 1.112548828125, 1.1168670654296875, 1.4912109375, 1.166748046875, 10.0, 1.3805495500564575, 1.5, 1.3805495500564575
28251, 0.385062575340271, -2.33359432220459, 2.607243299484253, 0.19747334718704224, -0.023496214300394058, -9.420524597167969, 0.3972601592540741, -0.047393977642059326, -0.7122926115989685, -0.8290008306503296, -0.9639543294906616, 0.05557314679026604, -0.8441063525330289, 0.44712080227878914, -4.066096920978232, 9362.0, 30146.0, 35388.0, 9362.0, 8.132232666015625, -0.2319106012582779, 0.05004502087831497, -0.35169336199760437, 0.008006987161934376, -0.06475619971752167, 0.9988434314727783, -0.06740934401750565, 0.014162063598632812, 1.4970703125, 1.51025390625, 0.2164154052734375, 1.4912109375, 0.856201171875, 10.0, 1.3810839653015137, 1.5, 1.3810839653015137
28351, 0.3865184187889099, -2.3390562534332275, 2.598090171813965, 0.2392038255929947, -0.02847377210855484, -9.491961479187012, 0.4373708665370941, -0.05215990170836449, -0.7162680625915527, -0.8289932608604431, -0.9639356136322021, 0.05549218878149986, -0.8197808846705329, 0.38023301630633455, -4.0942686208812304, 9362.0, 30146.0, 35388.0, 9362.0, 8.152067184448242, 0.06317005306482315, 0.21608303487300873, 0.32712820172309875, 0.0059148226864635944, -0.06355150043964386, 0.9980748295783997, -0.052714910358190536, 0.014162063598632812, 1.4970703125, 1.445068359375, 0.0970306396484375, 1.493408203125, 1.575439453125, 10.0, 1.3795393705368042, 1.5, 1.3795393705368042
28411, 0.3908870220184326, -2.347015619277954, 2.6037001609802246, 0.2708047032356262, -0.03224232792854309, -9.542173385620117, 0.4655328392982483, -0.055521849542856216, -0.7183545827865601, -0.8290390372276306, -0.9639533162117004, 0.055508118122816086, -0.8192996459228262, 0.42275763086732354, -4.083427473138972, 9362.0, 30146.0, 35388.0, 9362.0, 8.152067184448242, -0.1724468469619751, 0.32286497950553894, 0.08703397959470749, 0.007603541482239962, -0.06292203068733215, 0.9978287220001221, -0.05838724225759506, 0.07688140869140625, 1.502197265625, 1.64794921875, 0.533660888671875, 1.489013671875, 1.1015625, 10.0, 1.3777735233306885, 1.5, 1.3777735233306885
28421, 0.3922179043292999, -2.3504772186279297, 2.6056482791900635, 0.27548015117645264, -0.032799966633319855, -9.549359321594238, 0.4695580303668976, -0.0560055710375309, -0.71888267993927, -0.8290348052978516, -0.9639458656311035, 0.05555642768740654, -0.8165333832953086, 0.4139742351847815, -4.07964155298411, 9362.0, 30146.0, 35388.0, 9362.0, 8.152067184448242, 0.07552953064441681, 0.11506687104701996, 0.15465570986270905, 0.007603541482239962, -0.06292203068733215, 0.9978287220001221, -0.05838724225759506, 0.07688140869140625, 1.502197265625, 1.59814453125, 0.4127655029296875, 1.48974609375, 1.1015625, 10.0, 1.3783305883407593, 1.5, 1.3783305883407593
28431, 0.3930261433124542, -2.349551200866699, 2.603567600250244, 0.27548015117645264, -0.032799966633319855, -9.549359321594238, 0.4695580303668976, -0.0560055710375309, -0.71888267993927, -0.8290218710899353, -0.9639428853988647, 0.05554741248488426, -0.8175333380006041, 0.4114787123380381, -4.077138654798131, 9362.0, 30146.0, 35388.0, 9362.0, 8.152067184448242, -0.07622725516557693, 0.025492368265986443, -0.2806660234928131, 0.0070326183922588825, -0.06644171476364136, 0.9973214268684387, -0.05838724225759506, 0.07688140869140625, 1.502197265625, 1.524169921875, 0.2455596923828125, 1.48974609375, 1.1015625, 10.0, 1.3781319856643677, 1.5, 1.3781319856643677
28471, 0.39288949966430664, -2.351362705230713, 2.6002118587493896, 0.2994627058506012, -0.035661257803440094, -9.585350036621094, 0.4897516071796417, -0.058447860181331635, -0.7206442356109619, -0.8289930820465088, -0.9639419317245483, 0.05547405034303665, -0.8145334799806488, 0.3574724176799009, -4.0886814240377225, 9362.0, 30146.0, 35388.0, 9362.0, 8.152067184448242, 0.06861016154289246, -0.11108553409576416, -0.10622460395097733, 0.006051002535969019, -0.06469064950942993, 0.9969623684883118, -0.05838724225759506, 0.07688140869140625, 1.502197265625, 1.424560546875, 0.0678253173828125, 1.490478515625, 1.300048828125, 10.0, 1.3794376850128174, 1.5, 1.3794376850128174
28491, 0.392354816198349, -2.3469350337982178, 2.5990703105926514, 0.3093385398387909, -0.03683997690677643, -9.599769592285156, 0.4978325664997101, -0.059424251317977905, -0.7213615775108337, -0.8290351033210754, -0.9639310836791992, 0.05553000792860985, -0.8249197618477764, 0.4223359077540465, -4.0710888421804805, 9362.0, 30146.0, 35388.0, 9362.0, 8.152067184448242, -0.15571121871471405, -0.43011483550071716, -0.383553147315979, 0.010267190635204315, -0.06293410062789917, 0.9967560768127441, -0.05838724225759506, 0.07688140869140625, 1.502197265625, 0.976318359375, 3.5489959716796875, 1.49267578125, 1.09716796875, 10.0, 1.3791753053665161, 1.5, 1.3791753053665161
28551, 0.38697269558906555, -2.342633008956909, 2.5919954776763916, 0.334734171628952, -0.03987203538417816, -9.635884284973145, 0.5179860591888428, -0.06185047701001167, -0.7233384251594543, -0.8290515542030334, -0.9639238715171814, 0.0555330365896225, -0.8213802792807682, 0.41484398499767394, -4.084829571264669, 9362.0, 30146.0, 35388.0, 9362.0, 8.132232666015625, 0.12178219109773636, 0.003602022770792246, 0.0838577151298523, 0.010267190635204315, -0.06293410062789917, 0.9967560768127441, -0.060979440808296204, -0.19191741943359375, 1.480224609375, 1.426025390625, 0.069732666015625, 1.48974609375, 1.31396484375, 10.0, 1.3780598640441895, 1.5, 1.3780598640441895
28651, 0.38576674461364746, -2.3435826301574707, 2.5922038555145264, 0.3885446786880493, -0.04629405960440636, -9.70838737487793, 0.5582091808319092, -0.06656670570373535, -0.7270320653915405, -0.8290261626243591, -0.9639309048652649, 0.05555152893066406, -0.8162957720414848, 0.41117617929728567, -4.067736175549963, 9362.0, 30146.0, 35388.0, 9362.0, 8.132232666015625, 0.214715376496315, 0.03539032116532326, -0.09404180198907852, 0.008191020227968693, -0.0654829666018486, 0.999373197555542, -0.08055290579795837, -0.05751800537109375, 1.4912109375, 1.355712890625, 0.0155029296875, 1.493408203125, 0.873046875, 10.0, 1.3755083084106445, 1.5, 1.3755083084106445
28671, 0.38903528451919556, -2.3430705070495605, 2.5922999382019043, 0.3997895121574402, -0.04763489589095116, -9.722931861877441, 0.5662718415260315, -0.06751855462789536, -0.7274624109268188, -0.8289830684661865, -0.9639428853988647, 0.05551525577902794, -0.8218427782617024, 0.36663201661937705, -4.088451714204481, 9362.0, 30146.0, 35388.0, 9362.0, 8.132232666015625, 0.05484200641512871, -0.08583473414182663, -0.08704794198274612, 0.008191020227968693, -0.0654829666018486, 0.999373197555542, -0.08055290579795837, -0.05751800537109375, 1.4912109375, 1.6083984375, 0.437225341796875, 1.493408203125, 0.64453125, 10.0, 1.3755083084106445, 1.5, 1.3755083084106445
28731, 0.3991975486278534, -2.3574113845825195, 2.5911407470703125, 0.4404149055480957, -0.052480537444353104, -9.773967742919922, 0.5944951772689819, -0.07095491886138916, -0.730534553527832, -0.8290359973907471, -0.9639387130737305, 0.055573493242263794, -0.8201745564449029, 0.41802462263129314, -4.07582032914925, 9362.0, 30146.0, 35388.0, 9362.0, 8.152067184448242, 0.02269459143280983, 0.26014307141304016, 0.05997171625494957, 0.007318972609937191, -0.06249435991048813, 0.996993362903595, -0.08055290579795837, -0.05751800537109375, 1.4912109375, 1.22314453125, 0.2666778564453125, 1.491943359375, 1.60107421875, 10.0, 1.3771275281906128, 1.5, 1.3771275281906128
28751, 0.39836981892585754, -2.3588953018188477, 2.5876541137695312, 0.452385812997818, -0.053909607231616974, -9.788585662841797, 0.6025957465171814, -0.0719524696469307, -0.7312683463096619, -0.8290243148803711, -0.9639264345169067, 0.055564459413290024, -0.81582933953433, 0.4205026231433351, -4.08237842761221, 9362.0, 30146.0, 35388.0, 9362.0, 8.152067184448242, -0.023161396384239197, 0.36285969614982605, 0.06646567583084106, 0.007897941395640373, -0.06467617303133011, 0.9989919066429138, -0.08055290579795837, -0.05751800537109375, 1.4912109375, 1.187255859375, 0.46051025390625, 1.493408203125, 0.84375, 10.0, 1.3777097463607788, 1.5, 1.3777097463607788
28851, 0.3881135582923889, -2.3539488315582275, 2.581878900527954, 0.5082604289054871, -0.06058509647846222, -9.854513168334961, 0.6390363574028015, -0.07636075466871262, -0.7341042160987854, -0.8290427923202515, -0.9639326333999634, 0.05554341524839401, -0.8223723492987456, 0.41075666576756475, -4.074652264293531, 9362.0, 30146.0, 35388.0, 9362.0, 8.152067184448242, 0.06995124369859695, -0.3432080149650574, -0.14923401176929474, 0.00807997863739729, -0.06532161682844162, 0.9980987906455994, -0.08055290579795837, -0.05751800537109375, 1.4912109375, 1.1923828125, 0.4285125732421875, 1.49267578125, 1.01220703125, 10.0, 1.377826452255249, 1.5, 1.377826452255249
28871, 0.388058602809906, -2.3515655994415283, 2.581479787826538, 0.5211220979690552, -0.06212193891406059, -9.86920166015625, 0.6471248269081116, -0.07732268422842026, -0.7348562479019165, -0.8290262222290039, -0.9639241695404053, 0.05554195120930672, -0.8277634460690262, 0.4243659583576971, -4.076833125176077, 9362.0, 30146.0, 35388.0, 9362.0, 8.152067184448242, 0.15387408435344696, 0.39873895049095154, 0.15821681916713715, 0.00807997863739729, -0.06532161682844162, 0.9980987906455994, -0.08055290579795837, -0.05751800537109375, 1.4912109375, 1.575439453125, 0.3596649169921875, 1.49267578125, 1.01220703125, 10.0, 1.3787647485733032, 1.5, 1.3787647485733032
28911, 0.39009568095207214, -2.3538389205932617, 2.5848944187164307, 0.5539827346801758, -0.06604801118373871, -9.90600299835205, 0.6673161387443542, -0.07972216606140137, -0.7368700504302979, -0.8290093541145325, -0.963933527469635, 0.055574607104063034, -0.8223948568268573, 0.4236137731709846, -4.076273650425189, 9362.0, 30146.0, 35388.0, 9362.0, 8.152067184448242, 0.19680745899677277, -0.040713757276535034, -0.039118245244026184, 0.007563462480902672, -0.06347087025642395, 0.998788595199585, -0.08055290579795837, -0.05751800537109375, 1.4912109375, 1.546875, 0.2949676513671875, 1.49267578125, 1.423828125, 10.0, 1.3787000179290771, 1.5, 1.3787000179290771
28921, 0.39113810658454895, -2.354687213897705, 2.5867154598236084, 0.5606761574745178, -0.06684765964746475, -9.913372993469238, 0.6713667511940002, -0.08020703494548798, -0.7370579838752747, -0.8290210962295532, -0.9639289379119873, 0.055570513010025024, -0.8187995860869639, 0.4243132724399459, -4.072106463080222, 9362.0, 30146.0, 35388.0, 9362.0, 8.152067184448242, 0.006351467687636614, -0.14559584856033325, -0.08889397233724594, 0.007563462480902672, -0.06347087025642395, 0.998788595199585, -0.08055290579795837, -0.05751800537109375, 1.4912109375, 1.0341796875, 2.28289794921875, 1.49267578125, 1.307373046875, 10.0, 1.3773024082183838, 1.5, 1.3773024082183838
28931, 0.3929736316204071, -2.355536460876465, 2.587073802947998, 0.5674100518226624, -0.0676521584391594, -9.920744895935059, 0.6754139065742493, -0.08069299161434174, -0.7373710870742798, -0.8289744257926941, -0.9639261364936829, 0.05553438514471054, -0.8169951932792424, 0.36991051907119754, -4.0904218849539715, 9362.0, 30146.0, 35388.0, 9362.0, 8.152067184448242, 0.10846822708845139, -0.07420290261507034, 0.11182574927806854, 0.008992297574877739, -0.06298761814832687, 0.9981788992881775, -0.08055290579795837, -0.05751800537109375, 1.4912109375, 1.081787109375, 1.5082244873046875, 1.49267578125, 1.66259765625, 10.0, 1.3773024082183838, 1.5, 1.3773024082183838
28951, 0.39618027210235596, -2.3553221225738525, 2.5883238315582275, 0.5809992551803589, -0.06927579641342163, -9.935500144958496, 0.6835041642189026, -0.08167210966348648, -0.7381474375724792, -0.8290153741836548, -0.9639275670051575, 0.05556068941950798, -0.8179607019768051, 0.41433248467885164, -4.080505934766713, 9362.0, 30146.0, 35388.0, 9362.0, 8.152067184448242, 0.2940114736557007, 0.0073470170609653, 0.2615930438041687, 0.007703995797783136, -0.06132132187485695, 0.9961615800857544, -0.08055290579795837, -0.05751800537109375, 1.4912109375, 1.052490234375, 1.9588470458984375, 1.4912109375, 1.248046875, 10.0, 1.3761850595474243, 1.5, 1.3761850595474243
28961, 0.39731326699256897, -2.3567960262298584, 2.5886549949645996, 0.5878545641899109, -0.0700949877500534, -9.942882537841797, 0.6875544786453247, -0.08216670900583267, -0.7384187579154968, -0.8290103673934937, -0.9639261960983276, 0.05555310472846031, -0.8189820923034947, 0.4157363024956737, -4.068075332135958, 9362.0, 30146.0, 35388.0, 9362.0, 8.152067184448242, -0.011639258824288845, 0.16267584264278412, 0.1303669512271881, 0.0062302290461957455, -0.06464575231075287, 0.9991340041160583, -0.08055290579795837, -0.05751800537109375, 1.4912109375, 1.56298828125, 0.3311767578125, 1.48974609375, 1.248046875, 10.0, 1.3762152194976807, 1.5, 1.3762152194976807
28971, 0.3984977900981903, -2.357611656188965, 2.589630126953125, 0.5947504043579102, -0.07091914117336273, -9.950267791748047, 0.6916102766990662, -0.08266343176364899, -0.7386202216148376, -0.8290143013000488, -0.9638894200325012, 0.05566934496164322, -0.7843940501864769, 0.4345641727420002, -4.052772207186958, 9362.0, 30146.0, 35388.0, 9362.0, 8.152067184448242, 0.1571352779865265, 0.12957872450351715, 0.15122270584106445, 0.007531765848398209, -0.06389514356851578, 0.9991453289985657, -0.08055290579795837, -0.05751800537109375, 1.4912109375, 1.48095703125, 0.1587677001953125, 1.48974609375, 1.248046875, 10.0, 1.3752046823501587, 1.5, 1.3752046823501587
28991, 0.39976024627685547, -2.360445976257324, 2.5885984897613525, 0.6086637377738953, -0.07258237898349762, -9.965045928955078, 0.6997219920158386, -0.08366094529628754, -0.7392175793647766, -0.8290016651153564, -0.9639267921447754, 0.05556122586131096, -0.8174633457453985, 0.4076395829916919, -4.073249970712064, 9362.0, 30146.0, 35388.0, 9362.0, 8.152067184448242, 0.03835767135024071, 0.0748165026307106, 0.009093894623219967, 0.007138376124203205, -0.06247559189796448, 0.9973204731941223, -0.08055290579795837, -0.05751800537109375, 1.4912109375, 1.30810546875, 0.0388031005859375, 1.49267578125, 1.24072265625, 10.0, 1.3739262819290161, 1.5, 1.3739262819290161
29051, 0.39290907979011536, -2.3608438968658447, 2.5783088207244873, 0.6513779759407043, -0.07769201695919037, -10.009437561035156, 0.724071204662323, -0.08664857596158981, -0.7407403588294983, -0.8290061354637146, -0.9639317393302917, 0.05554846674203873, -0.8154114923526313, 0.40769469146911774, -4.0760545448751495, 9362.0, 30146.0, 35388.0, 9362.0, 8.132232666015625, -0.18518103659152985, 0.23308227956295013, -0.2385299652814865, 0.008528613485395908, -0.06482690572738647, 0.9976056814193726, -0.08317001163959503, -0.10231781005859375, 1.487548828125, 1.1748046875, 0.5444488525390625, 1.494873046875, 1.5703125, 10.0, 1.3698511123657227, 1.5, 1.3698511123657227
29061, 0.39036914706230164, -2.3603134155273438, 2.578129768371582, 0.6586389541625977, -0.07856094837188721, -10.016846656799316, 0.7281266450881958, -0.08713743835687637, -0.7411101460456848, -0.8289601802825928, -0.9639307260513306, 0.05550374090671539, -0.823333978231945, 0.3682940446893781, -4.094316826410378, 9362.0, 30146.0, 35388.0, 9362.0, 8.132232666015625, -0.2589794397354126, 0.013513904996216297, -0.07698450237512589, 0.007556638214737177, -0.06449028104543686, 0.996823251247406, -0.08317001163959503, -0.10231781005859375, 1.487548828125, 1.172607421875, 0.5602874755859375, 1.48828125, 1.2978515625, 10.0, 1.3699382543563843, 1.5, 1.3699382543563843
29071, 0.3880005180835724, -2.3598687648773193, 2.5766518115997314, 0.6659404635429382, -0.07943474501371384, -10.024259567260742, 0.7321788668632507, -0.08762189000844955, -0.7415254712104797, -0.8290217518806458, -0.9639179706573486, 0.055548518896102905, -0.8231338414535332, 0.4055694353847059, -4.079313878424698, 9362.0, 30146.0, 35388.0, 9362.0, 8.132232666015625, -0.46980294585227966, -0.06335199624300003, -0.212999626994133, 0.008436469361186028, -0.06554117798805237, 0.9969591498374939, -0.08317001163959503, -0.10231781005859375, 1.487548828125, 1.45751953125, 0.117095947265625, 1.48828125, 1.2978515625, 10.0, 1.3703211545944214, 1.5, 1.3703211545944214
29131, 0.3837204575538635, -2.352754592895508, 2.5750210285186768, 0.7106010913848877, -0.08477797359228134, -10.068802833557129, 0.7564992308616638, -0.09048012644052505, -0.7431919574737549, -0.8290323615074158, -0.9639341831207275, 0.0555703230202198, -0.8225889588245224, 0.42362055443973645, -4.079234184189359, 9362.0, 30146.0, 35388.0, 9362.0, 8.132232666015625, -0.17807412147521973, 0.20988056063652039, 0.04026699811220169, 0.009415710344910622, -0.06138422340154648, 0.998085081577301, -0.08317001163959503, -0.10231781005859375, 1.487548828125, 1.47802734375, 0.1532745361328125, 1.494140625, 1.58349609375, 10.0, 1.3702644109725952, 1.5, 1.3702644109725952
29151, 0.38301941752433777, -2.3495707511901855, 2.5763661861419678, 0.7258119583129883, -0.08659706264734268, -10.083671569824219, 0.7645853161811829, -0.09142739325761795, -0.7438039779663086, -0.8290238976478577, -0.9639277458190918, 0.05558048188686371, -0.8240831598960596, 0.41469834507637415, -4.078281330784639, 9362.0, 30146.0, 35388.0, 9362.0, 8.132232666015625, 0.05424847826361656, -0.0590100921690464, -0.16337046027183533, 0.009795543737709522, -0.06447859853506088, 0.9960636496543884, -0.08317001163959503, -0.10231781005859375, 1.487548828125, 1.556396484375, 0.316192626953125, 1.4912109375, 1.58349609375, 10.0, 1.3715546131134033, 1.5, 1.3715546131134033
29171, 0.3850899636745453, -2.352961301803589, 2.5786216259002686, 0.7411842942237854, -0.08843506127595901, -10.098557472229004, 0.7726544141769409, -0.092372365295887, -0.7446876168251038, -0.8290241360664368, -0.9639341831207275, 0.055589716881513596, -0.8161841537470312, 0.42573118028317936, -4.075919597435894, 9362.0, 30146.0, 35388.0, 9362.0, 8.132232666015625, 0.20960411429405212, 0.17819753289222717, 0.1845092922449112, 0.01014038734138012, -0.06502318382263184, 0.9965003728866577, -0.08317001163959503, -0.10231781005859375, 1.487548828125, 1.2158203125, 0.300750732421875, 1.494140625, 1.505859375, 10.0, 1.3700515031814575, 1.5, 1.3700515031814575
29191, 0.387125164270401, -2.3561198711395264, 2.5804805755615234, 0.7489311099052429, -0.08936116844415665, -10.106005668640137, 0.7767029404640198, -0.09284922480583191, -0.7448809146881104, -0.8290113210678101, -0.9639320373535156, 0.055563490837812424, -0.8195822596877517, 0.4217373291566844, -4.077014780586711, 9362.0, 30146.0, 35388.0, 9362.0, 8.132232666015625, 0.17336536943912506, 0.12132679671049118, -0.0012740493984892964, 0.01014038734138012, -0.06502318382263184, 0.9965003728866577, -0.08317001163959503, -0.10231781005859375, 1.487548828125, 1.579833984375, 0.369873046875, 1.494140625, 1.2275390625, 10.0, 1.3700848817825317, 1.5, 1.3700848817825317
29211, 0.38948729634284973, -2.356839418411255, 2.5827152729034424, 0.7724146246910095, -0.09216822683811188, -10.128358840942383, 0.7888676524162292, -0.09429000318050385, -0.7454109191894531, -0.8289502859115601, -0.9639077186584473, 0.05572671815752983, -0.8066986369497472, 0.4631273470217252, -4.032415835607446, 9362.0, 30146.0, 35388.0, 9362.0, 8.152067184448242, 0.23383161425590515, -0.13862112164497375, 0.36088958382606506, 0.0069804200902581215, -0.06391482800245285, 0.9984534978866577, -0.05820119008421898, -0.03959846496582031, 1.49267578125, 1.150634765625, 0.734954833984375, 1.494873046875, 1.2275390625, 10.0, 1.3684861660003662, 1.5, 1.3684861660003662
29231, 0.3926108181476593, -2.360999345779419, 2.5787832736968994, 0.7803235650062561, -0.09311354160308838, -10.13581371307373, 0.7929218411445618, -0.09477381408214569, -0.7456389665603638, -0.8290023803710938, -0.963929295539856, 0.05549410358071327, -0.8177128005236067, 0.403495005738165, -4.077213427152269, 9362.0, 30146.0, 35388.0, 9362.0, 8.152067184448242, 0.25831931829452515, 0.3637358248233795, -0.22587887942790985, 0.008943738415837288, -0.06241936236619949, 0.9954994320869446, -0.05820119008421898, -0.03959846496582031, 1.49267578125, 1.212890625, 0.31512451171875, 1.494140625, 1.481689453125, 10.0, 1.369105339050293, 1.5, 1.369105339050293
29251, 0.3930774927139282, -2.3659934997558594, 2.577860116958618, 0.7962629795074463, -0.09501871466636658, -10.150735855102539, 0.8010205030441284, -0.09574554115533829, -0.7465426921844482, -0.8289713263511658, -0.9639237523078918, 0.05551256239414215, -0.8352955305588887, 0.4299747391802953, -4.063179914080434, 9362.0, 30146.0, 35388.0, 9362.0, 8.152067184448242, 0.11761277914047241, 0.5064817070960999, 0.1685221791267395, 0.006183882709592581, -0.06413747370243073, 0.9960530996322632, -0.05820119008421898, -0.03959846496582031, 1.49267578125, 1.086181640625, 1.4473876953125, 1.486083984375, 1.519775390625, 10.0, 1.3709557056427002, 1.5, 1.3709557056427002
29271, 0.39328092336654663, -2.3686492443084717, 2.575727701187134, 0.8123645782470703, -0.09694340825080872, -10.165675163269043, 0.8091462850570679, -0.09672396630048752, -0.7472853064537048, -0.8290019631385803, -0.9639266133308411, 0.055426571518182755, -0.8176757688108035, 0.40652642194930877, -4.077973117027208, 9362.0, 30146.0, 35388.0, 9362.0, 8.152067184448242, -0.13999250531196594, 0.19202667474746704, 0.23663821816444397, 0.006239669863134623, -0.06364508718252182, 0.9986109137535095, -0.05820119008421898, -0.03959846496582031, 1.49267578125, 1.55859375, 0.3211212158203125, 1.48974609375, 1.4443359375, 10.0, 1.370021939277649, 1.5, 1.370021939277649
29281, 0.3933483958244324, -2.3720695972442627, 2.5751798152923584, 0.8123645782470703, -0.09694340825080872, -10.165675163269043, 0.8091462850570679, -0.09672396630048752, -0.7472853064537048, -0.8290600180625916, -0.9639322757720947, 0.055486418306827545, -0.8161057305023215, 0.42056627550846315, -4.0759886934668055, 9362.0, 30146.0, 35388.0, 9362.0, 8.152067184448242, -0.13999250531196594, 0.19202667474746704, 0.23663821816444397, 0.007116739638149738, -0.06439200043678284, 0.9998323917388916, -0.05820119008421898, -0.03959846496582031, 1.49267578125, 1.04736328125, 2.0461883544921875, 1.48974609375, 1.4443359375, 10.0, 1.3689665794372559, 1.5, 1.3689665794372559
29311, 0.39129209518432617, -2.3723738193511963, 2.5669195652008057, 0.8533313274383545, -0.10184086859226227, -10.2030668258667, 0.8295329213142395, -0.09916941076517105, -0.7484825849533081, -0.82899409532547, -0.9639102220535278, 0.05549326539039612, -0.8181078510214173, 0.40288775900756946, -4.078540283246653, 9362.0, 30146.0, 35388.0, 9362.0, 8.132232666015625, -0.08862735331058502, 0.004385566804558039, -0.2787921130657196, 0.007116739638149738, -0.06439200043678284, 0.9998323917388916, -0.06422775983810425, -0.1739978790283203, 1.481689453125, 0.9873046875, 3.2782745361328125, 1.494140625, 1.579833984375, 10.0, 1.3684715032577515, 1.5, 1.3684715032577515
29371, 0.38593339920043945, -2.3658852577209473, 2.5586445331573486, 0.895317554473877, -0.10686011612415314, -10.24051570892334, 0.8498943448066711, -0.1015964150428772, -0.7497995495796204, -0.8290331363677979, -0.9639223217964172, 0.05547449737787247, -0.8303727426273639, 0.4114405041683824, -4.0838648075436055, 9362.0, 30146.0, 35388.0, 9362.0, 8.132232666015625, -0.04340069368481636, -0.1186489462852478, -0.07725478708744049, 0.007883197627961636, -0.06299073994159698, 0.997143030166626, -0.06422775983810425, -0.1739978790283203, 1.481689453125, 1.1923828125, 0.4285125732421875, 1.49560546875, 1.616455078125, 10.0, 1.3681297302246094, 1.5, 1.3681297302246094
29391, 0.3864623010158539, -2.3639769554138184, 2.5611414909362793, 0.9123967289924622, -0.10890165716409683, -10.255518913269043, 0.8580204844474792, -0.10255567729473114, -0.7505848407745361, -0.8290138840675354, -0.9639087915420532, 0.05548793449997902, -0.8211575451909651, 0.4149014706411549, -4.070411935551112, 9362.0, 30146.0, 35388.0, 9362.0, 8.132232666015625, 0.13431178033351898, -0.019571948796510696, 0.21555857360363007, 0.007883197627961636, -0.06299073994159698, 0.997143030166626, -0.06422775983810425, -0.1739978790283203, 1.481689453125, 1.562255859375, 0.329437255859375, 1.49560546875, 1.5732421875, 10.0, 1.368333339691162, 1.5, 1.368333339691162
29471, 0.39351412653923035, -2.369121551513672, 2.565028429031372, 0.9912627935409546, -0.11832647025585175, -10.323225021362305, 0.8945820331573486, -0.10690274089574814, -0.7538101673126221, -0.8290218710899353, -0.9639467597007751, 0.055666062980890274, -0.8127428200991593, 0.4208630096886452, -4.070948206492637, 9362.0, 30146.0, 35388.0, 9362.0, 8.132232666015625, 0.08465474098920822, -0.02975793369114399, 0.09946552664041519, 0.008165773935616016, -0.06424153596162796, 0.9983075261116028, -0.06422775983810425, -0.1739978790283203, 1.481689453125, 0.989501953125, 3.225860595703125, 1.493408203125, 1.58203125, 10.0, 1.370452880859375, 1.5, 1.370452880859375
