timeTick, roll, pitch, yaw, stateX, stateY, stateZ, stateVX, stateVY, stateVZ, otX0, otY0, otZ0, otRoll0, otPitch0, otYaw0, left wing, pitch motor, yaw motor, right wing, voltage, roll rate, pitch rate, yaw rate, A_x, A_y, A_z, current, i_raw, v_raw, airflow_voltage, airflow_speed, pot_Pitch, voltage_nKF, kFFx, volt_KF_vel, kP, volt_KF_pos
13505, -0.8976366519927979, 0.5169504880905151, -0.664506196975708, 0, 0, 0, 0, 0, 0, -0.8240704536437988, -0.9650300741195679, 0.05544545128941536, -0.4865318882315346, 0.25749859818247955, -4.352559011100878, 0, 0, 0, 0, 0, 0, 0, 0, 0, 0, 0, 0, 0, 0, 0, 0, 0, 0, 0, 0, 0, 0
13515, -0.8974417448043823, 0.5179678201675415, -0.6627621054649353, 3.424338501645252e-06, -6.281734385993332e-06, -1.2243045568466187, -0.0016387811629101634, 0.002931616036221385, -0.20638231933116913, -0.8240925669670105, -0.965020477771759, 0.05545922368764877, -0.49049258797566436, 0.2595601483478731, -4.339686074949998, 9362.0, 30146.0, 35388.0, 9362.0, 0, 0.09595556557178497, 0.22873833775520325, 0.32562389969825745, 0, 0, 0, 0, 0, 0, 0, 0, 0, 0, 0, 0, 0, 0
13525, -0.8964800834655762, 0.5171076059341431, -0.6632150411605835, -1.7301883417530917e-05, 3.077459768974222e-05, -1.2263681888580322, -0.002506511053070426, 0.004479622468352318, -0.20633257925510406, -0.8240793943405151, -0.9650262594223022, 0.05546585097908974, -0.4899595597354839, 0.2546776878318724, -4.347583066116458, 9362.0, 30146.0, 35388.0, 9362.0, 0, -0.009062235243618488, -0.3438447117805481, -0.06882639974355698, 0.005524816922843456, -0.058639537543058395, 0.9994274377822876, 0, 0, 0, 0, 0, 0, 0, 0, 0, 0, 0
13535, -0.8963332772254944, 0.5171734094619751, -0.6634393930435181, -4.670587077271193e-05, 8.329414413310587e-05, -1.2284321784973145, -0.0033742766827344894, 0.006024295464158058, -0.20647479593753815, -0.8241317868232727, -0.9650167226791382, 0.05543755739927292, -0.4847605708802019, 0.243913377381773, -4.333159367195227, 9362.0, 30146.0, 35388.0, 9362.0, 0, 0.11324690282344818, 0.2546481192111969, 0.07720980048179626, 0.006859400775283575, -0.05943848937749863, 0.9981495141983032, 0, 0, 0, 1.368896484375, 0.01885986328125, 0, 1.24658203125, 10.0, 1.4171065092086792, 1.5, 1.4171065092086792
13545, -0.8962967395782471, 0.5173783898353577, -0.6638398766517639, -8.477870869683102e-05, 0.00015124952187761664, -1.2304978370666504, -0.004240285139530897, 0.007566783577203751, -0.20665059983730316, -0.8241503834724426, -0.9650585055351257, 0.055547770112752914, -0.5158055677656075, 0.22486101493123556, -4.337992034877354, 9362.0, 30146.0, 35388.0, 9362.0, 0, -0.20498034358024597, -0.14390067756175995, -0.05977550148963928, 0.00716359680518508, -0.05754592642188072, 0.9992060661315918, 0, 0, 0, 1.40625, 0.04620361328125, 1.494873046875, 1.14404296875, 10.0, 1.415728211402893, 1.5, 1.415728211402893
13555, -0.8968114852905273, 0.5176876783370972, -0.6647136807441711, -0.0001315180998062715, 0.00023463908291887492, -1.2325645685195923, -0.005107582546770573, 0.009111136198043823, -0.20669251680374146, -0.8240827918052673, -0.96502286195755, 0.05547615513205528, -0.4936166853283371, 0.2578853462603661, -4.342120501732475, 9362.0, 30146.0, 35388.0, 9362.0, 0, -0.054494451731443405, -0.04933830723166466, -0.08334410190582275, 0.004828370176255703, -0.05703229457139969, 1.0004873275756836, 0, 0, 0, 1.50439453125, 0.2044219970703125, 1.494873046875, 1.2890625, 10.0, 1.4161192178726196, 1.5, 1.4161192178726196
13565, -0.8979220390319824, 0.5193467736244202, -0.6654415726661682, -0.0001869310945039615, 0.0003334700013510883, -1.2346317768096924, -0.005974992178380489, 0.010655060410499573, -0.20675867795944214, -0.8240839242935181, -0.9650358557701111, 0.05546887591481209, -0.483909618725689, 0.26343198497588105, -4.336613653250399, 9362.0, 30146.0, 35388.0, 9362.0, 0, 0.00332676456309855, -0.5095766186714172, -0.11357452720403671, 0.0056299977004528046, -0.057771191000938416, 0.9978395700454712, 0, 0, 0, 1.357177734375, 0.0157928466796875, 1.4853515625, 1.611328125, 10.0, 1.4154486656188965, 1.5, 1.4154486656188965
13575, -0.897065281867981, 0.5216048359870911, -0.666245698928833, -0.00025101398932747543, 0.00044773274566978216, -1.236700415611267, -0.006841557566076517, 0.012197496369481087, -0.20697589218616486, -0.8240832090377808, -0.9650230407714844, 0.055473897606134415, -0.4839051761186872, 0.26157026954973617, -4.334677755620841, 9362.0, 30146.0, 35388.0, 9362.0, 0, 0.0012498656287789345, -0.1489882916212082, 0.05020933598279953, 0.005464889574795961, -0.06059843674302101, 0.9990067481994629, 0, 0, 0, 1.181396484375, 0.4988555908203125, 1.4853515625, 0.985107421875, 10.0, 1.4151922464370728, 1.5, 1.4151922464370728
13585, -0.8987783789634705, 0.5230021476745605, -0.6665491461753845, -0.0003237872151657939, 0.0005774486344307661, -1.2387700080871582, -0.0077130659483373165, 0.013745690695941448, -0.20695175230503082, -0.824080228805542, -0.9650394320487976, 0.05547407642006874, -0.48629999014783626, 0.2592903114609726, -4.33701938024944, 9362.0, 30146.0, 35388.0, 9362.0, 0, -0.07909069210290909, 0.3836841583251953, -0.20407654345035553, 0.004441425204277039, -0.05903736874461174, 1.001633644104004, 0, 0, 0, 1.2685546875, 0.1099395751953125, 1.493408203125, 1.2744140625, 10.0, 1.4152151346206665, 1.5, 1.4152151346206665
13595, -0.898351788520813, 0.5212869644165039, -0.6664981245994568, -0.0004052948788739741, 0.0007226394372992218, -1.2408393621444702, -0.00858845841139555, 0.01529248058795929, -0.2069268375635147, -0.8241411447525024, -0.9650499820709229, 0.05553096905350685, -0.5122524647369376, 0.2261129382160334, -4.342656204010953, 9362.0, 30146.0, 35388.0, 9362.0, 0, 0.11959870904684067, -0.027273885905742645, -0.020109565928578377, 0.005254584364593029, -0.056432850658893585, 0.9984598755836487, 0, 0, 0, 1.5703125, 0.34783935546875, 1.493408203125, 1.128662109375, 10.0, 1.4156895875930786, 1.5, 1.4156895875930786
13605, -0.8995273113250732, 0.5215712189674377, -0.667021632194519, -0.0004955558106303215, 0.000883291126228869, -1.2429099082946777, -0.009463736787438393, 0.01683785580098629, -0.20717908442020416, -0.8240833878517151, -0.9650344252586365, 0.055453263223171234, -0.4895920542849615, 0.26854049748916964, -4.338678535384385, 9362.0, 30146.0, 35388.0, 9362.0, 8.112398147583008, -0.11239123344421387, -0.011796013452112675, 0.02255750447511673, 0.0058716363273561, -0.0555221289396286, 0.9963948726654053, 0, 0, 0, 1.6318359375, 0.4938812255859375, 1.4912109375, 1.449462890625, 10.0, 1.4160922765731812, 1.5, 1.4160922765731812
13615, -0.8990238308906555, 0.5224082469940186, -0.6675979495048523, -0.0005945490556769073, 0.0010593823390081525, -1.2449836730957031, -0.01033489964902401, 0.018380390480160713, -0.20756272971630096, -0.8241291046142578, -0.9650098085403442, 0.05543464049696922, -0.48751986128676783, 0.241438131015002, -4.334734123731602, 9362.0, 30146.0, 35388.0, 9362.0, 8.112398147583008, -0.15739287436008453, -0.11852984875440598, -0.13101214170455933, 0.008098271675407887, -0.0584416538476944, 0.9972511529922485, -0.06482759118080139, 0.023120880126953125, 1.497802734375, 1.53515625, 0.2692413330078125, 1.4912109375, 1.480224609375, 10.0, 1.414865255355835, 1.5, 1.414865255355835
13625, -0.8991982936859131, 0.5229999423027039, -0.6682927012443542, -0.0007022632635198534, 0.0012509215157479048, -1.2470604181289673, -0.01120791770517826, 0.019927456974983215, -0.20778805017471313, -0.8240801692008972, -0.9650338888168335, 0.055467620491981506, -0.48105743501529624, 0.26259216995671864, -4.340086178396515, 9362.0, 30146.0, 35388.0, 9362.0, 8.112398147583008, 0.10286018252372742, -0.25595858693122864, -0.4576522409915924, 0.007666307967156172, -0.05814065784215927, 0.9985332489013672, -0.06482759118080139, 0.023120880126953125, 1.497802734375, 0.88330078125, 6.50799560546875, 1.48681640625, 1.2216796875, 10.0, 1.4155583381652832, 1.5, 1.4155583381652832
13635, -0.8984326720237732, 0.5233595371246338, -0.6711503863334656, -0.0008187155472114682, 0.0014579285634681582, -1.2491393089294434, -0.012082511559128761, 0.02147395722568035, -0.2079963982105255, -0.8240746855735779, -0.9650232195854187, 0.05544620752334595, -0.4943774065671233, 0.2725102929916545, -4.343673876809036, 9362.0, 30146.0, 35388.0, 9362.0, 8.112398147583008, 0.02826123684644699, -0.11870814859867096, 0.021633852273225784, 0.005279411096125841, -0.06066099554300308, 0.9971190094947815, -0.06482759118080139, 0.023120880126953125, 1.497802734375, 1.62744140625, 0.483154296875, 1.48681640625, 1.565185546875, 10.0, 1.415865421295166, 1.5, 1.415865421295166
13645, -0.8971432447433472, 0.5229074358940125, -0.6704862713813782, -0.0009439160348847508, 0.0016803974285721779, -1.2512205839157104, -0.012957503087818623, 0.023019874468445778, -0.2082643061876297, -0.8241415619850159, -0.9650624990463257, 0.05554502084851265, -0.5089270074211749, 0.2302484001844789, -4.340457918596438, 9362.0, 30146.0, 35388.0, 9362.0, 8.112398147583008, -0.0225296039134264, -0.20349721610546112, -0.2537892460823059, 0.004966157488524914, -0.059695035219192505, 0.9981358647346497, -0.06482759118080139, 0.023120880126953125, 1.497802734375, 1.475830078125, 0.1492767333984375, 1.49560546875, 1.0810546875, 10.0, 1.4158955812454224, 1.5, 1.4158955812454224
13655, -0.8978502154350281, 0.5234925150871277, -0.6703745126724243, -0.0010778717696666718, 0.001918323803693056, -1.2533042430877686, -0.013833660632371902, 0.02456538937985897, -0.20847490429878235, -0.8241278529167175, -0.965011715888977, 0.05543756112456322, -0.4849140860480668, 0.2453915789779444, -4.332793707630014, 9362.0, 30146.0, 35388.0, 9362.0, 8.112398147583008, -0.29874929785728455, 0.15293876826763153, 0.02004106529057026, 0.0045707556419074535, -0.05752043426036835, 0.9975804090499878, -0.06482759118080139, 0.023120880126953125, 1.497802734375, 1.097900390625, 1.2933502197265625, 1.49560546875, 1.6201171875, 10.0, 1.4165500402450562, 1.5, 1.4165500402450562
13665, -0.8974052667617798, 0.5215676426887512, -0.6704260110855103, -0.001220581354573369, 0.002171686850488186, -1.2553905248641968, -0.014708247035741806, 0.02610723488032818, -0.20877724885940552, -0.8240891098976135, -0.9650318026542664, 0.055469807237386703, -0.48525415831340146, 0.25288934908692795, -4.33633687023601, 9362.0, 30146.0, 35388.0, 9362.0, 8.112398147583008, 0.13437771797180176, 0.12204659730195999, 0.08939341455698013, 0.0038772698026150465, -0.058416616171598434, 0.9970983862876892, -0.06482759118080139, 0.023120880126953125, 1.497802734375, 1.61865234375, 0.461822509765625, 1.48974609375, 1.54248046875, 10.0, 1.4169942140579224, 1.5, 1.4169942140579224
13675, -0.8970025181770325, 0.5206402540206909, -0.6718019247055054, -0.001372043159790337, 0.0024404770229011774, -1.2574796676635742, -0.015584114007651806, 0.027650807052850723, -0.20904742181301117, -0.8240754008293152, -0.9650326371192932, 0.05545780807733536, -0.49018793075902584, 0.2546755813075663, -4.348594418174405, 9362.0, 30146.0, 35388.0, 9362.0, 8.112398147583008, 0.18892864882946014, -0.02196962758898735, -0.095943383872509, 0.004843317437916994, -0.0592220239341259, 0.9985861778259277, -0.06482759118080139, 0.023120880126953125, 1.497802734375, 1.453857421875, 0.1110687255859375, 1.48974609375, 1.31689453125, 10.0, 1.4162185192108154, 1.5, 1.4162185192108154
13685, -0.896669864654541, 0.5224948525428772, -0.6725771427154541, -0.001532253809273243, 0.00272471085190773, -1.2595707178115845, -0.016457997262477875, 0.029195962473750114, -0.209167942404747, -0.8240805864334106, -0.9650316834449768, 0.05544515326619148, -0.49072973005864173, 0.25780946726990805, -4.352945780143608, 9362.0, 30146.0, 35388.0, 9362.0, 8.112398147583008, 0.12894591689109802, 0.1926432102918625, -0.011073038913309574, 0.006930849980562925, -0.059425175189971924, 0.9990997910499573, -0.06482759118080139, 0.023120880126953125, 1.497802734375, 1.245849609375, 0.1771087646484375, 1.494140625, 1.109619140625, 10.0, 1.4169327020645142, 1.5, 1.4169327020645142
13695, -0.8965116739273071, 0.5205153226852417, -0.672177791595459, -0.001701194909401238, 0.0030243920627981424, -1.2616630792617798, -0.01733020506799221, 0.030740302056074142, -0.20929643511772156, -0.824067234992981, -0.9650260210037231, 0.05546414479613304, -0.48904804627773646, 0.25864095554803157, -4.342044414968275, 9362.0, 30146.0, 35388.0, 9362.0, 8.112398147583008, -0.024153204634785652, -0.04967174306511879, 0.12610161304473877, 0.006814415100961924, -0.05910511687397957, 0.9983903169631958, -0.06482759118080139, 0.023120880126953125, 1.497802734375, 1.053955078125, 1.93438720703125, 1.494140625, 1.651611328125, 10.0, 1.4159282445907593, 1.5, 1.4159282445907593
13705, -0.8966071009635925, 0.5215678811073303, -0.6721956133842468, -0.0018788689048960805, 0.0033395052887499332, -1.2637572288513184, -0.018204612657427788, 0.03228233754634857, -0.20953673124313354, -0.8241257071495056, -0.9650629758834839, 0.05553724616765976, -0.5156426249089872, 0.23468333660690632, -4.349689224915793, 9362.0, 30146.0, 35388.0, 9362.0, 8.132232666015625, -0.08516407757997513, 0.1530742645263672, 0.21468430757522583, 0.007112998515367508, -0.06050083041191101, 0.9963841438293457, -0.06482759118080139, 0.023120880126953125, 1.497802734375, 1.206298828125, 0.3491363525390625, 1.490478515625, 1.47216796875, 10.0, 1.4145786762237549, 1.5, 1.4145786762237549
13715, -0.8963553309440613, 0.520510733127594, -0.6702636480331421, -0.0020652678795158863, 0.0036700330674648285, -1.2658541202545166, -0.01907515898346901, 0.03382322937250137, -0.20982980728149414, -0.8241272568702698, -0.9650477170944214, 0.05551785230636597, -0.515119510061855, 0.23697832504129224, -4.344399857762233, 9362.0, 30146.0, 35388.0, 9362.0, 8.132232666015625, 0.02194075658917427, -0.02958340011537075, 0.03130185604095459, 0.006111952476203442, -0.05942932516336441, 0.998572051525116, -0.07043658196926117, -0.07543754577636719, 1.48974609375, 1.675048828125, 0.6022186279296875, 1.490478515625, 1.640625, 10.0, 1.4132335186004639, 1.5, 1.4132335186004639
13725, -0.8973013162612915, 0.5212370157241821, -0.6707112193107605, -0.0022603890392929316, 0.004015984479337931, -1.2679530382156372, -0.019949140027165413, 0.03536706417798996, -0.2099459022283554, -0.824134111404419, -0.9650284647941589, 0.055420614778995514, -0.4904381255299409, 0.2439018243273381, -4.329346504000091, 9362.0, 30146.0, 35388.0, 9362.0, 8.132232666015625, 0.03987376391887665, -0.13923482596874237, 0.1500767469406128, 0.006180035416036844, -0.058745481073856354, 0.9988121390342712, -0.07043658196926117, -0.07543754577636719, 1.48974609375, 1.48095703125, 0.1587677001953125, 1.491943359375, 1.071533203125, 10.0, 1.4127390384674072, 1.5, 1.4127390384674072
13735, -0.8963444828987122, 0.522663414478302, -0.6695310473442078, -0.0024642429780215025, 0.004377374891191721, -1.2700529098510742, -0.020821642130613327, 0.03691105544567108, -0.21002374589443207, -0.824135422706604, -0.9650617241859436, 0.0555502213537693, -0.515735233971387, 0.22501703369329107, -4.341294594745233, 9362.0, 30146.0, 35388.0, 9362.0, 8.132232666015625, -0.1697184443473816, 0.0938575342297554, 0.06919118762016296, 0.005925106815993786, -0.05905121937394142, 0.9997026920318604, -0.07043658196926117, -0.07543754577636719, 1.48974609375, 1.490478515625, 0.1768646240234375, 1.491943359375, 1.300048828125, 10.0, 1.4130760431289673, 1.5, 1.4130760431289673
13745, -0.8960712552070618, 0.5226970314979553, -0.6684108972549438, -0.002676831092685461, 0.004754219204187393, -1.2721531391143799, -0.02169603854417801, 0.03845779597759247, -0.2100302129983902, -0.8241341710090637, -0.965018630027771, 0.05543312430381775, -0.4829793190264367, 0.24327526857339876, -4.3336559213910695, 9362.0, 30146.0, 35388.0, 9362.0, 8.132232666015625, -0.07402633130550385, -0.02816803753376007, 0.2002115398645401, 0.005739228799939156, -0.05849393457174301, 0.9998376965522766, -0.07043658196926117, -0.07543754577636719, 1.48974609375, 1.318359375, 0.028656005859375, 1.491943359375, 1.171875, 10.0, 1.4124442338943481, 1.5, 1.4124442338943481
13755, -0.8980634212493896, 0.5235083103179932, -0.6690804958343506, -0.0028981734067201614, 0.005146518349647522, -1.2742537260055542, -0.022572442889213562, 0.04000205174088478, -0.210090771317482, -0.824207603931427, -0.9650467038154602, 0.05550099164247513, -0.5155929051889048, 0.2144123379654843, -4.3425713300580515, 9362.0, 30146.0, 35388.0, 9362.0, 8.132232666015625, 0.09554427862167358, 0.34201180934906006, 0.08506131172180176, 0.005220956634730101, -0.05884386599063873, 0.9994841814041138, -0.07043658196926117, -0.07543754577636719, 1.48974609375, 1.59814453125, 0.4127655029296875, 1.491943359375, 1.63037109375, 10.0, 1.4126348495483398, 1.5, 1.4126348495483398
13765, -0.8974062204360962, 0.5217822194099426, -0.6685291528701782, -0.0031282766722142696, 0.0055542513728141785, -1.2763553857803345, -0.023448172956705093, 0.0415445938706398, -0.21023140847682953, -0.824140191078186, -0.9650128483772278, 0.05543114244937897, -0.4873253238568652, 0.2423590851187214, -4.3338174721785325, 9362.0, 30146.0, 35388.0, 9362.0, 8.132232666015625, 0.10029773414134979, 0.39560285210609436, 0.27328556776046753, 0.0054649789817631245, -0.05936185270547867, 0.9976547360420227, -0.07043658196926117, -0.07543754577636719, 1.48974609375, 1.18798828125, 0.455841064453125, 1.489013671875, 1.582763671875, 10.0, 1.4123854637145996, 1.5, 1.4123854637145996
13775, -0.8974760174751282, 0.5193727612495422, -0.6678800582885742, -0.003367138560861349, 0.005977417808026075, -1.2784589529037476, -0.02432422898709774, 0.04308871179819107, -0.21048860251903534, -0.8240764737129211, -0.9650317430496216, 0.05546371266245842, -0.488643735729145, 0.2569931195287438, -4.34213433156127, 9362.0, 30146.0, 35388.0, 9362.0, 8.132232666015625, -0.15355020761489868, 0.16339315474033356, 0.2561280131340027, 0.004815597552806139, -0.06166912987828255, 0.9967406392097473, -0.07043658196926117, -0.07543754577636719, 1.48974609375, 1.656005859375, 0.553802490234375, 1.489013671875, 1.52490234375, 10.0, 1.4129407405853271, 1.5, 1.4129407405853271
13785, -0.8985206484794617, 0.518303632736206, -0.6647261381149292, -0.0036147458013147116, 0.006416018586605787, -1.2805651426315308, -0.025197239592671394, 0.04463142529129982, -0.2107607126235962, -0.8241358399391174, -0.9650473594665527, 0.05552791804075241, -0.5125975322150993, 0.23077054740670633, -4.348168735556975, 9362.0, 30146.0, 35388.0, 9362.0, 8.132232666015625, 0.07505839318037033, -0.27979862689971924, -0.16682739555835724, 0.004468160681426525, -0.059665497392416, 0.9969890713691711, -0.07043658196926117, -0.07543754577636719, 1.48974609375, 1.4033203125, 0.043182373046875, 1.48681640625, 1.012939453125, 10.0, 1.4114588499069214, 1.5, 1.4114588499069214
13795, -0.8980709910392761, 0.5198220014572144, -0.6649930477142334, -0.003871059510856867, 0.006870041135698557, -1.2826744318008423, -0.02606559917330742, 0.04617305472493172, -0.21110272407531738, -0.8240817785263062, -0.9650269150733948, 0.055467307567596436, -0.4938787407673364, 0.2564373673253897, -4.334164879086139, 9362.0, 30146.0, 35388.0, 9362.0, 8.132232666015625, 0.19594086706638336, -0.17280256748199463, -0.3391689360141754, 0.006282387766987085, -0.05782640352845192, 0.996937096118927, -0.07043658196926117, -0.07543754577636719, 1.48974609375, 1.4150390625, 0.05596923828125, 1.48681640625, 0.8994140625, 10.0, 1.4117974042892456, 1.5, 1.4117974042892456
13805, -0.8977267146110535, 0.5196768641471863, -0.6669902801513672, -0.004136052448302507, 0.007339496165513992, -1.2847867012023926, -0.026932938024401665, 0.04771796241402626, -0.21134909987449646, -0.8241363763809204, -0.9650137424468994, 0.055447328835725784, -0.48809076423622466, 0.24186764535596694, -4.335964804791721, 9362.0, 30146.0, 35388.0, 9362.0, 8.132232666015625, -0.10297749936580658, 0.07265769690275192, -0.1048555076122284, 0.007273579481989145, -0.056621648371219635, 0.9982812404632568, -0.07043658196926117, -0.07543754577636719, 1.48974609375, 0.992431640625, 3.157012939453125, 1.4912109375, 1.25390625, 10.0, 1.4121302366256714, 1.5, 1.4121302366256714
13815, -0.89811772108078, 0.5200364589691162, -0.6686791181564331, -0.0044097332283854485, 0.007824399508535862, -1.2869012355804443, -0.027803122997283936, 0.04926268383860588, -0.21156245470046997, -0.8241367936134338, -0.9650228023529053, 0.0554359070956707, -0.4906628027385465, 0.24219400429254279, -4.337035470916731, 9362.0, 30146.0, 35388.0, 9362.0, 8.132232666015625, 0.08077793568372726, 0.022609679028391838, -0.04167652130126953, 0.006429542321711779, -0.058071721345186234, 0.997919499874115, -0.06332196295261383, -0.03959846496582031, 1.49267578125, 1.58935546875, 0.3920440673828125, 1.4912109375, 1.61865234375, 10.0, 1.4123685359954834, 1.5, 1.4123685359954834
13825, -0.8976782560348511, 0.521593451499939, -0.6684085130691528, -0.0046921176835894585, 0.008324753493070602, -1.2890175580978394, -0.02867375873029232, 0.050808150321245193, -0.21169282495975494, -0.8240762948989868, -0.9650325179100037, 0.05547834187746048, -0.48751717990377774, 0.25120203774946503, -4.33215127505094, 9362.0, 30146.0, 35388.0, 9362.0, 8.132232666015625, -0.20640042424201965, -0.21549805998802185, 0.025905176997184753, 0.0046943300403654575, -0.060094449669122696, 0.9998984932899475, -0.06332196295261383, -0.03959846496582031, 1.49267578125, 1.077392578125, 1.570770263671875, 1.493408203125, 1.60107421875, 10.0, 1.410944938659668, 1.5, 1.410944938659668
13835, -0.8992083072662354, 0.520911693572998, -0.6666867733001709, -0.00498321233317256, 0.00884056743234396, -1.2911350727081299, -0.029545195400714874, 0.052354615181684494, -0.21180181205272675, -0.8241413235664368, -0.9650121927261353, 0.05542599409818649, -0.48842233058361784, 0.24208726491102084, -4.330903734478599, 9362.0, 30146.0, 35388.0, 9362.0, 8.132232666015625, -0.11585000157356262, 0.13060322403907776, 0.17602823674678802, 0.004738093353807926, -0.057165708392858505, 0.9974677562713623, -0.06332196295261383, -0.03959846496582031, 1.49267578125, 1.59375, 0.4024658203125, 1.493408203125, 1.336669921875, 10.0, 1.4101403951644897, 1.5, 1.4101403951644897
13855, -0.8995201587677002, 0.5179031491279602, -0.6664040088653564, -0.005591568071395159, 0.009918543510138988, -1.2953760623931885, -0.031290408223867416, 0.05544527247548103, -0.21223483979701996, -0.8241403102874756, -0.9650249481201172, 0.055429376661777496, -0.4881090037082567, 0.23852916425195758, -4.329976885043217, 9362.0, 30146.0, 35388.0, 9362.0, 8.132232666015625, -0.010732045397162437, 0.3172109127044678, -0.0654858723282814, 0.004844369366765022, -0.0579536147415638, 0.9977251291275024, -0.06332196295261383, -0.03959846496582031, 1.49267578125, 1.428955078125, 0.073577880859375, 1.493408203125, 1.336669921875, 10.0, 1.4086750745773315, 1.5, 1.4086750745773315
13875, -0.9002794027328491, 0.5193589925765991, -0.6659518480300903, -0.0059088231064379215, 0.010480734519660473, -1.2974990606307983, -0.032160624861717224, 0.05699292570352554, -0.2123698592185974, -0.8240864276885986, -0.9650310277938843, 0.05547458678483963, -0.484786979681519, 0.25569582989388095, -4.3429354890853, 9362.0, 30146.0, 35388.0, 9362.0, 8.132232666015625, 0.13825862109661102, -0.0234215185046196, -0.10403504222631454, 0.004844369366765022, -0.0579536147415638, 0.9977251291275024, -0.06332196295261383, -0.03959846496582031, 1.49267578125, 1.428955078125, 0.073577880859375, 1.493408203125, 1.336669921875, 10.0, 1.4084614515304565, 1.5, 1.4084614515304565
13895, -0.9002837538719177, 0.5248005390167236, -0.6676397919654846, -0.006569379940629005, 0.011651548556983471, -1.3017503023147583, -0.03389449045062065, 0.060087572783231735, -0.21283693611621857, -0.8240777254104614, -0.9650290012359619, 0.055463485419750214, -0.48810671528886146, 0.2637772070584674, -4.34598847433752, 9362.0, 30146.0, 35388.0, 9362.0, 8.132232666015625, -0.06928937882184982, 0.35439252853393555, 0.08876781910657883, 0.004844369366765022, -0.0579536147415638, 0.9977251291275024, -0.06332196295261383, -0.03959846496582031, 1.49267578125, 1.0458984375, 2.071624755859375, 1.493408203125, 1.51611328125, 10.0, 1.4084614515304565, 1.5, 1.4084614515304565
13905, -0.9016889929771423, 0.522111177444458, -0.6666390895843506, -0.006569379940629005, 0.011651548556983471, -1.3017503023147583, -0.03389449045062065, 0.060087572783231735, -0.21283693611621857, -0.8240835070610046, -0.9650370478630066, 0.05545647069811821, -0.48744204476661124, 0.258296228281921, -4.344480363933968, 9362.0, 30146.0, 35388.0, 9362.0, 8.132232666015625, -0.06928937882184982, 0.35439252853393555, 0.08876781910657883, 0.004844369366765022, -0.0579536147415638, 0.9977251291275024, -0.06332196295261383, -0.03959846496582031, 1.49267578125, 1.0458984375, 2.071624755859375, 1.49267578125, 1.51611328125, 10.0, 1.4080243110656738, 1.5, 1.4080243110656738
13925, -0.903450071811676, 0.5226450562477112, -0.6651093363761902, -0.006569379940629005, 0.011651548556983471, -1.3017503023147583, -0.03389449045062065, 0.060087572783231735, -0.21283693611621857, -0.8240714073181152, -0.9650291800498962, 0.05546604096889496, -0.4899202198919919, 0.2569925336887877, -4.336677927067887, 9362.0, 30146.0, 35388.0, 9362.0, 8.132232666015625, 0.15153171122074127, -0.10855169594287872, 0.09060904383659363, 0.004844369366765022, -0.0579536147415638, 0.9977251291275024, -0.06332196295261383, -0.03959846496582031, 1.49267578125, 1.0458984375, 2.071624755859375, 1.4912109375, 1.594482421875, 10.0, 1.4080243110656738, 1.5, 1.4080243110656738
13945, -0.9050773978233337, 0.5191859602928162, -0.6646063923835754, -0.008373177610337734, 0.01484945509582758, -1.3124239444732666, -0.03825954347848892, 0.06783056259155273, -0.21419043838977814, -0.8241443634033203, -0.965062141418457, 0.05553054064512253, -0.5146788628015613, 0.23302568859310213, -4.348313088401835, 9362.0, 30146.0, 35388.0, 9362.0, 8.132232666015625, 0.034699633717536926, 0.18395787477493286, 0.16614726185798645, 0.004844369366765022, -0.0579536147415638, 0.9977251291275024, -0.06332196295261383, -0.03959846496582031, 1.49267578125, 0.94775390625, 4.325836181640625, 1.4912109375, 1.587890625, 10.0, 1.4080243110656738, 1.5, 1.4080243110656738
13955, -0.9040461182594299, 0.5170255303382874, -0.6620297431945801, -0.009155834093689919, 0.016237111762166023, -1.316713809967041, -0.040004488080739975, 0.07093518227338791, -0.2147606611251831, -0.8240703344345093, -0.9650392532348633, 0.05547327175736427, -0.4917469536337957, 0.2591062587676731, -4.331772493904337, 9362.0, 30146.0, 35388.0, 9362.0, 8.132232666015625, -0.13337202370166779, 0.2653794288635254, 0.2191428244113922, 0.004844369366765022, -0.0579536147415638, 0.9977251291275024, -0.06332196295261383, -0.03959846496582031, 1.49267578125, 0.94775390625, 4.325836181640625, 1.4912109375, 1.587890625, 10.0, 1.408241629600525, 1.5, 1.408241629600525
13965, -0.9050757884979248, 0.5155917406082153, -0.6597239375114441, -0.009155834093689919, 0.016237111762166023, -1.316713809967041, -0.040004488080739975, 0.07093518227338791, -0.2147606611251831, -0.8240741491317749, -0.965032696723938, 0.05546898394823074, -0.4939545840744492, 0.25746924775378943, -4.32839830580219, 9362.0, 30146.0, 35388.0, 9362.0, 8.132232666015625, -0.08855052292346954, 0.1919834017753601, 0.0458611361682415, 0.004844369366765022, -0.0579536147415638, 0.9977251291275024, -0.06332196295261383, -0.03959846496582031, 1.49267578125, 0.94775390625, 4.325836181640625, 1.4912109375, 1.53369140625, 10.0, 1.408241629600525, 1.5, 1.408241629600525
13995, -0.9060059785842896, 0.5132723450660706, -0.6567270159721375, -0.010395055636763573, 0.018435301259160042, -1.323159098625183, -0.04260757565498352, 0.0756128579378128, -0.21478311717510223, -0.8240803480148315, -0.965036153793335, 0.05547240376472473, -0.4891516211101608, 0.2577615723808151, -4.333984446208052, 9362.0, 30146.0, 35388.0, 9362.0, 8.132232666015625, -0.06296214461326599, -0.07597215473651886, -0.2071509063243866, 0.004844369366765022, -0.0579536147415638, 0.9977251291275024, -0.06332196295261383, -0.03959846496582031, 1.49267578125, 0.984375, 3.3490142822265625, 1.4912109375, 1.43115234375, 10.0, 1.4075274467468262, 1.5, 1.4075274467468262
14005, -0.9064334034919739, 0.5107632279396057, -0.6582592129707336, -0.010395055636763573, 0.018435301259160042, -1.323159098625183, -0.04260757565498352, 0.0756128579378128, -0.21478311717510223, -0.8240692615509033, -0.9650251269340515, 0.055461008101701736, -0.49186457103125997, 0.2578233470775615, -4.331268393810794, 9362.0, 30146.0, 35388.0, 9362.0, 8.132232666015625, -0.006310157012194395, 0.281252384185791, -0.0031457124277949333, 0.004844369366765022, -0.0579536147415638, 0.9977251291275024, -0.06332196295261383, -0.03959846496582031, 1.49267578125, 0.984375, 3.3490142822265625, 1.48974609375, 1.43115234375, 10.0, 1.4070063829421997, 1.5, 1.4070063829421997
14025, -0.9075168371200562, 0.5099580883979797, -0.6582654714584351, -0.010395055636763573, 0.018435301259160042, -1.323159098625183, -0.04260757565498352, 0.0756128579378128, -0.21478311717510223, -0.8240756988525391, -0.9650290012359619, 0.05547218769788742, -0.4864546286160782, 0.25318102648927265, -4.340566748814752, 9362.0, 30146.0, 35388.0, 9362.0, 8.132232666015625, -0.0899450033903122, 0.3560583293437958, 0.07138646394014359, 0.004844369366765022, -0.0579536147415638, 0.9977251291275024, -0.0508369542658329, 0.023120880126953125, 1.497802734375, 0.984375, 3.3490142822265625, 1.49560546875, 1.5615234375, 10.0, 1.4070063829421997, 1.5, 1.4070063829421997
14045, -0.9094845652580261, 0.5079854726791382, -0.6571804881095886, -0.01263303030282259, 0.022410906851291656, -1.3339171409606934, -0.046902090311050415, 0.08341383934020996, -0.21553678810596466, -0.8240854144096375, -0.9650446176528931, 0.05547568202018738, -0.4820127503601126, 0.25706375036526197, -4.3443366578930585, 9362.0, 30146.0, 35388.0, 9362.0, 8.132232666015625, -0.15970931947231293, 0.12517331540584564, 0.07333117723464966, 0.004844369366765022, -0.0579536147415638, 0.9977251291275024, -0.0508369542658329, 0.023120880126953125, 1.497802734375, 0.984375, 3.3490142822265625, 1.489013671875, 1.5615234375, 10.0, 1.4070063829421997, 1.5, 1.4070063829421997
14075, -0.9072464108467102, 0.5060622096061707, -0.6565569043159485, -0.014577309601008892, 0.02587241865694523, -1.3425532579421997, -0.050309665501117706, 0.08966431766748428, -0.2163258194923401, -0.8241691589355469, -0.9650911688804626, 0.05551200360059738, -0.5108588635356455, 0.23093603699285836, -4.340517426583051, 9362.0, 30146.0, 35388.0, 9362.0, 8.132232666015625, 0.17547057569026947, 0.14953181147575378, 0.017749330028891563, 0.004844369366765022, -0.0579536147415638, 0.9977251291275024, -0.0508369542658329, 0.023120880126953125, 1.497802734375, 1.1044921875, 1.2117767333984375, 1.489013671875, 1.5615234375, 10.0, 1.4063713550567627, 1.5, 1.4063713550567627
14095, -0.9070755243301392, 0.5059903264045715, -0.6583216786384583, -0.015084661543369293, 0.026776878163218498, -1.3447171449661255, -0.051160745322704315, 0.09122775495052338, -0.21644076704978943, -0.8241437673568726, -0.9650602340698242, 0.05552450194954872, -0.5113114452917289, 0.23268273503509818, -4.350587563809485, 9362.0, 30146.0, 35388.0, 9362.0, 8.132232666015625, 0.32040315866470337, -0.04105547443032265, -0.10168927162885666, 0.004844369366765022, -0.0579536147415638, 0.9977251291275024, -0.0508369542658329, 0.023120880126953125, 1.497802734375, 0.766845703125, 12.286239624023438, 1.489013671875, 1.34912109375, 10.0, 1.4063713550567627, 1.5, 1.4063713550567627
14125, -0.9084871411323547, 0.508009672164917, -0.660228967666626, -0.015084661543369293, 0.026776878163218498, -1.3447171449661255, -0.051160745322704315, 0.09122775495052338, -0.21644076704978943, -0.8241344094276428, -0.9650182723999023, 0.05544867739081383, -0.4848922744188677, 0.23933655414293753, -4.338278918666625, 9362.0, 30146.0, 35388.0, 9362.0, 8.132232666015625, 0.037912748754024506, -0.04379012808203697, 0.033229049295186996, 0.004844369366765022, -0.0579536147415638, 0.9977251291275024, -0.0508369542658329, 0.023120880126953125, 1.497802734375, 0.903076171875, 5.7706146240234375, 1.4912109375, 1.58349609375, 10.0, 1.4054449796676636, 1.5, 1.4054449796676636
14135, -0.9078387022018433, 0.5079010725021362, -0.6598315238952637, -0.01774851605296135, 0.03153303638100624, -1.3555766344070435, -0.055395301431417465, 0.099020816385746, -0.2178686261177063, -0.8240777850151062, -0.9650378823280334, 0.05545109137892723, -0.49280606743907723, 0.26102590590866726, -4.340584594550881, 9362.0, 30146.0, 35388.0, 9362.0, 8.132232666015625, -0.04065646603703499, 0.27944326400756836, 0.24180404841899872, 0.004844369366765022, -0.0579536147415638, 0.9977251291275024, -0.0508369542658329, 0.023120880126953125, 1.497802734375, 0.903076171875, 5.7706146240234375, 1.4912109375, 1.58349609375, 10.0, 1.40553617477417, 1.5, 1.40553617477417
14155, -0.9081022143363953, 0.5057377815246582, -0.6593343019485474, -0.018873408436775208, 0.033544667065143585, -1.359939694404602, -0.05709456652402878, 0.10214299708604813, -0.21836186945438385, -0.8240637183189392, -0.965043306350708, 0.055479567497968674, -0.4882510236208038, 0.253152514739412, -4.33954004278015, 9362.0, 30146.0, 35388.0, 9362.0, 8.132232666015625, -0.023273438215255737, 0.48937278985977173, 0.025406675413250923, 0.004844369366765022, -0.0579536147415638, 0.9977251291275024, -0.0508369542658329, 0.023120880126953125, 1.497802734375, 1.421630859375, 0.0640716552734375, 1.4912109375, 1.58349609375, 10.0, 1.4040331840515137, 1.5, 1.4040331840515137
14165, -0.9075309038162231, 0.5052499771118164, -0.6590092778205872, -0.019448591396212578, 0.03457389399409294, -1.3621244430541992, -0.05794200673699379, 0.10370267182588577, -0.21858373284339905, -0.8241001963615417, -0.9650381803512573, 0.055476754903793335, -0.4892246871267647, 0.25474009565883193, -4.343088832652924, 9362.0, 30146.0, 35388.0, 9362.0, 8.132232666015625, -0.031153637915849686, -0.1778581142425537, -0.13226844370365143, 0.004844369366765022, -0.0579536147415638, 0.9977251291275024, -0.0508369542658329, 0.023120880126953125, 1.497802734375, 1.421630859375, 0.0640716552734375, 1.4912109375, 1.239990234375, 10.0, 1.4040331840515137, 1.5, 1.4040331840515137
14175, -0.9088807106018066, 0.5034353137016296, -0.6584428548812866, -0.019448591396212578, 0.03457389399409294, -1.3621244430541992, -0.05794200673699379, 0.10370267182588577, -0.21858373284339905, -0.8241298794746399, -0.9650110006332397, 0.055424898862838745, -0.4844794456185782, 0.24698170538152908, -4.332883795495655, 9362.0, 30146.0, 35388.0, 9362.0, 8.132232666015625, -0.12468350678682327, 0.15601322054862976, -0.28539228439331055, 0.004844369366765022, -0.0579536147415638, 0.9977251291275024, -0.0508369542658329, 0.023120880126953125, 1.497802734375, 0.901611328125, 5.8231048583984375, 1.4912109375, 1.51171875, 10.0, 1.4040331840515137, 1.5, 1.4040331840515137
14185, -0.9089982509613037, 0.5013989806175232, -0.6591490507125854, -0.020624352619051933, 0.03667917847633362, -1.3665000200271606, -0.059634000062942505, 0.10682554543018341, -0.21895089745521545, -0.8241434097290039, -0.9650262594223022, 0.055442601442337036, -0.4849627257805196, 0.24291017693818162, -4.335692237043128, 9362.0, 30146.0, 35388.0, 9362.0, 8.132232666015625, -0.06504267454147339, 0.25203052163124084, 0.07019859552383423, 0.004844369366765022, -0.0579536147415638, 0.9977251291275024, -0.0508369542658329, 0.023120880126953125, 1.497802734375, 1.072265625, 1.6459503173828125, 1.4912109375, 1.51171875, 10.0, 1.4042237997055054, 1.5, 1.4042237997055054
14205, -0.9094401597976685, 0.4974246621131897, -0.6588358879089355, -0.0218338780105114, 0.038846977055072784, -1.370881199836731, -0.061315812170505524, 0.1099529042840004, -0.21927127242088318, -0.8241457343101501, -0.965060293674469, 0.0555354505777359, -0.5136283201291432, 0.2359573233435981, -4.350377535446161, 9362.0, 30146.0, 35388.0, 9362.0, 8.112398147583008, -0.005501298699527979, 0.007032737135887146, 0.29789379239082336, 0.004844369366765022, -0.0579536147415638, 0.9977251291275024, -0.0508369542658329, 0.023120880126953125, 1.497802734375, 1.077392578125, 1.570770263671875, 1.491943359375, 1.640625, 10.0, 1.4044617414474487, 1.5, 1.4044617414474487
14215, -0.9085408449172974, 0.4961957037448883, -0.6563825011253357, -0.022451205179095268, 0.03995431587100029, -1.3730756044387817, -0.06214967370033264, 0.1115150973200798, -0.21960480511188507, -0.824135959148407, -0.9650588631629944, 0.05554388090968132, -0.5112177757448794, 0.22304331160560764, -4.342894118411349, 9362.0, 30146.0, 35388.0, 9362.0, 8.112398147583008, -0.08563081175088882, -0.09616415202617645, -0.12317704409360886, 0.004844369366765022, -0.0579536147415638, 0.9977251291275024, -0.047719839960336685, 0.05000114440917969, 1.5, 1.077392578125, 1.570770263671875, 1.491943359375, 1.332275390625, 10.0, 1.4044617414474487, 1.5, 1.4044617414474487
14245, -0.909130334854126, 0.49733251333236694, -0.6583996415138245, -0.0237108301371336, 0.04221588745713234, -1.3774714469909668, -0.06381259858608246, 0.1146426796913147, -0.21990294754505157, -0.824073314666748, -0.9650305509567261, 0.05546202510595322, -0.4904300438951993, 0.2663494565377107, -4.33900693547715, 9362.0, 30146.0, 35388.0, 9362.0, 8.112398147583008, -0.4080377221107483, 0.276011198759079, 0.21669569611549377, 0.006079134996980429, -0.05801235884428024, 0.9997615814208984, -0.047719839960336685, 0.05000114440917969, 1.5, 1.32568359375, 0.0232086181640625, 1.493408203125, 1.60693359375, 10.0, 1.403158187866211, 1.5, 1.403158187866211
14275, -0.9093332290649414, 0.49884167313575745, -0.6604411602020264, -0.026329832151532173, 0.046926725655794144, -1.3862804174423218, -0.06713768094778061, 0.12089978158473969, -0.2205115556716919, -0.8240870237350464, -0.9650320410728455, 0.05546560510993004, -0.4909064946301519, 0.2534622957758188, -4.342205331463123, 9362.0, 30146.0, 35388.0, 9362.0, 8.112398147583008, -0.06388717144727707, 0.03913020342588425, 0.006073002237826586, 0.006079134996980429, -0.05801235884428024, 0.9997615814208984, -0.047719839960336685, 0.05000114440917969, 1.5, 1.1279296875, 0.9498291015625, 1.493408203125, 1.60693359375, 10.0, 1.4027318954467773, 1.5, 1.4027318954467773
14295, -0.9081085920333862, 0.5008131265640259, -0.6594712138175964, -0.027689265087246895, 0.04937605559825897, -1.390692114830017, -0.06880681216716766, 0.12403302639722824, -0.2206222265958786, -0.8241387605667114, -0.9650571942329407, 0.0555231049656868, -0.5109969630552108, 0.23048301300420349, -4.3431157651709675, 9362.0, 30146.0, 35388.0, 9362.0, 8.112398147583008, 0.07573072612285614, -0.07524112612009048, 0.43058890104293823, 0.006079134996980429, -0.05801235884428024, 0.9997615814208984, -0.047719839960336685, 0.05000114440917969, 1.5, 1.1279296875, 0.9498291015625, 1.493408203125, 1.60693359375, 10.0, 1.4030742645263672, 1.5, 1.4030742645263672
14325, -0.9071084260940552, 0.4983782172203064, -0.6591030359268188, -0.027689265087246895, 0.04937605559825897, -1.390692114830017, -0.06880681216716766, 0.12403302639722824, -0.2206222265958786, -0.8240671157836914, -0.9650401473045349, 0.05547838285565376, -0.4836634852674954, 0.26173192866468753, -4.339803986799373, 9362.0, 30146.0, 35388.0, 9362.0, 8.112398147583008, -0.36866864562034607, -0.08220168203115463, 0.08559037744998932, 0.006079134996980429, -0.05801235884428024, 0.9997615814208984, -0.06849060207605362, -0.04855918884277344, 1.491943359375, 1.1044921875, 1.2117767333984375, 1.489013671875, 1.57763671875, 10.0, 1.4030742645263672, 1.5, 1.4030742645263672
14345, -0.9079734683036804, 0.4982793629169464, -0.6597242951393127, -0.030508482828736305, 0.05446245148777962, -1.3995274305343628, -0.07215382903814316, 0.13028457760810852, -0.2212008684873581, -0.8240758180618286, -0.9650324583053589, 0.0554565005004406, -0.48623325173502036, 0.25887403964014766, -4.338442957810196, 9362.0, 30146.0, 35388.0, 9362.0, 8.112398147583008, -0.15219712257385254, 0.47390085458755493, 0.17360976338386536, 0.005466802045702934, -0.05951828882098198, 0.9986094236373901, -0.06849060207605362, -0.04855918884277344, 1.491943359375, 1.048095703125, 2.033538818359375, 1.489013671875, 1.55859375, 10.0, 1.4029282331466675, 1.5, 1.4029282331466675
14355, -0.9084115028381348, 0.4942406713962555, -0.6579059958457947, -0.03196824714541435, 0.05709937587380409, -1.4039535522460938, -0.07382213324308395, 0.13340771198272705, -0.22144660353660583, -0.8240744471549988, -0.9650321006774902, 0.055465031415224075, -0.4865775267913697, 0.2602924069179835, -4.337066068837119, 9362.0, 30146.0, 35388.0, 9362.0, 8.112398147583008, 0.0989731028676033, 0.05763135850429535, 0.1322653740644455, 0.005466802045702934, -0.05951828882098198, 0.9986094236373901, -0.06849060207605362, -0.04855918884277344, 1.491943359375, 1.107421875, 1.1766510009765625, 1.489013671875, 1.55859375, 10.0, 1.4023797512054443, 1.5, 1.4023797512054443
14365, -0.9069957137107849, 0.4936855137348175, -0.6579066514968872, -0.03271063044667244, 0.05844125151634216, -1.4061696529388428, -0.07465462386608124, 0.13496701419353485, -0.22177281975746155, -0.8240728378295898, -0.9650266170501709, 0.05545954778790474, -0.4865978596380295, 0.2599754842334221, -4.3449587658535345, 9362.0, 30146.0, 35388.0, 9362.0, 8.112398147583008, -0.08929634839296341, 0.10420528054237366, -0.05745817720890045, 0.005466802045702934, -0.05951828882098198, 0.9986094236373901, -0.06849060207605362, -0.04855918884277344, 1.491943359375, 1.1513671875, 0.72857666015625, 1.489013671875, 1.55859375, 10.0, 1.4023797512054443, 1.5, 1.4023797512054443
14375, -0.9079657196998596, 0.4942750930786133, -0.6580047607421875, -0.03271063044667244, 0.05844125151634216, -1.4061696529388428, -0.07465462386608124, 0.13496701419353485, -0.22177281975746155, -0.8240752220153809, -0.9650166630744934, 0.055455077439546585, -0.48964338731143925, 0.2584545844307229, -4.337538444517067, 9362.0, 30146.0, 35388.0, 9362.0, 8.112398147583008, -0.2510734796524048, -0.5078141689300537, 0.07517742365598679, 0.005466802045702934, -0.05951828882098198, 0.9986094236373901, -0.06849060207605362, -0.04855918884277344, 1.491943359375, 1.0048828125, 2.8755950927734375, 1.489013671875, 1.515380859375, 10.0, 1.4028918743133545, 1.5, 1.4028918743133545
14385, -0.9102467894554138, 0.4974786043167114, -0.657477080821991, -0.03271063044667244, 0.05844125151634216, -1.4061696529388428, -0.07465462386608124, 0.13496701419353485, -0.22177281975746155, -0.8240800499916077, -0.965031623840332, 0.055477604269981384, -0.48759772650431876, 0.2624099044939783, -4.3392644503801545, 9362.0, 30146.0, 35388.0, 9362.0, 8.112398147583008, 0.02694171853363514, -0.09421087056398392, 0.20577476918697357, 0.005466802045702934, -0.05951828882098198, 0.9986094236373901, -0.06849060207605362, -0.04855918884277344, 1.491943359375, 1.0048828125, 2.8755950927734375, 1.493408203125, 1.445068359375, 10.0, 1.4028918743133545, 1.5, 1.4028918743133545
14395, -0.909339189529419, 0.4957596957683563, -0.6555940508842468, -0.03271063044667244, 0.05844125151634216, -1.4061696529388428, -0.07465462386608124, 0.13496701419353485, -0.22177281975746155, -0.8241963386535645, -0.9650468230247498, 0.055507395416498184, -0.5119894352444778, 0.2132504383000935, -4.349669057224725, 9362.0, 30146.0, 35388.0, 9362.0, 8.112398147583008, -0.032701484858989716, 0.18780720233917236, 0.12083154916763306, 0.005466802045702934, -0.05951828882098198, 0.9986094236373901, -0.06849060207605362, -0.04855918884277344, 1.491943359375, 1.19677734375, 0.40228271484375, 1.493408203125, 1.646484375, 10.0, 1.4028918743133545, 1.5, 1.4028918743133545
14425, -0.9092769026756287, 0.49869728088378906, -0.6555940508842468, -0.03576287254691124, 0.06396467238664627, -1.415066123008728, -0.07796119153499603, 0.14120595157146454, -0.22312746942043304, -0.8240853548049927, -0.9650350213050842, 0.05545482411980629, -0.492461998397583, 0.2625060815149993, -4.339560716648464, 9362.0, 30146.0, 35388.0, 9362.0, 8.132232666015625, 0.1746062934398651, 0.07448102533817291, -0.0656125396490097, 0.005466802045702934, -0.05951828882098198, 0.9986094236373901, -0.07410439848899841, -0.23671722412109375, 1.4765625, 1.245849609375, 0.1771087646484375, 1.490478515625, 1.6083984375, 10.0, 1.4023535251617432, 1.5, 1.4023535251617432
14435, -0.9087969660758972, 0.4985578954219818, -0.6555913090705872, -0.038139041513204575, 0.0682711973786354, -1.4217699766159058, -0.08045424520969391, 0.1458980143070221, -0.22369514405727386, -0.8241441249847412, -0.9650657176971436, 0.05553419515490532, -0.5184373183647061, 0.23176832635996902, -4.3447054786103685, 9362.0, 30146.0, 35388.0, 9362.0, 8.132232666015625, -0.007949861697852612, -0.10161834955215454, 0.20379430055618286, 0.005466802045702934, -0.05951828882098198, 0.9986094236373901, -0.07410439848899841, -0.23671722412109375, 1.4765625, 0.9521484375, 4.1992034912109375, 1.490478515625, 1.6083984375, 10.0, 1.4031609296798706, 1.5, 1.4031609296798706
14445, -0.9081519246101379, 0.49966394901275635, -0.6557461619377136, -0.038139041513204575, 0.0682711973786354, -1.4217699766159058, -0.08045424520969391, 0.1458980143070221, -0.22369514405727386, -0.8240792155265808, -0.9650305509567261, 0.05544781684875488, -0.49554839662249633, 0.26035200003425985, -4.337179285503157, 9362.0, 30146.0, 35388.0, 9362.0, 8.132232666015625, 0.06806744635105133, 0.06285812705755234, -0.02064051665365696, 0.005466802045702934, -0.05951828882098198, 0.9986094236373901, -0.07410439848899841, -0.23671722412109375, 1.4765625, 0.9521484375, 4.1992034912109375, 1.4912109375, 1.640625, 10.0, 1.4031609296798706, 1.5, 1.4031609296798706
14455, -0.9080399870872498, 0.5005481839179993, -0.6552496552467346, -0.03976481035351753, 0.07122042030096054, -1.4262479543685913, -0.0821227878332138, 0.14902453124523163, -0.22407300770282745, -0.824143648147583, -0.9650182723999023, 0.055415794253349304, -0.4864224880625886, 0.23706935282316977, -4.339117569849044, 9362.0, 30146.0, 35388.0, 9362.0, 8.132232666015625, 0.33184322714805603, -0.10085658729076385, 0.00830384436994791, 0.005466802045702934, -0.05951828882098198, 0.9986094236373901, -0.07410439848899841, -0.23671722412109375, 1.4765625, 0.9521484375, 4.1992034912109375, 1.4912109375, 1.175537109375, 10.0, 1.4021883010864258, 1.5, 1.4021883010864258
14465, -0.9077132940292358, 0.49940818548202515, -0.6541162133216858, -0.04059022292494774, 0.07271847873926163, -1.4284892082214355, -0.08295950293540955, 0.15058746933937073, -0.22418685257434845, -0.8240798711776733, -0.9650369882583618, 0.05544465035200119, -0.4953206403794535, 0.2616921425393173, -4.33924935320168, 9362.0, 30146.0, 35388.0, 9362.0, 8.132232666015625, 0.20185594260692596, 0.01860663667321205, -0.049017444252967834, 0.005466802045702934, -0.05951828882098198, 0.9986094236373901, -0.07410439848899841, -0.23671722412109375, 1.4765625, 1.2568359375, 0.1420135498046875, 1.4912109375, 1.175537109375, 10.0, 1.4021883010864258, 1.5, 1.4021883010864258
14475, -0.9070340394973755, 0.4995250105857849, -0.6550239324569702, -0.041424013674259186, 0.07423217594623566, -1.430731177330017, -0.08379848301410675, 0.15215158462524414, -0.22421689331531525, -0.824149489402771, -0.9650528430938721, 0.05552853271365166, -0.5124303644834083, 0.2307422156497978, -4.342571554105149, 9362.0, 30146.0, 35388.0, 9362.0, 8.132232666015625, -0.07260184735059738, -0.2322661131620407, -0.04742274805903435, 0.005466802045702934, -0.05951828882098198, 0.9986094236373901, -0.07410439848899841, -0.23671722412109375, 1.4765625, 1.2568359375, 0.1420135498046875, 1.4912109375, 1.17333984375, 10.0, 1.4021883010864258, 1.5, 1.4021883010864258
14495, -0.9072545170783997, 0.5018203854560852, -0.6550405621528625, -0.041424013674259186, 0.07423217594623566, -1.430731177330017, -0.08379848301410675, 0.15215158462524414, -0.22421689331531525, -0.8241377472877502, -0.9650321006774902, 0.05541878938674927, -0.4820231149133141, 0.24293582701659489, -4.327294451324464, 9362.0, 30146.0, 35388.0, 9362.0, 8.132232666015625, 0.09080503135919571, 0.01168825663626194, -0.10536278039216995, 0.005466802045702934, -0.05951828882098198, 0.9986094236373901, -0.07410439848899841, -0.23671722412109375, 1.4765625, 1.30078125, 0.048004150390625, 1.48974609375, 1.345458984375, 10.0, 1.4021883010864258, 1.5, 1.4021883010864258
14525, -0.9065897464752197, 0.5016399621963501, -0.6578348875045776, -0.045718491077423096, 0.08203474432229996, -1.4419682025909424, -0.08798497915267944, 0.15994887053966522, -0.2253171056509018, -0.8240792155265808, -0.965031623840332, 0.05546695739030838, -0.48844324893326535, 0.2559265621717657, -4.339431309554862, 9362.0, 30146.0, 35388.0, 9362.0, 8.132232666015625, -0.20049388706684113, -0.15409034490585327, 0.025352932512760162, 0.004438615869730711, -0.05780552700161934, 0.9981497526168823, -0.057728707790374756, -0.13815879821777344, 1.484619140625, 1.35791015625, 0.015869140625, 1.497802734375, 1.1513671875, 10.0, 1.4047187566757202, 1.5, 1.4047187566757202
14535, -0.9068723320960999, 0.5015074014663696, -0.6577005982398987, -0.046602513641119, 0.08364202082157135, -1.4442229270935059, -0.0888194888830185, 0.16150619089603424, -0.2256271243095398, -0.824083685874939, -0.965023934841156, 0.055473919957876205, -0.4926029167802295, 0.2595127192968505, -4.3402084489740345, 9362.0, 30146.0, 35388.0, 9362.0, 8.132232666015625, -0.07318533211946487, 0.36334744095802307, 0.14823400974273682, 0.004438615869730711, -0.05780552700161934, 0.9981497526168823, -0.057728707790374756, -0.13815879821777344, 1.484619140625, 1.075927734375, 1.5919647216796875, 1.497802734375, 1.1513671875, 10.0, 1.4047187566757202, 1.5, 1.4047187566757202
14545, -0.9061242341995239, 0.5029811263084412, -0.65825355052948, -0.046602513641119, 0.08364202082157135, -1.4442229270935059, -0.0888194888830185, 0.16150619089603424, -0.2256271243095398, -0.8240803480148315, -0.9650176763534546, 0.055454641580581665, -0.4906316574293864, 0.2632104964626194, -4.339620799981998, 9362.0, 30146.0, 35388.0, 9362.0, 8.132232666015625, 0.2942052483558655, -0.35946333408355713, -0.06887772679328918, 0.004438615869730711, -0.05780552700161934, 0.9981497526168823, -0.057728707790374756, -0.13815879821777344, 1.484619140625, 1.075927734375, 1.5919647216796875, 1.489013671875, 1.1513671875, 10.0, 1.4049431085586548, 1.5, 1.4049431085586548
14565, -0.9077923893928528, 0.5044831037521362, -0.6581059098243713, -0.048395708203315735, 0.08690336346626282, -1.448737382888794, -0.09050054848194122, 0.16462957859039307, -0.22571806609630585, -0.8240745663642883, -0.9650354981422424, 0.05547098070383072, -0.493732303382654, 0.25936306278862276, -4.3432544404086, 9362.0, 30146.0, 35388.0, 9362.0, 8.132232666015625, -0.04273538291454315, 0.17253418266773224, 0.1844567060470581, 0.004438615869730711, -0.05780552700161934, 0.9981497526168823, -0.057728707790374756, -0.13815879821777344, 1.484619140625, 1.001953125, 2.9401397705078125, 1.489013671875, 1.600341796875, 10.0, 1.4049431085586548, 1.5, 1.4049431085586548
14575, -0.9088739156723022, 0.5041488409042358, -0.6585099101066589, -0.05022260546684265, 0.09022720158100128, -1.453250765800476, -0.0921892374753952, 0.1677519977092743, -0.22573310136795044, -0.824077308177948, -0.9650305509567261, 0.05545927584171295, -0.49880839154649087, 0.26207044764382204, -4.340018223551632, 9362.0, 30146.0, 35388.0, 9362.0, 8.132232666015625, 0.09326191991567612, 0.14290456473827362, 0.32987168431282043, 0.004438615869730711, -0.05780552700161934, 0.9981497526168823, -0.057728707790374756, -0.13815879821777344, 1.484619140625, 1.001953125, 2.9401397705078125, 1.489013671875, 1.600341796875, 10.0, 1.4058252573013306, 1.5, 1.4058252573013306
14595, -0.908769965171814, 0.5040257573127747, -0.6539034843444824, -0.05114871263504028, 0.09191251546144485, -1.4555096626281738, -0.09303241223096848, 0.16931132972240448, -0.2260449379682541, -0.8240677118301392, -0.9650250673294067, 0.0554790273308754, -0.496340062182026, 0.2638149506690013, -4.34249163159429, 9362.0, 30146.0, 35388.0, 9362.0, 8.132232666015625, 0.01076470222324133, 0.11703380942344666, 0.10049770772457123, 0.004438615869730711, -0.05780552700161934, 0.9981497526168823, -0.057728707790374756, -0.13815879821777344, 1.484619140625, 1.06787109375, 1.7122650146484375, 1.489013671875, 1.600341796875, 10.0, 1.4050923585891724, 1.5, 1.4050923585891724
14645, -0.9092406034469604, 0.5067393779754639, -0.6553526520729065, -0.05590573325753212, 0.10057342052459717, -1.4668405055999756, -0.09724438935518265, 0.17712406814098358, -0.2273559868335724, -0.8241430521011353, -0.965049684047699, 0.055526793003082275, -0.5184860516946787, 0.23502481691238586, -4.342408784201566, 9362.0, 30146.0, 35388.0, 9362.0, 8.132232666015625, 0.2412257343530655, -0.0870739072561264, 0.4090883135795593, 0.004438615869730711, -0.05780552700161934, 0.9981497526168823, -0.054437264800071716, -0.09335899353027344, 1.48828125, 1.004150390625, 2.8916473388671875, 1.48681640625, 1.54248046875, 10.0, 1.4058454036712646, 1.5, 1.4058454036712646
14655, -0.9081339836120605, 0.5058608055114746, -0.6556614637374878, -0.05786747857928276, 0.10414721816778183, -1.4713902473449707, -0.09892957657575607, 0.18025419116020203, -0.22767861187458038, -0.8240774869918823, -0.9650353789329529, 0.05547177046537399, -0.4922856519104847, 0.26055860509757167, -4.343064506536372, 9362.0, 30146.0, 35388.0, 9362.0, 8.132232666015625, -0.0017445094417780638, 0.022587589919567108, -0.15854153037071228, 0.004438615869730711, -0.05780552700161934, 0.9981497526168823, -0.054437264800071716, -0.09335899353027344, 1.48828125, 1.34033203125, 0.0166168212890625, 1.48681640625, 1.54248046875, 10.0, 1.406943917274475, 1.5, 1.406943917274475
14665, -0.9086647033691406, 0.5048133730888367, -0.6561364531517029, -0.05786747857928276, 0.10414721816778183, -1.4713902473449707, -0.09892957657575607, 0.18025419116020203, -0.22767861187458038, -0.824073851108551, -0.9650352001190186, 0.055474136024713516, -0.4907147708078547, 0.26018481401865756, -4.33698568121495, 9362.0, 30146.0, 35388.0, 9362.0, 8.132232666015625, -0.14409349858760834, 0.15146023035049438, -0.072264164686203, 0.004438615869730711, -0.05780552700161934, 0.9981497526168823, -0.054437264800071716, -0.09335899353027344, 1.48828125, 1.34033203125, 0.0166168212890625, 1.487548828125, 1.54248046875, 10.0, 1.4056552648544312, 1.5, 1.4056552648544312
14675, -0.9092741012573242, 0.5035753846168518, -0.6544901132583618, -0.05986303463578224, 0.10778358578681946, -1.4759466648101807, -0.10062548518180847, 0.18338190019130707, -0.22792403399944305, -0.8240867853164673, -0.965032696723938, 0.05546856299042702, -0.48662917036381675, 0.2592487979536031, -4.348100670606222, 9362.0, 30146.0, 35388.0, 9362.0, 8.132232666015625, 0.24063318967819214, -0.25705915689468384, -0.2557808756828308, 0.004438615869730711, -0.05780552700161934, 0.9981497526168823, -0.054437264800071716, -0.09335899353027344, 1.48828125, 1.34033203125, 0.0166168212890625, 1.487548828125, 1.54248046875, 10.0, 1.4053361415863037, 1.5, 1.4053361415863037
14685, -0.9096165895462036, 0.5053325891494751, -0.6558716893196106, -0.05986303463578224, 0.10778358578681946, -1.4759466648101807, -0.10062548518180847, 0.18338190019130707, -0.22792403399944305, -0.8240809440612793, -0.9650397300720215, 0.05544813349843025, -0.4947133685854246, 0.25395708138074724, -4.332816623987028, 9362.0, 30146.0, 35388.0, 9362.0, 8.132232666015625, 0.24063318967819214, -0.25705915689468384, -0.2557808756828308, 0.004438615869730711, -0.05780552700161934, 0.9981497526168823, -0.054437264800071716, -0.09335899353027344, 1.48828125, 1.34033203125, 0.0166168212890625, 1.49267578125, 1.587890625, 10.0, 1.4053361415863037, 1.5, 1.4053361415863037
14695, -0.9098975658416748, 0.5033755302429199, -0.6551100611686707, -0.06189244985580444, 0.11148251593112946, -1.480507254600525, -0.10231449455022812, 0.18651100993156433, -0.22813928127288818, -0.8241934180259705, -0.9650413393974304, 0.05550316721200943, -0.5178105938037012, 0.21816899032054948, -4.3442670899916225, 9362.0, 30146.0, 35388.0, 9362.0, 8.132232666015625, -0.2606389820575714, -0.1609988957643509, 0.25432088971138, 0.004438615869730711, -0.05780552700161934, 0.9981497526168823, -0.054437264800071716, -0.09335899353027344, 1.48828125, 1.34033203125, 0.0166168212890625, 1.49267578125, 1.587890625, 10.0, 1.4043927192687988, 1.5, 1.4043927192687988
14745, -0.9107953310012817, 0.49447306990623474, -0.6513308882713318, -0.06291982531547546, 0.11335545033216476, -1.482789397239685, -0.10316067188978195, 0.1880762130022049, -0.22827722132205963, -0.8240629434585571, -0.9650408625602722, 0.05546656250953674, -0.49304274289200367, 0.2565074896091062, -4.340529510082275, 9362.0, 30146.0, 35388.0, 9362.0, 8.132232666015625, -0.10205817967653275, -0.006761351600289345, 0.2711770534515381, 0.004438615869730711, -0.05780552700161934, 0.9981497526168823, -0.05860808119177818, -0.09335899353027344, 1.48828125, 1.156494140625, 0.685272216796875, 1.4912109375, 1.5615234375, 10.0, 1.4043065309524536, 1.5, 1.4043065309524536
14765, -0.9136723279953003, 0.4938431978225708, -0.6488028168678284, -0.06818285584449768, 0.12295497208833694, -1.4942338466644287, -0.10735345631837845, 0.19590716063976288, -0.22933252155780792, -0.8241354823112488, -0.9650521278381348, 0.05553177371621132, -0.5137191455213458, 0.23684774310959256, -4.354304575010507, 9362.0, 30146.0, 35388.0, 9362.0, 8.132232666015625, 0.1055307388305664, -0.08270948380231857, 0.04017632082104683, 0.004438615869730711, -0.05780552700161934, 0.9981497526168823, -0.05860808119177818, -0.09335899353027344, 1.48828125, 1.34326171875, 0.01605224609375, 1.4912109375, 1.591552734375, 10.0, 1.4043065309524536, 1.5, 1.4043065309524536
14775, -0.9126191735267639, 0.49554678797721863, -0.6502281427383423, -0.07034645229578018, 0.1269044131040573, -1.4988263845443726, -0.1090065985918045, 0.19903618097305298, -0.22997704148292542, -0.8240845799446106, -0.9650365710258484, 0.05545879527926445, -0.4981539777009008, 0.258819166146111, -4.339414317612402, 9362.0, 30146.0, 35388.0, 9362.0, 8.132232666015625, -0.03511030226945877, -0.025164909660816193, -0.03609486669301987, 0.004438615869730711, -0.05780552700161934, 0.9981497526168823, -0.05860808119177818, -0.09335899353027344, 1.48828125, 1.34326171875, 0.01605224609375, 1.4912109375, 1.591552734375, 10.0, 1.4043065309524536, 1.5, 1.4043065309524536
14795, -0.9118925333023071, 0.4950799345970154, -0.6495819091796875, -0.07254310697317123, 0.1309165060520172, -1.5034319162368774, -0.11066067218780518, 0.20217417180538177, -0.23049575090408325, -0.8240710496902466, -0.965030312538147, 0.05547278746962547, -0.49344710145571885, 0.2620744399389139, -4.339368982886979, 9362.0, 30146.0, 35388.0, 9362.0, 8.132232666015625, 0.05090583115816116, -0.3527950048446655, -0.06528431177139282, 0.004438615869730711, -0.05780552700161934, 0.9981497526168823, -0.05860808119177818, -0.09335899353027344, 1.48828125, 1.34326171875, 0.01605224609375, 1.4912109375, 1.250244140625, 10.0, 1.404639482498169, 1.5, 1.404639482498169
14805, -0.9115667343139648, 0.4958091676235199, -0.6503844857215881, -0.07365386188030243, 0.13294610381126404, -1.5057374238967896, -0.11149007827043533, 0.20374414324760437, -0.2305964231491089, -0.8241486549377441, -0.9650244116783142, 0.05542971193790436, -0.487671621138178, 0.24526866039391848, -4.336788066585261, 9362.0, 30146.0, 35388.0, 9362.0, 8.132232666015625, -0.14431805908679962, 0.10441472381353378, 0.0493776835501194, 0.004438615869730711, -0.05780552700161934, 0.9981497526168823, -0.05860808119177818, -0.09335899353027344, 1.48828125, 1.363037109375, 0.0169219970703125, 1.494140625, 1.250244140625, 10.0, 1.4041563272476196, 1.5, 1.4041563272476196
