timeTick, roll, pitch, yaw, stateX, stateY, stateZ, stateVX, stateVY, stateVZ, otX0, otY0, otZ0, otRoll0, otPitch0, otYaw0, left wing, pitch motor, yaw motor, right wing, voltage, roll rate, pitch rate, yaw rate, A_x, A_y, A_z, current, i_raw, v_raw, airflow_voltage, airflow_speed, pot_Pitch, voltage_nKF, kFFx, state_vel, State_vel, volt_KF_vel
28248, 0.8711932897567749, -7.410646438598633, -2.9219961166381836, 0, 0, 0, 0, 0, 0, -0.8181543350219727, -0.9664288759231567, 0.0571565106511116, -0.13184193430083843, -0.11692584501554393, -0.2847246265185273, 0, 0, 0, 0, 0, 0, 0, 0, 0, 0, 0, 0, 0, 0, 0, 0, 0, 0, 0, 0, 0, 0
28258, 0.8708243370056152, -7.413928508758545, -2.9218716621398926, -0.0019636680372059345, 0.00033426214940845966, -8.771100997924805, -0.04666343703866005, 0.00794658437371254, -0.656082034111023, -0.8181644678115845, -0.966420590877533, 0.05718596652150154, -0.1229726545616882, -0.12002317257764616, -0.3029560395160273, 9362.0, 30146.0, 35388.0, 9362.0, 0, 0.07696189731359482, -0.12230579555034637, 0.12341777235269547, 0.0071964748203754425, -0.05837729200720787, 0.9996315836906433, 0, 0, 0, 0, 0, 0, 0, 0, 0, 0, 0
28268, 0.8708427548408508, -7.41466760635376, -2.9212186336517334, -0.0023675812408328056, 0.000403067737352103, -8.777666091918945, -0.03411925956606865, 0.005814567673951387, -0.6570273637771606, -0.818112850189209, -0.9664424061775208, 0.05722891911864281, -0.11681454765660125, -0.16543955856241155, -0.30679863390482526, 9362.0, 30146.0, 35388.0, 9362.0, 0, -0.029889946803450584, 0.4489327371120453, -0.18453805148601532, 0.005134761333465576, -0.05682673305273056, 0.997961699962616, 0, 0, 0, 1.426025390625, 0.069732666015625, 0, 1.489013671875, 0, 0, 0, 0
28278, 0.8703932166099548, -7.417697906494141, -2.920454263687134, -0.0026459968648850918, 0.000450550316600129, -8.78424072265625, -0.02156386710703373, 0.003682092996314168, -0.6579298973083496, -0.8181537985801697, -0.9664201140403748, 0.05717911198735237, -0.13946101019547816, -0.12467019403911195, -0.30600776977303457, 9362.0, 30146.0, 35388.0, 9362.0, 0, -0.04401678964495659, 0.21069693565368652, 0.07970460504293442, 0.006621366832405329, -0.056389838457107544, 0.9963724613189697, 0, 0, 0, 0.951416015625, 4.2201385498046875, 1.49560546875, 1.169677734375, 10.0, 1.0, 10.0, 1.3641551733016968
28288, 0.8712102770805359, -7.4201130867004395, -2.919694185256958, -0.0027989535592496395, 0.0004767255741171539, -8.790824890136719, -0.009027484804391861, 0.0015531332464888692, -0.6589897274971008, -0.8181118369102478, -0.9664345383644104, 0.0571739487349987, -0.1140117178918687, -0.15081170089445095, -0.30861099887187304, 9362.0, 30146.0, 35388.0, 9362.0, 0, 0.0010633888887241483, -0.00545920105651021, -0.2647862434387207, 0.005306888371706009, -0.05755458027124405, 0.9977951049804688, 0, 0, 0, 1.294921875, 0.0565948486328125, 1.49560546875, 0.99755859375, 10.0, 1.0, 10.0, 1.3643800020217896
28298, 0.8718082904815674, -7.42350959777832, -2.920283555984497, -0.0028265875298529863, 0.00048162598977796733, -8.797420501708984, 0.0035006802063435316, -0.0005728897522203624, -0.6601540446281433, -0.8181468844413757, -0.9664153456687927, 0.05716048926115036, -0.13098956087526528, -0.12092800541805104, -0.2951132263064345, 9362.0, 30146.0, 35388.0, 9362.0, 0, 0.06163569539785385, -0.10994811356067657, 0.0022350421641021967, 0.00606961315497756, -0.0576767772436142, 0.9992201924324036, 0, 0, 0, 1.354248046875, 0.0154266357421875, 1.494140625, 0.93310546875, 10.0, 1.0, 10.0, 1.3638933897018433
28308, 0.8719013929367065, -7.423301696777344, -2.9198429584503174, -0.0027288116980344057, 0.000465240707853809, -8.80402660369873, 0.016054389998316765, -0.002704302314668894, -0.6611523628234863, -0.8181597590446472, -0.966425359249115, 0.057171162217855453, -0.1352301481980603, -0.1250116779618793, -0.29245553162803467, 9362.0, 30146.0, 35388.0, 9362.0, 0, -0.020224016159772873, -0.09819323569536209, -0.06504543125629425, 0.007808375637978315, -0.056936439126729965, 0.9986448884010315, 0, 0, 0, 1.38134765625, 0.025177001953125, 1.494140625, 1.475830078125, 10.0, 1.0, 10.0, 1.364098072052002
28318, 0.8719077110290527, -7.421131610870361, -2.920259714126587, -0.0025054302532225847, 0.00042752723675221205, -8.810643196105957, 0.02862192876636982, -0.004838296212255955, -0.6620883941650391, -0.8181449770927429, -0.9664125442504883, 0.05718440189957619, -0.12152473484704408, -0.12771499843023548, -0.2910476522250094, 9362.0, 30146.0, 35388.0, 9362.0, 0, 0.11895228922367096, -0.07999317348003387, -0.4879218637943268, 0.0048482054844498634, -0.05694522336125374, 0.9987528324127197, 0, 0, 0, 1.065673828125, 1.74609375, 1.4912109375, 1.051025390625, 10.0, 1.0, 10.0, 1.3633980751037598
28328, 0.8737775683403015, -7.420135021209717, -2.9219703674316406, -0.002156401751562953, 0.00036847812589257956, -8.817269325256348, 0.04118378832936287, -0.006971617694944143, -0.6630649566650391, -0.8181606531143188, -0.9664144515991211, 0.0571618378162384, -0.12308214134724209, -0.11852555892355099, -0.29992573710519366, 9362.0, 30146.0, 35388.0, 9362.0, 0, 0.07129069417715073, -0.18630796670913696, -0.0019268325995653868, 0.0066777486354112625, -0.056855253875255585, 0.9964615106582642, 0, 0, 0, 1.18212890625, 0.49395751953125, 1.4912109375, 0.822509765625, 10.0, 1.0, 10.0, 1.362276315689087
28338, 0.8741165399551392, -7.419855117797852, -2.9209752082824707, -0.0016817832365632057, 0.0002880979736801237, -8.823904991149902, 0.053739845752716064, -0.009104810655117035, -0.6640573143959045, -0.8181595206260681, -0.9664084315299988, 0.05718351528048515, -0.1253805820551071, -0.12231996698446324, -0.302562627793694, 9362.0, 30146.0, 35388.0, 9362.0, 0, -0.03958066180348396, 0.29094213247299194, 0.2775609791278839, 0.006962864194065332, -0.0590851791203022, 0.9969741702079773, 0, 0, 0, 1.370361328125, 0.0194549560546875, 1.491943359375, 1.17333984375, 10.0, 1.0, 10.0, 1.3618453741073608
28348, 0.8756975531578064, -7.422413349151611, -2.919170618057251, -0.0010817146394401789, 0.00018638561596162617, -8.830551147460938, 0.06627395004034042, -0.01123744435608387, -0.6652054190635681, -0.8181430697441101, -0.9664328098297119, 0.05715756118297577, -0.12402044142004741, -0.11748977303750507, -0.2908160634106778, 9362.0, 30146.0, 35388.0, 9362.0, 8.350414276123047, -0.03110675700008869, -0.003107215976342559, 0.023176943883299828, 0.008906465955078602, -0.05746587738394737, 0.9988065958023071, -0.04027393460273743, -0.0037593841552734375, 1.49560546875, 1.2568359375, 0.1420135498046875, 1.491943359375, 1.65966796875, 10.0, 1.0, 10.0, 1.3623430728912354
28358, 0.8746082186698914, -7.420469284057617, -2.9190874099731445, -0.000356275646481663, 6.333988858386874e-05, -8.83720874786377, 0.07881385087966919, -0.013371321372687817, -0.6663050651550293, -0.8181561231613159, -0.9664186835289001, 0.057169780135154724, -0.12806734531804032, -0.12730971278762127, -0.30623573624178335, 9362.0, 30146.0, 35388.0, 9362.0, 8.350414276123047, 0.07287898659706116, -0.0869477391242981, -0.09687621891498566, 0.0064619965851306915, -0.05517467483878136, 0.998413622379303, -0.04027393460273743, -0.0037593841552734375, 1.49560546875, 1.464111328125, 0.1283111572265625, 1.49267578125, 1.318359375, 10.0, 1.0, 10.0, 1.3618048429489136
28368, 0.8749432563781738, -7.419775009155273, -2.9189655780792236, 0.0004946854896843433, -8.107456960715353e-05, -8.843876838684082, 0.09137839823961258, -0.01551153976470232, -0.6672468185424805, -0.8181527853012085, -0.9664257764816284, 0.057174284011125565, -0.12295704081524307, -0.12203202641308053, -0.29934153930983304, 9362.0, 30146.0, 35388.0, 9362.0, 8.350414276123047, -0.1900588870048523, 0.16767244040966034, 0.14153218269348145, 0.007523012347519398, -0.05580921471118927, 0.9977946281433105, -0.04027393460273743, -0.0037593841552734375, 1.49560546875, 0.9404296875, 4.542816162109375, 1.49267578125, 1.613525390625, 10.0, 1.0, 10.0, 1.362502932548523
28378, 0.8739304542541504, -7.419544219970703, -2.918687343597412, 0.001471229363232851, -0.0002468730090186, -8.850554466247559, 0.10393040627241135, -0.017648134380578995, -0.6682608127593994, -0.8181005716323853, -0.9664404988288879, 0.05720873177051544, -0.1148555877426729, -0.15576169464148393, -0.309921434617042, 9362.0, 30146.0, 35388.0, 9362.0, 8.350414276123047, -0.0384284146130085, 0.0047376640141010284, -0.038114339113235474, 0.007853535935282707, -0.0559936985373497, 0.9986078143119812, -0.04027393460273743, -0.0037593841552734375, 1.49560546875, 1.237060546875, 0.2089996337890625, 1.490478515625, 1.619384765625, 10.0, 1.0, 10.0, 1.3611583709716797
28388, 0.8742242455482483, -7.419595718383789, -2.9185726642608643, 0.0025732703506946564, -0.0004340369487181306, -8.857242584228516, 0.1164778470993042, -0.019784586504101753, -0.6693007349967957, -0.8181641697883606, -0.9664204120635986, 0.057152535766363144, -0.12885500913109701, -0.12673764706607926, -0.3071661604658724, 9362.0, 30146.0, 35388.0, 9362.0, 8.350414276123047, 0.17798766493797302, 0.18749099969863892, 0.007072987966239452, 0.00692705949768424, -0.05650367960333824, 0.9962401390075684, -0.04027393460273743, -0.0037593841552734375, 1.49560546875, 1.55712890625, 0.31793212890625, 1.490478515625, 0.849609375, 10.0, 1.0, 10.0, 1.3617256879806519
28398, 0.8746707439422607, -7.421584129333496, -2.91853666305542, 0.003800823353230953, -0.0006425630417652428, -8.863940238952637, 0.12903274595737457, -0.02192060835659504, -0.6702805161476135, -0.8181512355804443, -0.9664158225059509, 0.05718094855546951, -0.1257395256152155, -0.12079169152735858, -0.29688531674976165, 9362.0, 30146.0, 35388.0, 9362.0, 8.350414276123047, 0.05272139981389046, -0.04206421226263046, -0.3160390257835388, 0.005968941375613213, -0.05668503791093826, 0.9955303072929382, -0.04027393460273743, -0.0037593841552734375, 1.49560546875, 0.95654296875, 4.0752410888671875, 1.493408203125, 1.546875, 10.0, 1.0, 10.0, 1.3624588251113892
28408, 0.8740676641464233, -7.423116683959961, -2.9205572605133057, 0.005153757520020008, -0.0008724230574443936, -8.870649337768555, 0.14155395328998566, -0.024051381275057793, -0.6715213656425476, -0.8181488513946533, -0.966420590877533, 0.057178597897291183, -0.13396860530239196, -0.12168613879194368, -0.2960483361796742, 9362.0, 30146.0, 35388.0, 9362.0, 8.350414276123047, -0.038363389670848846, 0.10125560313463211, -0.32559385895729065, 0.0060361516661942005, -0.0577191486954689, 0.9979374408721924, -0.04027393460273743, -0.0037593841552734375, 1.49560546875, 1.27001953125, 0.10626220703125, 1.493408203125, 1.4853515625, 10.0, 1.0, 10.0, 1.3627564907073975
28418, 0.8747391700744629, -7.424313545227051, -2.9215846061706543, 0.006631942931562662, -0.0011235993588343263, -8.877370834350586, 0.1540829986333847, -0.02618430368602276, -0.6727274656295776, -0.8181555271148682, -0.9664198160171509, 0.05714872106909752, -0.12730111879352762, -0.11707304780460959, -0.2982624365284307, 9362.0, 30146.0, 35388.0, 9362.0, 8.350414276123047, -0.0025521269999444485, -0.11057188361883163, 0.07672803848981857, 0.00597468251362443, -0.05834555998444557, 0.999178946018219, -0.04027393460273743, -0.0037593841552734375, 1.49560546875, 1.509521484375, 0.2148895263671875, 1.48974609375, 1.270751953125, 10.0, 1.0, 10.0, 1.363574743270874
28428, 0.8753231167793274, -7.425351142883301, -2.9213972091674805, 0.008235582150518894, -0.0013961282093077898, -8.884102821350098, 0.16664475202560425, -0.02832169272005558, -0.6737008690834045, -0.8181433081626892, -0.9664211869239807, 0.05718126893043518, -0.13093188048147456, -0.11956984437463802, -0.2945325047942529, 9362.0, 30146.0, 35388.0, 9362.0, 8.350414276123047, -0.031425222754478455, -0.0027177762240171432, -0.11981304734945297, 0.0067854686640203, -0.05641556531190872, 0.9986517429351807, -0.04027393460273743, -0.0037593841552734375, 1.49560546875, 1.001220703125, 2.9564666748046875, 1.48974609375, 0.955810546875, 10.0, 1.0, 10.0, 1.3633052110671997
28438, 0.8760857582092285, -7.424865245819092, -2.921769380569458, 0.009964861907064915, -0.0016900405753403902, -8.890844345092773, 0.17921124398708344, -0.03046075999736786, -0.6746531128883362, -0.8181498050689697, -0.9664182662963867, 0.05716490000486374, -0.12310885495729568, -0.12172208741131385, -0.2944931055733726, 9362.0, 30146.0, 35388.0, 9362.0, 8.350414276123047, -0.03150756657123566, -0.08209232240915298, -0.0159474927932024, 0.007601749151945114, -0.054266199469566345, 0.9969149231910706, -0.04027393460273743, -0.0037593841552734375, 1.49560546875, 1.45166015625, 0.107452392578125, 1.493408203125, 1.0166015625, 10.0, 1.0, 10.0, 1.3621447086334229
28448, 0.8753994703292847, -7.424380302429199, -2.92047381401062, 0.011819793842732906, -0.0020053451880812645, -8.897595405578613, 0.1917751580476761, -0.032600268721580505, -0.6756384968757629, -0.8181639909744263, -0.9664180874824524, 0.05718904733657837, -0.12709857385149828, -0.12707192675139822, -0.29799761838998445, 9362.0, 30146.0, 35388.0, 9362.0, 8.350414276123047, 0.046248842030763626, -0.06795433908700943, 0.4203747510910034, 0.00781160918995738, -0.054348986595869064, 0.9973250031471252, -0.06083277612924576, -0.07543754577636719, 1.48974609375, 1.38427734375, 0.027099609375, 1.493408203125, 1.6083984375, 10.0, 1.0, 10.0, 1.3626807928085327
28458, 0.8761349320411682, -7.4252238273620605, -2.918229103088379, 0.013800263404846191, -0.002342035062611103, -8.90435791015625, 0.20431874692440033, -0.03473740816116333, -0.6767743825912476, -0.8181492686271667, -0.9664193987846375, 0.05717233940958977, -0.12452992843211522, -0.12338428215960562, -0.29657300141971943, 9362.0, 30146.0, 35388.0, 9362.0, 8.350414276123047, -0.09393271803855896, 0.4052199423313141, -0.1070060282945633, 0.006960021331906319, -0.05655290186405182, 0.9982420802116394, -0.06083277612924576, -0.07543754577636719, 1.48974609375, 1.261962890625, 0.127288818359375, 1.496337890625, 1.49853515625, 10.0, 1.0, 10.0, 1.3609403371810913
28468, 0.8756720423698425, -7.429320812225342, -2.9167792797088623, 0.015906210988759995, -0.0027000964619219303, -8.911130905151367, 0.2168707549571991, -0.03687441349029541, -0.6778402328491211, -0.8181372284889221, -0.9664267301559448, 0.057176221162080765, -0.1309607419023499, -0.12472330674586374, -0.3000139271123935, 9362.0, 30146.0, 35388.0, 9362.0, 8.350414276123047, -0.01169637218117714, -0.10695060342550278, -0.16213737428188324, 0.006086324341595173, -0.05836468189954758, 0.9980083703994751, -0.06083277612924576, -0.07543754577636719, 1.48974609375, 0.8583984375, 7.5292816162109375, 1.496337890625, 1.467041015625, 10.0, 1.0, 10.0, 1.3618340492248535
28478, 0.8758683204650879, -7.430727958679199, -2.9162065982818604, 0.018137700855731964, -0.0030795347411185503, -8.917914390563965, 0.22942709922790527, -0.03901292011141777, -0.678883969783783, -0.8181483745574951, -0.9665383100509644, 0.057253871113061905, -0.1480948902649389, -0.15458730999105796, -0.20233774878555796, 9362.0, 30146.0, 35388.0, 9362.0, 8.350414276123047, -0.27371451258659363, 0.45251837372779846, 0.08348936587572098, 0.006422184873372316, -0.0565912164747715, 0.998032808303833, -0.06083277612924576, -0.07543754577636719, 1.48974609375, 1.235595703125, 0.214599609375, 1.4912109375, 1.046630859375, 10.0, 1.0, 10.0, 1.3612232208251953
28488, 0.8750074505805969, -7.430442810058594, -2.916293144226074, 0.020494796335697174, -0.0034803557209670544, -8.924708366394043, 0.24199219048023224, -0.04115116223692894, -0.6799148321151733, -0.8181486129760742, -0.9664075970649719, 0.05716557800769806, -0.12938572597570508, -0.12634574116000863, -0.30001039440177657, 9362.0, 30146.0, 35388.0, 9362.0, 8.350414276123047, 0.17016088962554932, -0.00398397259414196, -0.2979292571544647, 0.006952404510229826, -0.05677308887243271, 0.999271035194397, -0.06083277612924576, -0.07543754577636719, 1.48974609375, 1.453125, 0.1099090576171875, 1.4912109375, 1.0810546875, 10.0, 1.0, 10.0, 1.3612616062164307
28498, 0.8756611943244934, -7.432805061340332, -2.9173951148986816, 0.022977584972977638, -0.0039025661535561085, -8.931512832641602, 0.2545657455921173, -0.04329090565443039, -0.6808984279632568, -0.8181596994400024, -0.9664154052734375, 0.05715695768594742, -0.13254071896331993, -0.12153879478273666, -0.30457426738698273, 9362.0, 30146.0, 35388.0, 9362.0, 8.350414276123047, 0.12490945309400558, 0.4433102011680603, 0.18832620978355408, 0.007443561684340239, -0.05717441812157631, 0.9991685152053833, -0.06083277612924576, -0.07543754577636719, 1.48974609375, 1.210693359375, 0.326202392578125, 1.491943359375, 1.543212890625, 10.0, 1.0, 10.0, 1.3618422746658325
28508, 0.8758652210235596, -7.43651819229126, -2.9159953594207764, 0.025586143136024475, -0.004346172325313091, -8.938326835632324, 0.2671457529067993, -0.04543059691786766, -0.6818290948867798, -0.8181567192077637, -0.9664179086685181, 0.05719287320971489, -0.12394421767099774, -0.12207460308320606, -0.29387112733262305, 9362.0, 30146.0, 35388.0, 9362.0, 8.350414276123047, 0.13095787167549133, 0.05462540686130524, -0.23349949717521667, 0.0074452501721680164, -0.05814355984330177, 0.9991937875747681, -0.06083277612924576, -0.07543754577636719, 1.48974609375, 1.242919921875, 0.1873626708984375, 1.491943359375, 0.89208984375, 10.0, 1.0, 10.0, 1.3595694303512573
28518, 0.8768197894096375, -7.435429096221924, -2.9162468910217285, 0.028320515528321266, -0.004811182152479887, -8.945149421691895, 0.27972865104675293, -0.047571104019880295, -0.682768702507019, -0.818158745765686, -0.9664384722709656, 0.05716115981340408, -0.13088591899906346, -0.12473507463613487, -0.3014218913733591, 9362.0, 30146.0, 35388.0, 9362.0, 8.350414276123047, 0.07093540579080582, 0.11321982741355896, 0.19911248981952667, 0.008075092919170856, -0.05769696459174156, 0.9978614449501038, -0.06083277612924576, -0.07543754577636719, 1.48974609375, 0.92578125, 4.9995880126953125, 1.49560546875, 1.55712890625, 10.0, 1.0, 10.0, 1.3602811098098755
28528, 0.877373993396759, -7.434072017669678, -2.916036367416382, 0.03118075430393219, -0.005297600291669369, -8.951981544494629, 0.29231929779052734, -0.049712587147951126, -0.6836979389190674, -0.8181072473526001, -0.966439962387085, 0.05720280855894089, -0.11340863142035654, -0.15507674674523741, -0.3106464502178356, 9362.0, 30146.0, 35388.0, 9362.0, 8.350414276123047, -0.012545573525130749, 0.24730633199214935, 0.16582965850830078, 0.0056716022081673145, -0.05542813241481781, 0.998575747013092, -0.06083277612924576, -0.07543754577636719, 1.48974609375, 1.228271484375, 0.2443389892578125, 1.49560546875, 1.0810546875, 10.0, 1.0, 10.0, 1.3599011898040771
28538, 0.8778230547904968, -7.434876441955566, -2.9144887924194336, 0.034166835248470306, -0.005805431865155697, -8.958823204040527, 0.3048972487449646, -0.0518537275493145, -0.6847095489501953, -0.8181429505348206, -0.9664198160171509, 0.05716884881258011, -0.1333037572318453, -0.11594182421933397, -0.30318313567072813, 9362.0, 30146.0, 35388.0, 9362.0, 8.350414276123047, -0.0751103088259697, -0.13636662065982819, -0.26115694642066956, 0.007086926605552435, -0.0568893663585186, 0.9990372657775879, -0.06083277612924576, -0.07543754577636719, 1.48974609375, 1.346923828125, 0.015472412109375, 1.49560546875, 1.143310546875, 10.0, 1.0, 10.0, 1.3606956005096436
28548, 0.8772352337837219, -7.43403959274292, -2.9149320125579834, 0.037278734147548676, -0.006334687117487192, -8.965675354003906, 0.31748226284980774, -0.05399695411324501, -0.6856485605239868, -0.8181024789810181, -0.9664477109909058, 0.05719843506813049, -0.10580674980760994, -0.15258224586929714, -0.3114495617700086, 9362.0, 30146.0, 35388.0, 9362.0, 8.350414276123047, 0.05582420527935028, 0.015552157536149025, -0.05001741275191307, 0.007176836486905813, -0.05767650529742241, 0.9998342990875244, -0.05389152839779854, -0.04855918884277344, 1.491943359375, 1.338134765625, 0.01727294921875, 1.49560546875, 1.05908203125, 10.0, 1.0, 10.0, 1.35966956615448
28558, 0.8774157762527466, -7.433513164520264, -2.914537191390991, 0.037278734147548676, -0.006334687117487192, -8.965675354003906, 0.31748226284980774, -0.05399695411324501, -0.6856485605239868, -0.8181530833244324, -0.9664284586906433, 0.05718548968434334, -0.13011235050450506, -0.12433022997191756, -0.2893310187417912, 9362.0, 30146.0, 35388.0, 9362.0, 8.350414276123047, -0.15392598509788513, 0.27560460567474365, -0.032607000321149826, 0.006475444883108139, -0.055941399186849594, 1.0002562999725342, -0.05389152839779854, -0.04855918884277344, 1.491943359375, 1.338134765625, 0.01727294921875, 1.49560546875, 1.05908203125, 10.0, 1.0, 10.0, 1.35966956615448
28578, 0.8789888620376587, -7.432677268981934, -2.913337469100952, 0.04388022795319557, -0.007457524538040161, -8.979405403137207, 0.3426690995693207, -0.058286719024181366, -0.6874077320098877, -0.8181657195091248, -0.9664305448532104, 0.05716164782643318, -0.13067046423597595, -0.1148463869961347, -0.29219021128243994, 9362.0, 30146.0, 35388.0, 9362.0, 8.350414276123047, 0.09112423658370972, -0.062052659690380096, 0.022276217117905617, 0.006970424670726061, -0.05609937757253647, 0.9987360239028931, -0.05389152839779854, -0.04855918884277344, 1.491943359375, 1.338134765625, 0.01727294921875, 1.49560546875, 1.264892578125, 10.0, 1.0, 10.0, 1.35966956615448
28588, 0.879625678062439, -7.432482719421387, -2.914201498031616, 0.04388022795319557, -0.007457524538040161, -8.979405403137207, 0.3426690995693207, -0.058286719024181366, -0.6874077320098877, -0.8181503415107727, -0.9664225578308105, 0.05718804895877838, -0.12424457492076778, -0.1212896849435765, -0.2984069823756975, 9362.0, 30146.0, 35388.0, 9362.0, 8.350414276123047, -0.2503729462623596, -0.33104822039604187, -0.15877285599708557, 0.007576624397188425, -0.05811801180243492, 0.9970378875732422, -0.05389152839779854, -0.04855918884277344, 1.491943359375, 1.338134765625, 0.01727294921875, 1.49560546875, 1.264892578125, 10.0, 1.0, 10.0, 1.35966956615448
28598, 0.8796098828315735, -7.433659076690674, -2.914017677307129, 0.04388022795319557, -0.007457524538040161, -8.979405403137207, 0.3426690995693207, -0.058286719024181366, -0.6874077320098877, -0.8181483149528503, -0.9664259552955627, 0.05715443193912506, -0.1254817798566811, -0.12270017013614165, -0.29353413414587565, 9362.0, 30146.0, 35388.0, 9362.0, 8.350414276123047, 0.008554105646908283, 0.013814142905175686, -0.0003378668043296784, 0.0070746592245996, -0.059497468173503876, 0.995447039604187, -0.05389152839779854, -0.04855918884277344, 1.491943359375, 1.338134765625, 0.01727294921875, 1.49560546875, 1.264892578125, 10.0, 1.0, 10.0, 1.35966956615448
28608, 0.8785019516944885, -7.432027339935303, -2.915471315383911, 0.04388022795319557, -0.007457524538040161, -8.979405403137207, 0.3426690995693207, -0.058286719024181366, -0.6874077320098877, -0.8181637525558472, -0.9664262533187866, 0.05718458816409111, -0.12692922488139124, -0.12732082185561922, -0.29929312913635425, 9362.0, 30146.0, 35388.0, 9362.0, 8.350414276123047, 0.10914263129234314, 0.24369265139102936, -0.19777485728263855, 0.005595441907644272, -0.05685426667332649, 0.9975946545600891, -0.05389152839779854, -0.04855918884277344, 1.491943359375, 1.338134765625, 0.01727294921875, 1.49560546875, 1.264892578125, 10.0, 1.0, 10.0, 1.35966956615448
28628, 0.8781528472900391, -7.431063652038574, -2.9174208641052246, 0.04388022795319557, -0.007457524538040161, -8.979405403137207, 0.3426690995693207, -0.058286719024181366, -0.6874077320098877, -0.8181639313697815, -0.9664190411567688, 0.05717698857188225, -0.12441001251085186, -0.12120400870114167, -0.3027834228891886, 9362.0, 30146.0, 35388.0, 9362.0, 8.350414276123047, -0.18520811200141907, 0.23415464162826538, 0.09620539844036102, 0.007065636571496725, -0.05847880616784096, 0.9997703433036804, -0.05389152839779854, -0.04855918884277344, 1.491943359375, 1.338134765625, 0.01727294921875, 1.49560546875, 1.264892578125, 10.0, 1.0, 10.0, 1.35966956615448
28658, 0.8768218755722046, -7.434223175048828, -2.91520094871521, 0.04388022795319557, -0.007457524538040161, -8.979405403137207, 0.3426690995693207, -0.058286719024181366, -0.6874077320098877, -0.8181585669517517, -0.9664185047149658, 0.0571451298892498, -0.12419378149563137, -0.12024357255836549, -0.29764576954747296, 9362.0, 30146.0, 35388.0, 9362.0, 8.350414276123047, -0.14824727177619934, -0.25481605529785156, 0.17258404195308685, 0.005689622368663549, -0.055937618017196655, 0.9995372295379639, -0.06384580582380295, -0.12023735046386719, 1.486083984375, 1.338134765625, 0.01727294921875, 1.49853515625, 1.239990234375, 10.0, 1.0, 10.0, 1.35966956615448
28668, 0.8754650354385376, -7.434160232543945, -2.9144206047058105, 0.04388022795319557, -0.007457524538040161, -8.979405403137207, 0.3426690995693207, -0.058286719024181366, -0.6874077320098877, -0.8181595206260681, -0.9664291739463806, 0.05718972533941269, -0.11872318594413321, -0.12267341562321121, -0.31094327591937426, 9362.0, 30146.0, 35388.0, 9362.0, 8.350414276123047, -0.14824727177619934, -0.25481605529785156, 0.17258404195308685, 0.006252591498196125, -0.05631544068455696, 0.9986498355865479, -0.06384580582380295, -0.12023735046386719, 1.486083984375, 0.78515625, 11.198074340820312, 1.49853515625, 1.32275390625, 10.0, 1.0, 10.0, 1.35966956615448
28678, 0.8756563067436218, -7.434638500213623, -2.9137017726898193, 0.04388022795319557, -0.007457524538040161, -8.979405403137207, 0.3426690995693207, -0.058286719024181366, -0.6874077320098877, -0.8181549310684204, -0.9664217829704285, 0.05719669908285141, -0.12607553215500403, -0.12615117338626192, -0.2901384848505363, 9362.0, 30146.0, 35388.0, 9362.0, 8.350414276123047, 0.224409818649292, 0.05632912367582321, 0.34161093831062317, 0.007114680949598551, -0.055018551647663116, 0.9996697902679443, -0.06384580582380295, -0.12023735046386719, 1.486083984375, 0.78515625, 11.198074340820312, 1.49560546875, 1.32275390625, 10.0, 1.0, 10.0, 1.35966956615448
28708, 0.878656268119812, -7.439505577087402, -2.910144567489624, 0.04388022795319557, -0.007457524538040161, -8.979405403137207, 0.3426690995693207, -0.058286719024181366, -0.6874077320098877, -0.8181573152542114, -0.9664343595504761, 0.057181861251592636, -0.13211736833513812, -0.12421758852923404, -0.2968559143305561, 9362.0, 30146.0, 35388.0, 9362.0, 8.350414276123047, 0.09022323787212372, 0.32810813188552856, 0.0844990462064743, 0.005991873797029257, -0.05589509755373001, 0.9977717399597168, -0.06384580582380295, -0.12023735046386719, 1.486083984375, 1.496337890625, 0.1883087158203125, 1.496337890625, 1.32275390625, 10.0, 1.0, 10.0, 1.3576399087905884
28728, 0.8776028752326965, -7.440253734588623, -2.910515785217285, 0.11480658501386642, -0.019527258351445198, -9.09064769744873, 0.5438953638076782, -0.09256604313850403, -0.7033745050430298, -0.8181702494621277, -0.9664199352264404, 0.05718560516834259, -0.12076946261458761, -0.12148241334341492, -0.30645565462847124, 9362.0, 30146.0, 35388.0, 9362.0, 8.350414276123047, -0.1049451231956482, -0.1964702159166336, -0.08251026272773743, 0.006382471416145563, -0.05753614380955696, 0.9973061680793762, -0.06384580582380295, -0.12023735046386719, 1.486083984375, 1.496337890625, 0.1883087158203125, 1.496337890625, 1.32275390625, 10.0, 1.0, 10.0, 1.3576399087905884
28738, 0.8773670196533203, -7.442202091217041, -2.9112799167633057, 0.11480658501386642, -0.019527258351445198, -9.09064769744873, 0.5438953638076782, -0.09256604313850403, -0.7033745050430298, -0.818162739276886, -0.966415286064148, 0.057177718728780746, -0.1289885029978835, -0.11928462495464487, -0.2984298490657597, 9362.0, 30146.0, 35388.0, 9362.0, 8.350414276123047, 0.03932816535234451, 0.14901424944400787, -0.14212867617607117, 0.008143870159983635, -0.05779782682657242, 0.9978792071342468, -0.06384580582380295, -0.12023735046386719, 1.486083984375, 1.496337890625, 0.1883087158203125, 1.496337890625, 1.32275390625, 10.0, 1.0, 10.0, 1.3576399087905884
28748, 0.8786837458610535, -7.444209098815918, -2.9116287231445312, 0.125935897231102, -0.021421382203698158, -9.104738235473633, 0.5690392851829529, -0.09684640169143677, -0.7056331038475037, -0.8181456327438354, -0.9664283394813538, 0.05718548595905304, -0.12805580224968732, -0.1256842691209954, -0.29214833046669236, 9362.0, 30146.0, 35388.0, 9362.0, 8.350414276123047, 0.03932816535234451, 0.14901424944400787, -0.14212867617607117, 0.0079270601272583, -0.055876296013593674, 0.997100293636322, -0.06384580582380295, -0.12023735046386719, 1.486083984375, 1.496337890625, 0.1883087158203125, 1.496337890625, 1.32275390625, 10.0, 1.0, 10.0, 1.3576399087905884
28758, 0.8784108757972717, -7.444362163543701, -2.9115583896636963, 0.125935897231102, -0.021421382203698158, -9.104738235473633, 0.5690392851829529, -0.09684640169143677, -0.7056331038475037, -0.8181679248809814, -0.9664243459701538, 0.05716918781399727, -0.1289248194138325, -0.12208509116641153, -0.29775996887874917, 9362.0, 30146.0, 35388.0, 9362.0, 8.350414276123047, -0.05143881216645241, -0.05486220121383667, 0.10932409763336182, 0.006472951732575893, -0.05634776130318642, 0.9970327615737915, -0.06384580582380295, -0.12023735046386719, 1.486083984375, 1.496337890625, 0.1883087158203125, 1.496337890625, 1.32275390625, 10.0, 1.0, 10.0, 1.3576399087905884
28768, 0.8777963519096375, -7.442376136779785, -2.9113399982452393, 0.125935897231102, -0.021421382203698158, -9.104738235473633, 0.5690392851829529, -0.09684640169143677, -0.7056331038475037, -0.8181588053703308, -0.9664233326911926, 0.057176511734724045, -0.1264168968735826, -0.11968060856068519, -0.30213831186191237, 9362.0, 30146.0, 35388.0, 9362.0, 8.350414276123047, -0.05143881216645241, -0.05486220121383667, 0.10932409763336182, 0.006740890443325043, -0.055002860724925995, 0.9974737763404846, -0.06384580582380295, -0.12023735046386719, 1.486083984375, 1.496337890625, 0.1883087158203125, 1.496337890625, 1.455322265625, 10.0, 1.0, 10.0, 1.3576399087905884
28778, 0.8774378895759583, -7.442991733551025, -2.9111623764038086, 0.125935897231102, -0.021421382203698158, -9.104738235473633, 0.5690392851829529, -0.09684640169143677, -0.7056331038475037, -0.8181682229042053, -0.9664250016212463, 0.05717179551720619, -0.13275815078359876, -0.12042248419891166, -0.3000997692950609, 9362.0, 30146.0, 35388.0, 9362.0, 8.350414276123047, -0.00827702321112156, -0.05136304348707199, 0.07244327664375305, 0.006740890443325043, -0.055002860724925995, 0.9974737763404846, -0.06384580582380295, -0.12023735046386719, 1.486083984375, 1.496337890625, 0.1883087158203125, 1.49560546875, 1.455322265625, 10.0, 1.0, 10.0, 1.3576399087905884
28788, 0.8769382238388062, -7.446227550506592, -2.909391403198242, 0.1497039645910263, -0.02546652778983116, -9.133050918579102, 0.6193646788597107, -0.10541131347417831, -0.7099944949150085, -0.8181138038635254, -0.96644127368927, 0.057197436690330505, -0.11380518593541677, -0.1643607396432003, -0.30467550690084655, 9362.0, 30146.0, 35388.0, 9362.0, 8.350414276123047, -0.00827702321112156, -0.05136304348707199, 0.07244327664375305, 0.007019459269940853, -0.05691254138946533, 0.9964889883995056, -0.06384580582380295, -0.12023735046386719, 1.486083984375, 1.496337890625, 0.1883087158203125, 1.49560546875, 1.455322265625, 10.0, 1.0, 10.0, 1.3576399087905884
28798, 0.8767895698547363, -7.448234558105469, -2.9098098278045654, 0.1497039645910263, -0.02546652778983116, -9.133050918579102, 0.6193646788597107, -0.10541131347417831, -0.7099944949150085, -0.8181681036949158, -0.9664227366447449, 0.057164717465639114, -0.12943111007412295, -0.12261525664800388, -0.30155311666203444, 9362.0, 30146.0, 35388.0, 9362.0, 8.350414276123047, -0.006182121112942696, 0.1015830934047699, -0.042803823947906494, 0.005907324608415365, -0.058130037039518356, 0.9965509176254272, -0.06384580582380295, -0.12023735046386719, 1.486083984375, 1.496337890625, 0.1883087158203125, 1.49267578125, 1.455322265625, 10.0, 1.0, 10.0, 1.3576399087905884
28808, 0.877105176448822, -7.448925495147705, -2.9102210998535156, 0.1497039645910263, -0.02546652778983116, -9.133050918579102, 0.6193646788597107, -0.10541131347417831, -0.7099944949150085, -0.8181629776954651, -0.966421365737915, 0.05720856413245201, -0.1194458343748438, -0.125761729533167, -0.30485218432961425, 9362.0, 30146.0, 35388.0, 9362.0, 8.350414276123047, -0.04062112793326378, 0.24348901212215424, -0.2866959571838379, 0.005222393665462732, -0.05657989904284477, 0.9988166689872742, -0.06384580582380295, -0.12023735046386719, 1.486083984375, 1.496337890625, 0.1883087158203125, 1.49267578125, 1.455322265625, 10.0, 1.0, 10.0, 1.3576399087905884
28818, 0.876570999622345, -7.452227592468262, -2.911693572998047, 0.1497039645910263, -0.02546652778983116, -9.133050918579102, 0.6193646788597107, -0.10541131347417831, -0.7099944949150085, -0.8181567788124084, -0.9663997888565063, 0.05716572701931, -0.13107236627297575, -0.12025396075907224, -0.305594998662854, 9362.0, 30146.0, 35388.0, 9362.0, 8.350414276123047, 0.06838482618331909, 0.2752760946750641, -0.15581709146499634, 0.006601155735552311, -0.05662163719534874, 0.9975679516792297, -0.06384580582380295, -0.12023735046386719, 1.486083984375, 1.496337890625, 0.1883087158203125, 1.49267578125, 1.455322265625, 10.0, 1.0, 10.0, 1.3576399087905884
28828, 0.877260148525238, -7.453725337982178, -2.912651777267456, 0.1497039645910263, -0.02546652778983116, -9.133050918579102, 0.6193646788597107, -0.10541131347417831, -0.7099944949150085, -0.8181696534156799, -0.9664202928543091, 0.057162534445524216, -0.1307981680800543, -0.1286109153930397, -0.30173430349891, 9362.0, 30146.0, 35388.0, 9362.0, 8.350414276123047, -0.05085194483399391, -0.0736970454454422, 0.12972764670848846, 0.006202308461070061, -0.05757195129990578, 0.999101459980011, -0.06384580582380295, -0.12023735046386719, 1.486083984375, 1.496337890625, 0.1883087158203125, 1.49267578125, 1.455322265625, 10.0, 1.0, 10.0, 1.3576399087905884
28838, 0.8774399757385254, -7.45551061630249, -2.9099977016448975, 0.1497039645910263, -0.02546652778983116, -9.133050918579102, 0.6193646788597107, -0.10541131347417831, -0.7099944949150085, -0.8181591629981995, -0.9664217829704285, 0.057171039283275604, -0.12620635121651638, -0.11833307845816421, -0.2963530536716044, 9362.0, 30146.0, 35388.0, 9362.0, 8.350414276123047, -0.05085194483399391, -0.0736970454454422, 0.12972764670848846, 0.006540518254041672, -0.05640675127506256, 0.9996318817138672, -0.06384580582380295, -0.12023735046386719, 1.486083984375, 1.496337890625, 0.1883087158203125, 1.49267578125, 1.455322265625, 10.0, 1.0, 10.0, 1.3576399087905884
28848, 0.8783687949180603, -7.458368301391602, -2.9079530239105225, 0.1891317367553711, -0.03217636048793793, -9.1758451461792, 0.6949396729469299, -0.11825502663850784, -0.7163047790527344, -0.8181582093238831, -0.9664247035980225, 0.05719420686364174, -0.1261679415444746, -0.11983853172387171, -0.299285929136969, 9362.0, 30146.0, 35388.0, 9362.0, 8.350414276123047, 0.07029717415571213, 0.2331024557352066, -0.09619241952896118, 0.007511356845498085, -0.058040715754032135, 0.9981070160865784, -0.06384580582380295, -0.12023735046386719, 1.486083984375, 1.496337890625, 0.1883087158203125, 1.49267578125, 1.455322265625, 10.0, 1.0, 10.0, 1.3576399087905884
28868, 0.8781052231788635, -7.456427574157715, -2.910698890686035, 0.1891317367553711, -0.03217636048793793, -9.1758451461792, 0.6949396729469299, -0.11825502663850784, -0.7163047790527344, -0.8181701302528381, -0.9664163589477539, 0.05719273164868355, -0.12475407134655908, -0.12040085726368943, -0.3009380077752042, 9362.0, 30146.0, 35388.0, 9362.0, 8.350414276123047, 0.07701840251684189, 0.3114839792251587, 0.2044898271560669, 0.006070062518119812, -0.05693916603922844, 0.9990445971488953, -0.06384580582380295, -0.12023735046386719, 1.486083984375, 1.496337890625, 0.1883087158203125, 1.49267578125, 1.455322265625, 10.0, 1.0, 10.0, 1.3576399087905884
28878, 0.8786515593528748, -7.457603931427002, -2.9087445735931396, 0.1891317367553711, -0.03217636048793793, -9.1758451461792, 0.6949396729469299, -0.11825502663850784, -0.7163047790527344, -0.8181635141372681, -0.9664236903190613, 0.057173628360033035, -0.13162794068982625, -0.12442294257624553, -0.2980293625138123, 9362.0, 30146.0, 35388.0, 9362.0, 8.350414276123047, 0.011518336832523346, 0.07327825576066971, 0.35969746112823486, 0.007115619257092476, -0.055891308933496475, 0.9962536096572876, -0.06384580582380295, -0.12023735046386719, 1.486083984375, 1.496337890625, 0.1883087158203125, 1.49267578125, 1.455322265625, 10.0, 1.0, 10.0, 1.3576399087905884
28898, 0.8787652254104614, -7.459221839904785, -2.9065158367156982, 0.1891317367553711, -0.03217636048793793, -9.1758451461792, 0.6949396729469299, -0.11825502663850784, -0.7163047790527344, -0.8181480765342712, -0.9664077162742615, 0.05717575550079346, -0.12964051366921936, -0.1267000789492272, -0.3047576265420292, 9362.0, 30146.0, 35388.0, 9362.0, 8.350414276123047, 0.2578716576099396, 0.06200427934527397, -0.02793215960264206, 0.0061647058464586735, -0.05808869004249573, 1.0000548362731934, -0.06384580582380295, -0.12023735046386719, 1.486083984375, 1.496337890625, 0.1883087158203125, 1.5, 1.455322265625, 10.0, 1.0, 10.0, 1.3576399087905884
28918, 0.8798354268074036, -7.4593329429626465, -2.906513214111328, 0.23309950530529022, -0.03965763747692108, -9.219001770019531, 0.7706232666969299, -0.13111580908298492, -0.7224807143211365, -0.8181563019752502, -0.9664379358291626, 0.05718797445297241, -0.12599133119189368, -0.12209648125582362, -0.28982965736604693, 9362.0, 30146.0, 35388.0, 9362.0, 8.350414276123047, -0.05122709646821022, 0.06950490176677704, 0.024674352258443832, 0.005623348988592625, -0.05678711086511612, 0.9998592138290405, -0.06384580582380295, -0.12023735046386719, 1.486083984375, 1.496337890625, 0.1883087158203125, 1.49853515625, 1.455322265625, 10.0, 1.0, 10.0, 1.3576399087905884
28928, 0.8797070384025574, -7.4592485427856445, -2.906867742538452, 0.23309950530529022, -0.03965763747692108, -9.219001770019531, 0.7706232666969299, -0.13111580908298492, -0.7224807143211365, -0.8181591629981995, -0.9664356708526611, 0.05717173218727112, -0.125179748035912, -0.12051617938797676, -0.30528066010672744, 9362.0, 30146.0, 35388.0, 9362.0, 8.350414276123047, -0.14620323479175568, 0.029035720974206924, -0.119093157351017, 0.0058624460361897945, -0.056399840861558914, 0.997503936290741, -0.06384580582380295, -0.12023735046386719, 1.486083984375, 1.496337890625, 0.1883087158203125, 1.49853515625, 1.455322265625, 10.0, 1.0, 10.0, 1.3576399087905884
28938, 0.8794052600860596, -7.459059715270996, -2.907534599304199, 0.23309950530529022, -0.03965763747692108, -9.219001770019531, 0.7706232666969299, -0.13111580908298492, -0.7224807143211365, -0.8181567192077637, -0.9664197564125061, 0.05719747394323349, -0.1333985497730205, -0.11828642392771371, -0.30681659509514353, 9362.0, 30146.0, 35388.0, 9362.0, 8.350414276123047, -0.1077006533741951, 0.23098723590373993, -0.25600895285606384, 0.006548567675054073, -0.05731558799743652, 0.9969567060470581, -0.06384580582380295, -0.12023735046386719, 1.486083984375, 1.496337890625, 0.1883087158203125, 1.49853515625, 1.5322265625, 10.0, 1.0, 10.0, 1.3576399087905884
28948, 0.8794327974319458, -7.459566116333008, -2.9080963134765625, 0.23309950530529022, -0.03965763747692108, -9.219001770019531, 0.7706232666969299, -0.13111580908298492, -0.7224807143211365, -0.8181601762771606, -0.9664252400398254, 0.057205501943826675, -0.13169223269544425, -0.12583136471849343, -0.30301805911000396, 9362.0, 30146.0, 35388.0, 9362.0, 8.350414276123047, 0.07985464483499527, 0.0890347957611084, 0.07175549864768982, 0.005915794521570206, -0.05652040243148804, 0.9998000264167786, -0.06384580582380295, -0.12023735046386719, 1.486083984375, 1.496337890625, 0.1883087158203125, 1.49853515625, 1.5322265625, 10.0, 1.0, 10.0, 1.3576399087905884
28958, 0.8798666000366211, -7.461166858673096, -2.9070029258728027, 0.23309950530529022, -0.03965763747692108, -9.219001770019531, 0.7706232666969299, -0.13111580908298492, -0.7224807143211365, -0.81816565990448, -0.9664270877838135, 0.05718919634819031, -0.13153613101992895, -0.1266164457913419, -0.30098272000755527, 9362.0, 30146.0, 35388.0, 9362.0, 8.350414276123047, 0.07985464483499527, 0.0890347957611084, 0.07175549864768982, 0.007289262488484383, -0.05695266276597977, 0.9972389340400696, -0.06384580582380295, -0.12023735046386719, 1.486083984375, 1.496337890625, 0.1883087158203125, 1.49853515625, 1.294921875, 10.0, 1.0, 10.0, 1.3576399087905884
28968, 0.8796893954277039, -7.462179183959961, -2.9049935340881348, 0.28161102533340454, -0.047911252826452255, -9.262511253356934, 0.8463922142982483, -0.14399994909763336, -0.7281244397163391, -0.8181070685386658, -0.9664478898048401, 0.0572027862071991, -0.10907354739405367, -0.15291664551261874, -0.3184408150310955, 9362.0, 30146.0, 35388.0, 9362.0, 8.350414276123047, -0.0636974424123764, 0.027906382456421852, 0.10650769621133804, 0.007289262488484383, -0.05695266276597977, 0.9972389340400696, -0.06384580582380295, -0.12023735046386719, 1.486083984375, 1.496337890625, 0.1883087158203125, 1.49853515625, 1.294921875, 10.0, 1.0, 10.0, 1.3576399087905884
28978, 0.8796690106391907, -7.4624714851379395, -2.904003620147705, 0.28161102533340454, -0.047911252826452255, -9.262511253356934, 0.8463922142982483, -0.14399994909763336, -0.7281244397163391, -0.818155825138092, -0.9664238691329956, 0.057167649269104004, -0.13293943458915686, -0.11817101286845855, -0.29758776168911255, 9362.0, 30146.0, 35388.0, 9362.0, 8.350414276123047, -0.03130469471216202, -0.1793518364429474, -0.14574068784713745, 0.006136132404208183, -0.05676652491092682, 0.9987869262695312, -0.06384580582380295, -0.12023735046386719, 1.486083984375, 1.496337890625, 0.1883087158203125, 1.49853515625, 1.294921875, 10.0, 1.0, 10.0, 1.3576399087905884
28988, 0.8803155422210693, -7.461944580078125, -2.9051015377044678, 0.28161102533340454, -0.047911252826452255, -9.262511253356934, 0.8463922142982483, -0.14399994909763336, -0.7281244397163391, -0.8181142210960388, -0.9664519429206848, 0.057185206562280655, -0.11094584107246087, -0.15264440437144344, -0.3073316580093386, 9362.0, 30146.0, 35388.0, 9362.0, 8.350414276123047, -0.12201506644487381, 0.08436566591262817, 0.00663440627977252, 0.006136132404208183, -0.05676652491092682, 0.9987869262695312, -0.06384580582380295, -0.12023735046386719, 1.486083984375, 1.496337890625, 0.1883087158203125, 1.49853515625, 1.34619140625, 10.0, 1.0, 10.0, 1.3576399087905884
29008, 0.8817203044891357, -7.4646315574646, -2.906050443649292, 0.31647589802742004, -0.05384283512830734, -9.291722297668457, 0.896869421005249, -0.15258245170116425, -0.7323076725006104, -0.818166196346283, -0.9664196968078613, 0.05715978145599365, -0.13375243163171185, -0.1233253186803438, -0.2987250146728008, 9362.0, 30146.0, 35388.0, 9362.0, 8.350414276123047, -0.12201506644487381, 0.08436566591262817, 0.00663440627977252, 0.00552537152543664, -0.05944230407476425, 0.9965970516204834, -0.06384580582380295, -0.12023735046386719, 1.486083984375, 1.496337890625, 0.1883087158203125, 1.49853515625, 1.625244140625, 10.0, 1.0, 10.0, 1.3576399087905884
29018, 0.8808918595314026, -7.4630537033081055, -2.906428575515747, 0.31647589802742004, -0.05384283512830734, -9.291722297668457, 0.896869421005249, -0.15258245170116425, -0.7323076725006104, -0.8181531429290771, -0.9664112329483032, 0.05719490721821785, -0.13162539219261626, -0.11875144146753769, -0.3027419141527208, 9362.0, 30146.0, 35388.0, 9362.0, 8.350414276123047, 0.1569639891386032, -0.12665121257305145, 0.03450446575880051, 0.00552537152543664, -0.05944230407476425, 0.9965970516204834, -0.06384580582380295, -0.12023735046386719, 1.486083984375, 1.496337890625, 0.1883087158203125, 1.49853515625, 1.56884765625, 10.0, 1.0, 10.0, 1.3576399087905884
29028, 0.8813245296478271, -7.4635138511657715, -2.90407657623291, 0.31647589802742004, -0.05384283512830734, -9.291722297668457, 0.896869421005249, -0.15258245170116425, -0.7323076725006104, -0.8181644082069397, -0.966407835483551, 0.0571715347468853, -0.12578751146777725, -0.1263115511123658, -0.2996574602221862, 9362.0, 30146.0, 35388.0, 9362.0, 8.350414276123047, 0.1569639891386032, -0.12665121257305145, 0.03450446575880051, 0.006579567212611437, -0.05760134384036064, 0.9980591535568237, -0.06384580582380295, -0.12023735046386719, 1.486083984375, 0.85986328125, 7.466217041015625, 1.49853515625, 1.21875, 10.0, 1.0, 10.0, 1.3576399087905884
29038, 0.8817258477210999, -7.465324401855469, -2.9029359817504883, 0.31647589802742004, -0.05384283512830734, -9.291722297668457, 0.896869421005249, -0.15258245170116425, -0.7323076725006104, -0.8181692361831665, -0.9664261937141418, 0.05719687417149544, -0.12523921074099345, -0.12124436179590248, -0.3036482261222452, 9362.0, 30146.0, 35388.0, 9362.0, 8.350414276123047, 0.009210437536239624, -0.035779766738414764, 0.2012418657541275, 0.007583889644593, -0.05748463794589043, 0.997624933719635, -0.06384580582380295, -0.12023735046386719, 1.486083984375, 0.85986328125, 7.466217041015625, 1.496337890625, 1.21875, 10.0, 1.0, 10.0, 1.3576399087905884
29068, 0.8824037313461304, -7.47221565246582, -2.90360689163208, 0.31647589802742004, -0.05384283512830734, -9.291722297668457, 0.896869421005249, -0.15258245170116425, -0.7323076725006104, -0.8181480765342712, -0.9664174914360046, 0.057168543338775635, -0.12069632459622319, -0.11925715089270739, -0.29562097433331963, 9362.0, 30146.0, 35388.0, 9362.0, 8.350414276123047, 0.009210437536239624, -0.035779766738414764, 0.2012418657541275, 0.0064474246464669704, -0.05344501510262489, 0.997660756111145, -0.05905824527144432, -0.18295860290527344, 1.48095703125, 0.85986328125, 7.466217041015625, 1.496337890625, 1.46923828125, 10.0, 1.0, 10.0, 1.3576399087905884
29078, 0.8833953738212585, -7.473358631134033, -2.9002082347869873, 0.31647589802742004, -0.05384283512830734, -9.291722297668457, 0.896869421005249, -0.15258245170116425, -0.7323076725006104, -0.81815505027771, -0.9664321541786194, 0.0571947917342186, -0.12219279970464836, -0.12533353829962834, -0.2937398064154848, 9362.0, 30146.0, 35388.0, 9362.0, 8.350414276123047, 0.009210437536239624, -0.035779766738414764, 0.2012418657541275, 0.007661144249141216, -0.054160311818122864, 0.9980899691581726, -0.05905824527144432, -0.18295860290527344, 1.48095703125, 0.85986328125, 7.466217041015625, 1.496337890625, 1.200439453125, 10.0, 1.0, 10.0, 1.3576399087905884
29088, 0.8823843598365784, -7.4732794761657715, -2.9013547897338867, 0.39226382970809937, -0.06673653423786163, -9.350647926330566, 0.9978650808334351, -0.16976697742938995, -0.7407722473144531, -0.8181498050689697, -0.9664183259010315, 0.057175155729055405, -0.12231540488016669, -0.12237847219998343, -0.2954690998177315, 9362.0, 30146.0, 35388.0, 9362.0, 8.350414276123047, -0.014752790331840515, 0.13365769386291504, 0.07875988632440567, 0.007316023577004671, -0.056214589625597, 0.9996466636657715, -0.05905824527144432, -0.18295860290527344, 1.48095703125, 0.85986328125, 7.466217041015625, 1.496337890625, 1.200439453125, 10.0, 1.0, 10.0, 1.3576399087905884
29108, 0.8816269636154175, -7.472909450531006, -2.903315544128418, 0.4124740958213806, -0.0701749324798584, -9.365483283996582, 1.0231648683547974, -0.17407266795635223, -0.7426937818527222, -0.8181527256965637, -0.9664244055747986, 0.05716551095247269, -0.11867834315735382, -0.12076319743175645, -0.30093972946003383, 9362.0, 30146.0, 35388.0, 9362.0, 8.350414276123047, -0.24479347467422485, -0.18434658646583557, -0.1101190447807312, 0.006248290650546551, -0.0567900724709034, 0.9980207085609436, -0.05905824527144432, -0.18295860290527344, 1.48095703125, 0.85986328125, 7.466217041015625, 1.496337890625, 1.200439453125, 10.0, 1.0, 10.0, 1.3576399087905884
29118, 0.8809884190559387, -7.473087310791016, -2.902803421020508, 0.4124740958213806, -0.0701749324798584, -9.365483283996582, 1.0231648683547974, -0.17407266795635223, -0.7426937818527222, -0.8181087374687195, -0.9664365649223328, 0.05722019076347351, -0.1073321779392397, -0.16860926245783503, -0.31636749256199587, 9362.0, 30146.0, 35388.0, 9362.0, 8.350414276123047, -0.24479347467422485, -0.18434658646583557, -0.1101190447807312, 0.0066462233662605286, -0.05829429253935814, 0.9982733726501465, -0.05905824527144432, -0.18295860290527344, 1.48095703125, 0.85986328125, 7.466217041015625, 1.496337890625, 1.57470703125, 10.0, 1.0, 10.0, 1.3576399087905884
29158, 0.8818220496177673, -7.470662593841553, -2.901817798614502, 0.45441189408302307, -0.07730983197689056, -9.39527416229248, 1.0737173557281494, -0.182667076587677, -0.7468953728675842, -0.8181027770042419, -0.9664263725280762, 0.05719492956995964, -0.11209160160924223, -0.15993247312931658, -0.31287704005696965, 9362.0, 30146.0, 35388.0, 9362.0, 8.350414276123047, 0.08885843306779861, 0.23974987864494324, -0.15706774592399597, 0.00710243871435523, -0.056662071496248245, 0.9992664456367493, -0.05651446431875229, -0.030637741088867188, 1.493408203125, 0.85986328125, 7.466217041015625, 1.493408203125, 1.57470703125, 10.0, 1.0, 10.0, 1.3576399087905884
29168, 0.8818647861480713, -7.470942497253418, -2.902587652206421, 0.47613897919654846, -0.08100612461566925, -9.410232543945312, 1.0989922285079956, -0.18696436285972595, -0.7489222288131714, -0.8181571364402771, -0.9665257334709167, 0.0572783462703228, -0.13721287853502523, -0.1523493669521372, -0.20634396725610876, 9362.0, 30146.0, 35388.0, 9362.0, 8.350414276123047, 0.0944393202662468, -0.13928109407424927, -0.08281869441270828, 0.005230745300650597, -0.05470569059252739, 0.996691882610321, -0.05651446431875229, -0.030637741088867188, 1.493408203125, 0.85986328125, 7.466217041015625, 1.493408203125, 1.57470703125, 10.0, 1.0, 10.0, 1.3576399087905884
29178, 0.8829064965248108, -7.470122814178467, -2.90242600440979, 0.47613897919654846, -0.08100612461566925, -9.410232543945312, 1.0989922285079956, -0.18696436285972595, -0.7489222288131714, -0.8181532621383667, -0.9664142727851868, 0.0571773536503315, -0.13370160743594622, -0.12336266915909277, -0.30028231455420124, 9362.0, 30146.0, 35388.0, 9362.0, 8.350414276123047, -0.044407930225133896, 0.08652444928884506, -0.02980440855026245, 0.007587776985019445, -0.05517478287220001, 0.997758150100708, -0.05651446431875229, -0.030637741088867188, 1.493408203125, 0.85986328125, 7.466217041015625, 1.493408203125, 1.57470703125, 10.0, 1.0, 10.0, 1.3576399087905884
29188, 0.883571982383728, -7.469823360443115, -2.9021923542022705, 0.47613897919654846, -0.08100612461566925, -9.410232543945312, 1.0989922285079956, -0.18696436285972595, -0.7489222288131714, -0.8181686997413635, -0.9664064049720764, 0.05716167017817497, -0.12697713818806192, -0.11350945372697652, -0.29468676287120565, 9362.0, 30146.0, 35388.0, 9362.0, 8.350414276123047, 0.19059844315052032, 0.1459803283214569, 0.29327628016471863, 0.007587776985019445, -0.05517478287220001, 0.997758150100708, -0.05651446431875229, -0.030637741088867188, 1.493408203125, 0.85986328125, 7.466217041015625, 1.493408203125, 1.57470703125, 10.0, 1.0, 10.0, 1.3576399087905884
29198, 0.8841687440872192, -7.470425128936768, -2.901277542114258, 0.47613897919654846, -0.08100612461566925, -9.410232543945312, 1.0989922285079956, -0.18696436285972595, -0.7489222288131714, -0.8181611895561218, -0.9664086103439331, 0.057183511555194855, -0.13122400413885027, -0.12471738552861211, -0.30327936025340174, 9362.0, 30146.0, 35388.0, 9362.0, 8.350414276123047, 0.19059844315052032, 0.1459803283214569, 0.29327628016471863, 0.006391296628862619, -0.05670725926756859, 1.0004080533981323, -0.05651446431875229, -0.030637741088867188, 1.493408203125, 0.85986328125, 7.466217041015625, 1.493408203125, 1.4267578125, 10.0, 1.0, 10.0, 1.3576399087905884
29208, 0.8841941952705383, -7.468362331390381, -2.9019007682800293, 0.5211089849472046, -0.08865661174058914, -9.440276145935059, 1.149501919746399, -0.19556117057800293, -0.7532980442047119, -0.8181481957435608, -0.9664127826690674, 0.057162653654813766, -0.1311989446228686, -0.12583333281560272, -0.3114181385329556, 9362.0, 30146.0, 35388.0, 9362.0, 8.350414276123047, 0.013708259910345078, -0.02043312042951584, -0.02406066097319126, 0.006391296628862619, -0.05670725926756859, 1.0004080533981323, -0.05651446431875229, -0.030637741088867188, 1.493408203125, 0.85986328125, 7.466217041015625, 1.493408203125, 1.4267578125, 10.0, 1.0, 10.0, 1.3576399087905884
29218, 0.8845250010490417, -7.467432498931885, -2.9036405086517334, 0.5211089849472046, -0.08865661174058914, -9.440276145935059, 1.149501919746399, -0.19556117057800293, -0.7532980442047119, -0.8181031346321106, -0.9664413928985596, 0.05718669295310974, -0.11363486274920499, -0.1544881266909499, -0.3088025090562356, 9362.0, 30146.0, 35388.0, 9362.0, 8.350414276123047, -0.08593544363975525, -0.22440654039382935, -0.21814782917499542, 0.005293546710163355, -0.05729227885603905, 0.9989111423492432, -0.05651446431875229, -0.030637741088867188, 1.493408203125, 0.85986328125, 7.466217041015625, 1.494140625, 1.4267578125, 10.0, 1.0, 10.0, 1.3576399087905884
29228, 0.8851394057273865, -7.466286659240723, -2.9061331748962402, 0.5211089849472046, -0.08865661174058914, -9.440276145935059, 1.149501919746399, -0.19556117057800293, -0.7532980442047119, -0.8181666731834412, -0.9664151668548584, 0.057173918932676315, -0.12956162158017184, -0.12608795986778887, -0.30100862239432674, 9362.0, 30146.0, 35388.0, 9362.0, 8.350414276123047, 0.07881652563810349, -0.14468780159950256, -0.11633820831775665, 0.007544276304543018, -0.05672860145568848, 0.9989328980445862, -0.05651446431875229, -0.030637741088867188, 1.493408203125, 0.926513671875, 4.9760284423828125, 1.494140625, 1.03857421875, 10.0, 1.0, 10.0, 1.3576399087905884
29238, 0.8857868313789368, -7.467239856719971, -2.905806064605713, 0.5211089849472046, -0.08865661174058914, -9.440276145935059, 1.149501919746399, -0.19556117057800293, -0.7532980442047119, -0.8181434273719788, -0.9664030075073242, 0.057187121361494064, -0.1373213080079361, -0.12470218798009114, -0.2998840775344831, 9362.0, 30146.0, 35388.0, 9362.0, 8.350414276123047, -0.04715878516435623, 0.45709937810897827, -0.05871691554784775, 0.005221415776759386, -0.057400431483983994, 0.9989030361175537, -0.05651446431875229, -0.030637741088867188, 1.493408203125, 1.3330078125, 0.0191650390625, 1.48828125, 1.100830078125, 10.0, 1.0, 10.0, 1.3576399087905884
29248, 0.8867520689964294, -7.47002649307251, -2.9067444801330566, 0.5681015253067017, -0.09665165841579437, -9.470476150512695, 1.200097680091858, -0.20419004559516907, -0.7568843364715576, -0.8181563019752502, -0.9664162993431091, 0.057183898985385895, -0.12289398821960983, -0.12106170685476059, -0.29496189137365264, 9362.0, 30146.0, 35388.0, 9362.0, 8.350414276123047, -0.04715878516435623, 0.45709937810897827, -0.05871691554784775, 0.006854782346636057, -0.058170098811388016, 0.9981146454811096, -0.05141446739435196, 0.03208160400390625, 1.49853515625, 1.3330078125, 0.0191650390625, 1.48828125, 1.100830078125, 10.0, 1.0, 10.0, 1.3576399087905884
29258, 0.8871887922286987, -7.471898555755615, -2.906658887863159, 0.5681015253067017, -0.09665165841579437, -9.470476150512695, 1.200097680091858, -0.20419004559516907, -0.7568843364715576, -0.8181613087654114, -0.966411292552948, 0.05716647207736969, -0.1306739373961407, -0.122605398523433, -0.30599742305468847, 9362.0, 30146.0, 35388.0, 9362.0, 8.350414276123047, 0.18122369050979614, -0.1681271344423294, 0.05891529843211174, 0.007555461023002863, -0.05599096789956093, 0.9959377646446228, -0.05141446739435196, 0.03208160400390625, 1.49853515625, 1.3330078125, 0.0191650390625, 1.48828125, 0.908203125, 10.0, 1.0, 10.0, 1.3576399087905884
29268, 0.8885965943336487, -7.470944881439209, -2.906632661819458, 0.5923562049865723, -0.10077863186597824, -9.485633850097656, 1.2253719568252563, -0.20850737392902374, -0.7588714957237244, -0.8181508779525757, -0.9664053916931152, 0.057174261659383774, -0.120431594186552, -0.12126400689700745, -0.29436580377847216, 9362.0, 30146.0, 35388.0, 9362.0, 8.350414276123047, 0.04650428146123886, 0.02500067465007305, 0.11353806406259537, 0.00796020682901144, -0.05620748549699783, 0.9957801103591919, -0.05141446739435196, 0.03208160400390625, 1.49853515625, 1.6142578125, 0.4512786865234375, 1.48828125, 1.52490234375, 10.0, 1.0, 10.0, 1.3576399087905884
29278, 0.8889689445495605, -7.472411632537842, -2.9060142040252686, 0.5923562049865723, -0.10077863186597824, -9.485633850097656, 1.2253719568252563, -0.20850737392902374, -0.7588714957237244, -0.818161129951477, -0.9664186239242554, 0.05719158425927162, -0.12377789759318993, -0.12439263891545238, -0.30582956366797215, 9362.0, 30146.0, 35388.0, 9362.0, 8.350414276123047, -0.06601543724536896, 0.052524931728839874, -0.11586307734251022, 0.0066721513867378235, -0.057037558406591415, 0.995479166507721, -0.05141446739435196, 0.03208160400390625, 1.49853515625, 1.6142578125, 0.4512786865234375, 1.49560546875, 1.294189453125, 10.0, 1.0, 10.0, 1.3576399087905884
29288, 0.8889488577842712, -7.472816467285156, -2.907489061355591, 0.5923562049865723, -0.10077863186597824, -9.485633850097656, 1.2253719568252563, -0.20850737392902374, -0.7588714957237244, -0.818149983882904, -0.9664151072502136, 0.05718175694346428, -0.12973459311955388, -0.12230085862520923, -0.2945733950163471, 9362.0, 30146.0, 35388.0, 9362.0, 8.350414276123047, -0.06601543724536896, 0.052524931728839874, -0.11586307734251022, 0.00888534914702177, -0.05656832084059715, 0.9973992109298706, -0.05141446739435196, 0.03208160400390625, 1.49853515625, 0.954345703125, 4.13690185546875, 1.49560546875, 1.05615234375, 10.0, 1.0, 10.0, 1.3576399087905884
29298, 0.8883360624313354, -7.47305965423584, -2.908252239227295, 0.5923562049865723, -0.10077863186597824, -9.485633850097656, 1.2253719568252563, -0.20850737392902374, -0.7588714957237244, -0.8180971741676331, -0.9664323925971985, 0.05718618631362915, -0.11491434108080843, -0.14952315652431025, -0.3107497826478911, 9362.0, 30146.0, 35388.0, 9362.0, 8.350414276123047, 0.25308385491371155, 0.36488813161849976, 0.014199326746165752, 0.007763099391013384, -0.057397257536649704, 0.9981781244277954, -0.05141446739435196, 0.03208160400390625, 1.49853515625, 1.619384765625, 0.4635009765625, 1.496337890625, 1.486083984375, 10.0, 1.0, 10.0, 1.3576399087905884
29308, 0.8884493112564087, -7.474081993103027, -2.909480333328247, 0.6423797011375427, -0.10929141938686371, -9.51608943939209, 1.2758177518844604, -0.2171369343996048, -0.7638030648231506, -0.8181518316268921, -0.9664192795753479, 0.05718250572681427, -0.12263756544551145, -0.11518434548847267, -0.29547047007606325, 9362.0, 30146.0, 35388.0, 9362.0, 8.350414276123047, 0.10835188627243042, 0.3522249758243561, 0.0729435458779335, 0.00593443401157856, -0.0565277636051178, 0.9975743889808655, -0.05141446739435196, 0.03208160400390625, 1.49853515625, 1.619384765625, 0.4635009765625, 1.496337890625, 1.486083984375, 10.0, 1.0, 10.0, 1.3576399087905884
29318, 0.8893718719482422, -7.4742326736450195, -2.9085958003997803, 0.6423797011375427, -0.10929141938686371, -9.51608943939209, 1.2758177518844604, -0.2171369343996048, -0.7638030648231506, -0.8181290030479431, -0.9664033651351929, 0.05716274306178093, -0.12640917244634195, -0.12947552568945753, -0.29856647782570184, 9362.0, 30146.0, 35388.0, 9362.0, 8.350414276123047, 0.08230243623256683, -0.44428297877311707, -0.27412763237953186, 0.0062864706851542, -0.05789076164364815, 0.996478796005249, -0.05141446739435196, 0.03208160400390625, 1.49853515625, 1.619384765625, 0.4635009765625, 1.493408203125, 1.423095703125, 10.0, 1.0, 10.0, 1.3576399087905884
