timeTick, roll, pitch, yaw, stateX, stateY, stateZ, stateVX, stateVY, stateVZ, otX0, otY0, otZ0, otRoll0, otPitch0, otYaw0, left wing, pitch motor, yaw motor, right wing, voltage, roll rate, pitch rate, yaw rate, A_x, A_y, A_z, current, i_raw, v_raw, airflow_voltage, airflow_speed, pot_Pitch, voltage_nKF, kFFx, state_vel, State_vel, volt_KF_vel
15914, -0.033925507217645645, -0.40478354692459106, 2.075263023376465, 0, 0, 0, 0, 0, 0, -0.8197553157806396, -0.9650548100471497, 0.05873851478099823, -0.06821913537376692, -0.6030846001340535, 0.942842169627465, 0, 0, 0, 0, 0, 0, 0, 0, 0, 0, 0, 0, 0, 0, 0, 0, 0, 0, 0, 0, 0, 0
15924, -0.03320955112576485, -0.40235039591789246, 2.0761938095092773, -2.9527157039410667e-06, -3.649242330538982e-07, -0.8505866527557373, 0.0005420559900812805, 6.373191718012094e-05, -0.11913912743330002, -0.8197999000549316, -0.966092050075531, 0.05961655080318451, -0.29926661886269457, -0.8422340233341288, 1.8085825330871064, 9362.0, 30146.0, 35388.0, 9362.0, 0, 0.13883085548877716, 0.44820713996887207, 0.09689391404390335, 0.0013830647803843021, -0.056479424238204956, 0.9989414811134338, 0, 0, 0, 0, 0, 0, 0, 0, 0, 0, 0
15934, -0.03312738239765167, -0.40581586956977844, 2.076106548309326, 5.91348361922428e-06, 6.872972448945802e-07, -0.851779043674469, 0.0012311908649280667, 0.00014672618999611586, -0.11933539807796478, -0.81979900598526, -0.9661725759506226, 0.05982163920998573, -0.26083288172989244, -0.818526603409623, 1.761544207505398, 9362.0, 30146.0, 35388.0, 9362.0, 0, -0.05007561296224594, 0.049578506499528885, 0.046051234006881714, 0.0014486702857539058, -0.05854383111000061, 0.999412477016449, 0, 0, 0, 1.496337890625, 0.1883087158203125, 0, 1.256103515625, 10.0, 1.0, 10.0, 1.3695392608642578
15944, -0.032955069094896317, -0.40674006938934326, 2.076162576675415, 2.1653142539435066e-05, 2.562969484642963e-06, -0.8529729843139648, 0.0019167335703969002, 0.00022840709425508976, -0.11945535242557526, -0.8195584416389465, -0.9653356075286865, 0.05884447693824768, -0.1538209248852598, -0.6008619081256086, 1.3041997770117193, 9362.0, 30146.0, 35388.0, 9362.0, 0, -0.04069223999977112, -0.18907704949378967, 0.010019388981163502, 0.001171222422271967, -0.05752280727028847, 0.9994332790374756, 0, 0, 0, 1.493408203125, 0.1825714111328125, 1.497802734375, 1.285400390625, 10.0, 1.0, 10.0, 1.3691835403442383
15954, -0.0328449085354805, -0.40585628151893616, 2.0762500762939453, 4.427986641530879e-05, 5.2560531003109645e-06, -0.8541678786277771, 0.0026086103171110153, 0.0003102104819845408, -0.1195186898112297, -0.8198132514953613, -0.9660793542861938, 0.0596192292869091, -0.293344478926821, -0.8461780381551876, 1.8023184060096975, 9362.0, 30146.0, 35388.0, 9362.0, 0, 0.083358995616436, 0.23885661363601685, 0.06819770485162735, 6.623676017625257e-05, -0.05837821215391159, 0.9983848929405212, 0, 0, 0, 0.9990234375, 3.0057220458984375, 1.497802734375, 1.61572265625, 10.0, 1.0, 10.0, 1.3683241605758667
15964, -0.032815977931022644, -0.4085955321788788, 2.075004816055298, 7.383318734355271e-05, 8.765972779656295e-06, -0.8553634285926819, 0.0033020542468875647, 0.0003917745780199766, -0.1195855662226677, -0.8196313381195068, -0.9655813574790955, 0.05911072716116905, -0.06070839335900575, -0.5871674451429385, 1.3338860419693346, 9362.0, 30146.0, 35388.0, 9362.0, 0, 0.00605027424171567, -0.03828253969550133, 0.15182864665985107, 0.0005554241361096501, -0.05699136480689049, 0.9980716705322266, 0, 0, 0, 1.23486328125, 0.2174835205078125, 1.496337890625, 1.48388671875, 10.0, 1.0, 10.0, 1.3675928115844727
15974, -0.033195022493600845, -0.40843695402145386, 2.0770938396453857, 0.0001103102185879834, 1.3089946151012555e-05, -0.8565600514411926, 0.003993346355855465, 0.0004730048240162432, -0.1197432354092598, -0.8198087811470032, -0.9661110639572144, 0.059611015021800995, -0.29805344256116667, -0.8393250238275698, 1.806614710460956, 9362.0, 30146.0, 35388.0, 9362.0, 0, -0.059799641370773315, -0.17227312922477722, 0.017404982820153236, 0.001728162867948413, -0.05569348856806755, 0.9959946274757385, 0, 0, 0, 1.373291015625, 0.0207366943359375, 1.496337890625, 0.999755859375, 10.0, 1.0, 10.0, 1.3683253526687622
15984, -0.03342791274189949, -0.40756621956825256, 2.078289270401001, 0.00015372203779406846, 1.8226566680823453e-05, -0.8577585220336914, 0.004689015448093414, 0.0005543433362618089, -0.11994460225105286, -0.8195474743843079, -0.9653520584106445, 0.058850303292274475, -0.16306140130389826, -0.5875411471572249, 1.3136939535555594, 9362.0, 30146.0, 35388.0, 9362.0, 0, 0.08681540191173553, -0.18181408941745758, -0.06800321489572525, -0.001588112092576921, -0.057635702192783356, 0.9993049502372742, 0, 0, 0, 0.96240234375, 3.9139404296875, 1.491943359375, 1.2802734375, 10.0, 1.0, 10.0, 1.3692139387130737
15994, -0.03248982131481171, -0.4058104157447815, 2.077867031097412, 0.0002040842518908903, 2.417931864329148e-05, -0.8589596748352051, 0.005383428651839495, 0.0006362202111631632, -0.12028145045042038, -0.8195644617080688, -0.9653446078300476, 0.058835599571466446, -0.1453678369677689, -0.6018094844762061, 1.2988839834347519, 9362.0, 30146.0, 35388.0, 9362.0, 0, 0.004093383904546499, -0.03104524314403534, 0.22175340354442596, -0.0012570671970024705, -0.05822644755244255, 0.9994249939918518, 0, 0, 0, 1.40771484375, 0.0478363037109375, 1.491943359375, 1.00048828125, 10.0, 1.0, 10.0, 1.3699383735656738
16004, -0.03298903629183769, -0.4071694016456604, 2.0796022415161133, 0.00026139168767258525, 3.0953648092690855e-05, -0.8601629734039307, 0.006078063976019621, 0.0007186423754319549, -0.12037545442581177, -0.8196102976799011, -0.9653105735778809, 0.05886735022068024, -0.15495193655545816, -0.6124095097958104, 1.2172397847986414, 9362.0, 30146.0, 35388.0, 9362.0, 0, 0.0389430858194828, 0.3047489821910858, -0.051496472209692, -0.0011680504539981484, -0.058688919991254807, 0.9974022507667542, 0, 0, 0, 1.253173828125, 0.15313720703125, 1.4912109375, 1.55126953125, 10.0, 1.0, 10.0, 1.3703240156173706
16014, -0.03226707503199577, -0.40901702642440796, 2.079927444458008, 0.00032563129207119346, 3.8543676055269316e-05, -0.8613671064376831, 0.006769857835024595, 0.0007993833860382438, -0.12045402824878693, -0.8196157813072205, -0.9653191566467285, 0.05885433778166771, -0.1486394852048866, -0.6090438847355415, 1.2227112190838278, 9362.0, 30146.0, 35388.0, 9362.0, 8.370248794555664, -0.021411729976534843, -0.04302817955613136, -0.2168247252702713, 0.0003606123209465295, -0.05554807931184769, 0.9987218976020813, -0.039186540991067886, -0.01271820068359375, 1.494873046875, 1.6201171875, 0.4653778076171875, 1.4912109375, 1.23779296875, 10.0, 1.0, 10.0, 1.3685641288757324
16024, -0.03266745060682297, -0.4084998071193695, 2.078723430633545, 0.00039679452311247587, 4.6945227950345725e-05, -0.8625728487968445, 0.007462780456990004, 0.000880933424923569, -0.12069600820541382, -0.8194994330406189, -0.9659944176673889, 0.05955331400036812, -0.33427606847814473, -0.9679447417815368, 1.600464842803508, 9362.0, 30146.0, 35388.0, 9362.0, 8.370248794555664, -0.05064713954925537, 0.26730072498321533, 0.33127081394195557, -0.00012384109140839428, -0.056233763694763184, 0.9973962306976318, -0.039186540991067886, -0.01271820068359375, 1.494873046875, 1.56591796875, 0.337738037109375, 1.496337890625, 1.598876953125, 10.0, 1.0, 10.0, 1.3688580989837646
16034, -0.03271101042628288, -0.40973296761512756, 2.080307722091675, 0.00047490495489910245, 5.615693953586742e-05, -0.8637807369232178, 0.00815930962562561, 0.0009613932925276458, -0.12088191509246826, -0.8198100924491882, -0.9660847187042236, 0.059608280658721924, -0.2948342352949121, -0.8559364168314403, 1.7962598799270506, 9362.0, 30146.0, 35388.0, 9362.0, 8.370248794555664, 0.1304723024368286, -0.19367553293704987, -0.11332974582910538, 0.0010783474426716566, -0.05799056962132454, 0.9995426535606384, -0.039186540991067886, -0.01271820068359375, 1.494873046875, 1.60546875, 0.43011474609375, 1.496337890625, 1.17919921875, 10.0, 1.0, 10.0, 1.3693909645080566
16044, -0.033060405403375626, -0.4082087278366089, 2.0810811519622803, 0.0005599744035862386, 6.617623148486018e-05, -0.8649907112121582, 0.008854568935930729, 0.0010424834908917546, -0.12111766636371613, -0.8196114897727966, -0.9653259515762329, 0.058874160051345825, -0.16513544533321947, -0.6096928667135444, 1.2228966274982456, 9362.0, 30146.0, 35388.0, 9362.0, 8.370248794555664, 0.06406094133853912, -0.14549963176250458, 0.08632680773735046, 0.0008521965355612338, -0.05864164978265762, 1.0001308917999268, -0.039186540991067886, -0.01271820068359375, 1.494873046875, 1.604736328125, 0.428436279296875, 1.48974609375, 1.55712890625, 10.0, 1.0, 10.0, 1.367601752281189
16054, -0.03360115736722946, -0.4074265658855438, 2.081388473510742, 0.0006520136375911534, 7.700805872445926e-05, -0.8662021160125732, 0.009553282521665096, 0.0011238909792155027, -0.12116451561450958, -0.8195733428001404, -0.9648258686065674, 0.058476582169532776, -0.24105426812777395, -0.6764535278405504, 0.844857674620397, 9362.0, 30146.0, 35388.0, 9362.0, 8.370248794555664, 0.004574633669108152, 0.04441344738006592, 0.1913822591304779, 0.0009188687545247376, -0.05600745230913162, 0.9989455342292786, -0.039186540991067886, -0.01271820068359375, 1.494873046875, 1.58056640625, 0.3715972900390625, 1.48974609375, 1.562255859375, 10.0, 1.0, 10.0, 1.3681001663208008
16064, -0.0338451974093914, -0.40699559450149536, 2.0821454524993896, 0.0007510284776799381, 8.865670679369941e-05, -0.8674137592315674, 0.01024968083947897, 0.0012058424763381481, -0.12116701155900955, -0.8196075558662415, -0.965305507183075, 0.05885794758796692, -0.15045272438703156, -0.6112647710114061, 1.2225513901520262, 9362.0, 30146.0, 35388.0, 9362.0, 8.370248794555664, 0.28864267468452454, 0.22431445121765137, 0.09111322462558746, -0.0008453296031802893, -0.055595964193344116, 1.0001527070999146, -0.039186540991067886, -0.01271820068359375, 1.494873046875, 1.27880859375, 0.086212158203125, 1.494140625, 1.361572265625, 10.0, 1.0, 10.0, 1.3666517734527588
16074, -0.033506643027067184, -0.40923061966896057, 2.081587553024292, 0.0008569972706027329, 0.00010112889867741615, -0.8686258792877197, 0.010944074019789696, 0.0012886039912700653, -0.12125856429338455, -0.8198298811912537, -0.9661320447921753, 0.05975288525223732, -0.27642569411308016, -0.8394473659466257, 1.7869083598679456, 9362.0, 30146.0, 35388.0, 9362.0, 8.370248794555664, 0.2513520419597626, -0.027369078248739243, -0.14167840778827667, 0.0009264049003832042, -0.056872691959142685, 1.0010789632797241, -0.039186540991067886, -0.01271820068359375, 1.494873046875, 1.135986328125, 0.8693389892578125, 1.494140625, 1.53955078125, 10.0, 1.0, 10.0, 1.3667023181915283
16084, -0.03214110806584358, -0.4090571701526642, 2.0814247131347656, 0.0009699101210571826, 0.000114431168185547, -0.8698383569717407, 0.011638500727713108, 0.0013718431582674384, -0.12123951315879822, -0.8198019862174988, -0.96611088514328, 0.05970529466867447, -0.27905012014236813, -0.8268915662436882, 1.7739611979024965, 9362.0, 30146.0, 35388.0, 9362.0, 8.370248794555664, -0.04701245576143265, -0.02423105761408806, 0.05311937630176544, 0.00043841841397807, -0.0555320680141449, 0.9991228580474854, -0.039186540991067886, -0.01271820068359375, 1.494873046875, 1.52490234375, 0.247039794921875, 1.496337890625, 1.32421875, 10.0, 1.0, 10.0, 1.3670378923416138
16094, -0.03275474160909653, -0.41000038385391235, 2.082124948501587, 0.001089788507670164, 0.00012856382818426937, -0.8710503578186035, 0.012337164022028446, 0.0014546847669407725, -0.12116548418998718, -0.8196065425872803, -0.9648054838180542, 0.05845312774181366, -0.24236825568468967, -0.6614131774360033, 0.8424858603983367, 9362.0, 30146.0, 35388.0, 9362.0, 8.370248794555664, 0.10697537660598755, -0.1194695234298706, -0.015679754316806793, 0.001075102831237018, -0.05504975467920303, 1.000221848487854, -0.039186540991067886, -0.01271820068359375, 1.494873046875, 1.30078125, 0.048004150390625, 1.496337890625, 0.879638671875, 10.0, 1.0, 10.0, 1.3651505708694458
16104, -0.032158151268959045, -0.40900173783302307, 2.08161997795105, 0.0012166461674496531, 0.0001435124286217615, -0.8722625374794006, 0.013034375384449959, 0.001535043935291469, -0.12126526981592178, -0.8193619251251221, -0.9652114510536194, 0.05863850191235542, -0.2832778307264684, -0.6309228554110291, 1.1928627552888675, 9362.0, 30146.0, 35388.0, 9362.0, 8.370248794555664, 0.08164017647504807, 0.015554863028228283, -0.07817274332046509, 0.00034024479100480676, -0.0561206117272377, 1.0016690492630005, -0.039186540991067886, -0.01271820068359375, 1.494873046875, 1.566650390625, 0.3395233154296875, 1.49853515625, 1.31689453125, 10.0, 1.0, 10.0, 1.364302635192871
16114, -0.03149492293596268, -0.4079711139202118, 2.0811173915863037, 0.0013504872331395745, 0.00015927059575915337, -0.873475193977356, 0.013733841478824615, 0.0016165848355740309, -0.12126986682415009, -0.8195125460624695, -0.965975821018219, 0.05956285446882248, -0.3371978540479778, -0.977751659382875, 1.607746768114084, 9362.0, 30146.0, 35388.0, 9362.0, 8.370248794555664, -0.03793928772211075, -0.1004653200507164, 0.12245844304561615, 0.0009750747703947127, -0.05600433796644211, 0.9992924332618713, -0.04175414890050888, -0.03959846496582031, 1.49267578125, 1.00341796875, 2.907745361328125, 1.49853515625, 1.4091796875, 10.0, 1.0, 10.0, 1.363850474357605
16124, -0.03202207386493683, -0.40613478422164917, 2.082170248031616, 0.0014913200866430998, 0.00017583936278242618, -0.874687135219574, 0.014432717114686966, 0.001697159605100751, -0.12112224102020264, -0.8197953104972839, -0.9661032557487488, 0.059686243534088135, -0.27912766373909326, -0.8262956390553597, 1.7774045366580289, 9362.0, 30146.0, 35388.0, 9362.0, 8.370248794555664, -0.0020533071365207434, 0.11684823036193848, 0.09857386350631714, 0.0016284816665574908, -0.056242939084768295, 0.9997827410697937, -0.04175414890050888, -0.03959846496582031, 1.49267578125, 1.33447265625, 0.0186309814453125, 1.490478515625, 0.917724609375, 10.0, 1.0, 10.0, 1.3640154600143433
16134, -0.0321483351290226, -0.4068400263786316, 2.0838401317596436, 0.0016391261015087366, 0.0001932070590555668, -0.8758985996246338, 0.015128489583730698, 0.0017763908253982663, -0.12116958945989609, -0.8197985887527466, -0.9660758972167969, 0.05960286781191826, -0.2862720721544661, -0.8381584213119027, 1.7950261201611863, 9362.0, 30146.0, 35388.0, 9362.0, 8.370248794555664, -0.16977842152118683, -0.5199038982391357, -0.36255648732185364, -0.0002207223733421415, -0.05877635255455971, 0.9997844696044922, -0.04175414890050888, -0.03959846496582031, 1.49267578125, 1.584228515625, 0.3801727294921875, 1.490478515625, 1.154296875, 10.0, 1.0, 10.0, 1.3632196187973022
16144, -0.03260944411158562, -0.40606775879859924, 2.083000421524048, 0.0017938741948455572, 0.00021137109433766454, -0.877110481262207, 0.01582113839685917, 0.0018564363708719611, -0.12120866775512695, -0.819831907749176, -0.9660764336585999, 0.05960891395807266, -0.28961600164598605, -0.8522974268193195, 1.8015622413614094, 9362.0, 30146.0, 35388.0, 9362.0, 8.370248794555664, -0.16328077018260956, -0.012127602472901344, 0.07967855781316757, 0.000768480240367353, -0.056378547102212906, 0.9964787364006042, -0.04175414890050888, -0.03959846496582031, 1.49267578125, 1.490478515625, 0.1768646240234375, 1.49267578125, 1.67138671875, 10.0, 1.0, 10.0, 1.3637888431549072
16154, -0.03388017788529396, -0.40663206577301025, 2.0842881202697754, 0.001955554587766528, 0.00023033695470076054, -0.8783227801322937, 0.01651494950056076, 0.0019367262721061707, -0.12125362455844879, -0.8196381330490112, -0.9654191136360168, 0.05915243551135063, -0.10713523658747987, -0.6284745868665311, 1.2439826553182238, 9362.0, 30146.0, 35388.0, 9362.0, 8.370248794555664, -0.052242718636989594, -0.09269469976425171, 0.011200676672160625, 0.0009642795193940401, -0.05696418508887291, 0.9968420267105103, -0.04175414890050888, -0.03959846496582031, 1.49267578125, 1.59814453125, 0.4127655029296875, 1.49267578125, 1.121337890625, 10.0, 1.0, 10.0, 1.3647557497024536
16164, -0.034719280898571014, -0.4056524932384491, 2.0831241607666016, 0.0021241570357233286, 0.0002501082781236619, -0.8795368671417236, 0.01720551587641239, 0.0020175448153167963, -0.12156610190868378, -0.8198228478431702, -0.9660900831222534, 0.05961259827017784, -0.287790478184817, -0.85243439350117, 1.809173684021926, 9362.0, 30146.0, 35388.0, 9362.0, 8.370248794555664, -0.04588884487748146, -0.2487618625164032, 0.24223917722702026, -0.0009701364324428141, -0.0582093819975853, 0.9976062178611755, -0.04175414890050888, -0.03959846496582031, 1.49267578125, 0.992431640625, 3.157012939453125, 1.496337890625, 1.24072265625, 10.0, 1.0, 10.0, 1.3647046089172363
16174, -0.03508992865681648, -0.4049125015735626, 2.0841333866119385, 0.0022996694315224886, 0.00027069885982200503, -0.8807541131973267, 0.01789698749780655, 0.0021005559246987104, -0.12187693268060684, -0.8196356892585754, -0.9646619558334351, 0.0583876334130764, -0.22911878171237254, -0.682138251237177, 0.7463427563577224, 9362.0, 30146.0, 35388.0, 9362.0, 8.370248794555664, 0.05887218564748764, -0.0015646684914827347, -0.11468762904405594, -0.0005991776706650853, -0.05934196710586548, 0.9995212554931641, -0.04175414890050888, -0.03959846496582031, 1.49267578125, 1.584228515625, 0.3801727294921875, 1.496337890625, 1.25390625, 10.0, 1.0, 10.0, 1.3653522729873657
16184, -0.0343036912381649, -0.4028075039386749, 2.0823962688446045, 0.00248209061101079, 0.00029212667141109705, -0.8819740414619446, 0.0185872633010149, 0.002185017568990588, -0.1221121996641159, -0.8193945288658142, -0.9651191234588623, 0.05852481722831726, -0.29425145148662024, -0.6813786002066138, 1.200505290439053, 9362.0, 30146.0, 35388.0, 9362.0, 8.370248794555664, 0.07666109502315521, -0.1883220672607422, -0.09484555572271347, -0.0002896480727940798, -0.0584540031850338, 0.9986091256141663, -0.04175414890050888, -0.03959846496582031, 1.49267578125, 1.228271484375, 0.2443389892578125, 1.49560546875, 1.34326171875, 10.0, 1.0, 10.0, 1.363969326019287
16194, -0.03382665291428566, -0.40110599994659424, 2.0818536281585693, 0.0026907259598374367, 0.00031667729490436614, -0.8833177089691162, 0.019346462562680244, 0.002278711413964629, -0.122185617685318, -0.8197137117385864, -0.9650833010673523, 0.058779675513505936, -0.08159762179224327, -0.588230748911883, 0.9513751064592205, 9362.0, 30146.0, 35388.0, 9362.0, 8.370248794555664, 0.13181020319461823, 0.5453622937202454, -0.28151553869247437, 0.0010391760151833296, -0.056772422045469284, 0.9984208345413208, -0.04175414890050888, -0.03959846496582031, 1.49267578125, 0.913330078125, 5.4127044677734375, 1.49560546875, 1.484619140625, 10.0, 1.0, 10.0, 1.3635286092758179
16204, -0.03355025127530098, -0.40302664041519165, 2.0806772708892822, 0.0028876210562884808, 0.00033988256473094225, -0.884540319442749, 0.020032541826367378, 0.002362338826060295, -0.12233151495456696, -0.8198241591453552, -0.9661694765090942, 0.05977370962500572, -0.27555834956212766, -0.8464207525173322, 1.7978493796499608, 9362.0, 30146.0, 35388.0, 9362.0, 8.370248794555664, 0.061254680156707764, -0.1878756880760193, -0.05394817888736725, 0.0009426295291632414, -0.05782688781619072, 0.9988806247711182, -0.04175414890050888, -0.03959846496582031, 1.49267578125, 1.66259765625, 0.5705108642578125, 1.49267578125, 0.8173828125, 10.0, 1.0, 10.0, 1.3643064498901367
16214, -0.034610919654369354, -0.4023006558418274, 2.081266164779663, 0.0030913616064935923, 0.0003639193600974977, -0.885764479637146, 0.02071555145084858, 0.002445008372887969, -0.12250363826751709, -0.8198259472846985, -0.9660859704017639, 0.05962616950273514, -0.29142287517193205, -0.8527901731002885, 1.801919159291185, 9362.0, 30146.0, 35388.0, 9362.0, 8.370248794555664, -0.08399388194084167, 0.20669984817504883, 0.1104816123843193, -0.0005141610745340586, -0.056362662464380264, 0.9994887709617615, -0.03028951771557331, -0.0037593841552734375, 1.49560546875, 1.53076171875, 0.2596435546875, 1.49267578125, 1.3095703125, 10.0, 1.0, 10.0, 1.3633437156677246
16224, -0.032961275428533554, -0.4030519425868988, 2.0808451175689697, 0.0033019520342350006, 0.0003887814236804843, -0.8869898915290833, 0.021402522921562195, 0.0025274092331528664, -0.12258191406726837, -0.8193581104278564, -0.9658517241477966, 0.05938824266195297, -0.4420509296189727, -1.0785300610058357, 1.6177197608647653, 9362.0, 30146.0, 35388.0, 9362.0, 8.370248794555664, -0.08399388194084167, 0.20669984817504883, 0.1104816123843193, -0.0014420266961678863, -0.055013421922922134, 1.0000238418579102, -0.03028951771557331, -0.0037593841552734375, 1.49560546875, 0.98876953125, 3.2432861328125, 1.487548828125, 1.39013671875, 10.0, 1.0, 10.0, 1.362322211265564
16234, -0.032710086554288864, -0.40269073843955994, 2.080650568008423, 0.0033019520342350006, 0.0003887814236804843, -0.8869898915290833, 0.021402522921562195, 0.0025274092331528664, -0.12258191406726837, -0.8197977542877197, -0.9661023616790771, 0.05963651090860367, -0.29702631460086637, -0.8503907511501723, 1.7979626531474333, 9362.0, 30146.0, 35388.0, 9362.0, 8.370248794555664, 0.10292703658342361, 0.06022055074572563, -0.17271393537521362, -4.9658370699035004e-05, -0.05559137463569641, 0.9978978633880615, -0.03028951771557331, -0.0037593841552734375, 1.49560546875, 0.98876953125, 3.2432861328125, 1.487548828125, 1.39013671875, 10.0, 1.0, 10.0, 1.362322211265564
16244, -0.03247641772031784, -0.4049723446369171, 2.080267906188965, 0.0033019520342350006, 0.0003887814236804843, -0.8869898915290833, 0.021402522921562195, 0.0025274092331528664, -0.12258191406726837, -0.81979900598526, -0.9660992622375488, 0.05961170792579651, -0.29006263906839835, -0.8469277335563561, 1.7944238234103063, 9362.0, 30146.0, 35388.0, 9362.0, 8.370248794555664, -0.08453189581632614, -0.09471624344587326, 0.2463945895433426, -7.830571121303365e-05, -0.05579356476664543, 1.0003987550735474, -0.03028951771557331, -0.0037593841552734375, 1.49560546875, 0.98876953125, 3.2432861328125, 1.49267578125, 1.39013671875, 10.0, 1.0, 10.0, 1.362322211265564
16254, -0.033055271953344345, -0.40433165431022644, 2.082390308380127, 0.0033019520342350006, 0.0003887814236804843, -0.8869898915290833, 0.021402522921562195, 0.0025274092331528664, -0.12258191406726837, -0.81979900598526, -0.9661048650741577, 0.05962887778878212, -0.283160909409382, -0.8467823535996502, 1.7963515323295505, 9362.0, 30146.0, 35388.0, 9362.0, 8.370248794555664, 0.11031060665845871, 0.09207532554864883, -0.31014853715896606, 0.00028607313288375735, -0.05976859852671623, 0.9990954399108887, -0.03028951771557331, -0.0037593841552734375, 1.49560546875, 0.98876953125, 3.2432861328125, 1.49267578125, 1.39013671875, 10.0, 1.0, 10.0, 1.362322211265564
16264, -0.03325877711176872, -0.40359047055244446, 2.08113431930542, 0.0033019520342350006, 0.0003887814236804843, -0.8869898915290833, 0.021402522921562195, 0.0025274092331528664, -0.12258191406726837, -0.8193751573562622, -0.9651607871055603, 0.058561064302921295, -0.300418160046828, -0.688646356052061, 1.1950090015628134, 9362.0, 30146.0, 35388.0, 9362.0, 8.370248794555664, 0.11031060665845871, 0.09207532554864883, -0.31014853715896606, 2.2623622498940676e-05, -0.059094447642564774, 0.9987207055091858, -0.03028951771557331, -0.0037593841552734375, 1.49560546875, 1.072998046875, 1.6350555419921875, 1.49267578125, 1.55859375, 10.0, 1.0, 10.0, 1.360663652420044
16274, -0.03313564881682396, -0.4031396806240082, 2.0801162719726562, 0.0044579580426216125, 0.0005254319403320551, -0.8931264877319336, 0.024841884151101112, 0.0029363068751990795, -0.12288594245910645, -0.8198089003562927, -0.9661173224449158, 0.05969266593456268, -0.2762383015031258, -0.8202037925632908, 1.775276297560341, 9362.0, 30146.0, 35388.0, 9362.0, 8.370248794555664, 0.02850436046719551, -0.21236753463745117, -0.3120494782924652, -0.0006568446988239884, -0.0564408078789711, 0.9993358254432678, -0.03028951771557331, -0.0037593841552734375, 1.49560546875, 1.072998046875, 1.6350555419921875, 1.49267578125, 1.55859375, 10.0, 1.0, 10.0, 1.360663652420044
16284, -0.03276769816875458, -0.40301045775413513, 2.079528331756592, 0.0044579580426216125, 0.0005254319403320551, -0.8931264877319336, 0.024841884151101112, 0.0029363068751990795, -0.12288594245910645, -0.8198208212852478, -0.966101348400116, 0.05960522219538689, -0.2843775888401899, -0.8435314693265923, 1.799796047222891, 9362.0, 30146.0, 35388.0, 9362.0, 8.370248794555664, 0.1460111290216446, 0.19476719200611115, 0.008898956701159477, -0.0010040239430963993, -0.055158793926239014, 0.9987735748291016, -0.03028951771557331, -0.0037593841552734375, 1.49560546875, 1.072998046875, 1.6350555419921875, 1.496337890625, 1.55859375, 10.0, 1.0, 10.0, 1.3608793020248413
16294, -0.03090350329875946, -0.4047428369522095, 2.0798757076263428, 0.0044579580426216125, 0.0005254319403320551, -0.8931264877319336, 0.024841884151101112, 0.0029363068751990795, -0.12288594245910645, -0.8196114301681519, -0.9647964835166931, 0.058456458151340485, -0.234423269302957, -0.6847518205017025, 0.8310798485995602, 9362.0, 30146.0, 35388.0, 9362.0, 8.370248794555664, 0.006774144247174263, -0.08188509196043015, 0.1874537467956543, -0.0002510205958969891, -0.05564181134104729, 0.9988518357276917, -0.03028951771557331, -0.0037593841552734375, 1.49560546875, 1.072998046875, 1.6350555419921875, 1.496337890625, 1.48974609375, 10.0, 1.0, 10.0, 1.3608793020248413
16304, -0.030144240707159042, -0.40484726428985596, 2.0809128284454346, 0.0044579580426216125, 0.0005254319403320551, -0.8931264877319336, 0.024841884151101112, 0.0029363068751990795, -0.12288594245910645, -0.8195106983184814, -0.9659891128540039, 0.0595526248216629, -0.3291601683809021, -0.973266659812225, 1.5920142155141208, 9362.0, 30146.0, 35388.0, 9362.0, 8.370248794555664, -0.13781391084194183, -0.028997043147683144, 0.026157759130001068, -0.00041219560080207884, -0.05464395508170128, 0.9989176988601685, -0.03028951771557331, -0.0037593841552734375, 1.49560546875, 1.072998046875, 1.6350555419921875, 1.496337890625, 1.48974609375, 10.0, 1.0, 10.0, 1.3591294288635254
16324, -0.029178906232118607, -0.4036061763763428, 2.077286720275879, 0.0044579580426216125, 0.0005254319403320551, -0.8931264877319336, 0.024841884151101112, 0.0029363068751990795, -0.12288594245910645, -0.8193889856338501, -0.9651628732681274, 0.05853425711393356, -0.2896049164294243, -0.6816293858268239, 1.2167500708532955, 9362.0, 30146.0, 35388.0, 9362.0, 8.370248794555664, -0.06274627149105072, 0.016917195171117783, -0.025361325591802597, -0.00011105830344604328, -0.05654694512486458, 0.9995642900466919, -0.03028951771557331, -0.0037593841552734375, 1.49560546875, 1.072998046875, 1.6350555419921875, 1.490478515625, 1.48974609375, 10.0, 1.0, 10.0, 1.3585219383239746
16334, -0.02778567746281624, -0.4034617245197296, 2.0774171352386475, 0.0044579580426216125, 0.0005254319403320551, -0.8931264877319336, 0.024841884151101112, 0.0029363068751990795, -0.12288594245910645, -0.8198290467262268, -0.9660976529121399, 0.05961209535598755, -0.28954324483208094, -0.8463453050740384, 1.8058900442384702, 9362.0, 30146.0, 35388.0, 9362.0, 8.370248794555664, 0.15625214576721191, -0.007077344227582216, 0.04021061211824417, 0.001573688816279173, -0.056967295706272125, 0.9974594116210938, -0.03028951771557331, -0.0037593841552734375, 1.49560546875, 1.21728515625, 0.2937164306640625, 1.490478515625, 1.226806640625, 10.0, 1.0, 10.0, 1.3585219383239746
16354, -0.026924362406134605, -0.40468156337738037, 2.0785014629364014, 0.0044579580426216125, 0.0005254319403320551, -0.8931264877319336, 0.024841884151101112, 0.0029363068751990795, -0.12288594245910645, -0.8198305368423462, -0.9660809636116028, 0.059614792466163635, -0.2878061605921707, -0.8477590162777631, 1.800603540931636, 9362.0, 30146.0, 35388.0, 9362.0, 8.370248794555664, 0.14993177354335785, -0.06173231452703476, -0.23974691331386566, -0.00023941528343129903, -0.05665355175733566, 1.000819206237793, -0.03028951771557331, -0.0037593841552734375, 1.49560546875, 1.53955078125, 0.278778076171875, 1.49560546875, 1.09423828125, 10.0, 1.0, 10.0, 1.356878638267517
16364, -0.026771854609251022, -0.4056961238384247, 2.0776607990264893, 0.0044579580426216125, 0.0005254319403320551, -0.8931264877319336, 0.024841884151101112, 0.0029363068751990795, -0.12288594245910645, -0.8195689916610718, -0.9653411507606506, 0.05882033333182335, -0.15136674605933145, -0.6013045782655411, 1.2958454549121632, 9362.0, 30146.0, 35388.0, 9362.0, 8.370248794555664, 0.14993177354335785, -0.06173231452703476, -0.23974691331386566, 0.0004976133932359517, -0.056233108043670654, 0.9974582195281982, -0.03028951771557331, -0.0037593841552734375, 1.49560546875, 1.53955078125, 0.278778076171875, 1.496337890625, 1.09423828125, 10.0, 1.0, 10.0, 1.3563369512557983
16374, -0.02626982145011425, -0.4077202081680298, 2.078244209289551, 0.00728624826297164, 0.0008584446040913463, -0.9054597616195679, 0.031727392226457596, 0.003702485468238592, -0.12368211895227432, -0.8196263909339905, -0.9653143286705017, 0.058867067098617554, -0.15238573455867196, -0.609432448539053, 1.2203610251739458, 9362.0, 30146.0, 35388.0, 9362.0, 8.370248794555664, -0.04306421056389809, 0.12522545456886292, 0.19590775668621063, 0.0015883579617366195, -0.056919533759355545, 0.998894214630127, -0.03028951771557331, -0.0037593841552734375, 1.49560546875, 1.53955078125, 0.278778076171875, 1.496337890625, 1.09423828125, 10.0, 1.0, 10.0, 1.3563369512557983
16384, -0.026447704061865807, -0.40899160504341125, 2.078751564025879, 0.007606977131217718, 0.0008958236430771649, -0.9066976308822632, 0.03241840749979019, 0.0037733332719653845, -0.1238928809762001, -0.8194341063499451, -0.9650633335113525, 0.05855157971382141, -0.2934086394618121, -0.6888774980214407, 1.1247691680816518, 9362.0, 30146.0, 35388.0, 9362.0, 8.370248794555664, -0.04306421056389809, 0.12522545456886292, 0.19590775668621063, 0.001283372170291841, -0.059165630489587784, 1.0013034343719482, -0.03028951771557331, -0.0037593841552734375, 1.49560546875, 1.53955078125, 0.278778076171875, 1.496337890625, 1.663330078125, 10.0, 1.0, 10.0, 1.3578957319259644
16394, -0.025949569419026375, -0.408269464969635, 2.078195810317993, 0.007934639230370522, 0.0009339080424979329, -0.9079368710517883, 0.03311395272612572, 0.00384355871938169, -0.12395751476287842, -0.8198114633560181, -0.9660892486572266, 0.05961945652961731, -0.2814997883814096, -0.8484885794805734, 1.803235971840367, 9362.0, 30146.0, 35388.0, 9362.0, 8.370248794555664, 0.08761793375015259, -0.022147495299577713, 0.10966494679450989, 0.0008551020291633904, -0.05705820024013519, 0.9985945224761963, -0.03028951771557331, -0.0037593841552734375, 1.49560546875, 1.53955078125, 0.278778076171875, 1.496337890625, 0.863525390625, 10.0, 1.0, 10.0, 1.3578957319259644
16414, -0.025134870782494545, -0.40947210788726807, 2.0771524906158447, 0.007934639230370522, 0.0009339080424979329, -0.9079368710517883, 0.03311395272612572, 0.00384355871938169, -0.12395751476287842, -0.819806694984436, -0.9660896062850952, 0.0596320740878582, -0.2829229819729464, -0.8475614241206983, 1.7972951380532127, 9362.0, 30146.0, 35388.0, 9362.0, 8.370248794555664, -0.06241736188530922, -0.1449144333600998, -0.13422246277332306, 0.000968651263974607, -0.05717165395617485, 0.9984169006347656, -0.03028951771557331, -0.0037593841552734375, 1.49560546875, 1.53955078125, 0.278778076171875, 1.496337890625, 1.56884765625, 10.0, 1.0, 10.0, 1.3578957319259644
16424, -0.024822523817420006, -0.41179633140563965, 2.078667402267456, 0.007934639230370522, 0.0009339080424979329, -0.9079368710517883, 0.03311395272612572, 0.00384355871938169, -0.12395751476287842, -0.8198165893554688, -0.9660865068435669, 0.059611186385154724, -0.28779628995783685, -0.847620362411476, 1.796508262872105, 9362.0, 30146.0, 35388.0, 9362.0, 8.370248794555664, -0.06241736188530922, -0.1449144333600998, -0.13422246277332306, -0.0006593522266484797, -0.058656834065914154, 0.9988189935684204, -0.03028951771557331, -0.0037593841552734375, 1.49560546875, 1.53955078125, 0.278778076171875, 1.497802734375, 1.56884765625, 10.0, 1.0, 10.0, 1.3586980104446411
16444, -0.023695223033428192, -0.4131452739238739, 2.076643466949463, 0.009677540510892868, 0.0011347996769472957, -0.9141479730606079, 0.036605969071388245, 0.004189387429505587, -0.12461940944194794, -0.8197615146636963, -0.9650437831878662, 0.05869636312127113, -0.07017869960048366, -0.5840114976276425, 0.934982336733268, 9362.0, 30146.0, 35388.0, 9362.0, 8.370248794555664, 0.016104545444250107, -0.07496581971645355, -0.06664293259382248, 0.00018289357831235975, -0.0566958524286747, 0.9989634156227112, -0.03028951771557331, -0.0037593841552734375, 1.49560546875, 1.53955078125, 0.278778076171875, 1.497802734375, 1.47509765625, 10.0, 1.0, 10.0, 1.3586980104446411
16454, -0.022841209545731544, -0.4123072028160095, 2.0761635303497314, 0.010047112591564655, 0.0011770372511819005, -0.9153944253921509, 0.037308450788259506, 0.0042581274174153805, -0.12466660141944885, -0.8195473551750183, -0.9653504490852356, 0.05882931500673294, -0.1611527693539644, -0.5916901583918559, 1.305005108818094, 9362.0, 30146.0, 35388.0, 9362.0, 8.370248794555664, 0.0840194970369339, -0.0011961476411670446, -0.018823731690645218, -0.00018233733135275543, -0.05756967142224312, 0.9974456429481506, -0.03028951771557331, -0.0037593841552734375, 1.49560546875, 1.53955078125, 0.278778076171875, 1.497802734375, 1.47509765625, 10.0, 1.0, 10.0, 1.3603436946868896
16484, -0.02279752492904663, -0.41135111451148987, 2.077873706817627, 0.010807362385094166, 0.001263513695448637, -0.917890727519989, 0.03871549665927887, 0.004388720728456974, -0.12501394748687744, -0.819744348526001, -0.9650518894195557, 0.05874943360686302, -0.06301669437472603, -0.5847607304446569, 0.9367341759561495, 9362.0, 30146.0, 35388.0, 9362.0, 8.370248794555664, -0.1276063621044159, -0.09210196137428284, 0.057023365050554276, -0.0005607992643490434, -0.056662652641534805, 0.997702419757843, -0.03028951771557331, -0.0037593841552734375, 1.49560546875, 1.53955078125, 0.278778076171875, 1.496337890625, 1.471435546875, 10.0, 1.0, 10.0, 1.3596792221069336
16494, -0.022478368133306503, -0.4097982347011566, 2.0776805877685547, 0.010807362385094166, 0.001263513695448637, -0.917890727519989, 0.03871549665927887, 0.004388720728456974, -0.12501394748687744, -0.8196220397949219, -0.9653050899505615, 0.058829836547374725, -0.14453857862905076, -0.6032366866021164, 1.2137758037065773, 9362.0, 30146.0, 35388.0, 9362.0, 8.370248794555664, 0.16420765221118927, 0.15110652148723602, 0.12473893910646439, 0.00047630254994146526, -0.05668020620942116, 0.9986351728439331, -0.03028951771557331, -0.0037593841552734375, 1.49560546875, 1.53955078125, 0.278778076171875, 1.496337890625, 1.471435546875, 10.0, 1.0, 10.0, 1.3596792221069336
16514, -0.022698963060975075, -0.4122944176197052, 2.0783660411834717, 0.01241208240389824, 0.0014442341635003686, -0.9229058027267456, 0.04151850566267967, 0.004646588582545519, -0.1257389336824417, -0.8196259140968323, -0.9652721881866455, 0.0588531568646431, -0.14481532317652135, -0.6185801675355549, 1.217324569365303, 9362.0, 30146.0, 35388.0, 9362.0, 8.370248794555664, -0.26047760248184204, 0.09377212822437286, 0.09373604506254196, 0.000400220334995538, -0.05542391166090965, 0.9976615309715271, -0.03028951771557331, -0.0037593841552734375, 1.49560546875, 1.53955078125, 0.278778076171875, 1.496337890625, 1.04443359375, 10.0, 1.0, 10.0, 1.3596792221069336
16524, -0.02049950323998928, -0.4121529757976532, 2.074049949645996, 0.01241208240389824, 0.0014442341635003686, -0.9229058027267456, 0.04151850566267967, 0.004646588582545519, -0.1257389336824417, -0.8198292851448059, -0.9660806655883789, 0.05962160974740982, -0.28533798337131616, -0.8429198818957104, 1.8045486728731133, 9362.0, 30146.0, 35388.0, 9362.0, 8.370248794555664, -0.26047760248184204, 0.09377212822437286, 0.09373604506254196, 5.5995835282374173e-05, -0.05870751291513443, 0.997389018535614, -0.03028951771557331, -0.0037593841552734375, 1.49560546875, 1.53955078125, 0.278778076171875, 1.496337890625, 1.04443359375, 10.0, 1.0, 10.0, 1.359709620475769
16534, -0.020258573815226555, -0.41081634163856506, 2.071653366088867, 0.01241208240389824, 0.0014442341635003686, -0.9229058027267456, 0.04151850566267967, 0.004646588582545519, -0.1257389336824417, -0.8196436166763306, -0.9654222130775452, 0.05905867740511894, -0.12154336790891483, -0.6384568821615062, 1.2536070526712133, 9362.0, 30146.0, 35388.0, 9362.0, 8.370248794555664, -0.26047760248184204, 0.09377212822437286, 0.09373604506254196, 0.0009032263769768178, -0.059665802866220474, 0.9977623820304871, -0.03028951771557331, -0.0037593841552734375, 1.49560546875, 1.53955078125, 0.278778076171875, 1.496337890625, 1.04443359375, 10.0, 1.0, 10.0, 1.3604379892349243
16554, -0.01959427073597908, -0.41318345069885254, 2.069617986679077, 0.01241208240389824, 0.0014442341635003686, -0.9229058027267456, 0.04151850566267967, 0.004646588582545519, -0.1257389336824417, -0.819770872592926, -0.9650884866714478, 0.05881275236606598, -0.047933286633554416, -0.5524809825181478, 0.9200154326765462, 9362.0, 30146.0, 35388.0, 9362.0, 8.370248794555664, 0.11058062314987183, 0.1367441713809967, -0.20572009682655334, -0.00025699203251861036, -0.05656233802437782, 0.996626615524292, -0.03028951771557331, -0.0037593841552734375, 1.49560546875, 1.53955078125, 0.278778076171875, 1.487548828125, 1.04443359375, 10.0, 1.0, 10.0, 1.3615407943725586
16564, -0.018079403787851334, -0.416299968957901, 2.0694472789764404, 0.01457579992711544, 0.0016843589255586267, -0.9292164444923401, 0.04502910003066063, 0.0049527836963534355, -0.12675149738788605, -0.8195605278015137, -0.9653540253639221, 0.058853909373283386, -0.1729089933469127, -0.5838110203005442, 1.3109195170072883, 9362.0, 30146.0, 35388.0, 9362.0, 8.370248794555664, -0.12283997982740402, 0.12570050358772278, 0.30648860335350037, 0.002547613112255931, -0.058062195777893066, 0.9984353184700012, -0.03028951771557331, -0.0037593841552734375, 1.49560546875, 1.53955078125, 0.278778076171875, 1.487548828125, 1.56005859375, 10.0, 1.0, 10.0, 1.3615407943725586
16584, -0.018057169392704964, -0.4182353615760803, 2.0723536014556885, 0.015490485355257988, 0.0017845809925347567, -0.9317569136619568, 0.04644297435879707, 0.005068309139460325, -0.1271793395280838, -0.8195584416389465, -0.965364396572113, 0.05879246070981026, -0.14994084708619415, -0.5735766311383941, 1.2893992295060706, 9362.0, 30146.0, 35388.0, 9362.0, 8.370248794555664, -0.11937818676233292, 0.20413878560066223, 0.11990898847579956, 0.0023340946063399315, -0.05842765048146248, 0.9991106986999512, -0.03028951771557331, -0.0037593841552734375, 1.49560546875, 1.53955078125, 0.278778076171875, 1.487548828125, 1.5380859375, 10.0, 1.0, 10.0, 1.3615407943725586
16634, -0.0178386140614748, -0.42205220460891724, 2.0775070190429688, 0.01790202595293522, 0.0020450870506465435, -0.938121497631073, 0.050021231174468994, 0.0053490628488361835, -0.1277841329574585, -0.819572925567627, -0.9653326869010925, 0.05882026255130768, -0.15201132062463496, -0.5977308808787996, 1.2949830901073869, 9362.0, 30146.0, 35388.0, 9362.0, 8.370248794555664, 0.23469245433807373, -0.14835672080516815, -0.15270622074604034, 0.00014822081720922142, -0.05904736742377281, 0.9969713091850281, -0.03028951771557331, -0.0037593841552734375, 1.49560546875, 1.53955078125, 0.278778076171875, 1.494873046875, 0.99462890625, 10.0, 1.0, 10.0, 1.363929271697998
16644, -0.0167569387704134, -0.42195335030555725, 2.078125238418579, 0.018405836075544357, 0.002098850207403302, -0.9394009113311768, 0.05074067413806915, 0.0054035973735153675, -0.12809276580810547, -0.8196521997451782, -0.9654150605201721, 0.05907454341650009, -0.11483269492908976, -0.6442945535077911, 1.253230368877752, 9362.0, 30146.0, 35388.0, 9362.0, 8.370248794555664, 0.23469245433807373, -0.14835672080516815, -0.15270622074604034, -0.0010943833040073514, -0.059317946434020996, 0.9983170032501221, -0.03028951771557331, -0.0037593841552734375, 1.49560546875, 1.53955078125, 0.278778076171875, 1.494873046875, 0.99462890625, 10.0, 1.0, 10.0, 1.3632054328918457
16654, -0.015565880574285984, -0.4219173192977905, 2.07777738571167, 0.018405836075544357, 0.002098850207403302, -0.9394009113311768, 0.05074067413806915, 0.0054035973735153675, -0.12809276580810547, -0.8195586204528809, -0.9653623104095459, 0.05882769450545311, -0.15730836997573958, -0.5946668336140419, 1.291336452775168, 9362.0, 30146.0, 35388.0, 9362.0, 8.370248794555664, -0.08693143725395203, 0.051350221037864685, -0.18993844091892242, -0.0020748144015669823, -0.05678372085094452, 0.9982733130455017, -0.03028951771557331, -0.0037593841552734375, 1.49560546875, 1.53955078125, 0.278778076171875, 1.494873046875, 0.99462890625, 10.0, 1.0, 10.0, 1.3632054328918457
16664, -0.015627870336174965, -0.42175278067588806, 2.0783607959747314, 0.018405836075544357, 0.002098850207403302, -0.9394009113311768, 0.05074067413806915, 0.0054035973735153675, -0.12809276580810547, -0.8196329474449158, -0.9652814865112305, 0.05882894620299339, -0.15394248875128394, -0.619833598864858, 1.2143875061678102, 9362.0, 30146.0, 35388.0, 9362.0, 8.370248794555664, 0.1745595932006836, -0.036514826118946075, 0.022463375702500343, 0.0009181849891319871, -0.057539328932762146, 0.997734010219574, -0.03028951771557331, -0.0037593841552734375, 1.49560546875, 1.53955078125, 0.278778076171875, 1.494873046875, 0.99462890625, 10.0, 1.0, 10.0, 1.3629086017608643
16684, -0.015603454783558846, -0.4233022928237915, 2.0784950256347656, 0.020493008196353912, 0.0023193983361124992, -0.9445424675941467, 0.05361814796924591, 0.00562049588188529, -0.12893198430538177, -0.819814920425415, -0.9660735726356506, 0.05962285026907921, -0.2863475486253122, -0.8486968262409675, 1.8009385991119282, 9362.0, 30146.0, 35388.0, 9362.0, 8.370248794555664, -0.12019036710262299, 0.15337863564491272, 0.06275258213281631, 0.0012641914654523134, -0.05643186345696449, 0.9983780384063721, -0.03028951771557331, -0.0037593841552734375, 1.49560546875, 1.53955078125, 0.278778076171875, 1.494873046875, 1.549072265625, 10.0, 1.0, 10.0, 1.3616312742233276
16694, -0.015824642032384872, -0.42455628514289856, 2.0786476135253906, 0.02103279158473015, 0.002375866286456585, -0.9458324909210205, 0.05433838069438934, 0.005673081148415804, -0.12907525897026062, -0.819619357585907, -0.9652725458145142, 0.05883542448282242, -0.1536164990278981, -0.6267616817819146, 1.2176053867210166, 9362.0, 30146.0, 35388.0, 9362.0, 8.370248794555664, -0.02188975177705288, -0.325059711933136, -0.2754764258861542, 0.001987543422728777, -0.05540231242775917, 0.998550295829773, -0.03028951771557331, -0.0037593841552734375, 1.49560546875, 1.53955078125, 0.278778076171875, 1.494873046875, 0.884033203125, 10.0, 1.0, 10.0, 1.3616312742233276
16704, -0.0173829086124897, -0.4243144989013672, 2.07889461517334, 0.021579785272479057, 0.0024328615982085466, -0.947124183177948, 0.055060334503650665, 0.0057259672321379185, -0.12926127016544342, -0.8197425603866577, -0.9650565385818481, 0.058726679533720016, -0.07095615462118592, -0.5907192314217298, 0.9574982732076527, 9362.0, 30146.0, 35388.0, 9362.0, 8.370248794555664, -0.1296267807483673, 0.34550508856773376, 0.2758347690105438, 0.0011571215000003576, -0.05746498703956604, 0.9983621835708618, -0.03028951771557331, -0.0037593841552734375, 1.49560546875, 1.53955078125, 0.278778076171875, 1.494873046875, 1.525634765625, 10.0, 1.0, 10.0, 1.3616312742233276
16714, -0.01705170050263405, -0.42467769980430603, 2.080232858657837, 0.021579785272479057, 0.0024328615982085466, -0.947124183177948, 0.055060334503650665, 0.0057259672321379185, -0.12926127016544342, -0.8193074464797974, -0.9652166366577148, 0.05827213451266289, -0.190183658463186, -0.7828656030312402, 1.0686274240341478, 9362.0, 30146.0, 35388.0, 9362.0, 8.370248794555664, -0.1296267807483673, 0.34550508856773376, 0.2758347690105438, 0.0008937867823988199, -0.056696295738220215, 0.9989283084869385, -0.03028951771557331, -0.0037593841552734375, 1.49560546875, 1.53955078125, 0.278778076171875, 1.494873046875, 1.639892578125, 10.0, 1.0, 10.0, 1.3616312742233276
16724, -0.017214659601449966, -0.4240567684173584, 2.0797791481018066, 0.021579785272479057, 0.0024328615982085466, -0.947124183177948, 0.055060334503650665, 0.0057259672321379185, -0.12926127016544342, -0.819448709487915, -0.9652652144432068, 0.05880916491150856, -0.20993315547236177, -0.7157033252698284, 1.16600829811397, 9362.0, 30146.0, 35388.0, 9362.0, 8.370248794555664, -0.1296267807483673, 0.34550508856773376, 0.2758347690105438, 0.0010048667900264263, -0.0583445206284523, 0.9978165626525879, -0.03028951771557331, -0.0037593841552734375, 1.49560546875, 1.53955078125, 0.278778076171875, 1.494873046875, 1.55712890625, 10.0, 1.0, 10.0, 1.3621082305908203
16734, -0.016367986798286438, -0.42479124665260315, 2.0799129009246826, 0.021579785272479057, 0.0024328615982085466, -0.947124183177948, 0.055060334503650665, 0.0057259672321379185, -0.12926127016544342, -0.819799542427063, -0.966084361076355, 0.059608932584524155, -0.2903648254167398, -0.8485754029671, 1.8052175294339314, 9362.0, 30146.0, 35388.0, 9362.0, 8.370248794555664, -0.13685201108455658, 0.26137393712997437, -0.136160746216774, 0.00046228469000197947, -0.055235911160707474, 0.9987468719482422, -0.03028951771557331, -0.0037593841552734375, 1.49560546875, 1.53955078125, 0.278778076171875, 1.494873046875, 1.55712890625, 10.0, 1.0, 10.0, 1.3629567623138428
16744, -0.01609317772090435, -0.42913568019866943, 2.0804779529571533, 0.023840133100748062, 0.002666279673576355, -0.9523064494132996, 0.05795619264245033, 0.005946545396000147, -0.12989157438278198, -0.8195960521697998, -0.9648028612136841, 0.05844338238239288, -0.2337689470753995, -0.6842980274787465, 0.8367090595858332, 9362.0, 30146.0, 35388.0, 9362.0, 8.370248794555664, -0.13685201108455658, 0.26137393712997437, -0.136160746216774, -5.0031248974846676e-05, -0.05658121407032013, 0.9998775124549866, -0.03028951771557331, -0.0037593841552734375, 1.49560546875, 1.53955078125, 0.278778076171875, 1.494873046875, 1.55712890625, 10.0, 1.0, 10.0, 1.363236427307129
16754, -0.015665892511606216, -0.4308750629425049, 2.081374406814575, 0.023840133100748062, 0.002666279673576355, -0.9523064494132996, 0.05795619264245033, 0.005946545396000147, -0.12989157438278198, -0.8196130394935608, -0.9652931690216064, 0.058860935270786285, -0.16053951582679418, -0.6164746091739346, 1.2325194162516273, 9362.0, 30146.0, 35388.0, 9362.0, 8.370248794555664, 0.06105351820588112, -0.12872213125228882, -0.13017402589321136, -0.0007931658183224499, -0.059623219072818756, 0.998215913772583, -0.03028951771557331, -0.0037593841552734375, 1.49560546875, 1.53955078125, 0.278778076171875, 1.494873046875, 1.55712890625, 10.0, 1.0, 10.0, 1.363236427307129
16764, -0.015382527373731136, -0.4300581216812134, 2.0800039768218994, 0.023840133100748062, 0.002666279673576355, -0.9523064494132996, 0.05795619264245033, 0.005946545396000147, -0.12989157438278198, -0.8198195099830627, -0.9660646915435791, 0.059630706906318665, -0.2837929352264955, -0.847172579844397, 1.7997980948261845, 9362.0, 30146.0, 35388.0, 9362.0, 8.370248794555664, 0.03313726186752319, -0.19219143688678741, 0.035511601716279984, -0.0005404127878136933, -0.058800965547561646, 0.996462881565094, -0.03028951771557331, -0.0037593841552734375, 1.49560546875, 1.483154296875, 0.162841796875, 1.494873046875, 1.619384765625, 10.0, 1.0, 10.0, 1.363236427307129
16774, -0.01622740365564823, -0.42837050557136536, 2.080472707748413, 0.023840133100748062, 0.002666279673576355, -0.9523064494132996, 0.05795619264245033, 0.005946545396000147, -0.12989157438278198, -0.8195542693138123, -0.9653624892234802, 0.058840639889240265, -0.1641251438495166, -0.5880633732725471, 1.3027082003962003, 9362.0, 30146.0, 35388.0, 9362.0, 8.370248794555664, -0.06194690987467766, -0.13414187729358673, -0.15828050673007965, -0.0008709260146133602, -0.05877920985221863, 0.9967469573020935, -0.03028951771557331, -0.0037593841552734375, 1.49560546875, 1.483154296875, 0.162841796875, 1.494873046875, 1.619384765625, 10.0, 1.0, 10.0, 1.363236427307129
16784, -0.015124572440981865, -0.4278814494609833, 2.078291654586792, 0.023840133100748062, 0.002666279673576355, -0.9523064494132996, 0.05795619264245033, 0.005946545396000147, -0.12989157438278198, -0.8196413516998291, -0.9646598100662231, 0.05840975418686867, -0.22013928829462198, -0.6781255630953922, 0.7458396602117257, 9362.0, 30146.0, 35388.0, 9362.0, 8.370248794555664, 0.2531207501888275, -0.27106401324272156, 0.10478351265192032, -0.0008709260146133602, -0.05877920985221863, 0.9967469573020935, -0.03028951771557331, -0.0037593841552734375, 1.49560546875, 1.483154296875, 0.162841796875, 1.496337890625, 1.619384765625, 10.0, 1.0, 10.0, 1.365370512008667
16804, -0.014223691076040268, -0.42685744166374207, 2.0794360637664795, 0.023840133100748062, 0.002666279673576355, -0.9523064494132996, 0.05795619264245033, 0.005946545396000147, -0.12989157438278198, -0.8198285698890686, -0.9661452174186707, 0.05974902957677841, -0.27962228339956513, -0.8337951679000923, 1.7914909075443397, 9362.0, 30146.0, 35388.0, 9362.0, 8.370248794555664, -0.02699398063123226, 0.25055450201034546, -0.0565185584127903, 0.000312339689116925, -0.05695996433496475, 0.9964167475700378, -0.03028951771557331, -0.0037593841552734375, 1.49560546875, 1.483154296875, 0.162841796875, 1.496337890625, 1.619384765625, 10.0, 1.0, 10.0, 1.3642579317092896
16844, -0.011905076913535595, -0.42271143198013306, 2.0755558013916016, 0.030000967904925346, 0.0032874562311917543, -0.9653773307800293, 0.06525508314371109, 0.0064635430462658405, -0.1315121352672577, -0.8195624947547913, -0.9653313159942627, 0.058806583285331726, -0.15345866768697403, -0.5953865638622915, 1.299278449439557, 9362.0, 30146.0, 35388.0, 9362.0, 8.370248794555664, -0.12558649480342865, -0.20860569179058075, -0.24172084033489227, -0.0012866270262748003, -0.05653788521885872, 0.9971377849578857, -0.04662134125828743, -0.030637741088867188, 1.493408203125, 1.483154296875, 0.162841796875, 1.494873046875, 1.625244140625, 10.0, 1.0, 10.0, 1.3627058267593384
16854, -0.011407723650336266, -0.42278844118118286, 2.072835922241211, 0.030000967904925346, 0.0032874562311917543, -0.9653773307800293, 0.06525508314371109, 0.0064635430462658405, -0.1315121352672577, -0.8198299407958984, -0.9660815596580505, 0.05958899110555649, -0.28411859710720755, -0.8385047867743367, 1.8012122537375603, 9362.0, 30146.0, 35388.0, 9362.0, 8.370248794555664, -0.19856935739517212, 0.11323118209838867, -0.12446229159832001, -0.0012866270262748003, -0.05653788521885872, 0.9971377849578857, -0.04662134125828743, -0.030637741088867188, 1.493408203125, 1.483154296875, 0.162841796875, 1.494873046875, 1.25830078125, 10.0, 1.0, 10.0, 1.3627058267593384
16874, -0.013418727554380894, -0.41702646017074585, 2.072948455810547, 0.03199111670255661, 0.0034834672696888447, -0.9693309664726257, 0.06742029637098312, 0.006602764129638672, -0.13209961354732513, -0.8196200728416443, -0.9653061628341675, 0.0588362030684948, -0.1525871860257279, -0.6027382674932369, 1.2192991952708387, 9362.0, 30146.0, 35388.0, 9362.0, 8.370248794555664, 0.15403886139392853, 0.3946148753166199, 0.3283262848854065, 0.0012102659093216062, -0.054504554718732834, 0.9998494386672974, -0.04662134125828743, -0.030637741088867188, 1.493408203125, 1.483154296875, 0.162841796875, 1.494873046875, 1.02978515625, 10.0, 1.0, 10.0, 1.3627058267593384
16894, -0.009920010343194008, -0.42162129282951355, 2.0722615718841553, 0.033353857696056366, 0.0036164901684969664, -0.9719732999801636, 0.06885085999965668, 0.006699788384139538, -0.13215729594230652, -0.8195202946662903, -0.9659637808799744, 0.05953258275985718, -0.33654714918891354, -0.9742763868152053, 1.6042152794653035, 9362.0, 30146.0, 35388.0, 9362.0, 8.370248794555664, 0.005608636885881424, -0.07394599169492722, 0.1398819088935852, -0.0015081827295944095, -0.05974216014146805, 1.000268816947937, -0.04662134125828743, -0.030637741088867188, 1.493408203125, 1.483154296875, 0.162841796875, 1.494873046875, 1.39599609375, 10.0, 1.0, 10.0, 1.3627058267593384
16924, -0.012165583670139313, -0.41843071579933167, 2.074448823928833, 0.03545179218053818, 0.0038195038214325905, -0.9759373068809509, 0.07101192325353622, 0.006834121886640787, -0.13227717578411102, -0.8198133111000061, -0.9660754203796387, 0.05959658697247505, -0.2940383677940095, -0.8471081160232927, 1.8046495701965448, 9362.0, 30146.0, 35388.0, 9362.0, 8.370248794555664, 0.20919975638389587, -0.20699140429496765, -0.04693379998207092, -0.0012616601306945086, -0.05506106838583946, 0.9984533190727234, -0.04662134125828743, -0.030637741088867188, 1.493408203125, 1.483154296875, 0.162841796875, 1.494873046875, 1.46337890625, 10.0, 1.0, 10.0, 1.3586114645004272
16934, -0.011559143662452698, -0.42033612728118896, 2.0739669799804688, 0.03616549074649811, 0.003888070583343506, -0.9772607684135437, 0.07172762602567673, 0.006879221647977829, -0.1324194222688675, -0.819436252117157, -0.9650331139564514, 0.05850936472415924, -0.2922910665065304, -0.6972407899590962, 1.120955803189984, 9362.0, 30146.0, 35388.0, 9362.0, 8.370248794555664, 0.08612708002328873, 0.458812952041626, 0.08562542498111725, -0.00013914587907493114, -0.0598507896065712, 1.0001639127731323, -0.04662134125828743, -0.030637741088867188, 1.493408203125, 1.483154296875, 0.162841796875, 1.494873046875, 1.22607421875, 10.0, 1.0, 10.0, 1.3586114645004272
16944, -0.010516203008592129, -0.42083677649497986, 2.0731215476989746, 0.03616549074649811, 0.003888070583343506, -0.9772607684135437, 0.07172762602567673, 0.006879221647977829, -0.1324194222688675, -0.8195683360099792, -0.9653315544128418, 0.05879579111933708, -0.15030622608843247, -0.6023716179764165, 1.3016093385194856, 9362.0, 30146.0, 35388.0, 9362.0, 8.370248794555664, 0.05520453304052353, 0.057015541940927505, -0.038271464407444, -0.00013914587907493114, -0.0598507896065712, 1.0001639127731323, -0.04662134125828743, -0.030637741088867188, 1.493408203125, 1.483154296875, 0.162841796875, 1.4970703125, 1.087646484375, 10.0, 1.0, 10.0, 1.3586114645004272
16954, -0.01096149068325758, -0.4222879707813263, 2.0732674598693848, 0.03616549074649811, 0.003888070583343506, -0.9772607684135437, 0.07172762602567673, 0.006879221647977829, -0.1324194222688675, -0.8196399211883545, -0.9652680158615112, 0.058829888701438904, -0.14642139914911526, -0.6159746960438497, 1.2242758661865099, 9362.0, 30146.0, 35388.0, 9362.0, 8.370248794555664, 0.05520453304052353, 0.057015541940927505, -0.038271464407444, -0.0007449194090440869, -0.05552847683429718, 1.000245451927185, -0.04662134125828743, -0.030637741088867188, 1.493408203125, 1.483154296875, 0.162841796875, 1.4970703125, 1.087646484375, 10.0, 1.0, 10.0, 1.355128288269043
16974, -0.009342172183096409, -0.4204724431037903, 2.0719990730285645, 0.03909198194742203, 0.004166906233876944, -0.9825588464736938, 0.07460220158100128, 0.007060703355818987, -0.13248376548290253, -0.8196312785148621, -0.9652738571166992, 0.058839522302150726, -0.15119311085545178, -0.6142752201681674, 1.2267768660944702, 9362.0, 30146.0, 35388.0, 9362.0, 8.370248794555664, 0.031589314341545105, 0.3352604806423187, 0.032392021268606186, 0.0004403415077831596, -0.05628300830721855, 0.9968116283416748, -0.04662134125828743, -0.030637741088867188, 1.493408203125, 1.483154296875, 0.162841796875, 1.49560546875, 1.0224609375, 10.0, 1.0, 10.0, 1.3558478355407715
16984, -0.008699680678546429, -0.4247806668281555, 2.073183298110962, 0.03909198194742203, 0.004166906233876944, -0.9825588464736938, 0.07460220158100128, 0.007060703355818987, -0.13248376548290253, -0.8196354508399963, -0.965398907661438, 0.05908502638339996, -0.11580421971969979, -0.6486397070674172, 1.2631114774970968, 9362.0, 30146.0, 35388.0, 9362.0, 8.370248794555664, 0.031589314341545105, 0.3352604806423187, 0.032392021268606186, 0.002615121426060796, -0.05893509462475777, 0.99882572889328, -0.04662134125828743, -0.030637741088867188, 1.493408203125, 1.33154296875, 0.0198516845703125, 1.49560546875, 1.6435546875, 10.0, 1.0, 10.0, 1.3558478355407715
16994, -0.008397449739277363, -0.4273048937320709, 2.0739238262176514, 0.04059841111302376, 0.00430897856131196, -0.9852135181427002, 0.07603932917118073, 0.007145879324525595, -0.13295328617095947, -0.8195852637290955, -0.965471088886261, 0.05902427062392235, -0.12853285322304167, -0.615731388249884, 1.3331320097665125, 9362.0, 30146.0, 35388.0, 9362.0, 8.370248794555664, -0.13299810886383057, 0.15037545561790466, -0.09426187723875046, 0.0020953563507646322, -0.05691872909665108, 1.0007872581481934, -0.04662134125828743, -0.030637741088867188, 1.493408203125, 1.33154296875, 0.0198516845703125, 1.49560546875, 1.13232421875, 10.0, 1.0, 10.0, 1.3558478355407715
17004, -0.008573351427912712, -0.42846426367759705, 2.0739049911499023, 0.04136243462562561, 0.004380643367767334, -0.9865433573722839, 0.07676520943641663, 0.007187061943113804, -0.13300983607769012, -0.8198060989379883, -0.966072142124176, 0.05961201712489128, -0.28975025694360645, -0.8432668687470084, 1.8040185692416448, 9362.0, 30146.0, 35388.0, 9362.0, 8.370248794555664, -0.01952742040157318, 0.15184472501277924, -0.15539228916168213, 0.002020652638748288, -0.05759672820568085, 0.9962576627731323, -0.04662134125828743, -0.030637741088867188, 1.493408203125, 1.33154296875, 0.0198516845703125, 1.49560546875, 1.56884765625, 10.0, 1.0, 10.0, 1.3558478355407715
17024, -0.007718601264059544, -0.43115612864494324, 2.073082685470581, 0.042912352830171585, 0.004525202792137861, -0.9892049431800842, 0.07822632789611816, 0.0072689782828092575, -0.13329438865184784, -0.8198148012161255, -0.966079831123352, 0.05958065018057823, -0.2886326740569055, -0.8394902059622495, 1.8002477714867628, 9362.0, 30146.0, 35388.0, 9362.0, 8.370248794555664, -0.07897771894931793, 0.11095994710922241, 0.09301489591598511, -0.0001321376475971192, -0.055726874619722366, 1.0002331733703613, -0.032975345849990845, -0.06647872924804688, 1.490478515625, 1.33154296875, 0.0198516845703125, 1.49560546875, 0.980712890625, 10.0, 1.0, 10.0, 1.3553669452667236
17044, -0.00773601932451129, -0.4335583746433258, 2.075977325439453, 0.04449155181646347, 0.004671403672546148, -0.9918709397315979, 0.0796961784362793, 0.0073503656312823296, -0.133302241563797, -0.8196300864219666, -0.9652987718582153, 0.05881907790899277, -0.1544123989354342, -0.6016780298579931, 1.2177173484159545, 9362.0, 30146.0, 35388.0, 9362.0, 8.370248794555664, 0.07716815173625946, 0.09250548481941223, -0.08250291645526886, -0.002803232055157423, -0.05707520619034767, 0.9974882006645203, -0.032975345849990845, -0.06647872924804688, 1.490478515625, 1.33154296875, 0.0198516845703125, 1.49560546875, 1.534423828125, 10.0, 1.0, 10.0, 1.3553669452667236
17054, -0.007104868069291115, -0.4346421957015991, 2.075298547744751, 0.0452921986579895, 0.004745107609778643, -0.9932047128677368, 0.08043301850557327, 0.007390403188765049, -0.13345779478549957, -0.8195282816886902, -0.965427815914154, 0.058865584433078766, -0.11010992550345637, -0.6830237428197847, 1.1726404530890209, 9362.0, 30146.0, 35388.0, 9362.0, 8.370248794555664, 0.05051630735397339, 0.48118823766708374, -0.1863924115896225, -0.0011389614082872868, -0.05629995837807655, 0.9974932074546814, -0.032975345849990845, -0.06647872924804688, 1.490478515625, 1.33154296875, 0.0198516845703125, 1.49560546875, 1.534423828125, 10.0, 1.0, 10.0, 1.3540763854980469
