timeTick, roll, pitch, yaw, stateX, stateY, stateZ, stateVX, stateVY, stateVZ, otX0, otY0, otZ0, otRoll0, otPitch0, otYaw0, left wing, pitch motor, yaw motor, right wing, voltage, roll rate, pitch rate, yaw rate, A_x, A_y, A_z, current, i_raw, v_raw, airflow_voltage, airflow_speed, pot_Pitch, voltage_nKF, kFFx, volt_KF_vel, kP, volt_KF_pos
17001, 0.6702995300292969, 6.610469818115234, -3.8071255683898926, 0, 0, 0, 0, 0, 0, -0.8233093619346619, -0.9569068551063538, 0.05570481717586517, -0.34200329298291415, 0.5217078655610692, 2.495019116947825, 0, 0, 0, 0, 0, 0, 0, 0, 0, 0, 0, 0, 0, 0, 0, 0, 0, 0, 0, 0, 0, 0
17011, 0.6707733273506165, 6.610507488250732, -3.8061628341674805, 0.000498154666274786, 1.7379472410539165e-05, -3.6881189346313477, 0.04416072368621826, 0.0015408366452902555, -0.4774199426174164, -0.8233088254928589, -0.9568883180618286, 0.055700965225696564, -0.34025638900790245, 0.5257280047673021, 2.494846550255554, 9362.0, 30146.0, 35388.0, 9362.0, 0, 0.1494394689798355, -0.14395728707313538, 0.15025204420089722, 0.011433713138103485, -0.05468149110674858, 0.9973686337471008, 0, 0, 0, 0, 0, 0, 0, 0, 0, 0, 0
17021, 0.6711937189102173, 6.611302375793457, -3.806060791015625, 0.0008831312297843397, 3.081432078033686e-05, -3.692897081375122, 0.03283458575606346, 0.0011459380621090531, -0.47822901606559753, -0.8233097195625305, -0.9568975567817688, 0.055720798671245575, -0.3451287684443063, 0.5245044925643185, 2.489567786561494, 9362.0, 30146.0, 35388.0, 9362.0, 0, 0.18254050612449646, 0.27575162053108215, -0.1622539609670639, 0.011136816814541817, -0.05695104971528053, 0.9981619715690613, 0, 0, 0, 1.645751953125, 0.5281219482421875, 0, 1.503662109375, 10.0, 1.4680120944976807, 1.5, 1.4680120944976807
17031, 0.6718060970306396, 6.609321117401123, -3.807492256164551, 0.0011549008777365088, 4.0297138184541836e-05, -3.697683811187744, 0.021519359201192856, 0.0007506011752411723, -0.47913289070129395, -0.8233166933059692, -0.9568840265274048, 0.05568598955869675, -0.3450897414470249, 0.5311056885547032, 2.4922976405167514, 9362.0, 30146.0, 35388.0, 9362.0, 0, -0.15100516378879547, -0.053198669105768204, 0.03194594755768776, 0.010001552291214466, -0.055808257311582565, 1.000858187675476, 0, 0, 0, 1.31103515625, 0.0355682373046875, 1.494873046875, 1.6201171875, 10.0, 1.466910481452942, 1.5, 1.466910481452942
17041, 0.6710965037345886, 6.610116004943848, -3.8074886798858643, 0.0013134577311575413, 4.5821467210771516e-05, -3.702479124069214, 0.010191965848207474, 0.0003545441431924701, -0.47994422912597656, -0.8233024477958679, -0.9568940997123718, 0.055711083114147186, -0.3436977423952421, 0.5305484807145149, 2.4870038224810926, 9362.0, 30146.0, 35388.0, 9362.0, 0, 0.21403886377811432, 0.27091702818870544, 0.17869949340820312, 0.010454600676894188, -0.05390908569097519, 0.9989089369773865, 0, 0, 0, 1.5029296875, 0.201446533203125, 1.494873046875, 1.6318359375, 10.0, 1.4668117761611938, 1.5, 1.4668117761611938
17051, 0.6716839671134949, 6.608180522918701, -3.8067779541015625, 0.0013586415443569422, 4.737625567940995e-05, -3.7072815895080566, -0.0011551990173757076, -4.3578103941399604e-05, -0.48055729269981384, -0.8233111500740051, -0.9568928480148315, 0.055680371820926666, -0.35045642879134953, 0.5298827277714224, 2.4997242695345685, 9362.0, 30146.0, 35388.0, 9362.0, 0, 0.28192684054374695, 0.006380996201187372, -0.06786682456731796, 0.009734511375427246, -0.05686899647116661, 0.9985296130180359, 0, 0, 0, 1.310302734375, 0.036285400390625, 1.490478515625, 1.49267578125, 10.0, 1.4664740562438965, 1.5, 1.4664740562438965
17061, 0.6732439994812012, 6.608540058135986, -3.80920147895813, 0.0012904321774840355, 4.4959298975300044e-05, -3.7120909690856934, -0.012486678548157215, -0.0004399578901939094, -0.48131585121154785, -0.823306143283844, -0.9569026231765747, 0.05571161210536957, -0.33789813512839745, 0.5322770719275809, 2.4956302229098033, 9362.0, 30146.0, 35388.0, 9362.0, 0, -0.01358542125672102, -0.09004402905702591, 0.28098195791244507, 0.01005533616989851, -0.05825268104672432, 0.998421847820282, 0, 0, 0, 1.576171875, 0.361328125, 1.490478515625, 1.212158203125, 10.0, 1.4664783477783203, 1.5, 1.4664783477783203
17071, 0.6724594235420227, 6.610342025756836, -3.807513475418091, 0.0011089514009654522, 3.857268893625587e-05, -3.7169082164764404, -0.023809488862752914, -0.0008368981070816517, -0.4821212887763977, -0.8233100175857544, -0.9568924307823181, 0.05569734796881676, -0.347708105797369, 0.5301009062619073, 2.488170571984066, 9362.0, 30146.0, 35388.0, 9362.0, 0, 0.14383213222026825, 0.0744166150689125, -0.01661043055355549, 0.010611461475491524, -0.05687474086880684, 0.9983782768249512, 0, 0, 0, 1.647216796875, 0.53179931640625, 1.491943359375, 1.19677734375, 10.0, 1.4669973850250244, 1.5, 1.4669973850250244
17081, 0.6728019714355469, 6.60922384262085, -3.807908058166504, 0.0008142368169501424, 2.820590634655673e-05, -3.721733331680298, -0.03513339161872864, -0.0012367861345410347, -0.48292413353919983, -0.8233159780502319, -0.9569023847579956, 0.05569833144545555, -0.33886682057396167, 0.5271903873361339, 2.494180949553629, 9362.0, 30146.0, 35388.0, 9362.0, 0, 0.18925991654396057, -0.3082376718521118, -0.23013369739055634, 0.010191853158175945, -0.05599569156765938, 0.9993870854377747, 0, 0, 0, 1.2861328125, 0.0716094970703125, 1.491943359375, 1.552001953125, 10.0, 1.4671351909637451, 1.5, 1.4671351909637451
17091, 0.6741746664047241, 6.6108856201171875, -3.8089303970336914, 0.0004062694788444787, 1.3846318324794993e-05, -3.7265665531158447, -0.046460092067718506, -0.0016350545920431614, -0.4837285876274109, -0.8233106136322021, -0.9568983912467957, 0.05566383898258209, -0.344610762913405, 0.5283553244959478, 2.483025832327359, 9362.0, 30146.0, 35388.0, 9362.0, 0, -0.06932218372821808, 0.038469765335321426, -0.03138800710439682, 0.011844770051538944, -0.05443926155567169, 0.9987639784812927, 0, 0, 0, 1.310302734375, 0.036285400390625, 1.493408203125, 1.153564453125, 10.0, 1.4664368629455566, 1.5, 1.4664368629455566
17101, 0.6751108765602112, 6.610006332397461, -3.8089981079101562, -0.00011500305845402181, -4.5007782318862155e-06, -3.731407403945923, -0.057794392108917236, -0.002034180099144578, -0.4844517409801483, -0.8232805728912354, -0.9568979144096375, 0.055700235068798065, -0.3383910541952644, 0.525886625635934, 2.490499214974032, 9362.0, 30146.0, 35388.0, 9362.0, 8.390083312988281, 0.2209058701992035, -0.0647660344839096, 0.14160749316215515, 0.013087744824588299, -0.05541432648897171, 0.9990140199661255, -0.09394527971744537, -0.03959846496582031, 1.49267578125, 1.5615234375, 0.3278350830078125, 1.493408203125, 1.708740234375, 10.0, 1.4662625789642334, 1.5, 1.4662625789642334
17111, 0.677054762840271, 6.6105732917785645, -3.808626890182495, -0.0007496147882193327, -2.6848232664633542e-05, -3.736255645751953, -0.06912796199321747, -0.0024353063199669123, -0.4852069616317749, -0.8233023881912231, -0.9569029808044434, 0.05569784715771675, -0.34269007274699503, 0.5277698754392475, 2.499965345173122, 9362.0, 30146.0, 35388.0, 9362.0, 8.390083312988281, 0.10176649689674377, -0.0977373793721199, -0.056066159158945084, 0.010752865113317966, -0.05561163276433945, 0.9968722462654114, -0.09394527971744537, -0.03959846496582031, 1.49267578125, 1.556396484375, 0.316192626953125, 1.491943359375, 1.03857421875, 10.0, 1.4664124250411987, 1.5, 1.4664124250411987
17121, 0.6771416664123535, 6.612091064453125, -3.8089802265167236, -0.0014975330559536815, -5.321458593243733e-05, -3.7411117553710938, -0.08045569807291031, -0.002838056068867445, -0.4860003590583801, -0.8233104348182678, -0.9568958282470703, 0.055693697184324265, -0.344891651629997, 0.5236054619937249, 2.490499656382794, 9362.0, 30146.0, 35388.0, 9362.0, 8.390083312988281, -0.2926075756549835, -0.1278899908065796, 0.1959889829158783, 0.008963133208453655, -0.056592825800180435, 0.9988399744033813, -0.09394527971744537, -0.03959846496582031, 1.49267578125, 1.171875, 0.5655364990234375, 1.491943359375, 1.65234375, 10.0, 1.4668078422546387, 1.5, 1.4668078422546387
17131, 0.6756226420402527, 6.613153457641602, -3.8084287643432617, -0.002358658006414771, -8.3622318925336e-05, -3.745976448059082, -0.09176930785179138, -0.0032434239983558655, -0.48692551255226135, -0.8233031034469604, -0.9569010138511658, 0.05571964383125305, -0.338553733878507, 0.5263033151512957, 2.50107883923151, 9362.0, 30146.0, 35388.0, 9362.0, 8.390083312988281, 0.1507081240415573, 0.09406695514917374, 0.128623366355896, 0.008614995516836643, -0.05556882172822952, 0.9990742802619934, -0.09394527971744537, -0.03959846496582031, 1.49267578125, 1.644287109375, 0.524505615234375, 1.48828125, 1.53955078125, 10.0, 1.4673200845718384, 1.5, 1.4673200845718384
17141, 0.6764547824859619, 6.612793922424316, -3.807673931121826, -0.003333008848130703, -0.00011808604176621884, -3.750849723815918, -0.10310087352991104, -0.003649414051324129, -0.48771876096725464, -0.8232956528663635, -0.9568868279457092, 0.055705323815345764, -0.34355344634763385, 0.5285325517434387, 2.4987614201896986, 9362.0, 30146.0, 35388.0, 9362.0, 8.390083312988281, -0.08942615240812302, 0.17285244166851044, 0.06754692643880844, 0.009997718967497349, -0.05579054728150368, 1.0007579326629639, -0.09394527971744537, -0.03959846496582031, 1.49267578125, 1.219482421875, 0.283355712890625, 1.48828125, 1.576171875, 10.0, 1.4662072658538818, 1.5, 1.4662072658538818
17151, 0.6758493185043335, 6.613062858581543, -3.8072478771209717, -0.00442071259021759, -0.00015659767086617649, -3.755730628967285, -0.11443989723920822, -0.004053070675581694, -0.48846179246902466, -0.8233028054237366, -0.9568740725517273, 0.055715158581733704, -0.3430678420193896, 0.5297812222099196, 2.485239090603134, 9362.0, 30146.0, 35388.0, 9362.0, 8.390083312988281, 0.022275598719716072, 0.18262332677841187, 0.2496211975812912, 0.00955249648541212, -0.05820406973361969, 0.9999195337295532, -0.09394527971744537, -0.03959846496582031, 1.49267578125, 1.60400390625, 0.4266204833984375, 1.49267578125, 1.6318359375, 10.0, 1.4667284488677979, 1.5, 1.4667284488677979
17161, 0.6757916808128357, 6.611757278442383, -3.8055262565612793, -0.0056218719109892845, -0.00019915634766221046, -3.7606184482574463, -0.12579195201396942, -0.0044587417505681515, -0.4890887141227722, -0.8233000636100769, -0.9568918943405151, 0.05570647120475769, -0.34085138751881994, 0.528631114862435, 2.494583610686702, 9362.0, 30146.0, 35388.0, 9362.0, 8.390083312988281, -0.0012924743350595236, -0.0016060994239524007, -0.07985340803861618, 0.00988147035241127, -0.0552036315202713, 1.0004385709762573, -0.09394527971744537, -0.03959846496582031, 1.49267578125, 1.478759765625, 0.1546478271484375, 1.49267578125, 1.122802734375, 10.0, 1.4669681787490845, 1.5, 1.4669681787490845
17171, 0.6763342618942261, 6.611512184143066, -3.8051891326904297, -0.006936522200703621, -0.0002457656664773822, -3.765512704849243, -0.13713805377483368, -0.004863464739173651, -0.4897696375846863, -0.82330322265625, -0.9569023847579956, 0.05572361499071121, -0.33712007353103307, 0.5270536956463729, 2.489592379639489, 9362.0, 30146.0, 35388.0, 9362.0, 8.390083312988281, -0.10385668277740479, -0.2876036465167999, -0.27934855222702026, 0.009201565757393837, -0.05512896552681923, 0.9999715685844421, -0.09394527971744537, -0.03959846496582031, 1.49267578125, 1.3447265625, 0.0158538818359375, 1.49560546875, 1.64794921875, 10.0, 1.4674793481826782, 1.5, 1.4674793481826782
17181, 0.6764999628067017, 6.612506866455078, -3.806349754333496, -0.00836464948952198, -0.00029642516165040433, -3.770413637161255, -0.14848744869232178, -0.005268511362373829, -0.4904033839702606, -0.8233016729354858, -0.9568977355957031, 0.05571368709206581, -0.34661349690906895, 0.5305417903059038, 2.48711170025962, 9362.0, 30146.0, 35388.0, 9362.0, 8.390083312988281, -0.15977907180786133, 0.087159164249897, -0.017245983704924583, 0.009953315369784832, -0.05628827586770058, 0.9981673359870911, -0.09394527971744537, -0.03959846496582031, 1.49267578125, 1.60546875, 0.43011474609375, 1.49560546875, 1.4150390625, 10.0, 1.4678056240081787, 1.5, 1.4678056240081787
17191, 0.6764885187149048, 6.611425399780273, -3.8063955307006836, -0.009906257502734661, -0.0003511398390401155, -3.7753210067749023, -0.15983420610427856, -0.0056741987355053425, -0.4910568594932556, -0.8233097195625305, -0.9568935632705688, 0.055735331028699875, -0.3440421412022427, 0.5225844596349987, 2.4994565412855634, 9362.0, 30146.0, 35388.0, 9362.0, 8.390083312988281, 0.08089606463909149, -0.4276369512081146, -0.1518312394618988, 0.009470895864069462, -0.056371841579675674, 0.9967238306999207, -0.09394527971744537, -0.03959846496582031, 1.49267578125, 1.3681640625, 0.0185394287109375, 1.49267578125, 1.591552734375, 10.0, 1.4668081998825073, 1.5, 1.4668081998825073
17201, 0.6776044964790344, 6.613205909729004, -3.807210922241211, -0.011561229825019836, -0.00040990710840560496, -3.780235767364502, -0.17116035521030426, -0.006079244427382946, -0.4919017553329468, -0.8233034014701843, -0.9568953514099121, 0.05573129653930664, -0.34116086719901906, 0.5370087088772948, 2.497822020016181, 9362.0, 30146.0, 35388.0, 9362.0, 8.390083312988281, -0.06468601524829865, 0.18829144537448883, 0.220873162150383, 0.008299223147332668, -0.05532586947083473, 0.9992343783378601, -0.08295798301696777, -0.04855918884277344, 1.491943359375, 1.619384765625, 0.4635009765625, 1.49267578125, 1.639892578125, 10.0, 1.466789722442627, 1.5, 1.466789722442627
17211, 0.6776154041290283, 6.6121697425842285, -3.8060317039489746, -0.013329398818314075, -0.0004727232735604048, -3.7851595878601074, -0.1824733018875122, -0.006483837496489286, -0.49284425377845764, -0.8232966065406799, -0.9568946361541748, 0.05573056638240814, -0.34430808502251403, 0.5237966930296523, 2.493448805201276, 9362.0, 30146.0, 35388.0, 9362.0, 8.390083312988281, 0.08368618041276932, -0.40409258008003235, -0.22712872922420502, 0.007703657262027264, -0.05636460706591606, 0.9996066093444824, -0.08295798301696777, -0.04855918884277344, 1.491943359375, 1.6875, 0.634674072265625, 1.49560546875, 1.66259765625, 10.0, 1.4654735326766968, 1.5, 1.4654735326766968
17221, 0.6788938641548157, 6.614991664886475, -3.807640790939331, -0.015210825949907303, -0.0005395971238613129, -3.7900917530059814, -0.19381210207939148, -0.006891167256981134, -0.4935918152332306, -0.823306679725647, -0.9568979144096375, 0.055727768689394, -0.35337612624315307, 0.5272591034498646, 2.4950381970467177, 9362.0, 30146.0, 35388.0, 9362.0, 8.390083312988281, 0.15123191475868225, 0.003267480293288827, -0.022161951288580894, 0.008757615461945534, -0.05274566262960434, 1.000041127204895, -0.08295798301696777, -0.04855918884277344, 1.491943359375, 1.247314453125, 0.172119140625, 1.49560546875, 1.6875, 10.0, 1.4662296772003174, 1.5, 1.4662296772003174
17231, 0.680370032787323, 6.614771842956543, -3.808025360107422, -0.01720563694834709, -0.0006105463253334165, -3.7950313091278076, -0.20515015721321106, -0.007298366632312536, -0.4943312704563141, -0.8233057856559753, -0.9569044709205627, 0.055754706263542175, -0.3466930137132531, 0.5302249331450071, 2.490231216109718, 9362.0, 30146.0, 35388.0, 9362.0, 8.390083312988281, 0.1653529405593872, 0.17537690699100494, 0.09543421864509583, 0.01007157377898693, -0.05334142968058586, 1.0002222061157227, -0.08295798301696777, -0.04855918884277344, 1.491943359375, 1.61865234375, 0.461822509765625, 1.4912109375, 1.322021484375, 10.0, 1.4668315649032593, 1.5, 1.4668315649032593
17241, 0.6816551685333252, 6.614348411560059, -3.8074886798858643, -0.01931389793753624, -0.0006855768733657897, -3.799978017807007, -0.21650207042694092, -0.007707678247243166, -0.4949943721294403, -0.8232997059822083, -0.95688396692276, 0.05573311448097229, -0.3381286958520201, 0.5344160465379559, 2.4837856776619973, 9362.0, 30146.0, 35388.0, 9362.0, 8.390083312988281, 0.19878150522708893, 0.12181929498910904, 0.01069242786616087, 0.010734948329627514, -0.05721980333328247, 1.0002202987670898, -0.08295798301696777, -0.04855918884277344, 1.491943359375, 1.304443359375, 0.043182373046875, 1.4912109375, 1.61572265625, 10.0, 1.4659830331802368, 1.5, 1.4659830331802368
17251, 0.682488739490509, 6.61514949798584, -3.806997299194336, -0.021535689011216164, -0.0007647133315913379, -3.804931163787842, -0.22785617411136627, -0.008119732141494751, -0.495636522769928, -0.8233003616333008, -0.9569047689437866, 0.05572865530848503, -0.3510397995037883, 0.5284010479686856, 2.487967948321785, 9362.0, 30146.0, 35388.0, 9362.0, 8.390083312988281, 0.07974188029766083, -0.0017643970204517245, -0.19813017547130585, 0.009936705231666565, -0.05586164444684982, 0.9996248483657837, -0.08295798301696777, -0.04855918884277344, 1.491943359375, 1.601806640625, 0.42144775390625, 1.49267578125, 1.60546875, 10.0, 1.4659359455108643, 1.5, 1.4659359455108643
17261, 0.6828277707099915, 6.614342212677002, -3.808445930480957, -0.02387102134525776, -0.000847982126288116, -3.8098907470703125, -0.2392103224992752, -0.008534137159585953, -0.49627333879470825, -0.8233124613761902, -0.9569018483161926, 0.055746860802173615, -0.342220903580612, 0.5301695649034173, 2.495203516273254, 9362.0, 30146.0, 35388.0, 9362.0, 8.390083312988281, 0.19809164106845856, -0.3233088254928589, 0.13219940662384033, 0.009250231087207794, -0.05628974735736847, 1.0000025033950806, -0.08295798301696777, -0.04855918884277344, 1.491943359375, 1.48828125, 0.172576904296875, 1.49267578125, 1.582763671875, 10.0, 1.4658169746398926, 1.5, 1.4658169746398926
17271, 0.6839157342910767, 6.616093158721924, -3.8083314895629883, -0.02631986513733864, -0.0009354007779620588, -3.814857006072998, -0.2505585253238678, -0.00894931424409151, -0.4969741702079773, -0.8233080506324768, -0.9568904042243958, 0.05571103096008301, -0.3472148198188758, 0.5314039695658437, 2.494232671344299, 9362.0, 30146.0, 35388.0, 9362.0, 8.390083312988281, -0.0019137770868837833, 0.13252578675746918, 0.1381172388792038, 0.00978176575154066, -0.056316591799259186, 0.9985299706459045, -0.08295798301696777, -0.04855918884277344, 1.491943359375, 1.62451171875, 0.475982666015625, 1.4912109375, 1.6142578125, 10.0, 1.4663426876068115, 1.5, 1.4663426876068115
17281, 0.6847798228263855, 6.614941596984863, -3.8075270652770996, -0.02888220176100731, -0.0010269737103953958, -3.8198301792144775, -0.2619085907936096, -0.009365314617753029, -0.49764710664749146, -0.8233047723770142, -0.9568913578987122, 0.055723220109939575, -0.3479951496313229, 0.5239218600705726, 2.50799338495902, 9362.0, 30146.0, 35388.0, 9362.0, 8.390083312988281, -0.1452832669019699, 0.2288803607225418, 0.2523796856403351, 0.010146926157176495, -0.05411294102668762, 0.998050332069397, -0.08295798301696777, -0.04855918884277344, 1.491943359375, 1.38134765625, 0.025177001953125, 1.4912109375, 1.406982421875, 10.0, 1.4665204286575317, 1.5, 1.4665204286575317
17291, 0.6844027042388916, 6.613462448120117, -3.8052902221679688, -0.03155798465013504, -0.0011227125069126487, -3.82481050491333, -0.2732478380203247, -0.009782612323760986, -0.4984394311904907, -0.8233053684234619, -0.9568892121315002, 0.0557367205619812, -0.34912452737992855, 0.5298699551919697, 2.4955946051950826, 9362.0, 30146.0, 35388.0, 9362.0, 8.390083312988281, -0.10790608078241348, -0.27123722434043884, 0.13666075468063354, 0.010146926157176495, -0.05411294102668762, 0.998050332069397, -0.08295798301696777, -0.04855918884277344, 1.491943359375, 1.070068359375, 1.6788787841796875, 1.4912109375, 1.609130859375, 10.0, 1.4654841423034668, 1.5, 1.4654841423034668
17311, 0.685192346572876, 6.614978790283203, -3.802440881729126, -0.03155798465013504, -0.0011227125069126487, -3.82481050491333, -0.2732478380203247, -0.009782612323760986, -0.4984394311904907, -0.8232986330986023, -0.9569011926651001, 0.05575091391801834, -0.34066036641588404, 0.5220118824962867, 2.4953682568753632, 9362.0, 30146.0, 35388.0, 9362.0, 8.390083312988281, -0.057965803891420364, 0.033885058015584946, 0.014632122591137886, 0.010146926157176495, -0.05411294102668762, 0.998050332069397, -0.08295798301696777, -0.04855918884277344, 1.491943359375, 1.27294921875, 0.099334716796875, 1.4912109375, 1.257568359375, 10.0, 1.4654841423034668, 1.5, 1.4654841423034668
17341, 0.6858504414558411, 6.6157684326171875, -3.805619478225708, -0.04339418560266495, -0.0015475505497306585, -3.8448171615600586, -0.3185711205005646, -0.011460892856121063, -0.5018144249916077, -0.8233046531677246, -0.9568982124328613, 0.05574769526720047, -0.34279926378623243, 0.5262437582821065, 2.4942115050380806, 9362.0, 30146.0, 35388.0, 9362.0, 8.390083312988281, 0.2786061465740204, -0.05407809093594551, 0.42784690856933594, 0.00991859845817089, -0.05736565589904785, 1.0002597570419312, -0.08295798301696777, -0.04855918884277344, 1.491943359375, 1.16162109375, 0.643707275390625, 1.4912109375, 1.59375, 10.0, 1.4663995504379272, 1.5, 1.4663995504379272
17361, 0.6873669624328613, 6.615691184997559, -3.803759813308716, -0.05346206948161125, -0.0019103612285107374, -3.8599019050598145, -0.35261186957359314, -0.012726020999252796, -0.5039345622062683, -0.8233027458190918, -0.9568859338760376, 0.055751875042915344, -0.34118939681783916, 0.5287100120384025, 2.4933813604145834, 9362.0, 30146.0, 35388.0, 9362.0, 8.390083312988281, -0.030458668246865273, -0.05337896943092346, -0.07608214765787125, 0.00991859845817089, -0.05736565589904785, 1.0002597570419312, -0.08295798301696777, -0.04855918884277344, 1.491943359375, 1.16162109375, 0.643707275390625, 1.493408203125, 1.08251953125, 10.0, 1.4663385152816772, 1.5, 1.4663385152816772
17391, 0.686767041683197, 6.617761611938477, -3.8017282485961914, -0.06074090301990509, -0.0021733480971306562, -3.8699984550476074, -0.3752758204936981, -0.013573052361607552, -0.5056542754173279, -0.8232964873313904, -0.9568973779678345, 0.055733151733875275, -0.34490591106994045, 0.53417134952835, 2.49198276344372, 9362.0, 30146.0, 35388.0, 9362.0, 8.390083312988281, -0.10834451764822006, -0.013970253057777882, 0.08329744637012482, 0.010462697595357895, -0.05424826219677925, 0.9977757334709167, -0.08295798301696777, -0.04855918884277344, 1.491943359375, 1.42236328125, 0.0649566650390625, 1.489013671875, 1.663330078125, 10.0, 1.4670355319976807, 1.5, 1.4670355319976807
17411, 0.6873191595077515, 6.616621971130371, -3.799766778945923, -0.07250900566577911, -0.002599555067718029, -3.8852081298828125, -0.4092790186405182, -0.014841051772236824, -0.5082013607025146, -0.8233009576797485, -0.9568943977355957, 0.05573572963476181, -0.3447612793653365, 0.5312424030162504, 2.493017340167697, 9362.0, 30146.0, 35388.0, 9362.0, 8.390083312988281, -0.20696479082107544, -0.2517739534378052, -0.009468255564570427, 0.008119911886751652, -0.05693047121167183, 0.9984501004219055, -0.08295798301696777, -0.04855918884277344, 1.491943359375, 1.42236328125, 0.0649566650390625, 1.494873046875, 1.65087890625, 10.0, 1.4670355319976807, 1.5, 1.4670355319976807
17441, 0.6851426959037781, 6.620312690734863, -3.800220251083374, -0.08092141896486282, -0.0029048423748463392, -3.895388126373291, -0.4319664537906647, -0.0156885776668787, -0.5097450017929077, -0.8233022689819336, -0.9568968415260315, 0.055703114718198776, -0.34378116350877097, 0.5323519029677186, 2.4966733183762524, 9362.0, 30146.0, 35388.0, 9362.0, 8.390083312988281, 0.14390406012535095, -0.023053528741002083, -0.006733843125402927, 0.01079221349209547, -0.05899539962410927, 0.9990577697753906, -0.08295798301696777, -0.04855918884277344, 1.491943359375, 1.05322265625, 1.9465789794921875, 1.494873046875, 1.6552734375, 10.0, 1.4670355319976807, 1.5, 1.4670355319976807
17461, 0.6862725019454956, 6.621123790740967, -3.7981860637664795, -0.09439118951559067, -0.00339453830383718, -3.9107134342193604, -0.46600764989852905, -0.016955360770225525, -0.5120577216148376, -0.823311984539032, -0.9568943977355957, 0.055712535977363586, -0.3524520167800163, 0.5243505246965867, 2.478454938930101, 9362.0, 30146.0, 35388.0, 9362.0, 8.390083312988281, -0.11074990034103394, 0.25428009033203125, 0.14147266745567322, 0.008856304921209812, -0.05483034998178482, 0.9972143173217773, -0.08295798301696777, -0.04855918884277344, 1.491943359375, 1.05322265625, 1.9465789794921875, 1.491943359375, 1.6552734375, 10.0, 1.4669721126556396, 1.5, 1.4669721126556396
17491, 0.6840079426765442, 6.623160362243652, -3.7933759689331055, -0.10393786430358887, -0.00374205713160336, -3.9209742546081543, -0.4886469841003418, -0.017797352746129036, -0.5141270160675049, -0.8233072757720947, -0.9569024443626404, 0.0557129830121994, -0.34592958109788136, 0.5311781070655286, 2.493493688218449, 9362.0, 30146.0, 35388.0, 9362.0, 8.390083312988281, 0.1139184832572937, -0.15609295666217804, 0.05979304760694504, 0.008691578172147274, -0.05638151243329048, 0.9982501268386841, -0.08295798301696777, -0.04855918884277344, 1.491943359375, 1.108154296875, 1.16796875, 1.4912109375, 1.6435546875, 10.0, 1.4669721126556396, 1.5, 1.4669721126556396
17511, 0.6852302551269531, 6.626809597015381, -3.7964558601379395, -0.1191072091460228, -0.00429487694054842, -3.936439275741577, -0.5226783752441406, -0.01905748061835766, -0.5166023373603821, -0.8233009576797485, -0.9568924307823181, 0.055706657469272614, -0.34538162380805815, 0.5265946845024132, 2.488869844021368, 9362.0, 30146.0, 35388.0, 9362.0, 8.390083312988281, 0.017605995759367943, 0.13929493725299835, -0.0877043679356575, 0.010870273225009441, -0.05716262385249138, 1.0003796815872192, -0.08295798301696777, -0.04855918884277344, 1.491943359375, 1.108154296875, 1.16796875, 1.4912109375, 1.074462890625, 10.0, 1.4669721126556396, 1.5, 1.4669721126556396
17531, 0.6862040758132935, 6.627403259277344, -3.798093795776367, -0.12978820502758026, -0.004684440325945616, -3.946784496307373, -0.5454126596450806, -0.019898435100913048, -0.5180065631866455, -0.8232963681221008, -0.9568850994110107, 0.055698953568935394, -0.34693205309269626, 0.526670830193325, 2.489153366091442, 9362.0, 30146.0, 35388.0, 9362.0, 8.390083312988281, -0.12912586331367493, -0.015302635729312897, 0.1344379186630249, 0.010870273225009441, -0.05716262385249138, 1.0003796815872192, -0.08295798301696777, -0.04855918884277344, 1.491943359375, 1.108154296875, 1.16796875, 1.4912109375, 1.3564453125, 10.0, 1.4669893980026245, 1.5, 1.4669893980026245
17561, 0.6866049766540527, 6.626493453979492, -3.800192356109619, -0.1466614454984665, -0.005300349090248346, -3.962362289428711, -0.5794658064842224, -0.02116103284060955, -0.5205570459365845, -0.823372483253479, -0.9569458365440369, 0.055772315710783005, -0.33340130286777403, 0.4903608687863823, 2.582342001767845, 9362.0, 30146.0, 35388.0, 9362.0, 8.390083312988281, -0.11910940706729889, -0.1106378436088562, 0.08258971571922302, 0.01153953094035387, -0.052952662110328674, 0.9955376982688904, -0.08295798301696777, -0.04855918884277344, 1.491943359375, 1.1865234375, 0.4651947021484375, 1.493408203125, 1.34912109375, 10.0, 1.4664174318313599, 1.5, 1.4664174318313599
17571, 0.686105489730835, 6.626290798187256, -3.798384189605713, -0.15251272916793823, -0.005514061544090509, -3.9675731658935547, -0.5907914638519287, -0.021581187844276428, -0.5216265320777893, -0.8232976198196411, -0.9568979740142822, 0.055695369839668274, -0.3425952385752673, 0.5233414620978749, 2.4956185200177803, 9362.0, 30146.0, 35388.0, 9362.0, 8.390083312988281, 0.026711100712418556, -0.01901157945394516, -0.2611694037914276, 0.009839880280196667, -0.05518408119678497, 0.9983341097831726, -0.08295798301696777, -0.04855918884277344, 1.491943359375, 1.11474609375, 1.0919036865234375, 1.496337890625, 1.172607421875, 10.0, 1.4667776823043823, 1.5, 1.4667776823043823
17581, 0.6860618591308594, 6.626877784729004, -3.7993624210357666, -0.15847726166248322, -0.005731977988034487, -3.972794771194458, -0.6021152138710022, -0.022002466022968292, -0.5227070450782776, -0.8232997059822083, -0.9568812847137451, 0.05570238456130028, -0.34911545026606444, 0.529307167255439, 2.4843197896509412, 9362.0, 30146.0, 35388.0, 9362.0, 8.390083312988281, -0.10044755786657333, -0.3343542814254761, 0.1681974232196808, 0.008401747792959213, -0.056369598954916, 0.9983042478561401, -0.08295798301696777, -0.04855918884277344, 1.491943359375, 1.686767578125, 0.6328125, 1.496337890625, 1.1806640625, 10.0, 1.4668549299240112, 1.5, 1.4668549299240112
17591, 0.6857832074165344, 6.629217147827148, -3.799315929412842, -0.164555162191391, -0.005954110063612461, -3.9780261516571045, -0.6134654879570007, -0.02242371253669262, -0.5235574245452881, -0.8233066201210022, -0.9568936228752136, 0.05567954108119011, -0.35661065703681494, 0.5282555314054775, 2.5007563515781652, 9362.0, 30146.0, 35388.0, 9362.0, 8.390083312988281, 0.06932571530342102, -0.07880359143018723, 0.04872531071305275, 0.009177682921290398, -0.056597065180540085, 0.9988771080970764, -0.08295798301696777, -0.04855918884277344, 1.491943359375, 1.469970703125, 0.1386566162109375, 1.48974609375, 1.3359375, 10.0, 1.467368721961975, 1.5, 1.467368721961975
17611, 0.688025951385498, 6.630317211151123, -3.8009090423583984, -0.164555162191391, -0.005954110063612461, -3.9780261516571045, -0.6134654879570007, -0.02242371253669262, -0.5235574245452881, -0.8233040571212769, -0.9568792581558228, 0.055687449872493744, -0.34861850154808904, 0.5358526395091303, 2.486056770596676, 9362.0, 30146.0, 35388.0, 9362.0, 8.390083312988281, -0.22638484835624695, -0.03141675889492035, 0.016680972650647163, 0.008856415748596191, -0.05351054295897484, 0.9967246651649475, -0.06914040446281433, -0.030637741088867188, 1.493408203125, 1.409912109375, 0.0501251220703125, 1.48974609375, 1.453857421875, 10.0, 1.4658704996109009, 1.5, 1.4658704996109009
17621, 0.6873519420623779, 6.630109786987305, -3.8015975952148438, -0.18347026407718658, -0.00664577167481184, -3.9937691688537598, -0.647545576095581, -0.02368711493909359, -0.5259628295898438, -0.8232947587966919, -0.9568851590156555, 0.05571688711643219, -0.34799164745638167, 0.540448785947433, 2.4952868627388867, 9362.0, 30146.0, 35388.0, 9362.0, 8.390083312988281, -0.025058943778276443, -0.0875139832496643, -0.1847894787788391, 0.009289157576858997, -0.05573378503322601, 0.9981184005737305, -0.06914040446281433, -0.030637741088867188, 1.493408203125, 1.409912109375, 0.0501251220703125, 1.48974609375, 1.638427734375, 10.0, 1.466227412223816, 1.5, 1.466227412223816
17631, 0.6883540749549866, 6.631691932678223, -3.802807092666626, -0.19000244140625, -0.006884759292006493, -3.9990336894989014, -0.6588904857635498, -0.02411028929054737, -0.5269193649291992, -0.82329922914505, -0.9568777084350586, 0.05569981411099434, -0.3476108364232339, 0.5358741269058385, 2.4933205193734818, 9362.0, 30146.0, 35388.0, 9362.0, 8.390083312988281, 0.11104179173707962, -0.3592320680618286, -0.11319988965988159, 0.009432518854737282, -0.05550827831029892, 0.9969940185546875, -0.06914040446281433, -0.030637741088867188, 1.493408203125, 1.409912109375, 0.0501251220703125, 1.493408203125, 1.64501953125, 10.0, 1.466086983680725, 1.5, 1.466086983680725
17641, 0.6887938380241394, 6.634357452392578, -3.8039276599884033, -0.19664812088012695, -0.007127974182367325, -4.004307270050049, -0.6702449321746826, -0.024532487615942955, -0.5277910828590393, -0.8233003616333008, -0.956872284412384, 0.05571955069899559, -0.3441880033723944, 0.5317281837189114, 2.494653682798152, 9362.0, 30146.0, 35388.0, 9362.0, 8.390083312988281, 0.04643638804554939, 0.19717708230018616, -0.07092592865228653, 0.009432518854737282, -0.05550827831029892, 0.9969940185546875, -0.06914040446281433, -0.030637741088867188, 1.493408203125, 1.409912109375, 0.0501251220703125, 1.493408203125, 1.239990234375, 10.0, 1.4669198989868164, 1.5, 1.4669198989868164
17661, 0.6891324520111084, 6.632875919342041, -3.8070452213287354, -0.19664812088012695, -0.007127974182367325, -4.004307270050049, -0.6702449321746826, -0.024532487615942955, -0.5277910828590393, -0.8232977390289307, -0.9568698406219482, 0.05570795387029648, -0.3482603375203672, 0.5421796532860981, 2.491548747499387, 9362.0, 30146.0, 35388.0, 9362.0, 8.390083312988281, 0.32427239418029785, 0.21358072757720947, 0.040722910314798355, 0.009772119112312794, -0.05154575780034065, 0.9987210035324097, -0.06914040446281433, -0.030637741088867188, 1.493408203125, 1.42529296875, 0.0688018798828125, 1.493408203125, 1.509521484375, 10.0, 1.4660905599594116, 1.5, 1.4660905599594116
17691, 0.6927809119224548, 6.6297831535339355, -3.8063206672668457, -0.2243664711713791, -0.008143153041601181, -4.0254902839660645, -0.7156885862350464, -0.026227151975035667, -0.5312297940254211, -0.823296070098877, -0.9568710923194885, 0.05571585148572922, -0.3475736077317731, 0.5390441257280543, 2.500804231482021, 9362.0, 30146.0, 35388.0, 9362.0, 8.390083312988281, -0.10264551639556885, -0.13968276977539062, 0.2130984365940094, 0.00832884106785059, -0.053958505392074585, 0.9979011416435242, -0.06914040446281433, -0.030637741088867188, 1.493408203125, 1.067138671875, 1.7234954833984375, 1.490478515625, 1.20703125, 10.0, 1.4662158489227295, 1.5, 1.4662158489227295
17711, 0.6935529708862305, 6.628052234649658, -3.8053603172302246, -0.2243664711713791, -0.008143153041601181, -4.0254902839660645, -0.7156885862350464, -0.026227151975035667, -0.5312297940254211, -0.8232988119125366, -0.9568673372268677, 0.055716194212436676, -0.35137048529950515, 0.5339362885112564, 2.496025832560564, 9362.0, 30146.0, 35388.0, 9362.0, 8.390083312988281, 0.11040204763412476, 0.19583852589130402, -0.09549450874328613, 0.009424714371562004, -0.05417179688811302, 0.9951967000961304, -0.06914040446281433, -0.030637741088867188, 1.493408203125, 1.17041015625, 0.5762939453125, 1.490478515625, 1.292724609375, 10.0, 1.4662158489227295, 1.5, 1.4662158489227295
17741, 0.6948615908622742, 6.626175403594971, -3.8056130409240723, -0.2615694999694824, -0.009508148767054081, -4.0521697998046875, -0.7724204063415527, -0.028376027941703796, -0.5359941720962524, -0.8232879042625427, -0.9568679332733154, 0.05572426691651344, -0.3526895226081823, 0.5407466373573868, 2.48817335211668, 9362.0, 30146.0, 35388.0, 9362.0, 8.390083312988281, 0.01972566917538643, 0.2050977349281311, -0.11151283234357834, 0.00970967672765255, -0.057318225502967834, 0.9982348680496216, -0.06914040446281433, -0.030637741088867188, 1.493408203125, 1.124267578125, 0.9879302978515625, 1.490478515625, 1.26416015625, 10.0, 1.4665729999542236, 1.5, 1.4665729999542236
17761, 0.6964840888977051, 6.624698162078857, -3.8067212104797363, -0.2852534055709839, -0.010379007086157799, -4.068284511566162, -0.8064893484115601, -0.02968084067106247, -0.5384672284126282, -0.8232858777046204, -0.9568694233894348, 0.05571320652961731, -0.3459092805954986, 0.5429039594366429, 2.4976917449278537, 9362.0, 30146.0, 35388.0, 9362.0, 8.390083312988281, -0.04561259597539902, -0.4136711061000824, -0.003119952045381069, 0.011848889291286469, -0.05825461819767952, 0.9975492358207703, -0.06914040446281433, -0.030637741088867188, 1.493408203125, 1.124267578125, 0.9879302978515625, 1.486083984375, 1.380615234375, 10.0, 1.4650958776474, 1.5, 1.4650958776474
17781, 0.6956943869590759, 6.629892826080322, -3.809175491333008, -0.2852534055709839, -0.010379007086157799, -4.068284511566162, -0.8064893484115601, -0.02968084067106247, -0.5384672284126282, -0.8233017325401306, -0.9568719267845154, 0.05573002249002457, -0.3505427707153655, 0.5381796823896536, 2.4922917365443205, 9362.0, 30146.0, 35388.0, 9362.0, 8.390083312988281, -0.20466549694538116, 0.04598988592624664, 0.2373446822166443, 0.011848889291286469, -0.05825461819767952, 0.9975492358207703, -0.06914040446281433, -0.030637741088867188, 1.493408203125, 1.124267578125, 0.9879302978515625, 1.491943359375, 1.0634765625, 10.0, 1.4650958776474, 1.5, 1.4650958776474
17811, 0.6957200765609741, 6.630966663360596, -3.809094190597534, -0.31842103600502014, -0.011601191014051437, -4.08989143371582, -0.8519073724746704, -0.031427498906850815, -0.5417816638946533, -0.8233039975166321, -0.9568708539009094, 0.055727601051330566, -0.35432765718921017, 0.5424179089742722, 2.4926054636729, 9362.0, 30146.0, 35388.0, 9362.0, 8.390083312988281, 0.14813952147960663, 0.10460987687110901, 0.19707819819450378, 0.011848889291286469, -0.05825461819767952, 0.9975492358207703, -0.09258618205785751, -0.23671722412109375, 1.4765625, 1.0986328125, 1.2841033935546875, 1.491943359375, 1.60693359375, 10.0, 1.4650958776474, 1.5, 1.4650958776474
17831, 0.6968031525611877, 6.629204273223877, -3.8097047805786133, -0.34448978304862976, -0.012563596479594707, -4.106180191040039, -0.8859970569610596, -0.032732971012592316, -0.5442002415657043, -0.8233004808425903, -0.9568765759468079, 0.05570816621184349, -0.35355553508698995, 0.538016857410156, 2.4951812080627636, 9362.0, 30146.0, 35388.0, 9362.0, 8.390083312988281, -0.17990891635417938, -0.2750496566295624, -0.4077194929122925, 0.011848889291286469, -0.05825461819767952, 0.9975492358207703, -0.09258618205785751, -0.23671722412109375, 1.4765625, 1.0986328125, 1.2841033935546875, 1.491943359375, 1.298583984375, 10.0, 1.4655872583389282, 1.5, 1.4655872583389282
17861, 0.6993088722229004, 6.630909442901611, -3.8163180351257324, -0.3624366223812103, -0.013226984068751335, -4.1170830726623535, -0.9086791276931763, -0.033604949712753296, -0.5461734533309937, -0.823310375213623, -0.9568685293197632, 0.05571873486042023, -0.3537381746019536, 0.5345990913277774, 2.4925284933381278, 9362.0, 30146.0, 35388.0, 9362.0, 8.390083312988281, 0.19213663041591644, -0.21529622375965118, -0.15846401453018188, 0.008819535374641418, -0.05602531135082245, 0.9963594675064087, -0.09258618205785751, -0.23671722412109375, 1.4765625, 1.13671875, 0.862274169921875, 1.491943359375, 1.39453125, 10.0, 1.4663257598876953, 1.5, 1.4663257598876953
17881, 0.7021498680114746, 6.6332597732543945, -3.8193676471710205, -0.3624366223812103, -0.013226984068751335, -4.1170830726623535, -0.9086791276931763, -0.033604949712753296, -0.5461734533309937, -0.8233051896095276, -0.9568705558776855, 0.05574267357587814, -0.3447705145792547, 0.5350353476683267, 2.4909803747667696, 9362.0, 30146.0, 35388.0, 9362.0, 8.390083312988281, -0.044393617659807205, -0.11129962652921677, 0.013703613542020321, 0.010649194940924644, -0.05661686882376671, 0.9962513446807861, -0.09258618205785751, -0.23671722412109375, 1.4765625, 1.28759765625, 0.068939208984375, 1.494873046875, 1.553466796875, 10.0, 1.4663257598876953, 1.5, 1.4663257598876953
17911, 0.7026037573814392, 6.635201454162598, -3.816094398498535, -0.40928906202316284, -0.014961925335228443, -4.1445112228393555, -0.9654169082641602, -0.03580065816640854, -0.5510027408599854, -0.8232990503311157, -0.9568718075752258, 0.055725518614053726, -0.34699261324048897, 0.543159290582679, 2.494669917506417, 9362.0, 30146.0, 35388.0, 9362.0, 8.390083312988281, 0.09232598543167114, 0.12720853090286255, 0.297480046749115, 0.010649194940924644, -0.05661686882376671, 0.9962513446807861, -0.07614675164222717, -0.06647872924804688, 1.490478515625, 1.128662109375, 0.9422607421875, 1.494873046875, 1.3916015625, 10.0, 1.4663257598876953, 1.5, 1.4663257598876953
17961, 0.6994109153747559, 6.632798671722412, -3.811131477355957, -0.4589812755584717, -0.01680763065814972, -4.172162055969238, -1.0222651958465576, -0.03802894055843353, -0.5550732612609863, -0.8233091235160828, -0.9568822383880615, 0.05572815611958504, -0.3518521858513952, 0.5320424649285087, 2.490125664114369, 9362.0, 30146.0, 35388.0, 9362.0, 8.390083312988281, 0.2572195529937744, 0.10077125579118729, 0.061811331659555435, 0.009361917153000832, -0.05709170177578926, 0.9996888041496277, -0.07614675164222717, -0.06647872924804688, 1.490478515625, 1.130126953125, 0.9273529052734375, 1.494873046875, 1.207763671875, 10.0, 1.464116096496582, 1.5, 1.464116096496582
17981, 0.7003690004348755, 6.629152774810791, -3.811586380004883, -0.4589812755584717, -0.01680763065814972, -4.172162055969238, -1.0222651958465576, -0.03802894055843353, -0.5550732612609863, -0.8232996463775635, -0.9568784236907959, 0.05571454390883446, -0.35038047828531965, 0.5378121345293039, 2.487395870733376, 9362.0, 30146.0, 35388.0, 9362.0, 8.390083312988281, 0.24280181527137756, -0.16676722466945648, 0.05870448797941208, 0.010474597103893757, -0.057162798941135406, 0.9982069134712219, -0.07614675164222717, -0.06647872924804688, 1.490478515625, 1.324951171875, 0.0236663818359375, 1.493408203125, 1.402587890625, 10.0, 1.4640414714813232, 1.5, 1.4640414714813232
18011, 0.7024002075195312, 6.630125522613525, -3.8087263107299805, -0.511516273021698, -0.018764378502964973, -4.200011730194092, -1.0790835618972778, -0.04024004936218262, -0.5592687726020813, -0.8233130574226379, -0.9568811655044556, 0.05569522827863693, -0.3520217306068027, 0.5356852534790164, 2.486098578644577, 9362.0, 30146.0, 35388.0, 9362.0, 8.390083312988281, -0.20330463349819183, -0.15305940806865692, -0.08544673770666122, 0.012082990258932114, -0.05609571933746338, 1.001432180404663, -0.07614675164222717, -0.06647872924804688, 1.490478515625, 1.39453125, 0.035003662109375, 1.494140625, 1.610595703125, 10.0, 1.4639155864715576, 1.5, 1.4639155864715576
18031, 0.7005724310874939, 6.6302571296691895, -3.8055460453033447, -0.544400155544281, -0.019991600885987282, -4.216826438903809, -1.1131985187530518, -0.04157724604010582, -0.5615102648735046, -0.8232985734939575, -0.9568912982940674, 0.05570665001869202, -0.34975838347275795, 0.532053022466016, 2.4995971034491404, 9362.0, 30146.0, 35388.0, 9362.0, 8.390083312988281, 0.07310810685157776, -0.05322413146495819, -0.06087375059723854, 0.009221427142620087, -0.05734004080295563, 0.9987996816635132, -0.07614675164222717, -0.06647872924804688, 1.490478515625, 1.39453125, 0.035003662109375, 1.494140625, 1.3828125, 10.0, 1.4633524417877197, 1.5, 1.4633524417877197
18131, 0.6955864429473877, 6.634914875030518, -3.8092873096466064, -0.6491903066635132, -0.023913316428661346, -4.267700672149658, -1.215523600578308, -0.045569516718387604, -0.5687210559844971, -0.8233004212379456, -0.9568834900856018, 0.05571860820055008, -0.35729186579055766, 0.5342636465557007, 2.4998436348686934, 9362.0, 30146.0, 35388.0, 9362.0, 8.390083312988281, -0.2696554362773895, -0.28511640429496765, -0.2704855501651764, 0.00988494511693716, -0.05472279340028763, 1.00007164478302, -0.08789581060409546, -0.15607833862304688, 1.483154296875, 1.283203125, 0.0772247314453125, 1.493408203125, 1.292724609375, 10.0, 1.464530348777771, 1.5, 1.464530348777771
18181, 0.6966800689697266, 6.639274597167969, -3.811520576477051, -0.7241676449775696, -0.02672591060400009, -4.301980018615723, -1.2837003469467163, -0.04817816615104675, -0.5741028785705566, -0.8232993483543396, -0.9568796753883362, 0.055719781666994095, -0.3573022565971234, 0.5368966783074143, 2.4902905479770556, 9362.0, 30146.0, 35388.0, 9362.0, 8.390083312988281, 0.15026184916496277, -0.17621003091335297, 0.12100688368082047, 0.009718031622469425, -0.05394728109240532, 1.0005601644515991, -0.08789581060409546, -0.15607833862304688, 1.483154296875, 1.1455078125, 0.7802734375, 1.4912109375, 1.19091796875, 10.0, 1.4643664360046387, 1.5, 1.4643664360046387
18231, 0.6953038573265076, 6.6406965255737305, -3.8073503971099854, -0.7897762656211853, -0.02918938174843788, -4.330774307250977, -1.340610384941101, -0.050361841917037964, -0.577979326248169, -0.8233070373535156, -0.9568852782249451, 0.055688392370939255, -0.35018198506950937, 0.5260009634302492, 2.4898332436785804, 9362.0, 30146.0, 35388.0, 9362.0, 8.390083312988281, 0.06849636882543564, 0.3719055950641632, -0.17921465635299683, 0.010272561572492123, -0.05690053105354309, 0.9956715106964111, -0.08120904862880707, -0.1739978790283203, 1.481689453125, 1.1455078125, 0.7802734375, 1.490478515625, 1.207763671875, 10.0, 1.4643664360046387, 1.5, 1.4643664360046387
18251, 0.6955519914627075, 6.641018867492676, -3.8106250762939453, -0.8168156147003174, -0.030205316841602325, -4.342353820800781, -1.3633421659469604, -0.05123075470328331, -0.5798252820968628, -0.8232895731925964, -0.9568776488304138, 0.055704955011606216, -0.3506977231272166, 0.5343409436468107, 2.4913942267223024, 9362.0, 30146.0, 35388.0, 9362.0, 8.390083312988281, 0.1227327212691307, 0.31520795822143555, 0.03813935071229935, 0.010272561572492123, -0.05690053105354309, 0.9956715106964111, -0.08120904862880707, -0.1739978790283203, 1.481689453125, 1.1455078125, 0.7802734375, 1.490478515625, 1.585693359375, 10.0, 1.4646077156066895, 1.5, 1.4646077156066895
18311, 0.6998156905174255, 6.632559299468994, -3.8124940395355225, -0.8864042162895203, -0.032821085304021835, -4.371454238891602, -1.4201955795288086, -0.05340290814638138, -0.5842072367668152, -0.8233025074005127, -0.9568771123886108, 0.05569952353835106, -0.35021162647243737, 0.5295009825582611, 2.4920689725748173, 9362.0, 30146.0, 35388.0, 9362.0, 8.390083312988281, 0.16557790338993073, 0.08392487466335297, -0.0724734365940094, 0.010861101560294628, -0.05686065927147865, 0.9990050792694092, -0.0746217891573906, -0.13815879821777344, 1.484619140625, 1.65087890625, 0.5408935546875, 1.493408203125, 1.133056640625, 10.0, 1.4653652906417847, 1.5, 1.4653652906417847
18331, 0.7014382481575012, 6.631650924682617, -3.81475830078125, -0.8864042162895203, -0.032821085304021835, -4.371454238891602, -1.4201955795288086, -0.05340290814638138, -0.5842072367668152, -0.8233001232147217, -0.9568831324577332, 0.05567445233464241, -0.3529212076909632, 0.5403663986931235, 2.4939053674862994, 9362.0, 30146.0, 35388.0, 9362.0, 8.390083312988281, 0.1860857605934143, 0.0033166231587529182, -0.004128978122025728, 0.008340591564774513, -0.054004378616809845, 0.9985413551330566, -0.0746217891573906, -0.13815879821777344, 1.484619140625, 1.1953125, 0.4109344482421875, 1.493408203125, 1.27734375, 10.0, 1.4660265445709229, 1.5, 1.4660265445709229
18351, 0.7028127312660217, 6.629785060882568, -3.8137269020080566, -0.9588351845741272, -0.03554636612534523, -4.400768280029297, -1.477023959159851, -0.055613141506910324, -0.5884308218955994, -0.8232980966567993, -0.9568663835525513, 0.055676400661468506, -0.34920968585898277, 0.532679665778204, 2.4933725635415946, 9362.0, 30146.0, 35388.0, 9362.0, 8.390083312988281, -0.16167640686035156, 0.23755456507205963, 0.08983618766069412, 0.008340591564774513, -0.054004378616809845, 0.9985413551330566, -0.0746217891573906, -0.13815879821777344, 1.484619140625, 1.1953125, 0.4109344482421875, 1.493408203125, 1.597412109375, 10.0, 1.4662950038909912, 1.5, 1.4662950038909912
18381, 0.7022990584373474, 6.628756046295166, -3.8170509338378906, -0.9886027574539185, -0.03666754439473152, -4.412554740905762, -1.499735951423645, -0.056505460292100906, -0.5901808142662048, -0.8233178853988647, -0.9568928480148315, 0.055693045258522034, -0.35532678106469806, 0.535418409155568, 2.4815573826715944, 9362.0, 30146.0, 35388.0, 9362.0, 8.390083312988281, -0.19380135834217072, -0.26485374569892883, -0.374460905790329, 0.00871934276074171, -0.05453931540250778, 0.9970400333404541, -0.0746217891573906, -0.13815879821777344, 1.484619140625, 1.288330078125, 0.0676116943359375, 1.494140625, 1.34912109375, 10.0, 1.466757893562317, 1.5, 1.466757893562317
18431, 0.6939945816993713, 6.627612113952637, -3.8156230449676514, -1.0650089979171753, -0.0395483560860157, -4.442170143127441, -1.5565094947814941, -0.05872251093387604, -0.5945101380348206, -0.8233073353767395, -0.9568719863891602, 0.055668752640485764, -0.3598768174440748, 0.5365072898931942, 2.4889538579646358, 9362.0, 30146.0, 35388.0, 9362.0, 8.390083312988281, -0.09846077859401703, -0.42903146147727966, 0.048816706985235214, 0.009811902418732643, -0.05524872988462448, 0.9983431696891785, -0.06911223381757736, -0.2635974884033203, 1.474365234375, 0.9814453125, 3.420806884765625, 1.494140625, 1.17333984375, 10.0, 1.4664362668991089, 1.5, 1.4664362668991089
18461, 0.6910767555236816, 6.632509708404541, -3.8131470680236816, -1.1122148036956787, -0.04132959246635437, -4.460046768188477, -1.5905439853668213, -0.060023222118616104, -0.5972387790679932, -0.8233103156089783, -0.9568720459938049, 0.055707842111587524, -0.35647171970208064, 0.5347556104449609, 2.4946946618333343, 9362.0, 30146.0, 35388.0, 9362.0, 8.390083312988281, -0.022170016542077065, 0.10074421018362045, 0.3823317885398865, 0.010077491402626038, -0.0576542504131794, 0.9956372380256653, -0.06911223381757736, -0.2635974884033203, 1.474365234375, 1.24658203125, 0.1746063232421875, 1.494140625, 1.23486328125, 10.0, 1.467100977897644, 1.5, 1.467100977897644
18471, 0.6908340454101562, 6.633008003234863, -3.811047315597534, -1.1122148036956787, -0.04132959246635437, -4.460046768188477, -1.5905439853668213, -0.060023222118616104, -0.5972387790679932, -0.8233084678649902, -0.9568791389465332, 0.0556781180202961, -0.3489334444384716, 0.5434208515040382, 2.490097349634176, 9362.0, 30146.0, 35388.0, 9362.0, 8.390083312988281, -0.006404371000826359, -0.525183916091919, 0.15594236552715302, 0.010077491402626038, -0.0576542504131794, 0.9956372380256653, -0.06911223381757736, -0.2635974884033203, 1.474365234375, 1.36669921875, 0.01806640625, 1.48828125, 1.23486328125, 10.0, 1.467006802558899, 1.5, 1.467006802558899
18511, 0.6923064589500427, 6.635735988616943, -3.8052356243133545, -1.1931604146957397, -0.04438405856490135, -4.4900288581848145, -1.6472959518432617, -0.062154371291399, -0.6019981503486633, -0.8232846260070801, -0.95686936378479, 0.05568746477365494, -0.34728228485109813, 0.538262166187252, 2.489315994546656, 9362.0, 30146.0, 35388.0, 9362.0, 8.390083312988281, 0.15873979032039642, 0.3836797773838043, 0.1454160362482071, 0.010069245472550392, -0.0574696846306324, 0.9966762065887451, -0.06911223381757736, -0.2635974884033203, 1.474365234375, 1.336669921875, 0.0177764892578125, 1.4912109375, 1.23486328125, 10.0, 1.4666768312454224, 1.5, 1.4666768312454224
18531, 0.6944850087165833, 6.628697395324707, -3.8048317432403564, -1.1931604146957397, -0.04438405856490135, -4.4900288581848145, -1.6472959518432617, -0.062154371291399, -0.6019981503486633, -0.823296070098877, -0.9568712711334229, 0.055697597563266754, -0.35785963356615025, 0.540225519604121, 2.4844920582477275, 9362.0, 30146.0, 35388.0, 9362.0, 8.390083312988281, -0.05233733728528023, 0.2066790610551834, -0.11232878267765045, 0.008790790103375912, -0.05353143438696861, 1.0007328987121582, -0.06911223381757736, -0.2635974884033203, 1.474365234375, 1.348388671875, 0.0154571533203125, 1.4912109375, 1.166748046875, 10.0, 1.4680792093276978, 1.5, 1.4680792093276978
18551, 0.6964876055717468, 6.624515056610107, -3.8059844970703125, -1.276945948600769, -0.04754520580172539, -4.520233631134033, -1.70415461063385, -0.06430249661207199, -0.6058639883995056, -0.8232998847961426, -0.956887423992157, 0.05568068102002144, -0.35890895285450536, 0.5360640791977858, 2.4898763985631813, 9362.0, 30146.0, 35388.0, 9362.0, 8.390083312988281, 0.3107374608516693, -0.0047549898736178875, -0.06702973693609238, 0.00904187560081482, -0.054481420665979385, 0.9983542561531067, -0.06911223381757736, -0.2635974884033203, 1.474365234375, 1.669921875, 0.589080810546875, 1.4912109375, 1.20263671875, 10.0, 1.4675416946411133, 1.5, 1.4675416946411133
18571, 0.6992462277412415, 6.62194299697876, -3.806217908859253, -1.3112561702728271, -0.0488399863243103, -4.532366752624512, -1.726866602897644, -0.06517655402421951, -0.6074396967887878, -0.8233014345169067, -0.9568787813186646, 0.055694352835416794, -0.352082502114435, 0.5366807964152258, 2.4970447403163574, 9362.0, 30146.0, 35388.0, 9362.0, 8.390083312988281, 0.19826440513134003, -0.06990988552570343, 0.0466487780213356, 0.00904187560081482, -0.054481420665979385, 0.9983542561531067, -0.06911223381757736, -0.2635974884033203, 1.474365234375, 1.669921875, 0.589080810546875, 1.4912109375, 1.185791015625, 10.0, 1.4675416946411133, 1.5, 1.4675416946411133
18621, 0.7045397162437439, 6.623727798461914, -3.810579776763916, -1.39901602268219, -0.05215415358543396, -4.562860012054443, -1.7835335731506348, -0.06739544123411179, -0.612162709236145, -0.8232938051223755, -0.9568902254104614, 0.055665552616119385, -0.3511454964163691, 0.5425578012172707, 2.486393274708941, 9362.0, 30146.0, 35388.0, 9362.0, 8.390083312988281, 0.13081742823123932, 0.023178447037935257, 0.11615944653749466, 0.009087725542485714, -0.05397506430745125, 0.9989645481109619, -0.06681789457798004, 0.06792068481445312, 1.50146484375, 1.065673828125, 1.74609375, 1.493408203125, 1.535888671875, 10.0, 1.4672678709030151, 1.5, 1.4672678709030151
18631, 0.7050908207893372, 6.624088287353516, -3.8092403411865234, -1.39901602268219, -0.05215415358543396, -4.562860012054443, -1.7835335731506348, -0.06739544123411179, -0.612162709236145, -0.8233070969581604, -0.9568886160850525, 0.055695340037345886, -0.3554553666827795, 0.5323139979417988, 2.496863514585334, 9362.0, 30146.0, 35388.0, 9362.0, 8.390083312988281, -0.14805737137794495, -0.3322039544582367, -0.3652641177177429, 0.009087725542485714, -0.05397506430745125, 0.9989645481109619, -0.06681789457798004, 0.06792068481445312, 1.50146484375, 0.99755859375, 3.038909912109375, 1.493408203125, 1.660400390625, 10.0, 1.4672678709030151, 1.5, 1.4672678709030151
18681, 0.6997544169425964, 6.631774425506592, -3.8083317279815674, -1.4896117448806763, -0.05558015778660774, -4.593568801879883, -1.840304970741272, -0.0696452334523201, -0.6162229180335999, -0.8233151435852051, -0.9568765163421631, 0.055717833340168, -0.35351624055653535, 0.5407821453236181, 2.4853622047156594, 9362.0, 30146.0, 35388.0, 9362.0, 8.390083312988281, 0.0907355472445488, 0.029825294390320778, 0.14348158240318298, 0.01057382207363844, -0.054301340132951736, 0.9992734789848328, -0.06681789457798004, 0.06792068481445312, 1.50146484375, 1.3154296875, 0.03118896484375, 1.493408203125, 1.147705078125, 10.0, 1.4681795835494995, 1.5, 1.4681795835494995
18711, 0.6986213326454163, 6.633085250854492, -3.8073201179504395, -1.5641329288482666, -0.058401670306921005, -4.618283748626709, -1.8857640027999878, -0.07142423093318939, -0.6194491386413574, -0.8233039975166321, -0.956875205039978, 0.055700767785310745, -0.3490030463485415, 0.5323007520506735, 2.4818692600876755, 9362.0, 30146.0, 35388.0, 9362.0, 8.390083312988281, -0.18234729766845703, 0.15367180109024048, 0.1986333578824997, 0.011330886743962765, -0.05606139078736305, 0.9997001886367798, -0.07113456726074219, -0.06647872924804688, 1.490478515625, 1.346923828125, 0.015472412109375, 1.489013671875, 1.178466796875, 10.0, 1.468733310699463, 1.5, 1.468733310699463
18721, 0.6967087388038635, 6.632207870483398, -3.8049986362457275, -1.5830473899841309, -0.059118110686540604, -4.624482154846191, -1.897135615348816, -0.0718635618686676, -0.620229184627533, -0.823287308216095, -0.9568608999252319, 0.05569912865757942, -0.3550270326248421, 0.5401546008307037, 2.486528453719231, 9362.0, 30146.0, 35388.0, 9362.0, 8.390083312988281, -0.0465124174952507, 0.06856659054756165, 0.05161989480257034, 0.009859499521553516, -0.054696861654520035, 0.9988420009613037, -0.07113456726074219, -0.06647872924804688, 1.490478515625, 1.124267578125, 0.9879302978515625, 1.489013671875, 1.5439453125, 10.0, 1.4688265323638916, 1.5, 1.4688265323638916
18781, 0.6961269378662109, 6.633155345916748, -3.8036231994628906, -1.6989214420318604, -0.06350850313901901, -4.661842346191406, -1.9653301239013672, -0.07447192817926407, -0.6251715421676636, -0.8233076930046082, -0.9568778872489929, 0.05569438636302948, -0.3480109509428427, 0.5363683591005781, 2.493533614942557, 9362.0, 30146.0, 35388.0, 9362.0, 8.390083312988281, 0.06502571702003479, 0.038631610572338104, 0.09498496353626251, 0.010420553386211395, -0.05720556527376175, 0.9989205002784729, -0.07113456726074219, -0.06647872924804688, 1.490478515625, 1.0107421875, 2.7494049072265625, 1.489013671875, 1.171875, 10.0, 1.4697601795196533, 1.5, 1.4697601795196533
18791, 0.6964600086212158, 6.633279800415039, -3.8021633625030518, -1.6989214420318604, -0.06350850313901901, -4.661842346191406, -1.9653301239013672, -0.07447192817926407, -0.6251715421676636, -0.8233088850975037, -0.9568896293640137, 0.05568087846040726, -0.3533844453027515, 0.5349539394020439, 2.490143028065021, 9362.0, 30146.0, 35388.0, 9362.0, 8.390083312988281, 0.10630606859922409, -0.06462229788303375, -0.1452532559633255, 0.008816640824079514, -0.057321447879076004, 0.9976549744606018, -0.07113456726074219, -0.06647872924804688, 1.490478515625, 1.238525390625, 0.20343017578125, 1.489013671875, 1.613525390625, 10.0, 1.4697601795196533, 1.5, 1.4697601795196533
18811, 0.6977804899215698, 6.633760452270508, -3.802290439605713, -1.7583931684494019, -0.06576228886842728, -4.680632591247559, -1.9994385242462158, -0.07578228414058685, -0.6275714635848999, -0.8233100175857544, -0.9568771123886108, 0.05571010708808899, -0.35020172540734196, 0.5372618807482752, 2.4837123223713347, 9362.0, 30146.0, 35388.0, 9362.0, 8.390083312988281, 0.10134679079055786, 0.07856248319149017, -0.1139972135424614, 0.01072576455771923, -0.05611104518175125, 1.0013749599456787, -0.07113456726074219, -0.06647872924804688, 1.490478515625, 1.2568359375, 0.1420135498046875, 1.489013671875, 1.543212890625, 10.0, 1.4705524444580078, 1.5, 1.4705524444580078
18821, 0.6985140442848206, 6.632742404937744, -3.8023102283477783, -1.778444528579712, -0.06652230024337769, -4.686911582946777, -2.010823965072632, -0.07622048258781433, -0.6282361745834351, -0.8232987523078918, -0.9568806290626526, 0.055700186640024185, -0.3480212523055781, 0.5370985849735916, 2.488350550369981, 9362.0, 30146.0, 35388.0, 9362.0, 8.390083312988281, 0.05625462159514427, 0.136256605386734, -0.05942557752132416, 0.009940664283931255, -0.0553162582218647, 1.0010175704956055, -0.07113456726074219, -0.06647872924804688, 1.490478515625, 1.2568359375, 0.1420135498046875, 1.489013671875, 1.24365234375, 10.0, 1.4702783823013306, 1.5, 1.4702783823013306
18831, 0.699329674243927, 6.630610466003418, -3.802469491958618, -1.778444528579712, -0.06652230024337769, -4.686911582946777, -2.010823965072632, -0.07622048258781433, -0.6282361745834351, -0.8233045935630798, -0.9568792581558228, 0.0557003952562809, -0.35121586335675303, 0.541905764609254, 2.484051365735099, 9362.0, 30146.0, 35388.0, 9362.0, 8.390083312988281, 0.10938052833080292, 0.1609426885843277, 0.008990836329758167, 0.009996808134019375, -0.05513155087828636, 0.998852014541626, -0.07113456726074219, -0.06647872924804688, 1.490478515625, 1.48681640625, 0.1698150634765625, 1.489013671875, 1.51171875, 10.0, 1.4704017639160156, 1.5, 1.4704017639160156
18851, 0.7011007070541382, 6.630675315856934, -3.8015730381011963, -1.8188890218734741, -0.06805554777383804, -4.69948673248291, -2.033621072769165, -0.0771041139960289, -0.6293333768844604, -0.8232809901237488, -0.9568705558776855, 0.05568480119109154, -0.3533980248886018, 0.5543523517912661, 2.484691788611866, 9362.0, 30146.0, 35388.0, 9362.0, 8.390083312988281, 0.10140574723482132, -0.21876627206802368, -0.12127260863780975, 0.009830241091549397, -0.05733843147754669, 0.9992974400520325, -0.07113456726074219, -0.06647872924804688, 1.490478515625, 1.368896484375, 0.01885986328125, 1.489013671875, 1.623046875, 10.0, 1.4700461626052856, 1.5, 1.4700461626052856
18871, 0.7040818929672241, 6.62873649597168, -3.8033623695373535, -1.8804092407226562, -0.07038866728544235, -4.718400478363037, -2.0677335262298584, -0.07843953371047974, -0.631571352481842, -0.823321521282196, -0.9568847417831421, 0.05566824972629547, -0.3549584852194108, 0.5355732342771944, 2.497997713219042, 9362.0, 30146.0, 35388.0, 9362.0, 8.390083312988281, 0.0997721403837204, -0.02741828002035618, -0.11763747781515121, 0.008010655641555786, -0.05538575351238251, 0.9994418025016785, -0.07113456726074219, -0.06647872924804688, 1.490478515625, 1.368896484375, 0.01885986328125, 1.489013671875, 1.1806640625, 10.0, 1.46971595287323, 1.5, 1.46971595287323
