timeTick, roll, pitch, yaw, stateX, stateY, stateZ, stateVX, stateVY, stateVZ, otX0, otY0, otZ0, otRoll0, otPitch0, otYaw0, left wing, pitch motor, yaw motor, right wing, voltage, roll rate, pitch rate, yaw rate, A_x, A_y, A_z, current, i_raw, v_raw, airflow_voltage, airflow_speed, pot_Pitch, voltage_nKF, kFFx, state_vel, State_vel, volt_KF_vel
15840, -0.6646786332130432, 2.2700326442718506, 1.7977707386016846, 0, 0, 0, 0, 0, 0, -0.8316307663917542, -0.9707767367362976, 0.055251576006412506, -0.3705430197163004, -0.5444337103933776, 3.5982469873833884, 0, 0, 0, 0, 0, 0, 0, 0, 0, 0, 0, 0, 0, 0, 0, 0, 0, 0, 0, 0, 0, 0
15850, -0.6649959683418274, 2.26910400390625, 1.7980539798736572, 0.0001991988392546773, -5.1586896006483585e-05, -2.4713666439056396, 0.006054433528333902, -0.0015679342905059457, -0.3478771150112152, -0.8316510915756226, -0.9707563519477844, 0.05524224787950516, -0.38405853878222074, -0.5455600493491772, 3.5921530017690144, 9362.0, 30146.0, 35388.0, 9362.0, 0, -0.07476115971803665, -0.1998441368341446, -0.39094480872154236, 0.00109724304638803, -0.061909038573503494, 0.9975849986076355, 0, 0, 0, 0, 0, 0, 0, 0, 0, 0, 0
15860, -0.6642993688583374, 2.2712440490722656, 1.795114278793335, 0.0002402236423222348, -6.220822979230434e-05, -2.4748477935791016, 0.002150514628738165, -0.0005563542945310473, -0.3483426570892334, -0.8316556215286255, -0.9707615375518799, 0.05524177476763725, -0.3951271711448019, -0.5350482858200962, 3.5914876070767496, 9362.0, 30146.0, 35388.0, 9362.0, 0, 0.06354467570781708, 0.29140353202819824, -0.04736623913049698, 0.000416668743127957, -0.0615534745156765, 0.9970687627792358, 0, 0, 0, 1.42529296875, 0.0688018798828125, 0, 1.40478515625, 10.0, 1.0, 5.0, 1.420384407043457
15870, -0.6639315485954285, 2.269981622695923, 1.795096516609192, 0.00024218585167545825, -6.270282028708607e-05, -2.478332757949829, -0.001758005004376173, 0.0004576390783768147, -0.3486522138118744, -0.831403911113739, -0.9707655906677246, 0.05532146245241165, -0.4749815077910221, -0.48781582392308565, 3.670150406144092, 9362.0, 30146.0, 35388.0, 9362.0, 0, 0.07674410939216614, -0.106351338326931, -0.002265556249767542, -0.0010257881367579103, -0.06132850795984268, 0.9959396719932556, 0, 0, 0, 1.420166015625, 0.0621337890625, 1.4970703125, 1.341064453125, 10.0, 1.0, 5.0, 1.4203091859817505
15880, -0.6639323234558105, 2.2712483406066895, 1.7942280769348145, 0.00020505784777924418, -5.306630191626027e-05, -2.481821060180664, -0.005667600780725479, 0.001469666138291359, -0.349025696516037, -0.8316479921340942, -0.9707720279693604, 0.055233485996723175, -0.3776957034530085, -0.5344607989973724, 3.5900917893108355, 9362.0, 30146.0, 35388.0, 9362.0, 0, -0.05989011749625206, -0.07968287914991379, 0.11106999218463898, 0.00020499057427514344, -0.061420515179634094, 0.9986655116081238, 0, 0, 0, 1.428955078125, 0.073577880859375, 1.4970703125, 1.3916015625, 10.0, 1.0, 5.0, 1.4203319549560547
15890, -0.6652505993843079, 2.2705070972442627, 1.7952139377593994, 0.00012886212789453566, -3.331680272822268e-05, -2.485313653945923, -0.009571515955030918, 0.0024802929256111383, -0.3494860529899597, -0.8316478133201599, -0.9707754254341125, 0.05523660033941269, -0.38754183327354175, -0.5398647851202725, 3.5940806484458303, 9362.0, 30146.0, 35388.0, 9362.0, 0, 0.10969603806734085, -0.08192398399114609, 0.08705668151378632, 0.001009844127111137, -0.060413047671318054, 0.9973928332328796, 0, 0, 0, 1.43994140625, 0.089324951171875, 1.50146484375, 1.399658203125, 10.0, 1.0, 5.0, 1.4202545881271362
15900, -0.66534423828125, 2.2709572315216064, 1.794805884361267, 1.3577417121268809e-05, -3.4509484976297244e-06, -2.488809823989868, -0.01348545029759407, 0.003492807736620307, -0.3497508764266968, -0.8316462635993958, -0.9707857370376587, 0.0552593395113945, -0.3703655171122626, -0.5465080696955056, 3.5909663398716374, 9362.0, 30146.0, 35388.0, 9362.0, 0, 0.18470168113708496, 0.01202547736465931, 0.07692559063434601, -1.1110540981462691e-05, -0.06013041362166405, 0.9970970749855042, 0, 0, 0, 1.38720703125, 0.0291900634765625, 1.50146484375, 1.402587890625, 10.0, 1.0, 5.0, 1.4202077388763428
15910, -0.6637040376663208, 2.270498514175415, 1.795835256576538, -0.00014082525740377605, 3.654717147583142e-05, -2.492309093475342, -0.017395079135894775, 0.00450684130191803, -0.35009294748306274, -0.8316451907157898, -0.9707624912261963, 0.05525404214859009, -0.3868608497648339, -0.5392761127249059, 3.5938885635556943, 9362.0, 30146.0, 35388.0, 9362.0, 0, -0.027907714247703552, 0.036506958305835724, 0.026888107880949974, -0.0005056552472524345, -0.06021929159760475, 0.9985467195510864, 0, 0, 0, 1.434814453125, 0.081787109375, 1.48974609375, 1.433349609375, 10.0, 1.0, 5.0, 1.4201749563217163
15920, -0.6637247800827026, 2.2703793048858643, 1.7970038652420044, -0.00033432600321248174, 8.668588998261839e-05, -2.495811700820923, -0.02130509354174137, 0.005520838312804699, -0.35044538974761963, -0.8316259384155273, -0.9707744717597961, 0.0552484355866909, -0.373822539749402, -0.5415927573065744, 3.593685631043666, 9362.0, 30146.0, 35388.0, 9362.0, 0, -0.10277995467185974, -0.41942158341407776, 0.1454760581254959, 0.0007131460006348789, -0.06084401533007622, 0.9975760579109192, 0, 0, 0, 1.34765625, 0.0154571533203125, 1.48974609375, 1.41357421875, 10.0, 1.0, 5.0, 1.4202238321304321
15930, -0.6644572615623474, 2.272470235824585, 1.7978662252426147, -0.0005669482052326202, 0.00014695696881972253, -2.499317169189453, -0.025219358503818512, 0.006533297244459391, -0.3506700098514557, -0.8316493630409241, -0.9707804918289185, 0.05524713546037674, -0.37877417086114873, -0.5445588828981442, 3.5974992772501464, 9362.0, 30146.0, 35388.0, 9362.0, 0, -0.0939299538731575, 0.23156313598155975, 0.13721275329589844, -0.0005904550780542195, -0.06148160621523857, 0.995576024055481, 0, 0, 0, 1.385009765625, 0.0276336669921875, 1.4970703125, 1.405517578125, 10.0, 1.0, 5.0, 1.4202330112457275
15940, -0.6644119024276733, 2.2696352005004883, 1.799268126487732, -0.0008386900881305337, 0.0002173467364627868, -2.5028254985809326, -0.029129013419151306, 0.0075445943512022495, -0.3510053753852844, -0.8314670920372009, -0.9708405137062073, 0.05532297492027283, -0.4631158683927035, -0.4820759152182461, 3.674117560835965, 9362.0, 30146.0, 35388.0, 9362.0, 8.350414276123047, 0.039021655917167664, -0.3500518798828125, -0.05650758370757103, 0.0012825836893171072, -0.060538150370121, 0.9966499209403992, 0, 0, 0, 1.414306640625, 0.05517578125, 1.4970703125, 1.443603515625, 10.0, 1.0, 5.0, 1.4200372695922852
15950, -0.6649171710014343, 2.2728540897369385, 1.7975554466247559, -0.0011495130602270365, 0.00029784621438011527, -2.506338119506836, -0.03303563967347145, 0.00855520460754633, -0.35150769352912903, -0.8316555023193359, -0.9707846641540527, 0.055247627198696136, -0.37264098057557565, -0.5329006213066236, 3.5823898412056896, 9362.0, 30146.0, 35388.0, 9362.0, 8.350414276123047, 0.14275705814361572, 0.21343301236629486, 0.20135822892189026, 0.00025723892031237483, -0.060163673013448715, 0.9976957440376282, -0.045327238738536835, 0.08584022521972656, 1.5029296875, 1.41064453125, 0.0509490966796875, 1.49853515625, 1.4267578125, 10.0, 1.0, 5.0, 1.420123815536499
15960, -0.6639940738677979, 2.269181489944458, 1.7989219427108765, -0.0014993972145020962, 0.00038845656672492623, -2.509855270385742, -0.036941129714250565, 0.009566983208060265, -0.3519158959388733, -0.8316492438316345, -0.9707682728767395, 0.05524198338389397, -0.3816701961849054, -0.5328691909402608, 3.5816395856046293, 9362.0, 30146.0, 35388.0, 9362.0, 8.350414276123047, 0.05532814562320709, -0.24392160773277283, 0.08834534138441086, 0.001575286383740604, -0.06109904497861862, 0.9964357018470764, -0.045327238738536835, 0.08584022521972656, 1.5029296875, 1.420166015625, 0.0621337890625, 1.49853515625, 1.411376953125, 10.0, 1.0, 5.0, 1.4199726581573486
15970, -0.6644222736358643, 2.269355297088623, 1.800180196762085, -0.0018883761949837208, 0.0004891919670626521, -2.513376235961914, -0.04085470363497734, 0.010580009780824184, -0.35226142406463623, -0.8316506147384644, -0.970779299736023, 0.05523998662829399, -0.3725030910162092, -0.5366096460999188, 3.590098236190472, 9362.0, 30146.0, 35388.0, 9362.0, 8.350414276123047, -0.2396203577518463, 0.12946300208568573, 0.30260130763053894, 0.0012420709244906902, -0.06109468638896942, 0.9970411658287048, -0.045327238738536835, 0.08584022521972656, 1.5029296875, 1.455322265625, 0.1134796142578125, 1.497802734375, 1.379150390625, 10.0, 1.0, 5.0, 1.4199174642562866
15980, -0.6653479337692261, 2.268754243850708, 1.8024035692214966, -0.002316442085430026, 0.0006000457797199488, -2.5169010162353516, -0.04475850984454155, 0.011590668931603432, -0.35269325971603394, -0.8316442370414734, -0.9707714915275574, 0.05526576191186905, -0.38179453798283064, -0.5406556838321421, 3.5856818591351654, 9362.0, 30146.0, 35388.0, 9362.0, 8.350414276123047, 0.057707369327545166, -0.26982131600379944, -0.25953930616378784, 0.0004746760241687298, -0.06204758211970329, 0.9992886781692505, -0.045327238738536835, 0.08584022521972656, 1.5029296875, 1.399658203125, 0.0396575927734375, 1.497802734375, 1.342529296875, 10.0, 1.0, 5.0, 1.419890284538269
15990, -0.6648586988449097, 2.2715907096862793, 1.8014620542526245, -0.0027835655491799116, 0.0007210139883682132, -2.5204296112060547, -0.04866624251008034, 0.01260282564908266, -0.35303598642349243, -0.8316511511802673, -0.9707709550857544, 0.05522921681404114, -0.39002091875962125, -0.5395296521349735, 3.5942913038795203, 9362.0, 30146.0, 35388.0, 9362.0, 8.350414276123047, 0.12646803259849548, 0.15743166208267212, -0.055572982877492905, 0.000977783463895321, -0.059894412755966187, 0.997819721698761, -0.045327238738536835, 0.08584022521972656, 1.5029296875, 1.44580078125, 0.098236083984375, 1.4970703125, 1.418701171875, 10.0, 1.0, 5.0, 1.4198585748672485
16000, -0.6636335849761963, 2.27070689201355, 1.801669955253601, -0.003289791289716959, 0.0008521187701262534, -2.523960828781128, -0.05257890373468399, 0.013618198223412037, -0.3532302677631378, -0.831466794013977, -0.9708591103553772, 0.05531502515077591, -0.46483413145930363, -0.47549602254207457, 3.666022629904267, 9362.0, 30146.0, 35388.0, 9362.0, 8.350414276123047, 0.08589087426662445, -0.10940632224082947, -0.15856824815273285, 0.0008977522375062108, -0.05981923267245293, 0.9964129328727722, -0.045327238738536835, 0.08584022521972656, 1.5029296875, 1.42236328125, 0.0649566650390625, 1.4970703125, 1.401123046875, 10.0, 1.0, 5.0, 1.4199037551879883
16010, -0.6626051068305969, 2.2723228931427, 1.8017641305923462, -0.0038351458497345448, 0.000993367051705718, -2.5274946689605713, -0.05649202689528465, 0.014631439000368118, -0.35353392362594604, -0.8314571976661682, -0.9708498120307922, 0.05530620366334915, -0.47693126169845834, -0.49070312711674546, 3.66268857781718, 9362.0, 30146.0, 35388.0, 9362.0, 8.350414276123047, 0.09488698840141296, -0.1279885619878769, 0.03873734548687935, -0.0013629914028570056, -0.05970814451575279, 0.9953411817550659, -0.045327238738536835, 0.08584022521972656, 1.5029296875, 1.42822265625, 0.0726470947265625, 1.494140625, 1.452392578125, 10.0, 1.0, 5.0, 1.4199045896530151
16020, -0.6623224020004272, 2.2726035118103027, 1.8017489910125732, -0.004419601988047361, 0.0011447317665442824, -2.531032085418701, -0.06039920076727867, 0.015641499310731888, -0.3539469838142395, -0.831644594669342, -0.9707990288734436, 0.05525549501180649, -0.36031356075204696, -0.5465205129033563, 3.5920992881813416, 9362.0, 30146.0, 35388.0, 9362.0, 8.350414276123047, 0.08992448449134827, -0.05245588719844818, -0.020668186247348785, -0.0014283779310062528, -0.05883999541401863, 0.9975367188453674, -0.045327238738536835, 0.08584022521972656, 1.5029296875, 1.4150390625, 0.05596923828125, 1.494140625, 1.40478515625, 10.0, 1.0, 5.0, 1.419924020767212
16030, -0.6617768406867981, 2.2721190452575684, 1.8023231029510498, -0.005043123848736286, 0.0013061828212812543, -2.534574031829834, -0.06430516391992569, 0.016648709774017334, -0.3544577956199646, -0.8314831256866455, -0.9708325862884521, 0.05531644448637962, -0.4935245363926464, -0.4754495290066245, 3.662124107647786, 9362.0, 30146.0, 35388.0, 9362.0, 8.350414276123047, 0.06101756542921066, -0.046134479343891144, -0.11209580302238464, -0.000665201514493674, -0.0591823011636734, 0.9973994493484497, -0.045327238738536835, 0.08584022521972656, 1.5029296875, 1.435546875, 0.0829315185546875, 1.494140625, 1.446533203125, 10.0, 1.0, 5.0, 1.4197269678115845
16040, -0.6617638468742371, 2.2722768783569336, 1.8020447492599487, -0.005705744493752718, 0.0014777129981666803, -2.5381202697753906, -0.06821894645690918, 0.01765727438032627, -0.3547849953174591, -0.831643283367157, -0.9707695245742798, 0.05526493862271309, -0.3819802558559401, -0.5437628015181133, 3.5954548092527445, 9362.0, 30146.0, 35388.0, 9362.0, 8.350414276123047, 0.05749502405524254, -0.2242794781923294, 0.19316953420639038, 0.0002151719236280769, -0.05977394059300423, 0.9985980987548828, -0.045327238738536835, 0.08584022521972656, 1.5029296875, 1.43701171875, 0.085052490234375, 1.494140625, 1.437744140625, 10.0, 1.0, 5.0, 1.419614315032959
16050, -0.662678062915802, 2.2740025520324707, 1.8036242723464966, -0.006407503504306078, 0.001659325323998928, -2.5416696071624756, -0.0721328854560852, 0.018665220588445663, -0.35508689284324646, -0.8316487669944763, -0.9707578420639038, 0.05525321513414383, -0.4008734034635082, -0.5401340780037742, 3.5937271066228003, 9362.0, 30146.0, 35388.0, 9362.0, 8.350414276123047, -0.02545738033950329, -0.319088876247406, -0.057551782578229904, 0.0009036337723955512, -0.060940008610486984, 0.9963611960411072, -0.06562138348817825, -0.13815879821777344, 1.484619140625, 1.433349609375, 0.0797576904296875, 1.49560546875, 1.4208984375, 10.0, 1.0, 5.0, 1.4195765256881714
16060, -0.662945032119751, 2.2747719287872314, 1.8042370080947876, -0.007148416247218847, 0.0018510203808546066, -2.5452215671539307, -0.07604968547821045, 0.019673677161335945, -0.3553245961666107, -0.8315019011497498, -0.9708481431007385, 0.055345624685287476, -0.478234347326732, -0.480275424653712, 3.6658921476148496, 9362.0, 30146.0, 35388.0, 9362.0, 8.350414276123047, 0.03571677953004837, -0.17289718985557556, 0.036544449627399445, 0.0020084669813513756, -0.06013498082756996, 0.9966353178024292, -0.06562138348817825, -0.13815879821777344, 1.484619140625, 1.43115234375, 0.0766143798828125, 1.49560546875, 1.4501953125, 10.0, 1.0, 5.0, 1.419624924659729
16070, -0.6628510355949402, 2.2761385440826416, 1.8045960664749146, -0.007928475737571716, 0.002052797470241785, -2.548776865005493, -0.07996225357055664, 0.020681707188487053, -0.3557426929473877, -0.8314714431762695, -0.970871090888977, 0.05532042309641838, -0.4580208141960822, -0.4768877805130103, 3.666388403700994, 9362.0, 30146.0, 35388.0, 9362.0, 8.350414276123047, 0.12659865617752075, 0.020716551691293716, 0.20192210376262665, 0.0005580962751992047, -0.06099168583750725, 0.9987448453903198, -0.06562138348817825, -0.13815879821777344, 1.484619140625, 1.399658203125, 0.0396575927734375, 1.4970703125, 1.4150390625, 10.0, 1.0, 5.0, 1.419691801071167
16080, -0.6619678139686584, 2.276710271835327, 1.8059868812561035, -0.008747666142880917, 0.0022646563593298197, -2.5523364543914795, -0.08387584239244461, 0.021690044552087784, -0.35616928339004517, -0.8316432237625122, -0.9707870483398438, 0.055264003574848175, -0.37731813842395073, -0.5360691361307488, 3.5888073744958198, 9362.0, 30146.0, 35388.0, 9362.0, 8.350414276123047, 0.08185245096683502, -0.25810936093330383, 0.1631670892238617, 0.0005137167754583061, -0.06349598616361618, 0.9978607296943665, -0.06562138348817825, -0.13815879821777344, 1.484619140625, 1.439208984375, 0.0882415771484375, 1.4970703125, 1.39013671875, 10.0, 1.0, 5.0, 1.419581651687622
16090, -0.6618049144744873, 2.277411699295044, 1.8072658777236938, -0.009606045670807362, 0.0024866079911589622, -2.555899143218994, -0.08780013769865036, 0.022700205445289612, -0.35638687014579773, -0.8316659927368164, -0.970772385597229, 0.055249523371458054, -0.3859062899753761, -0.5199098159326923, 3.5946453297219003, 9362.0, 30146.0, 35388.0, 9362.0, 8.350414276123047, -0.08698068559169769, 0.20699326694011688, 0.2032076120376587, 0.0006756262737326324, -0.060777369886636734, 0.9943375587463379, -0.06562138348817825, -0.13815879821777344, 1.484619140625, 1.453125, 0.1099090576171875, 1.49853515625, 1.38134765625, 10.0, 1.0, 5.0, 1.4194508790969849
16100, -0.6617113351821899, 2.2785890102386475, 1.807816743850708, -0.01050365250557661, 0.0027186477091163397, -2.559464693069458, -0.09172119945287704, 0.023707661777734756, -0.3567095398902893, -0.8316391110420227, -0.9707627892494202, 0.055261701345443726, -0.3906648501614106, -0.5476080671807324, 3.603945781404404, 9362.0, 30146.0, 35388.0, 9362.0, 8.350414276123047, 0.07312370836734772, -0.022747421637177467, -0.14392676949501038, -0.0010526528349146247, -0.06206350401043892, 0.999079167842865, -0.06562138348817825, -0.13815879821777344, 1.484619140625, 1.40771484375, 0.0478363037109375, 1.49853515625, 1.42236328125, 10.0, 1.0, 5.0, 1.4194531440734863
16110, -0.6613940596580505, 2.2801599502563477, 1.8066086769104004, -0.011440426111221313, 0.00296074734069407, -2.5630345344543457, -0.0956336036324501, 0.02471223659813404, -0.3572773039340973, -0.8314909338951111, -0.9708417057991028, 0.05532402545213699, -0.482824448504468, -0.4703187216076401, 3.6583872607583454, 9362.0, 30146.0, 35388.0, 9362.0, 8.350414276123047, 0.21507982909679413, 0.2269333302974701, 0.23911543190479279, -0.0021568306256085634, -0.06104174628853798, 1.0009793043136597, -0.06562138348817825, -0.13815879821777344, 1.484619140625, 1.44287109375, 0.0936279296875, 1.499267578125, 1.437744140625, 10.0, 1.0, 5.0, 1.4193553924560547
16120, -0.6615983247756958, 2.279867649078369, 1.8066869974136353, -0.012416415847837925, 0.0032129124738276005, -2.566608190536499, -0.0995643362402916, 0.0257208663970232, -0.35743826627731323, -0.8314746618270874, -0.9708474278450012, 0.05531052127480507, -0.47350330715716915, -0.4742496969833496, 3.661329425386093, 9362.0, 30146.0, 35388.0, 9362.0, 8.350414276123047, 0.1118733212351799, -0.15626771748065948, -0.014633518643677235, 0.0006195775349624455, -0.06203542649745941, 1.0000360012054443, -0.06562138348817825, -0.13815879821777344, 1.484619140625, 1.45166015625, 0.107452392578125, 1.499267578125, 1.417236328125, 10.0, 1.0, 5.0, 1.4194998741149902
16130, -0.6613755226135254, 2.2814483642578125, 1.8059892654418945, -0.013431756757199764, 0.003475168952718377, -2.5701825618743896, -0.10350383818149567, 0.02673042006790638, -0.35744741559028625, -0.8314957618713379, -0.9708346128463745, 0.05534851551055908, -0.4920885040703018, -0.4694931886272684, 3.6532454200473934, 9362.0, 30146.0, 35388.0, 9362.0, 8.350414276123047, 0.05287599936127663, 0.08290524035692215, -0.2532278597354889, 0.0007466342649422586, -0.06200418248772621, 0.9996778964996338, -0.06562138348817825, -0.13815879821777344, 1.484619140625, 1.46923828125, 0.137359619140625, 1.4970703125, 1.44580078125, 10.0, 1.0, 5.0, 1.419539213180542
16140, -0.6622425317764282, 2.2812416553497314, 1.8046271800994873, -0.014486473985016346, 0.003747518640011549, -2.5737574100494385, -0.10743953287601471, 0.027739543467760086, -0.357538104057312, -0.831663191318512, -0.9707881808280945, 0.05525069683790207, -0.3731643487441385, -0.53088244967023, 3.589768639122441, 9362.0, 30146.0, 35388.0, 9362.0, 8.350414276123047, -0.049439284950494766, 0.02639634534716606, 0.05259751155972481, 0.00031064520590007305, -0.06210751831531525, 0.996979832649231, -0.06562138348817825, -0.13815879821777344, 1.484619140625, 1.4033203125, 0.043182373046875, 1.4970703125, 1.396728515625, 10.0, 1.0, 5.0, 1.4195528030395508
16150, -0.6628273129463196, 2.281175136566162, 1.8061678409576416, -0.015580550767481327, 0.00402995478361845, -2.577333450317383, -0.11137586832046509, 0.02874777652323246, -0.3576800227165222, -0.8314694166183472, -0.9708560705184937, 0.05528539419174194, -0.47396320580154017, -0.481168483667318, 3.6707596405271454, 9362.0, 30146.0, 35388.0, 9362.0, 8.350414276123047, -0.02692294865846634, 0.21156255900859833, 0.11456730216741562, 0.00040849987999536097, -0.060980070382356644, 0.9966410994529724, -0.05737029388546944, -0.19191741943359375, 1.480224609375, 1.41064453125, 0.0509490966796875, 1.49853515625, 1.409912109375, 10.0, 1.0, 5.0, 1.4195175170898438
16180, -0.6638079285621643, 2.285576581954956, 1.8076295852661133, -0.019098496064543724, 0.0049377316609025, -2.5880815982818604, -0.12315357476472855, 0.03177213296294212, -0.3588908314704895, -0.8316398859024048, -0.9707840085029602, 0.05524002015590668, -0.3854307671729891, -0.5440364268557971, 3.5937246128130518, 9362.0, 30146.0, 35388.0, 9362.0, 8.350414276123047, 0.02218490280210972, -0.3778945505619049, 0.10420185327529907, 0.00040849987999536097, -0.060980070382356644, 0.9966410994529724, -0.05737029388546944, -0.19191741943359375, 1.480224609375, 1.44140625, 0.0914459228515625, 1.49853515625, 1.45166015625, 10.0, 1.0, 5.0, 1.419568419456482
16200, -0.6609256267547607, 2.2899796962738037, 1.8033220767974854, -0.021640174090862274, 0.005593361333012581, -2.5952680110931396, -0.13101445138454437, 0.03379059582948685, -0.35976743698120117, -0.8314709663391113, -0.9708613157272339, 0.05532800406217575, -0.4682377052188591, -0.47795673459086174, 3.675203295938298, 9362.0, 30146.0, 35388.0, 9362.0, 8.350414276123047, 0.18320731818675995, 0.0985342264175415, -0.04010024294257164, 0.00040849987999536097, -0.060980070382356644, 0.9966410994529724, -0.05737029388546944, -0.19191741943359375, 1.480224609375, 1.430419921875, 0.0756378173828125, 1.49560546875, 1.399658203125, 10.0, 1.0, 5.0, 1.4195857048034668
16210, -0.6606577038764954, 2.290701150894165, 1.802748680114746, -0.022970018908381462, 0.005936300382018089, -2.598867654800415, -0.13495464622974396, 0.03479732200503349, -0.3601597845554352, -0.8314817547798157, -0.9708486199378967, 0.05530719459056854, -0.48519896741998375, -0.4816843525946126, 3.659568427805371, 9362.0, 30146.0, 35388.0, 9362.0, 8.350414276123047, -0.2729550004005432, -0.07024501264095306, 0.1354733407497406, 0.00040849987999536097, -0.060980070382356644, 0.9966410994529724, -0.05737029388546944, -0.19191741943359375, 1.480224609375, 1.38720703125, 0.0291900634765625, 1.49560546875, 1.408447265625, 10.0, 1.0, 5.0, 1.4195857048034668
16220, -0.6611126065254211, 2.2904603481292725, 1.8035978078842163, -0.024339253082871437, 0.00628929166123271, -2.6024715900421143, -0.1388920098543167, 0.03580101951956749, -0.3606364130973816, -0.8314671516418457, -0.9708548188209534, 0.05531401187181473, -0.46700351100846277, -0.4697769306994246, 3.6586949207495563, 9362.0, 30146.0, 35388.0, 9362.0, 8.350414276123047, 0.018830379471182823, -0.08488979190587997, -0.0005225714994594455, 0.00040849987999536097, -0.060980070382356644, 0.9966410994529724, -0.05737029388546944, -0.19191741943359375, 1.480224609375, 1.38720703125, 0.0291900634765625, 1.49560546875, 1.408447265625, 10.0, 1.0, 5.0, 1.4195857048034668
16250, -0.6613821387290955, 2.287727117538452, 1.8036882877349854, -0.028683366253972054, 0.0074085029773414135, -2.613309144973755, -0.15072041749954224, 0.03881389647722244, -0.36175063252449036, -0.8314887285232544, -0.9708567261695862, 0.05532536655664444, -0.47040727677494915, -0.4672879184023202, 3.6569360194058675, 9362.0, 30146.0, 35388.0, 9362.0, 8.350414276123047, 0.018830379471182823, -0.08488979190587997, -0.0005225714994594455, 0.00040849987999536097, -0.060980070382356644, 0.9966410994529724, -0.06217765063047409, -0.11127853393554688, 1.48681640625, 1.39599609375, 0.0362701416015625, 1.4970703125, 1.415771484375, 10.0, 1.0, 5.0, 1.4195293188095093
16270, -0.6611375212669373, 2.2879860401153564, 1.8035913705825806, -0.03177658095955849, 0.008204855024814606, -2.6205523014068604, -0.15859554708003998, 0.04082155227661133, -0.3626372516155243, -0.8314946889877319, -0.9708544611930847, 0.05531531199812889, -0.4697076752355385, -0.45740795278106816, 3.6603453803676014, 9362.0, 30146.0, 35388.0, 9362.0, 8.350414276123047, 0.08510374277830124, 0.14121606945991516, -0.25219854712486267, 0.00040849987999536097, -0.060980070382356644, 0.9966410994529724, -0.06217765063047409, -0.11127853393554688, 1.48681640625, 1.41064453125, 0.0509490966796875, 1.4970703125, 1.38427734375, 10.0, 1.0, 5.0, 1.4195293188095093
16280, -0.6608818173408508, 2.287846326828003, 1.802840232849121, -0.033382248133420944, 0.00861809216439724, -2.6241800785064697, -0.16253803670406342, 0.041825905442237854, -0.36290568113327026, -0.8314887285232544, -0.9708595275878906, 0.05533839762210846, -0.4699770569792478, -0.4715398851696193, 3.662477503837657, 9362.0, 30146.0, 35388.0, 9362.0, 8.350414276123047, -0.055382758378982544, -0.1438998132944107, -0.21449244022369385, 0.00040849987999536097, -0.060980070382356644, 0.9966410994529724, -0.06217765063047409, -0.11127853393554688, 1.48681640625, 1.3798828125, 0.0243377685546875, 1.4970703125, 1.38427734375, 10.0, 1.0, 5.0, 1.4195293188095093
16290, -0.6603805422782898, 2.2878031730651855, 1.8018189668655396, -0.03502733260393143, 0.009041381068527699, -2.6278107166290283, -0.16647905111312866, 0.04283185303211212, -0.3632078766822815, -0.8314770460128784, -0.970845103263855, 0.05531475320458412, -0.4682871064135411, -0.4667383396274829, 3.6736266695621387, 9362.0, 30146.0, 35388.0, 9362.0, 8.350414276123047, -0.055382758378982544, -0.1438998132944107, -0.21449244022369385, 0.00040849987999536097, -0.060980070382356644, 0.9966410994529724, -0.06217765063047409, -0.11127853393554688, 1.48681640625, 1.388671875, 0.03033447265625, 1.4970703125, 1.439208984375, 10.0, 1.0, 5.0, 1.4195293188095093
16320, -0.6610331535339355, 2.2918992042541504, 1.7990132570266724, -0.04019870609045029, 0.010371488519012928, -2.638728618621826, -0.17828154563903809, 0.045842673629522324, -0.36457446217536926, -0.8316373229026794, -0.9707668423652649, 0.05525064095854759, -0.38491984562774156, -0.5544065440018926, 3.59871661183505, 9362.0, 30146.0, 35388.0, 9362.0, 8.350414276123047, -0.055382758378982544, -0.1438998132944107, -0.21449244022369385, 0.00040849987999536097, -0.060980070382356644, 0.9966410994529724, -0.06217765063047409, -0.11127853393554688, 1.48681640625, 1.4296875, 0.07464599609375, 1.497802734375, 1.37255859375, 10.0, 1.0, 5.0, 1.4196676015853882
16350, -0.6581268906593323, 2.291757583618164, 1.7991220951080322, -0.045724932104349136, 0.011792031116783619, -2.6496729850769043, -0.19013728201389313, 0.048860590904951096, -0.36506417393684387, -0.8314906358718872, -0.9708374738693237, 0.05535854026675224, -0.4862169537242797, -0.4595605711024291, 3.6624832810635737, 9362.0, 30146.0, 35388.0, 9362.0, 8.350414276123047, 0.08985214680433273, 0.24226827919483185, 0.09054692089557648, 0.00040849987999536097, -0.060980070382356644, 0.9966410994529724, -0.04795721545815468, -0.23671722412109375, 1.4765625, 1.434814453125, 0.081787109375, 1.493408203125, 1.4619140625, 10.0, 1.0, 5.0, 1.4194443225860596
16370, -0.6574312448501587, 2.2898218631744385, 1.7967040538787842, -0.04960668087005615, 0.012789286673069, -2.656979560852051, -0.1980394572019577, 0.050865139812231064, -0.36553505063056946, -0.8316398859024048, -0.9707859754562378, 0.055226460099220276, -0.3741586974106647, -0.5427744620157, 3.60264208899558, 9362.0, 30146.0, 35388.0, 9362.0, 8.350414276123047, -0.04885655269026756, 0.06233765929937363, -0.010614678263664246, 0.00040849987999536097, -0.060980070382356644, 0.9966410994529724, -0.04795721545815468, -0.23671722412109375, 1.4765625, 1.3974609375, 0.03759765625, 1.497802734375, 1.452392578125, 10.0, 1.0, 5.0, 1.4192030429840088
16380, -0.6563042402267456, 2.2905538082122803, 1.797595500946045, -0.051606807857751846, 0.013302934356033802, -2.6606361865997314, -0.20198586583137512, 0.05186446011066437, -0.36580830812454224, -0.8314752578735352, -0.9708611965179443, 0.055305249989032745, -0.4488905801561034, -0.471947360701364, 3.6705997826576175, 9362.0, 30146.0, 35388.0, 9362.0, 8.350414276123047, 0.07546571642160416, 0.539446234703064, -0.12088403850793839, 0.00040849987999536097, -0.060980070382356644, 0.9966410994529724, -0.04795721545815468, -0.23671722412109375, 1.4765625, 1.39306640625, 0.0337982177734375, 1.497802734375, 1.43408203125, 10.0, 1.0, 5.0, 1.419317603111267
16400, -0.655407726764679, 2.285309314727783, 1.7977045774459839, -0.055725377053022385, 0.014360204339027405, -2.667959213256836, -0.20987480878829956, 0.0538623072206974, -0.3664127290248871, -0.8316429853439331, -0.970783531665802, 0.055263884365558624, -0.37526732965240717, -0.5403938203407392, 3.59955033836177, 9362.0, 30146.0, 35388.0, 9362.0, 8.350414276123047, -0.09200841188430786, 0.023771189153194427, -0.009145945310592651, 0.00040849987999536097, -0.060980070382356644, 0.9966410994529724, -0.04795721545815468, -0.23671722412109375, 1.4765625, 1.35498046875, 0.01556396484375, 1.4970703125, 1.41943359375, 10.0, 1.0, 5.0, 1.4191877841949463
16440, -0.6538698077201843, 2.2849321365356445, 1.799822449684143, -0.06443535536527634, 0.016594374552369118, -2.68264102935791, -0.2256217896938324, 0.05784361809492111, -0.36771103739738464, -0.8316519260406494, -0.9707677960395813, 0.05525853484869003, -0.393504521653664, -0.5325587980950104, 3.597201014728489, 9362.0, 30146.0, 35388.0, 9362.0, 8.350414276123047, -0.009142125956714153, -0.21316637098789215, 0.07839903980493546, 0.00040849987999536097, -0.060980070382356644, 0.9966410994529724, -0.04795721545815468, -0.23671722412109375, 1.4765625, 1.43408203125, 0.080810546875, 1.5, 1.41943359375, 10.0, 1.0, 5.0, 1.4193249940872192
16450, -0.6539793610572815, 2.2855348587036133, 1.800238013267517, -0.06443535536527634, 0.016594374552369118, -2.68264102935791, -0.2256217896938324, 0.05784361809492111, -0.36771103739738464, -0.8316478133201599, -0.9707954525947571, 0.05525537207722664, -0.3707986718001002, -0.5310148480571684, 3.59843795329829, 9362.0, 30146.0, 35388.0, 9362.0, 8.350414276123047, 0.11192081868648529, 0.21748849749565125, -0.17377540469169617, 0.00040849987999536097, -0.060980070382356644, 0.9966410994529724, -0.02817407064139843, -0.11127853393554688, 1.48681640625, 1.40625, 0.04620361328125, 1.5, 1.41943359375, 10.0, 1.0, 5.0, 1.4193249940872192
16510, -0.6557019948959351, 2.284135580062866, 1.8007726669311523, -0.08119256794452667, 0.020886989310383797, -2.708468198776245, -0.25317102670669556, 0.06480947881937027, -0.370014488697052, -0.8314610123634338, -0.9708744883537292, 0.05527740716934204, -0.4571827532777409, -0.483960134976428, 3.6762834569637515, 9362.0, 30146.0, 35388.0, 9362.0, 8.350414276123047, -0.08550280332565308, -0.04747173190116882, 0.12840425968170166, 0.00040849987999536097, -0.060980070382356644, 0.9966410994529724, -0.02817407064139843, -0.11127853393554688, 1.48681640625, 1.43994140625, 0.089324951171875, 1.496337890625, 1.452392578125, 10.0, 1.0, 5.0, 1.4190587997436523
16520, -0.6556562185287476, 2.2847390174865723, 1.799235224723816, -0.08374401181936264, 0.02154008112847805, -2.7121684551239014, -0.2571176290512085, 0.06580870598554611, -0.3700585663318634, -0.8316484093666077, -0.9707635641098022, 0.05522247403860092, -0.3883636335137086, -0.5380621663255454, 3.599505425059023, 9362.0, 30146.0, 35388.0, 9362.0, 8.350414276123047, 0.040362339466810226, -0.0025923068169504404, 0.02855139784514904, 0.00040849987999536097, -0.060980070382356644, 0.9966410994529724, -0.02817407064139843, -0.11127853393554688, 1.48681640625, 1.3828125, 0.0261077880859375, 1.496337890625, 1.412109375, 10.0, 1.0, 5.0, 1.4190587997436523
16570, -0.652437686920166, 2.2857608795166016, 1.79977548122406, -0.09709178656339645, 0.024955125525593758, -2.7307066917419434, -0.27678871154785156, 0.07078976184129715, -0.3715232014656067, -0.8316484689712524, -0.9707674980163574, 0.055235832929611206, -0.38705390922566646, -0.5412521492535802, 3.594592073198693, 9362.0, 30146.0, 35388.0, 9362.0, 8.350414276123047, -0.01842077262699604, 0.03263097256422043, 0.09640657156705856, 0.00040849987999536097, -0.060980070382356644, 0.9966410994529724, -0.04022565856575966, -0.03959846496582031, 1.49267578125, 1.388671875, 0.03033447265625, 1.49853515625, 1.412109375, 10.0, 1.0, 5.0, 1.418845534324646
16580, -0.6517448425292969, 2.2863430976867676, 1.7996913194656372, -0.09987934678792953, 0.025667985901236534, -2.7344236373901367, -0.2807227671146393, 0.07178222388029099, -0.37184998393058777, -0.8314656019210815, -0.9708481431007385, 0.05529618263244629, -0.4743905269499086, -0.46946448199361157, 3.664035956493996, 9362.0, 30146.0, 35388.0, 9362.0, 8.350414276123047, 0.24337241053581238, 0.06619107723236084, 0.06796778738498688, 0.00040849987999536097, -0.060980070382356644, 0.9966410994529724, -0.04022565856575966, -0.03959846496582031, 1.49267578125, 1.414306640625, 0.05517578125, 1.49853515625, 1.36962890625, 10.0, 1.0, 5.0, 1.418845534324646
16610, -0.6502656936645508, 2.281552314758301, 1.8022971153259277, -0.10847806930541992, 0.027866004034876823, -2.745596170425415, -0.2925232946872711, 0.07475072145462036, -0.37301284074783325, -0.8314680457115173, -0.9708375334739685, 0.05535314232110977, -0.4892675088677728, -0.4707088657056602, 3.6583985405842823, 9362.0, 30146.0, 35388.0, 9362.0, 8.350414276123047, -0.10874676704406738, -0.16288816928863525, -0.21301639080047607, 0.000683253223542124, -0.062352120876312256, 0.9955170154571533, -0.04022565856575966, -0.03959846496582031, 1.49267578125, 1.412109375, 0.0526123046875, 1.497802734375, 1.433349609375, 10.0, 1.0, 5.0, 1.4184765815734863
16620, -0.6501470804214478, 2.281977653503418, 1.801267385482788, -0.11142294853925705, 0.028618453070521355, -2.7493278980255127, -0.29645246267318726, 0.07573919743299484, -0.3733288049697876, -0.8316302299499512, -0.9707764387130737, 0.05523567646741867, -0.38902252005528415, -0.5502659788909341, 3.5984947654698383, 9362.0, 30146.0, 35388.0, 9362.0, 8.350414276123047, -0.133709117770195, 0.11839190125465393, 0.07653596252202988, 0.000683253223542124, -0.062352120876312256, 0.9955170154571533, -0.04022565856575966, -0.03959846496582031, 1.49267578125, 1.376953125, 0.0225982666015625, 1.497802734375, 1.40478515625, 10.0, 1.0, 5.0, 1.4184679985046387
16660, -0.6492511034011841, 2.283168077468872, 1.7997018098831177, -0.1235949918627739, 0.03172694519162178, -2.7642955780029297, -0.3121646046638489, 0.07969008386135101, -0.37471070885658264, -0.8316624760627747, -0.9707983732223511, 0.05524410307407379, -0.3651829890102978, -0.5329252139116818, 3.603765023061303, 9362.0, 30146.0, 35388.0, 9362.0, 8.350414276123047, 0.27072784304618835, -0.04693301394581795, 0.10412783920764923, 0.0031261213589459658, -0.0588868074119091, 0.9980801939964294, -0.05336405709385872, -0.03959846496582031, 1.49267578125, 1.45166015625, 0.107452392578125, 1.5, 1.431884765625, 10.0, 1.0, 5.0, 1.4184499979019165
16670, -0.6479792594909668, 2.2835826873779297, 1.800778865814209, -0.12705257534980774, 0.03260950371623039, -2.7684195041656494, -0.31648823618888855, 0.08077510446310043, -0.3750743865966797, -0.8316348195075989, -0.9707974791526794, 0.05523384362459183, -0.375051514718222, -0.560301335056721, 3.6041885674658247, 9362.0, 30146.0, 35388.0, 9362.0, 8.350414276123047, 0.27072784304618835, -0.04693301394581795, 0.10412783920764923, 0.0031261213589459658, -0.0588868074119091, 0.9980801939964294, -0.05336405709385872, -0.03959846496582031, 1.49267578125, 1.45166015625, 0.107452392578125, 1.5, 1.431884765625, 10.0, 1.0, 5.0, 1.4184499979019165
16700, -0.6464632153511047, 2.2830545902252197, 1.8008352518081665, -0.13672399520874023, 0.035077039152383804, -2.7796895503997803, -0.32828038930892944, 0.08372730761766434, -0.3760625720024109, -0.8314938545227051, -0.9708476662635803, 0.055321432650089264, -0.4791742764945077, -0.4605023314060759, 3.6563985203490987, 9362.0, 30146.0, 35388.0, 9362.0, 8.350414276123047, 0.025829989463090897, 0.25823310017585754, 0.4524184763431549, 0.0031261213589459658, -0.0588868074119091, 0.9980801939964294, -0.05336405709385872, -0.03959846496582031, 1.49267578125, 1.43994140625, 0.089324951171875, 1.49267578125, 1.39599609375, 10.0, 1.0, 5.0, 1.4185101985931396
16710, -0.6466400623321533, 2.282764434814453, 1.8033506870269775, -0.14002639055252075, 0.03591920807957649, -2.7834527492523193, -0.33220013976097107, 0.08470657467842102, -0.3765982389450073, -0.8314507007598877, -0.9708486199378967, 0.055300455540418625, -0.47176305281949954, -0.49228018025360143, 3.666744373513984, 9362.0, 30146.0, 35388.0, 9362.0, 8.350414276123047, 0.030731819570064545, -0.08823136985301971, 0.16840286552906036, 0.0031261213589459658, -0.0588868074119091, 0.9980801939964294, -0.05336405709385872, -0.03959846496582031, 1.49267578125, 1.401123046875, 0.041015625, 1.49267578125, 1.3857421875, 10.0, 1.0, 5.0, 1.4185101985931396
16750, -0.64701247215271, 2.2834665775299072, 1.8058184385299683, -0.15362827479839325, 0.039385825395584106, -2.7985575199127197, -0.3479071259498596, 0.0886293575167656, -0.37836146354675293, -0.8316646814346313, -0.9707902669906616, 0.05524962395429611, -0.3793626742787061, -0.5181335275456718, 3.5908448998087015, 9362.0, 30146.0, 35388.0, 9362.0, 8.350414276123047, 0.13581065833568573, 0.12746956944465637, -0.2452395260334015, 0.0031261213589459658, -0.0588868074119091, 0.9980801939964294, -0.04738551750779152, 0.04104042053222656, 1.499267578125, 1.42236328125, 0.0649566650390625, 1.500732421875, 1.358642578125, 10.0, 1.0, 5.0, 1.4181360006332397
16760, -0.647068440914154, 2.28407883644104, 1.8025788068771362, -0.1571270078420639, 0.04027702659368515, -2.8023431301116943, -0.35183826088905334, 0.08961103111505508, -0.378741979598999, -0.8316368460655212, -0.9707804322242737, 0.05522606149315834, -0.38436205042392474, -0.5454969863184544, 3.6031989952844508, 9362.0, 30146.0, 35388.0, 9362.0, 8.350414276123047, 0.0617440864443779, -0.08377600461244583, -0.21125152707099915, 0.0031261213589459658, -0.0588868074119091, 0.9980801939964294, -0.04738551750779152, 0.04104042053222656, 1.499267578125, 1.41796875, 0.05950927734375, 1.500732421875, 1.358642578125, 10.0, 1.0, 5.0, 1.4181360006332397
16780, -0.6469456553459167, 2.2867565155029297, 1.8025461435317993, -0.1642424613237381, 0.04208889976143837, -2.8099231719970703, -0.3597111999988556, 0.09157705307006836, -0.37917667627334595, -0.8316364288330078, -0.9707868695259094, 0.055247243493795395, -0.37968966521671876, -0.5519410994137957, 3.5980309425748898, 9362.0, 30146.0, 35388.0, 9362.0, 8.350414276123047, 0.09133615344762802, -0.18810057640075684, 0.060011617839336395, 0.0031261213589459658, -0.0588868074119091, 0.9980801939964294, -0.04738551750779152, 0.04104042053222656, 1.499267578125, 1.36376953125, 0.017181396484375, 1.49853515625, 1.4091796875, 10.0, 1.0, 5.0, 1.4180799722671509
16810, -0.6458073258399963, 2.285757303237915, 1.805701732635498, -0.17521098256111145, 0.044880375266075134, -2.8213119506835938, -0.3715221881866455, 0.09451814740896225, -0.38014981150627136, -0.831612229347229, -0.970771074295044, 0.055232737213373184, -0.3839809227092194, -0.5488208848258864, 3.5963619352165193, 9362.0, 30146.0, 35388.0, 9362.0, 8.350414276123047, -0.006524496246129274, 0.08085665106773376, 0.1200416162610054, 0.0031261213589459658, -0.0588868074119091, 0.9980801939964294, -0.04738551750779152, 0.04104042053222656, 1.499267578125, 1.3740234375, 0.0210723876953125, 1.4970703125, 1.361572265625, 10.0, 1.0, 5.0, 1.4181345701217651
16850, -0.6464027166366577, 2.2869515419006348, 1.8062760829925537, -0.19038696587085724, 0.048739440739154816, -2.8365414142608643, -0.38727182149887085, 0.09843682497739792, -0.38141754269599915, -0.8316401243209839, -0.9707735776901245, 0.055220577865839005, -0.3774547709806491, -0.5449503120503607, 3.5978955935396444, 9362.0, 30146.0, 35388.0, 9362.0, 8.350414276123047, -0.057850565761327744, 0.41795215010643005, 0.11358704417943954, 0.0031261213589459658, -0.0588868074119091, 0.9980801939964294, -0.039939988404512405, -0.03959846496582031, 1.49267578125, 1.377685546875, 0.023040771484375, 1.4970703125, 1.390869140625, 10.0, 1.0, 5.0, 1.4178597927093506
16870, -0.6471648812294006, 2.288170337677002, 1.8056585788726807, -0.19821108877658844, 0.05072776600718498, -2.8441789150238037, -0.39513900876045227, 0.10039529204368591, -0.3823409378528595, -0.8316490054130554, -0.9707821607589722, 0.05525192618370056, -0.3680690601015829, -0.5472048689541964, 3.598298964251848, 9362.0, 30146.0, 35388.0, 9362.0, 8.350414276123047, 0.052076708525419235, -0.31537893414497375, -0.12425656616687775, 0.0031261213589459658, -0.0588868074119091, 0.9980801939964294, -0.039939988404512405, -0.03959846496582031, 1.49267578125, 1.4267578125, 0.070709228515625, 1.4970703125, 1.3857421875, 10.0, 1.0, 5.0, 1.4178597927093506
16940, -0.6448955535888672, 2.290235757827759, 1.806363582611084, -0.22262853384017944, 0.056927915662527084, -2.8671748638153076, -0.4187670052051544, 0.10626828670501709, -0.38446107506752014, -0.8314545750617981, -0.9708450436592102, 0.05531292408704758, -0.48295600211230255, -0.4856430320784568, 3.6685870884645015, 9362.0, 30146.0, 35388.0, 9362.0, 8.350414276123047, -0.011727397330105305, 0.06512082368135452, -0.07643949240446091, 0.0031261213589459658, -0.0588868074119091, 0.9980801939964294, -0.039939988404512405, -0.03959846496582031, 1.49267578125, 1.412109375, 0.0526123046875, 1.5, 1.436279296875, 10.0, 1.0, 5.0, 1.417343020439148
17000, -0.6456909775733948, 2.290739059448242, 1.8103554248809814, -0.2529081702232361, 0.0646059662103653, -2.894170045852661, -0.44637587666511536, 0.1131076067686081, -0.38673675060272217, -0.8316690921783447, -0.9707446694374084, 0.055246077477931976, -0.39811970625557314, -0.5314216260771616, 3.5954023267789497, 9362.0, 30146.0, 35388.0, 9362.0, 8.350414276123047, -0.22827118635177612, 0.21705546975135803, 0.21975843608379364, 0.0031261213589459658, -0.0588868074119091, 0.9980801939964294, -0.026630818843841553, 0.05000114440917969, 1.5, 1.373291015625, 0.0207366943359375, 1.49853515625, 1.398193359375, 10.0, 1.0, 5.0, 1.4166035652160645
17010, -0.6459175944328308, 2.289043426513672, 1.8119573593139648, -0.2573916018009186, 0.06574193388223648, -2.8980398178100586, -0.4503105878829956, 0.11408542096614838, -0.38723430037498474, -0.8316364288330078, -0.9707845449447632, 0.05525955930352211, -0.3764845138419473, -0.5485098247228279, 3.6094502844456855, 9362.0, 30146.0, 35388.0, 9362.0, 8.350414276123047, -0.22827118635177612, 0.21705546975135803, 0.21975843608379364, 0.0031261213589459658, -0.0588868074119091, 0.9980801939964294, -0.026630818843841553, 0.05000114440917969, 1.5, 1.38720703125, 0.0291900634765625, 1.49853515625, 1.435546875, 10.0, 1.0, 5.0, 1.4166035652160645
17060, -0.6435537338256836, 2.289357900619507, 1.8137329816818237, -0.28040003776550293, 0.07156846672296524, -2.917440414428711, -0.4700269401073456, 0.11897510290145874, -0.3886945843696594, -0.8315930366516113, -0.9707410931587219, 0.05523457005620003, -0.3679548909085303, -0.5610626624018948, 3.5791695858651247, 9362.0, 30146.0, 35388.0, 9362.0, 8.350414276123047, -0.06165748089551926, -0.03825082257390022, -0.07300927489995956, 0.0031261213589459658, -0.0588868074119091, 0.9980801939964294, -0.03977147489786148, -0.0037593841552734375, 1.49560546875, 1.35498046875, 0.01556396484375, 1.49853515625, 1.382080078125, 10.0, 1.0, 5.0, 1.416474461555481
17090, -0.6427597999572754, 2.2886669635772705, 1.8141264915466309, -0.29467839002609253, 0.07518165558576584, -2.9291114807128906, -0.4818650782108307, 0.12190353870391846, -0.38939937949180603, -0.8315070271492004, -0.9708124399185181, 0.055321238934993744, -0.49948165712006404, -0.4625521030118591, 3.666273468743628, 9362.0, 30146.0, 35388.0, 9362.0, 8.350414276123047, -0.06165748089551926, -0.03825082257390022, -0.07300927489995956, 0.0031261213589459658, -0.0588868074119091, 0.9980801939964294, -0.03977147489786148, -0.0037593841552734375, 1.49560546875, 1.450927734375, 0.1063690185546875, 1.5, 1.399658203125, 10.0, 1.0, 5.0, 1.416226863861084
17110, -0.6419890522956848, 2.2872440814971924, 1.8180338144302368, -0.3043944537639618, 0.07763918489217758, -2.9369075298309326, -0.4897420108318329, 0.1238495334982872, -0.3901926279067993, -0.83162522315979, -0.9707757830619812, 0.05523961782455444, -0.3869338848553288, -0.5570840539456015, 3.6096333862051, 9362.0, 30146.0, 35388.0, 9362.0, 8.350414276123047, 0.1368192583322525, -0.09530586749315262, -0.012732215225696564, 0.0031261213589459658, -0.0588868074119091, 0.9980801939964294, -0.03977147489786148, -0.0037593841552734375, 1.49560546875, 1.41357421875, 0.0542449951171875, 1.5, 1.388671875, 10.0, 1.0, 5.0, 1.416245937347412
17120, -0.6430851817131042, 2.288977861404419, 1.8173646926879883, -0.30931153893470764, 0.07888253778219223, -2.9408118724823, -0.49367380142211914, 0.12482035160064697, -0.39069002866744995, -0.8314970135688782, -0.9708351492881775, 0.05530891567468643, -0.4876105488168946, -0.447484235421598, 3.6698457861816927, 9362.0, 30146.0, 35388.0, 9362.0, 8.350414276123047, -0.01816984824836254, -0.2823318541049957, -0.19086353480815887, 0.0031261213589459658, -0.0588868074119091, 0.9980801939964294, -0.03977147489786148, -0.0037593841552734375, 1.49560546875, 1.41357421875, 0.0542449951171875, 1.5, 1.388671875, 10.0, 1.0, 5.0, 1.416245937347412
17130, -0.6433514952659607, 2.2893083095550537, 1.8164441585540771, -0.31426793336868286, 0.08013559132814407, -2.944721221923828, -0.4976053535938263, 0.1257908046245575, -0.39117759466171265, -0.8314866423606873, -0.9708801507949829, 0.05530089512467384, -0.453429968169474, -0.46405763366735187, 3.6768424614270754, 9362.0, 30146.0, 35388.0, 9362.0, 8.350414276123047, -0.11005383729934692, 0.26711133122444153, -0.18062685430049896, 0.0031261213589459658, -0.0588868074119091, 0.9980801939964294, -0.03977147489786148, -0.0037593841552734375, 1.49560546875, 1.37109375, 0.0197906494140625, 1.5, 1.41943359375, 10.0, 1.0, 5.0, 1.416245937347412
17180, -0.6450617909431458, 2.288301944732666, 1.8170101642608643, -0.3396408259868622, 0.08654693514108658, -2.9643232822418213, -0.5173110365867615, 0.13066589832305908, -0.3929789066314697, -0.8314581513404846, -0.9708208441734314, 0.05530121549963951, -0.4839016043880001, -0.4804011670289867, 3.672427680764343, 9362.0, 30146.0, 35388.0, 9362.0, 8.350414276123047, -0.09486646950244904, -0.18007174134254456, 0.103731170296669, 0.0031261213589459658, -0.0588868074119091, 0.9980801939964294, -0.05112918093800545, -0.03959846496582031, 1.49267578125, 1.4033203125, 0.043182373046875, 1.5, 1.39306640625, 10.0, 1.0, 5.0, 1.416166067123413
17210, -0.6455615162849426, 2.288839340209961, 1.8191449642181396, -0.35533764958381653, 0.09051092714071274, -2.9761242866516113, -0.5291330814361572, 0.13359807431697845, -0.39401546120643616, -0.8316471576690674, -0.9707702994346619, 0.055248063057661057, -0.38581011298087026, -0.5530208931826621, 3.586836890051132, 9362.0, 30146.0, 35388.0, 9362.0, 8.350414276123047, 0.01547185704112053, -0.0672709047794342, 0.08597569912672043, 0.0031261213589459658, -0.0588868074119091, 0.9980801939964294, -0.05112918093800545, -0.03959846496582031, 1.49267578125, 1.434814453125, 0.081787109375, 1.50146484375, 1.405517578125, 10.0, 1.0, 5.0, 1.416249394416809
17230, -0.6441500782966614, 2.2842254638671875, 1.8200777769088745, -0.36599886417388916, 0.0932023748755455, -2.9840168952941895, -0.5369918942451477, 0.135547935962677, -0.3951605558395386, -0.8314729332923889, -0.9708694815635681, 0.05530069023370743, -0.46827521909091135, -0.4715283730839701, 3.6794344126511236, 9362.0, 30146.0, 35388.0, 9362.0, 8.350414276123047, -0.06301570683717728, 0.16576451063156128, 0.025592133402824402, 0.0031261213589459658, -0.0588868074119091, 0.9980801939964294, -0.05112918093800545, -0.03959846496582031, 1.49267578125, 1.43994140625, 0.089324951171875, 1.49560546875, 1.4091796875, 10.0, 1.0, 5.0, 1.416249394416809
17270, -0.6442882418632507, 2.2791383266448975, 1.8225303888320923, -0.38779377937316895, 0.09870248287916183, -2.999835252761841, -0.552749514579773, 0.13945592939853668, -0.3957909047603607, -0.831637978553772, -0.9707794189453125, 0.055235251784324646, -0.3824403619775418, -0.5561839710113361, 3.605437038434273, 9362.0, 30146.0, 35388.0, 9362.0, 8.350414276123047, -0.0930282473564148, 0.1442713886499405, 0.4556831419467926, 0.0031261213589459658, -0.0588868074119091, 0.9980801939964294, -0.031820040196180344, -0.06647872924804688, 1.490478515625, 1.40478515625, 0.0446624755859375, 1.49560546875, 1.43408203125, 10.0, 1.0, 5.0, 1.4159703254699707
17300, -0.644081175327301, 2.2833309173583984, 1.8227453231811523, -0.404552698135376, 0.10293002426624298, -3.0117292404174805, -0.5645167827606201, 0.14238208532333374, -0.397036612033844, -0.8316302299499512, -0.9707812666893005, 0.055241797119379044, -0.3678580894097309, -0.544675357205989, 3.595489069568704, 9362.0, 30146.0, 35388.0, 9362.0, 8.350414276123047, 0.2821725606918335, 0.24468083679676056, -0.19981181621551514, 0.0031261213589459658, -0.0588868074119091, 0.9980801939964294, -0.031820040196180344, -0.06647872924804688, 1.490478515625, 1.41650390625, 0.0577545166015625, 1.497802734375, 1.376953125, 10.0, 1.0, 5.0, 1.4156193733215332
17330, -0.6425104737281799, 2.2837157249450684, 1.8179411888122559, -0.4216651916503906, 0.10724543780088425, -3.0236518383026123, -0.5763152241706848, 0.14530952274799347, -0.39780765771865845, -0.8316383957862854, -0.9707873463630676, 0.055228203535079956, -0.38764501330226436, -0.539464596572941, 3.600883711618564, 9362.0, 30146.0, 35388.0, 9362.0, 8.350414276123047, 0.23685100674629211, -0.0469609834253788, -0.16659283638000488, 0.0031261213589459658, -0.0588868074119091, 0.9980801939964294, -0.031820040196180344, -0.06647872924804688, 1.490478515625, 1.43701171875, 0.085052490234375, 1.4970703125, 1.412109375, 10.0, 1.0, 5.0, 1.4154675006866455
17350, -0.642257034778595, 2.2832353115081787, 1.821552038192749, -0.42744800448417664, 0.10870340466499329, -3.0276317596435547, -0.5802445411682129, 0.14628401398658752, -0.3981640040874481, -0.8313792943954468, -0.9708348512649536, 0.055293720215559006, -0.43806640333797925, -0.49397225060312167, 3.6721211109173773, 9362.0, 30146.0, 35388.0, 9362.0, 8.350414276123047, 0.014403888955712318, 0.2039095014333725, 0.14712586998939514, 0.0031261213589459658, -0.0588868074119091, 0.9980801939964294, -0.046701639890670776, -0.1291980743408203, 1.4853515625, 1.40185546875, 0.0417938232421875, 1.4970703125, 1.387939453125, 10.0, 1.0, 5.0, 1.4153778553009033
17380, -0.6446981430053711, 2.283000946044922, 1.8222856521606445, -0.4450322687625885, 0.11313574016094208, -3.0395898818969727, -0.5920463800430298, 0.14920568466186523, -0.39890313148498535, -0.8314855694770813, -0.9709030389785767, 0.05532439053058624, -0.4489439815916232, -0.4608986077655004, 3.671394693797262, 9362.0, 30146.0, 35388.0, 9362.0, 8.350414276123047, 0.10365071147680283, 0.28243759274482727, 0.13638058304786682, 0.0031261213589459658, -0.0588868074119091, 0.9980801939964294, -0.046701639890670776, -0.1291980743408203, 1.4853515625, 1.36962890625, 0.01910400390625, 1.4970703125, 1.354248046875, 10.0, 1.0, 5.0, 1.4151531457901
17430, -0.6428861618041992, 2.2819254398345947, 1.8197016716003418, -0.48126325011253357, 0.12226373702287674, -3.063568592071533, -0.6156389713287354, 0.15506058931350708, -0.40058469772338867, -0.8316388130187988, -0.9707823395729065, 0.05527700111269951, -0.3857331709724673, -0.5475809839382464, 3.595318214042192, 9362.0, 30146.0, 35388.0, 9362.0, 8.350414276123047, 0.09116168320178986, -0.23349878191947937, -0.08483102172613144, 0.0009055351256392896, -0.0610923245549202, 0.9945274591445923, -0.046701639890670776, -0.1291980743408203, 1.4853515625, 1.408447265625, 0.0485382080078125, 1.4970703125, 1.39306640625, 10.0, 1.0, 5.0, 1.415075659751892
17450, -0.6449422240257263, 2.2804596424102783, 1.8184831142425537, -0.4936544597148895, 0.1253843754529953, -3.0715909004211426, -0.6234842538833618, 0.15700483322143555, -0.40153834223747253, -0.8313819766044617, -0.9707769155502319, 0.055302396416664124, -0.4864932145686416, -0.506849884853608, 3.662578623919171, 9362.0, 30146.0, 35388.0, 9362.0, 8.350414276123047, 0.09116168320178986, -0.23349878191947937, -0.08483102172613144, 0.0009055351256392896, -0.0610923245549202, 0.9945274591445923, -0.04957215487957001, -0.03959846496582031, 1.49267578125, 1.34619140625, 0.015594482421875, 1.4970703125, 1.41943359375, 10.0, 1.0, 5.0, 1.415142297744751
17470, -0.6437240839004517, 2.28086256980896, 1.8196749687194824, -0.5062028765678406, 0.12854403257369995, -3.0796236991882324, -0.6313562393188477, 0.1589623987674713, -0.4017329812049866, -0.8314673900604248, -0.9708308577537537, 0.055333174765110016, -0.4934641705639737, -0.48257885185921623, 3.6664854433769256, 9362.0, 30146.0, 35388.0, 9362.0, 8.350414276123047, -0.26976725459098816, -0.20618833601474762, -0.1808837503194809, 0.0009055351256392896, -0.0610923245549202, 0.9945274591445923, -0.04957215487957001, -0.03959846496582031, 1.49267578125, 1.41064453125, 0.0509490966796875, 1.4970703125, 1.37255859375, 10.0, 1.0, 5.0, 1.415142297744751
17490, -0.6432221531867981, 2.2813096046447754, 1.8206688165664673, -0.5189085006713867, 0.13174274563789368, -3.0876646041870117, -0.6392126679420471, 0.16091004014015198, -0.40233588218688965, -0.8316621780395508, -0.9707719683647156, 0.05523790419101715, -0.3810210784530534, -0.5218584552598031, 3.5981847859090568, 9362.0, 30146.0, 35388.0, 9362.0, 8.350414276123047, -0.26976725459098816, -0.20618833601474762, -0.1808837503194809, 0.0009055351256392896, -0.0610923245549202, 0.9945274591445923, -0.04957215487957001, -0.03959846496582031, 1.49267578125, 1.41064453125, 0.0509490966796875, 1.496337890625, 1.376220703125, 10.0, 1.0, 5.0, 1.4151134490966797
17500, -0.6430214643478394, 2.2804574966430664, 1.8196711540222168, -0.525320291519165, 0.1333567351102829, -3.091688394546509, -0.6431486010551453, 0.16188809275627136, -0.4024185538291931, -0.8316327333450317, -0.9707662463188171, 0.055234599858522415, -0.39580677985403473, -0.548905470056468, 3.5978572298763587, 9362.0, 30146.0, 35388.0, 9362.0, 8.350414276123047, 0.11046530306339264, 0.3318941295146942, -0.005358162336051464, 0.0009055351256392896, -0.0610923245549202, 0.9945274591445923, -0.04957215487957001, -0.03959846496582031, 1.49267578125, 1.383544921875, 0.026611328125, 1.496337890625, 1.376220703125, 10.0, 1.0, 5.0, 1.4151134490966797
17540, -0.6425731778144836, 2.2796103954315186, 1.8235868215560913, -0.5513604283332825, 0.13991019129753113, -3.10780930519104, -0.6588464379310608, 0.16578225791454315, -0.4037156403064728, -0.8314496278762817, -0.9708569049835205, 0.05532088875770569, -0.4651135807647015, -0.49707605716724856, 3.6656335553879837, 9362.0, 30146.0, 35388.0, 9362.0, 8.350414276123047, -0.15238837897777557, -0.42376843094825745, 0.3153332769870758, 0.0009055351256392896, -0.0610923245549202, 0.9945274591445923, -0.04957215487957001, -0.03959846496582031, 1.49267578125, 1.40185546875, 0.0417938232421875, 1.496337890625, 1.42529296875, 10.0, 1.0, 5.0, 1.4149037599563599
17550, -0.6429206728935242, 2.2777204513549805, 1.8234442472457886, -0.5513604283332825, 0.13991019129753113, -3.10780930519104, -0.6588464379310608, 0.16578225791454315, -0.4037156403064728, -0.8314775228500366, -0.9708395600318909, 0.055313702672719955, -0.47524713303520605, -0.4684579347993463, 3.6693439046726057, 9362.0, 30146.0, 35388.0, 9362.0, 8.350414276123047, -0.1054532378911972, 0.11028645932674408, 0.06280999630689621, 0.0009055351256392896, -0.0610923245549202, 0.9945274591445923, -0.033387064933776855, -0.03959846496582031, 1.49267578125, 1.367431640625, 0.0183258056640625, 1.496337890625, 1.370361328125, 10.0, 1.0, 5.0, 1.4149037599563599
17570, -0.6451020836830139, 2.2812180519104004, 1.824209213256836, -0.5713024139404297, 0.14492744207382202, -3.119933843612671, -0.6706156134605408, 0.16870152950286865, -0.40468984842300415, -0.831467866897583, -0.9708638191223145, 0.05531362071633339, -0.4589335410651828, -0.4665047303730603, 3.6688603534263247, 9362.0, 30146.0, 35388.0, 9362.0, 8.350414276123047, 0.0018561568576842546, -0.09544616937637329, 0.1628449261188507, 0.0009055351256392896, -0.0610923245549202, 0.9945274591445923, -0.033387064933776855, -0.03959846496582031, 1.49267578125, 1.4296875, 0.07464599609375, 1.500732421875, 1.3857421875, 10.0, 1.0, 5.0, 1.414645791053772
17620, -0.6469319462776184, 2.282238245010376, 1.8253884315490723, -0.6053234338760376, 0.15348458290100098, -3.140221357345581, -0.6902353167533875, 0.17358806729316711, -0.40674248337745667, -0.8314553499221802, -0.9708514213562012, 0.05530385673046112, -0.46941937384989, -0.49080659167256613, 3.668412597236623, 9362.0, 30146.0, 35388.0, 9362.0, 8.350414276123047, -0.13910555839538574, 0.15492050349712372, -0.022648019716143608, 0.0013558109058067203, -0.06114530935883522, 0.9979861974716187, -0.033387064933776855, -0.03959846496582031, 1.49267578125, 1.364501953125, 0.0173492431640625, 1.49560546875, 1.3857421875, 10.0, 1.0, 5.0, 1.4144068956375122
17630, -0.6478856205940247, 2.2814786434173584, 1.825732946395874, -0.6122453808784485, 0.15522535145282745, -3.1442911624908447, -0.694159746170044, 0.17456646263599396, -0.40720033645629883, -0.8316425681114197, -0.9707839488983154, 0.05524393543601036, -0.3822349933588063, -0.5378391555701967, 3.591905005241455, 9362.0, 30146.0, 35388.0, 9362.0, 8.350414276123047, -0.1123165488243103, -0.0771249309182167, 0.09693662822246552, 0.0013558109058067203, -0.06114530935883522, 0.9979861974716187, -0.033387064933776855, -0.03959846496582031, 1.49267578125, 1.37255859375, 0.02044677734375, 1.493408203125, 1.399658203125, 10.0, 1.0, 5.0, 1.4143625497817993
17640, -0.6491588950157166, 2.2815299034118652, 1.8280887603759766, -0.6192066073417664, 0.15697592496871948, -3.148364543914795, -0.6980910897254944, 0.17554697394371033, -0.4074881672859192, -0.8314813375473022, -0.9708384871482849, 0.05533003807067871, -0.48638742182822303, -0.47043309136000744, 3.653047473778909, 9362.0, 30146.0, 35388.0, 9362.0, 8.350414276123047, 0.0370444655418396, 0.5580995082855225, 0.1454649120569229, 0.0013558109058067203, -0.06114530935883522, 0.9979861974716187, -0.033387064933776855, -0.03959846496582031, 1.49267578125, 1.41064453125, 0.0509490966796875, 1.493408203125, 1.41357421875, 10.0, 1.0, 5.0, 1.4141560792922974
17650, -0.6482157707214355, 2.2769699096679688, 1.8298903703689575, -0.6192066073417664, 0.15697592496871948, -3.148364543914795, -0.6980910897254944, 0.17554697394371033, -0.4074881672859192, -0.831637442111969, -0.9707880616188049, 0.05526627227663994, -0.37739746260245915, -0.5477803642745016, 3.596058801800386, 9362.0, 30146.0, 35388.0, 9362.0, 8.350414276123047, 0.23674951493740082, 0.12281419336795807, 0.16141794621944427, 0.0013558109058067203, -0.06114530935883522, 0.9979861974716187, -0.05527300015091896, -0.20087814331054688, 1.4794921875, 1.396728515625, 0.0370025634765625, 1.493408203125, 1.34033203125, 10.0, 1.0, 5.0, 1.4141560792922974
17710, -0.6418988704681396, 2.2709715366363525, 1.8288837671279907, -0.669034481048584, 0.169504776597023, -3.17696475982666, -0.7255221605300903, 0.18240803480148315, -0.41007909178733826, -0.8314635753631592, -0.9708899855613708, 0.055317409336566925, -0.4502317191260368, -0.49271116596614206, 3.661910248749413, 9362.0, 30146.0, 35388.0, 9362.0, 8.350414276123047, 0.10852653533220291, 0.3430688679218292, 0.20851698517799377, -0.00035610797931440175, -0.06336387991905212, 0.997636616230011, -0.05527300015091896, -0.20087814331054688, 1.4794921875, 1.4208984375, 0.063079833984375, 1.493408203125, 1.402587890625, 10.0, 1.0, 5.0, 1.4136871099472046
