timeTick, roll, pitch, yaw, stateX, stateY, stateZ, stateVX, stateVY, stateVZ, otX0, otY0, otZ0, otRoll0, otPitch0, otYaw0, left wing, pitch motor, yaw motor, right wing, voltage, roll rate, pitch rate, yaw rate, A_x, A_y, A_z, current, i_raw, v_raw, airflow_voltage, airflow_speed, pot_Pitch, voltage_nKF, kFFx, volt_KF_vel, kP, volt_KF_pos
28293, -1.461357593536377, 0.4235314726829529, 0.12511971592903137, 0, 0, 0, 0, 0, 0, 0, 0, 0, 0, 0, 0, 0, 0, 0, 0, 0, 0, 0, 0, 0, 0, 0, 0, 0, 0, 0, 0, 0, 0, 0, 0, 0, 0
28303, -1.4645349979400635, 0.4267551898956299, 0.12638221681118011, 0.0, 0.0, -8.680838584899902, 0.0, 0.0, 1.0060310363769531, 0, 0, 0, 0, 0, 0, 9362.0, 30146.0, 35388.0, 9362.0, 0, -0.3556431531906128, -0.29903048276901245, 0.014930898323655128, 0.007211912889033556, -0.027489380910992622, 0.9993201494216919, 0, 0, 0, 0, 0, 0, 0, 0, 0, 0, 0
28313, -1.466771125793457, 0.43052440881729126, 0.1261957734823227, 0.0, 0.0, -8.676432609558105, 0.0, 0.0, 0.4405975341796875, 0, 0, 0, 0, 0, 0, 9362.0, 30146.0, 35388.0, 9362.0, 0, -0.3349226713180542, -0.48421305418014526, -0.028760971501469612, 0.009296971373260021, -0.02869477868080139, 0.9999105930328369, 0, 0, 0, 1.36376953125, 0.017181396484375, 0, 1.41357421875, 10.0, 1.3828763961791992, 1.5, 1.3828763961791992
28323, -1.4687165021896362, 0.4339365065097809, 0.12583954632282257, 0.0, 0.0, -8.672467231750488, 0.0, 0.0, 0.39653778076171875, 0, 0, 0, 0, 0, 0, 9362.0, 30146.0, 35388.0, 9362.0, 0, -0.058693550527095795, 0.009082258678972721, 0.04451897367835045, 0.009603399783372879, -0.026331715285778046, 0.9986772537231445, 0, 0, 0, 1.365234375, 0.0175933837890625, 1.49853515625, 1.390869140625, 10.0, 1.3828202486038208, 1.5, 1.3828202486038208
28333, -1.4683382511138916, 0.4350488781929016, 0.12643741071224213, 0.0, 0.0, -8.671085357666016, 0.0, 0.0, 0.13818740844726562, 0, 0, 0, 0, 0, 0, 9362.0, 30146.0, 35388.0, 9362.0, 0, 0.17470350861549377, -0.06065491959452629, 0.05106363818049431, 0.009218650870025158, -0.02574774995446205, 0.9983130097389221, 0, 0, 0, 1.39599609375, 0.0362701416015625, 1.49853515625, 1.37255859375, 10.0, 1.3828622102737427, 1.5, 1.3828622102737427
28343, -1.4681651592254639, 0.43713051080703735, 0.1259695589542389, 0.0, 0.0, -8.669841766357422, 0.0, 0.0, 0.124359130859375, 0, 0, 0, 0, 0, 0, 9362.0, 30146.0, 35388.0, 9362.0, 0, 0.0660289004445076, -0.14810985326766968, 0.10634619742631912, 0.00997988972812891, -0.027686534449458122, 0.9997684359550476, 0, 0, 0, 1.400390625, 0.04034423828125, 1.5, 1.39306640625, 10.0, 1.3829180002212524, 1.5, 1.3829180002212524
28353, -1.46926748752594, 0.43837523460388184, 0.12674227356910706, 0.0, 0.0, -8.66735553741455, 0.0, 0.0, 0.24862289428710938, 0, 0, 0, 0, 0, 0, 9362.0, 30146.0, 35388.0, 9362.0, 0, -0.14749592542648315, -0.17998699843883514, 0.24695250391960144, 0.010167413391172886, -0.027088280767202377, 0.9977853298187256, 0, 0, 0, 1.385009765625, 0.0276336669921875, 1.5, 1.35498046875, 10.0, 1.3829246759414673, 1.5, 1.3829246759414673
28363, -1.4696327447891235, 0.4341612160205841, 0.12713278830051422, 0.0, 0.0, -8.665117263793945, 0.0, 0.0, 0.22382736206054688, 0, 0, 0, 0, 0, 0, 9362.0, 30146.0, 35388.0, 9362.0, 0, 0.19257259368896484, 0.2631050944328308, 0.24572104215621948, 0.010557133704423904, -0.029553204774856567, 0.9981041550636292, 0, 0, 0, 1.35498046875, 0.01556396484375, 1.493408203125, 1.38427734375, 10.0, 1.3828357458114624, 1.5, 1.3828357458114624
28373, -1.4697903394699097, 0.43276888132095337, 0.12538418173789978, 0.0, 0.0, -8.651347160339355, 0.0, 0.0, 1.3770103454589844, 0, 0, 0, 0, 0, 0, 9362.0, 30146.0, 35388.0, 9362.0, 0, 0.08447989076375961, 0.10890932381153107, -0.18141095340251923, 0.009718788787722588, -0.030731327831745148, 0.9999099969863892, 0, 0, 0, 1.37255859375, 0.02044677734375, 1.493408203125, 1.361572265625, 10.0, 1.3828030824661255, 1.5, 1.3828030824661255
28383, -1.470981240272522, 0.43187230825424194, 0.12326320260763168, 0.0, 0.0, -8.638954162597656, 0.0, 0.0, 1.2392997741699219, 0, 0, 0, 0, 0, 0, 9362.0, 30146.0, 35388.0, 9362.0, 0, -0.23622943460941315, -0.040352366864681244, -0.14691054821014404, 0.009583380073308945, -0.028027331456542015, 0.9996883273124695, 0, 0, 0, 1.399658203125, 0.0396575927734375, 1.493408203125, 1.39306640625, 10.0, 1.3828567266464233, 1.5, 1.3828567266464233
28393, -1.4709419012069702, 0.43059924244880676, 0.12302090227603912, 0.0, 0.0, -8.630807876586914, 0.0, 0.0, 0.8146286010742188, 0, 0, 0, 0, 0, 0, 9362.0, 30146.0, 35388.0, 9362.0, 8.271075248718262, -0.030364591628313065, 0.1955316662788391, 0.04701884090900421, 0.011009312234818935, -0.027467310428619385, 0.9989544749259949, -0.014154580421745777, 0.10376167297363281, 1.50439453125, 1.376220703125, 0.0222930908203125, 1.493408203125, 1.3916015625, 10.0, 1.3828356266021729, 1.5, 1.3828356266021729
28403, -1.472298502922058, 0.4299415051937103, 0.11960350722074509, 0.0, 0.0, -8.623476028442383, 0.0, 0.0, 0.733184814453125, 0, 0, 0, 0, 0, 0, 9362.0, 30146.0, 35388.0, 9362.0, 8.271075248718262, -0.09199768304824829, -0.07928702980279922, -0.28464582562446594, 0.012175842188298702, -0.028182251378893852, 0.9977752566337585, -0.014154580421745777, 0.10376167297363281, 1.50439453125, 1.404052734375, 0.04400634765625, 1.496337890625, 1.373291015625, 10.0, 1.3829030990600586, 1.5, 1.3829030990600586
28413, -1.4725505113601685, 0.42847442626953125, 0.11905555427074432, 0.0, 0.0, -8.611409187316895, 0.0, 0.0, 1.2066841125488281, 0, 0, 0, 0, 0, 0, 9362.0, 30146.0, 35388.0, 9362.0, 8.271075248718262, 0.08573586493730545, 0.24566909670829773, 0.008206646889448166, 0.010566061362624168, -0.028501084074378014, 0.9960958361625671, -0.014154580421745777, 0.10376167297363281, 1.50439453125, 1.408447265625, 0.0485382080078125, 1.496337890625, 1.417236328125, 10.0, 1.3829843997955322, 1.5, 1.3829843997955322
28423, -1.4716213941574097, 0.4284330904483795, 0.1184280514717102, 0.0, 0.0, -8.600549697875977, 0.0, 0.0, 1.0859489440917969, 0, 0, 0, 0, 0, 0, 9362.0, 30146.0, 35388.0, 9362.0, 8.271075248718262, 0.24418984353542328, -0.023850340396165848, -0.052362874150276184, 0.00902712345123291, -0.027679773047566414, 0.9995648860931396, -0.014154580421745777, 0.10376167297363281, 1.50439453125, 1.382080078125, 0.0256195068359375, 1.493408203125, 1.40771484375, 10.0, 1.382981538772583, 1.5, 1.382981538772583
28433, -1.4695897102355957, 0.42786428332328796, 0.1175587847828865, 0.0, 0.0, -8.593783378601074, 0.0, 0.0, 0.6766319274902344, 0, 0, 0, 0, 0, 0, 9362.0, 30146.0, 35388.0, 9362.0, 8.271075248718262, 0.2016446590423584, 0.08695684373378754, -0.0648544654250145, 0.009345456026494503, -0.023880833759903908, 0.9997034072875977, -0.014154580421745777, 0.10376167297363281, 1.50439453125, 1.3623046875, 0.0167999267578125, 1.493408203125, 1.3447265625, 10.0, 1.382915735244751, 1.5, 1.382915735244751
28443, -1.470231056213379, 0.42762747406959534, 0.11760693043470383, 0.0, 0.0, -8.587693214416504, 0.0, 0.0, 0.6090164184570312, 0, 0, 0, 0, 0, 0, 9362.0, 30146.0, 35388.0, 9362.0, 8.271075248718262, -0.13925805687904358, -0.11856500059366226, -0.004545056261122227, 0.0078002531081438065, -0.027349941432476044, 0.9990705847740173, -0.014154580421745777, 0.10376167297363281, 1.50439453125, 1.37548828125, 0.021820068359375, 1.49560546875, 1.38720703125, 10.0, 1.38289213180542, 1.5, 1.38289213180542
28453, -1.4697551727294922, 0.42609673738479614, 0.11675114184617996, 0.0, 0.0, -8.586313247680664, 0.0, 0.0, 0.13799667358398438, 0, 0, 0, 0, 0, 0, 9362.0, 30146.0, 35388.0, 9362.0, 8.271075248718262, 0.11941572278738022, 0.18355117738246918, -0.13953067362308502, 0.008063348941504955, -0.028934666886925697, 0.9975659847259521, -0.014154580421745777, 0.10376167297363281, 1.50439453125, 1.33447265625, 0.0186309814453125, 1.49560546875, 1.3681640625, 10.0, 1.3827381134033203, 1.5, 1.3827381134033203
28463, -1.467471718788147, 0.42075371742248535, 0.11787073314189911, 0.0, 0.0, -8.585071563720703, 0.0, 0.0, 0.12416839599609375, 0, 0, 0, 0, 0, 0, 9362.0, 30146.0, 35388.0, 9362.0, 8.271075248718262, 0.359117329120636, 0.7037153840065002, 0.17617125809192657, 0.008865735493600368, -0.02619572915136814, 0.9977405071258545, -0.014154580421745777, 0.10376167297363281, 1.50439453125, 1.3798828125, 0.0243377685546875, 1.49560546875, 1.41064453125, 10.0, 1.3827290534973145, 1.5, 1.3827290534973145
28473, -1.4679839611053467, 0.41864633560180664, 0.11793214082717896, 0.0, 0.0, -8.585867881774902, 0.0, 0.0, -0.07963180541992188, 0, 0, 0, 0, 0, 0, 9362.0, 30146.0, 35388.0, 9362.0, 8.271075248718262, -0.18874377012252808, 0.25267571210861206, 0.03135151043534279, 0.009755667299032211, -0.024737926200032234, 1.0010536909103394, -0.014154580421745777, 0.10376167297363281, 1.50439453125, 1.33740234375, 0.0175323486328125, 1.49560546875, 1.32421875, 10.0, 1.3825849294662476, 1.5, 1.3825849294662476
28483, -1.4677215814590454, 0.4191756844520569, 0.11769469827413559, 0.0, 0.0, -8.586584091186523, 0.0, 0.0, -0.07162094116210938, 0, 0, 0, 0, 0, 0, 9362.0, 30146.0, 35388.0, 9362.0, 8.271075248718262, -0.00255911354906857, -0.23719441890716553, 0.0920625776052475, 0.008029421791434288, -0.025165125727653503, 0.9990132451057434, -0.014154580421745777, 0.10376167297363281, 1.50439453125, 1.35205078125, 0.015380859375, 1.499267578125, 1.385009765625, 10.0, 1.3824878931045532, 1.5, 1.3824878931045532
28493, -1.467685580253601, 0.4183812141418457, 0.11490712314844131, 0.0, 0.0, -8.593243598937988, 0.0, 0.0, -0.6659507751464844, 0, 0, 0, 0, 0, 0, 9362.0, 30146.0, 35388.0, 9362.0, 8.271075248718262, -0.012294127605855465, 0.18190179765224457, -0.36561596393585205, 0.008753694593906403, -0.027197042480111122, 0.9983730316162109, -0.02512689307332039, -0.021678924560546875, 1.494140625, 1.41650390625, 0.0577545166015625, 1.499267578125, 1.402587890625, 10.0, 1.3825960159301758, 1.5, 1.3825960159301758
28503, -1.4661935567855835, 0.4218059778213501, 0.11395824700593948, 0.0, 0.0, -8.599237442016602, 0.0, 0.0, -0.5993843078613281, 0, 0, 0, 0, 0, 0, 9362.0, 30146.0, 35388.0, 9362.0, 8.271075248718262, 0.08193051069974899, -0.24563059210777283, -0.012409987859427929, 0.009789541363716125, -0.02498726174235344, 0.9972423315048218, -0.02512689307332039, -0.021678924560546875, 1.494140625, 1.36669921875, 0.01806640625, 1.49560546875, 1.35791015625, 10.0, 1.3825454711914062, 1.5, 1.3825454711914062
28513, -1.4648566246032715, 0.42772775888442993, 0.1138385683298111, 0.0, 0.0, -8.608185768127441, 0.0, 0.0, -0.8948326110839844, 0, 0, 0, 0, 0, 0, 9362.0, 30146.0, 35388.0, 9362.0, 8.271075248718262, 0.22717103362083435, -0.7610638737678528, -0.05694669112563133, 0.010521277785301208, -0.024494046345353127, 1.0009318590164185, -0.02512689307332039, -0.021678924560546875, 1.494140625, 1.36669921875, 0.01806640625, 1.49560546875, 1.382080078125, 10.0, 1.3824950456619263, 1.5, 1.3824950456619263
28523, -1.4626089334487915, 0.43256238102912903, 0.11395463347434998, 0.0, 0.0, -8.616239547729492, 0.0, 0.0, -0.8053779602050781, 0, 0, 0, 0, 0, 0, 9362.0, 30146.0, 35388.0, 9362.0, 8.271075248718262, 0.18559570610523224, -0.41495978832244873, -0.00793399102985859, 0.009418248198926449, -0.02309318818151951, 1.0004522800445557, -0.02512689307332039, -0.021678924560546875, 1.494140625, 1.343994140625, 0.015899658203125, 1.493408203125, 1.359375, 10.0, 1.3823726177215576, 1.5, 1.3823726177215576
28533, -1.4611085653305054, 0.4350603222846985, 0.11543719470500946, 0.0, 0.0, -8.613645553588867, 0.0, 0.0, 0.2593994140625, 0, 0, 0, 0, 0, 0, 9362.0, 30146.0, 35388.0, 9362.0, 8.271075248718262, 0.16121968626976013, -0.26351431012153625, 0.2039002776145935, 0.009150291793048382, -0.02531839907169342, 1.0003963708877563, -0.02512689307332039, -0.021678924560546875, 1.494140625, 1.33740234375, 0.0175323486328125, 1.493408203125, 1.34765625, 10.0, 1.3822296857833862, 1.5, 1.3822296857833862
28543, -1.4614089727401733, 0.4376402497291565, 0.11775591224431992, 0.0, 0.0, -8.611310958862305, 0.0, 0.0, 0.23345947265625, 0, 0, 0, 0, 0, 0, 9362.0, 30146.0, 35388.0, 9362.0, 8.271075248718262, -0.03880933299660683, -0.15028919279575348, 0.2232569307088852, 0.009398226626217365, -0.026719706133008003, 1.0002161264419556, -0.02512689307332039, -0.021678924560546875, 1.494140625, 1.39306640625, 0.0337982177734375, 1.49560546875, 1.373291015625, 10.0, 1.3822641372680664, 1.5, 1.3822641372680664
28553, -1.462778925895691, 0.4399964213371277, 0.11913151293992996, 0.0, 0.0, -8.61221694946289, 0.0, 0.0, -0.09059906005859375, 0, 0, 0, 0, 0, 0, 9362.0, 30146.0, 35388.0, 9362.0, 8.271075248718262, -0.2072235643863678, -0.35255247354507446, 0.1379743069410324, 0.01076418161392212, -0.026117878034710884, 1.0001285076141357, -0.02512689307332039, -0.021678924560546875, 1.494140625, 1.33740234375, 0.0175323486328125, 1.49560546875, 1.343994140625, 10.0, 1.3821215629577637, 1.5, 1.3821215629577637
28563, -1.4638081789016724, 0.4396967589855194, 0.11995657533407211, 0.0, 0.0, -8.613032341003418, 0.0, 0.0, -0.08153915405273438, 0, 0, 0, 0, 0, 0, 9362.0, 30146.0, 35388.0, 9362.0, 8.271075248718262, -0.0005674556014128029, 0.21202585101127625, -0.06340332329273224, 0.009872158989310265, -0.02652512490749359, 1.0018759965896606, -0.02512689307332039, -0.021678924560546875, 1.494140625, 1.37255859375, 0.02044677734375, 1.491943359375, 1.327880859375, 10.0, 1.3820911645889282, 1.5, 1.3820911645889282
28573, -1.4659851789474487, 0.43950432538986206, 0.12028159946203232, 0.0, 0.0, -8.611305236816406, 0.0, 0.0, 0.17271041870117188, 0, 0, 0, 0, 0, 0, 9362.0, 30146.0, 35388.0, 9362.0, 8.271075248718262, -0.22512775659561157, 0.07324825972318649, 0.09525148570537567, 0.011027159169316292, -0.02952493727207184, 0.9981768727302551, -0.02512689307332039, -0.021678924560546875, 1.494140625, 1.4150390625, 0.05596923828125, 1.491943359375, 1.388671875, 10.0, 1.3821958303451538, 1.5, 1.3821958303451538
28583, -1.4694969654083252, 0.4382276237010956, 0.11809679120779037, 0.0, 0.0, -8.609750747680664, 0.0, 0.0, 0.15544891357421875, 0, 0, 0, 0, 0, 0, 9362.0, 30146.0, 35388.0, 9362.0, 8.271075248718262, -0.38194039463996887, 0.26013949513435364, -0.3280624747276306, 0.010331587865948677, -0.029490964487195015, 0.9997471570968628, -0.02512689307332039, -0.021678924560546875, 1.494140625, 1.396728515625, 0.0370025634765625, 1.494140625, 1.40771484375, 10.0, 1.38224196434021, 1.5, 1.38224196434021
28593, -1.4728753566741943, 0.4353068470954895, 0.11843442171812057, 0.0, 0.0, -8.60124397277832, 0.0, 0.0, 0.850677490234375, 0, 0, 0, 0, 0, 0, 9362.0, 30146.0, 35388.0, 9362.0, 8.290909767150879, -0.36863425374031067, 0.5282121300697327, 0.057829923927783966, 0.011874196119606495, -0.02816213294863701, 0.9980533719062805, -0.035568591207265854, -0.04855918884277344, 1.491943359375, 1.41064453125, 0.0509490966796875, 1.494140625, 1.38134765625, 10.0, 1.3823322057724, 1.5, 1.3823322057724
28603, -1.47632896900177, 0.43550416827201843, 0.11602206528186798, 0.0, 0.0, -8.593587875366211, 0.0, 0.0, 0.7656097412109375, 0, 0, 0, 0, 0, 0, 9362.0, 30146.0, 35388.0, 9362.0, 8.290909767150879, -0.3629765808582306, -0.11415320634841919, -0.1710062325000763, 0.013144062831997871, -0.026172591373324394, 0.9994087815284729, -0.035568591207265854, -0.04855918884277344, 1.491943359375, 1.365234375, 0.0175933837890625, 1.496337890625, 1.318359375, 10.0, 1.3822778463363647, 1.5, 1.3822778463363647
28613, -1.477982759475708, 0.4341036379337311, 0.11547570675611496, 0.0, 0.0, -8.58450984954834, 0.0, 0.0, 0.9078025817871094, 0, 0, 0, 0, 0, 0, 9362.0, 30146.0, 35388.0, 9362.0, 8.290909767150879, -0.0590042881667614, 0.32784005999565125, 0.01832612045109272, 0.009517936035990715, -0.028239449486136436, 1.0000665187835693, -0.035568591207265854, -0.04855918884277344, 1.491943359375, 1.3974609375, 0.03759765625, 1.496337890625, 1.39306640625, 10.0, 1.3823261260986328, 1.5, 1.3823261260986328
28623, -1.481317400932312, 0.4349578320980072, 0.11466993391513824, 0.0, 0.0, -8.576339721679688, 0.0, 0.0, 0.8170127868652344, 0, 0, 0, 0, 0, 0, 9362.0, 30146.0, 35388.0, 9362.0, 8.290909767150879, -0.20022569596767426, -0.15249021351337433, -0.05212238058447838, 0.009254488162696362, -0.02830806002020836, 0.9979196190834045, -0.035568591207265854, -0.04855918884277344, 1.491943359375, 1.387939453125, 0.0297393798828125, 1.496337890625, 1.39306640625, 10.0, 1.3823261260986328, 1.5, 1.3823261260986328
28633, -1.4820390939712524, 0.43480202555656433, 0.11542435735464096, 0.0, 0.0, -8.569533348083496, 0.0, 0.0, 0.6806373596191406, 0, 0, 0, 0, 0, 0, 9362.0, 30146.0, 35388.0, 9362.0, 8.290909767150879, -0.05731802061200142, 0.03703684359788895, 0.09367626905441284, 0.009254488162696362, -0.02830806002020836, 0.9979196190834045, -0.035568591207265854, -0.04855918884277344, 1.491943359375, 1.387939453125, 0.0297393798828125, 1.496337890625, 1.39306640625, 10.0, 1.3823261260986328, 1.5, 1.3823261260986328
28643, -1.483018159866333, 0.4323502779006958, 0.11563803255558014, 0.0, 0.0, -8.563407897949219, 0.0, 0.0, 0.6125450134277344, 0, 0, 0, 0, 0, 0, 9362.0, 30146.0, 35388.0, 9362.0, 8.290909767150879, 0.029134953394532204, 0.2931777238845825, 0.14075253903865814, 0.009254488162696362, -0.02830806002020836, 0.9979196190834045, -0.035568591207265854, -0.04855918884277344, 1.491943359375, 1.387939453125, 0.0297393798828125, 1.502197265625, 1.39306640625, 10.0, 1.3825514316558838, 1.5, 1.3825514316558838
28653, -1.4832526445388794, 0.43017271161079407, 0.11587964743375778, 0.0, 0.0, -8.563407897949219, 0.0, 0.0, 0.6125450134277344, 0, 0, 0, 0, 0, 0, 9362.0, 30146.0, 35388.0, 9362.0, 8.290909767150879, 0.07134027034044266, 0.36980482935905457, 0.09467414766550064, 0.00774358119815588, -0.0316849984228611, 0.9981981515884399, -0.035568591207265854, -0.04855918884277344, 1.491943359375, 1.387939453125, 0.0297393798828125, 1.502197265625, 1.346923828125, 10.0, 1.3825514316558838, 1.5, 1.3825514316558838
28663, -1.4817522764205933, 0.4280170500278473, 0.11692781001329422, 0.0, 0.0, -8.556049346923828, 0.0, 0.0, 0.3485679626464844, 0, 0, 0, 0, 0, 0, 9362.0, 30146.0, 35388.0, 9362.0, 8.290909767150879, 0.06444491446018219, 0.26693809032440186, 0.15532107651233673, 0.008067685179412365, -0.027205761522054672, 0.9980579614639282, -0.035568591207265854, -0.04855918884277344, 1.491943359375, 1.387939453125, 0.0297393798828125, 1.502197265625, 1.346923828125, 10.0, 1.3825514316558838, 1.5, 1.3825514316558838
28673, -1.479994773864746, 0.4229687452316284, 0.11702881753444672, 0.0, 0.0, -8.55318546295166, 0.0, 0.0, 0.2863883972167969, 0, 0, 0, 0, 0, 0, 9362.0, 30146.0, 35388.0, 9362.0, 8.290909767150879, 0.27794644236564636, 0.7495545148849487, 0.06109853833913803, 0.008534792810678482, -0.025164751335978508, 1.0009453296661377, -0.035568591207265854, -0.04855918884277344, 1.491943359375, 1.387939453125, 0.0297393798828125, 1.502197265625, 1.330810546875, 10.0, 1.3825514316558838, 1.5, 1.3825514316558838
28683, -1.476850152015686, 0.42055052518844604, 0.1175544485449791, 0.0, 0.0, -8.55060863494873, 0.0, 0.0, 0.25768280029296875, 0, 0, 0, 0, 0, 0, 9362.0, 30146.0, 35388.0, 9362.0, 8.290909767150879, 0.30546075105667114, 0.33487194776535034, 0.0682535469532013, 0.008621013723313808, -0.0254447553306818, 1.0001087188720703, -0.035568591207265854, -0.04855918884277344, 1.491943359375, 1.387939453125, 0.0297393798828125, 1.502197265625, 1.330810546875, 10.0, 1.3825514316558838, 1.5, 1.3825514316558838
28693, -1.4741276502609253, 0.4186559319496155, 0.11753159016370773, 0.0, 0.0, -8.556218147277832, 0.0, 0.0, -0.5609512329101562, 0, 0, 0, 0, 0, 0, 9362.0, 30146.0, 35388.0, 9362.0, 8.271075248718262, 0.30546075105667114, 0.33487194776535034, 0.0682535469532013, 0.007491372525691986, -0.028126977384090424, 0.9987476468086243, -0.035568591207265854, -0.04855918884277344, 1.491943359375, 1.387939453125, 0.0297393798828125, 1.502197265625, 1.330810546875, 10.0, 1.3825514316558838, 1.5, 1.3825514316558838
28703, -1.470130443572998, 0.41266030073165894, 0.11709387600421906, 0.0, 0.0, -8.561266899108887, 0.0, 0.0, -0.5048751831054688, 0, 0, 0, 0, 0, 0, 9362.0, 30146.0, 35388.0, 9362.0, 8.271075248718262, 0.4323929250240326, 0.39936092495918274, -0.12520883977413177, 0.007491372525691986, -0.028126977384090424, 0.9987476468086243, -0.035568591207265854, -0.04855918884277344, 1.491943359375, 1.387939453125, 0.0297393798828125, 1.499267578125, 1.330810546875, 10.0, 1.3825514316558838, 1.5, 1.3825514316558838
28723, -1.4671978950500488, 0.4143107533454895, 0.11881408840417862, 0.0, 0.0, -8.573016166687012, 0.0, 0.0, -0.5565643310546875, 0, 0, 0, 0, 0, 0, 9362.0, 30146.0, 35388.0, 9362.0, 8.271075248718262, 0.1375901997089386, -0.11102305352687836, 0.03117726556956768, 0.007331556640565395, -0.02771000750362873, 0.9982988834381104, -0.035568591207265854, -0.04855918884277344, 1.491943359375, 1.387939453125, 0.0297393798828125, 1.499267578125, 1.398193359375, 10.0, 1.3824727535247803, 1.5, 1.3824727535247803
28733, -1.4670963287353516, 0.4187029302120209, 0.11843987554311752, 0.0, 0.0, -8.576931953430176, 0.0, 0.0, -0.39157867431640625, 0, 0, 0, 0, 0, 0, 9362.0, 30146.0, 35388.0, 9362.0, 8.271075248718262, 0.002386976731941104, -0.5806175470352173, -0.16648687422275543, 0.007331556640565395, -0.02771000750362873, 0.9982988834381104, -0.035568591207265854, -0.04855918884277344, 1.491943359375, 1.387939453125, 0.0297393798828125, 1.499267578125, 1.395263671875, 10.0, 1.3824520111083984, 1.5, 1.3824520111083984
28743, -1.466610074043274, 0.42278361320495605, 0.11730951815843582, 0.0, 0.0, -8.580455780029297, 0.0, 0.0, -0.3523826599121094, 0, 0, 0, 0, 0, 0, 9362.0, 30146.0, 35388.0, 9362.0, 8.271075248718262, 0.002386976731941104, -0.5806175470352173, -0.16648687422275543, 0.008360028266906738, -0.02566729113459587, 1.0002164840698242, -0.035568591207265854, -0.04855918884277344, 1.491943359375, 1.387939453125, 0.0297393798828125, 1.4970703125, 1.395263671875, 10.0, 1.3824520111083984, 1.5, 1.3824520111083984
28753, -1.4673606157302856, 0.42397546768188477, 0.11810851097106934, 0.0, 0.0, -8.578705787658691, 0.0, 0.0, 0.17499923706054688, 0, 0, 0, 0, 0, 0, 9362.0, 30146.0, 35388.0, 9362.0, 8.271075248718262, 0.002386976731941104, -0.5806175470352173, -0.16648687422275543, 0.007029915694147348, -0.02551538683474064, 1.00022292137146, -0.035568591207265854, -0.04855918884277344, 1.491943359375, 1.387939453125, 0.0297393798828125, 1.4970703125, 1.395263671875, 10.0, 1.3824520111083984, 1.5, 1.3824520111083984
28763, -1.4681949615478516, 0.42872193455696106, 0.11899889260530472, 0.0, 0.0, -8.577131271362305, 0.0, 0.0, 0.15745162963867188, 0, 0, 0, 0, 0, 0, 9362.0, 30146.0, 35388.0, 9362.0, 8.271075248718262, -0.009453902952373028, -0.5223559737205505, 0.17072713375091553, 0.007029915694147348, -0.02551538683474064, 1.00022292137146, -0.035568591207265854, -0.04855918884277344, 1.491943359375, 1.387939453125, 0.0297393798828125, 1.4970703125, 1.395263671875, 10.0, 1.382237434387207, 1.5, 1.382237434387207
28773, -1.4712011814117432, 0.42828813195228577, 0.11890094727277756, 0.0, 0.0, -8.568605422973633, 0.0, 0.0, 0.8525848388671875, 0, 0, 0, 0, 0, 0, 9362.0, 30146.0, 35388.0, 9362.0, 8.271075248718262, -0.2872494161128998, 0.1331031173467636, -0.00376835442148149, 0.007029915694147348, -0.02551538683474064, 1.00022292137146, -0.035568591207265854, -0.04855918884277344, 1.491943359375, 1.387939453125, 0.0297393798828125, 1.4970703125, 1.39306640625, 10.0, 1.382237434387207, 1.5, 1.382237434387207
28783, -1.4729160070419312, 0.4244636595249176, 0.11950922012329102, 0.0, 0.0, -8.560932159423828, 0.0, 0.0, 0.7673263549804688, 0, 0, 0, 0, 0, 0, 9362.0, 30146.0, 35388.0, 9362.0, 8.271075248718262, -0.21386700868606567, 0.4872971475124359, 0.097169890999794, 0.009767400100827217, -0.027808040380477905, 0.9968298077583313, -0.035568591207265854, -0.04855918884277344, 1.491943359375, 1.387939453125, 0.0297393798828125, 1.4970703125, 1.39306640625, 10.0, 1.382237434387207, 1.5, 1.382237434387207
28813, -1.4735760688781738, 0.4203588664531708, 0.11787937581539154, 0.0, 0.0, -8.531816482543945, 0.0, 0.0, 0.35266876220703125, 0, 0, 0, 0, 0, 0, 9362.0, 30146.0, 35388.0, 9362.0, 8.290909767150879, 0.0498625710606575, 0.28037112951278687, -0.11399054527282715, 0.009244327433407307, -0.024424517527222633, 1.000195026397705, -0.025120126083493233, -0.14711761474609375, 1.48388671875, 1.387939453125, 0.0297393798828125, 1.496337890625, 1.39306640625, 10.0, 1.382129192352295, 1.5, 1.382129192352295
28823, -1.4718317985534668, 0.42214396595954895, 0.11709144711494446, 0.0, 0.0, -8.528642654418945, 0.0, 0.0, 0.3173828125, 0, 0, 0, 0, 0, 0, 9362.0, 30146.0, 35388.0, 9362.0, 8.290909767150879, 0.29742756485939026, -0.17171461880207062, -0.22191354632377625, 0.009244327433407307, -0.024424517527222633, 1.000195026397705, -0.025120126083493233, -0.14711761474609375, 1.48388671875, 1.387939453125, 0.0297393798828125, 1.496337890625, 1.39306640625, 10.0, 1.3819477558135986, 1.5, 1.3819477558135986
28833, -1.4736791849136353, 0.42072468996047974, 0.11920332163572311, 0.0, 0.0, -8.534534454345703, 0.0, 0.0, -0.5891799926757812, 0, 0, 0, 0, 0, 0, 9362.0, 30146.0, 35388.0, 9362.0, 8.290909767150879, -0.04961024224758148, 0.3697606921195984, 0.32596930861473083, 0.009244327433407307, -0.024424517527222633, 1.000195026397705, -0.025120126083493233, -0.14711761474609375, 1.48388671875, 1.387939453125, 0.0297393798828125, 1.496337890625, 1.38134765625, 10.0, 1.3819923400878906, 1.5, 1.3819923400878906
28843, -1.4763062000274658, 0.42180877923965454, 0.12103061378002167, 0.0, 0.0, -8.534534454345703, 0.0, 0.0, -0.5891799926757812, 0, 0, 0, 0, 0, 0, 9362.0, 30146.0, 35388.0, 9362.0, 8.290909767150879, -0.04961024224758148, 0.3697606921195984, 0.32596930861473083, 0.009244327433407307, -0.024424517527222633, 1.000195026397705, -0.025120126083493233, -0.14711761474609375, 1.48388671875, 1.387939453125, 0.0297393798828125, 1.48974609375, 1.3681640625, 10.0, 1.3819923400878906, 1.5, 1.3819923400878906
28853, -1.4777114391326904, 0.42357078194618225, 0.1212640032172203, 0.0, 0.0, -8.548983573913574, 0.0, 0.0, -0.9146690368652344, 0, 0, 0, 0, 0, 0, 9362.0, 30146.0, 35388.0, 9362.0, 8.290909767150879, -0.23202672600746155, 0.013234131969511509, 0.08051838725805283, 0.010296113789081573, -0.0274478979408741, 1.000084638595581, -0.025120126083493233, -0.14711761474609375, 1.48388671875, 1.387939453125, 0.0297393798828125, 1.48974609375, 1.39013671875, 10.0, 1.3819923400878906, 1.5, 1.3819923400878906
28863, -1.4822179079055786, 0.4279981255531311, 0.12082473188638687, 0.0, 0.0, -8.557215690612793, 0.0, 0.0, -0.823211669921875, 0, 0, 0, 0, 0, 0, 9362.0, 30146.0, 35388.0, 9362.0, 8.290909767150879, -0.2784128487110138, -0.23150375485420227, -0.04695393890142441, 0.010296113789081573, -0.0274478979408741, 1.000084638595581, -0.025120126083493233, -0.14711761474609375, 1.48388671875, 1.387939453125, 0.0297393798828125, 1.4912109375, 1.39013671875, 10.0, 1.3822132349014282, 1.5, 1.3822132349014282
28873, -1.4837085008621216, 0.42679303884506226, 0.12269212305545807, 0.0, 0.0, -8.557215690612793, 0.0, 0.0, -0.823211669921875, 0, 0, 0, 0, 0, 0, 9362.0, 30146.0, 35388.0, 9362.0, 8.290909767150879, 0.05515521019697189, 0.2835198640823364, 0.26521164178848267, 0.010296113789081573, -0.0274478979408741, 1.000084638595581, -0.025120126083493233, -0.14711761474609375, 1.48388671875, 1.387939453125, 0.0297393798828125, 1.4912109375, 1.39013671875, 10.0, 1.382117509841919, 1.5, 1.382117509841919
28883, -1.4852163791656494, 0.423317015171051, 0.12572430074214935, 0.0, 0.0, -8.556748390197754, 0.0, 0.0, 0.022125244140625, 0, 0, 0, 0, 0, 0, 9362.0, 30146.0, 35388.0, 9362.0, 8.290909767150879, -0.009065837599337101, 0.5402681231498718, 0.20315739512443542, 0.010296113789081573, -0.0274478979408741, 1.000084638595581, -0.025120126083493233, -0.14711761474609375, 1.48388671875, 1.387939453125, 0.0297393798828125, 1.4912109375, 1.39013671875, 10.0, 1.38198721408844, 1.5, 1.38198721408844
28893, -1.4881948232650757, 0.42094147205352783, 0.12621302902698517, 0.0, 0.0, -8.556748390197754, 0.0, 0.0, 0.022125244140625, 0, 0, 0, 0, 0, 0, 9362.0, 30146.0, 35388.0, 9362.0, 8.290909767150879, -0.009065837599337101, 0.5402681231498718, 0.20315739512443542, 0.009157691150903702, -0.026570703834295273, 0.9987499117851257, -0.025120126083493233, -0.14711761474609375, 1.48388671875, 1.387939453125, 0.0297393798828125, 1.4912109375, 1.39013671875, 10.0, 1.38198721408844, 1.5, 1.38198721408844
28903, -1.486374020576477, 0.41716986894607544, 0.12531892955303192, 0.0, 0.0, -8.560524940490723, 0.0, 0.0, -0.1789093017578125, 0, 0, 0, 0, 0, 0, 9362.0, 30146.0, 35388.0, 9362.0, 8.290909767150879, -0.009065837599337101, 0.5402681231498718, 0.20315739512443542, 0.009931792505085468, -0.02593482844531536, 0.9981769323348999, -0.025120126083493233, -0.14711761474609375, 1.48388671875, 1.387939453125, 0.0297393798828125, 1.4912109375, 1.39013671875, 10.0, 1.38198721408844, 1.5, 1.38198721408844
28913, -1.4851869344711304, 0.4142153263092041, 0.12581290304660797, 0.0, 0.0, -8.560221672058105, 0.0, 0.0, 0.03032684326171875, 0, 0, 0, 0, 0, 0, 9362.0, 30146.0, 35388.0, 9362.0, 8.290909767150879, 0.10011840611696243, 0.42698290944099426, 0.09010546654462814, 0.009931792505085468, -0.02593482844531536, 0.9981769323348999, -0.025120126083493233, -0.14711761474609375, 1.48388671875, 1.387939453125, 0.0297393798828125, 1.4912109375, 1.39013671875, 10.0, 1.3817440271377563, 1.5, 1.3817440271377563
28933, -1.4802883863449097, 0.4152388870716095, 0.12567774951457977, 0.0, 0.0, -8.545758247375488, 0.0, 0.0, 1.4189720153808594, 0, 0, 0, 0, 0, 0, 9362.0, 30146.0, 35388.0, 9362.0, 8.290909767150879, 0.3239966332912445, -0.34167540073394775, -0.1699429750442505, 0.01081173587590456, -0.02898414619266987, 0.9991287589073181, -0.025120126083493233, -0.14711761474609375, 1.48388671875, 1.387939453125, 0.0297393798828125, 1.49853515625, 1.39013671875, 10.0, 1.3817440271377563, 1.5, 1.3817440271377563
28943, -1.4776477813720703, 0.4153783917427063, 0.12813551723957062, 0.0, 0.0, -8.532987594604492, 0.0, 0.0, 1.2770652770996094, 0, 0, 0, 0, 0, 0, 9362.0, 30146.0, 35388.0, 9362.0, 8.290909767150879, 0.17650458216667175, -0.016038211062550545, 0.3290753960609436, 0.01081173587590456, -0.02898414619266987, 0.9991287589073181, -0.025120126083493233, -0.14711761474609375, 1.48388671875, 1.387939453125, 0.0297393798828125, 1.49853515625, 1.39013671875, 10.0, 1.3814666271209717, 1.5, 1.3814666271209717
28953, -1.4753634929656982, 0.4141404628753662, 0.12867102026939392, 0.0, 0.0, -8.529149055480957, 0.0, 0.0, 0.3838539123535156, 0, 0, 0, 0, 0, 0, 9362.0, 30146.0, 35388.0, 9362.0, 8.290909767150879, 0.3811788558959961, 0.24912621080875397, 0.013278705067932606, 0.009695426560938358, -0.025801343843340874, 0.999839186668396, -0.025120126083493233, -0.14711761474609375, 1.48388671875, 1.387939453125, 0.0297393798828125, 1.49853515625, 1.39013671875, 10.0, 1.3814666271209717, 1.5, 1.3814666271209717
28963, -1.4766910076141357, 0.41387078166007996, 0.1291675716638565, 0.0, 0.0, -8.525694847106934, 0.0, 0.0, 0.34542083740234375, 0, 0, 0, 0, 0, 0, 9362.0, 30146.0, 35388.0, 9362.0, 8.290909767150879, -0.03825053572654724, 0.12779837846755981, 0.03794815018773079, 0.008046778850257397, -0.02628248743712902, 0.9981811046600342, -0.025120126083493233, -0.14711761474609375, 1.48388671875, 1.387939453125, 0.0297393798828125, 1.49853515625, 1.39013671875, 10.0, 1.3814666271209717, 1.5, 1.3814666271209717
28973, -1.477962851524353, 0.41260385513305664, 0.12819728255271912, 0.0, 0.0, -8.529420852661133, 0.0, 0.0, -0.3726005554199219, 0, 0, 0, 0, 0, 0, 9362.0, 30146.0, 35388.0, 9362.0, 8.290909767150879, -0.20248115062713623, 0.29131922125816345, -0.16158518195152283, 0.007143089547753334, -0.025472870096564293, 0.9982792139053345, -0.025120126083493233, -0.14711761474609375, 1.48388671875, 1.387939453125, 0.0297393798828125, 1.49853515625, 1.39013671875, 10.0, 1.3814666271209717, 1.5, 1.3814666271209717
28983, -1.479620337486267, 0.41148456931114197, 0.12744534015655518, 0.0, 0.0, -8.532773971557617, 0.0, 0.0, -0.3353118896484375, 0, 0, 0, 0, 0, 0, 9362.0, 30146.0, 35388.0, 9362.0, 8.290909767150879, -0.19086036086082458, 0.22908145189285278, 0.056149475276470184, 0.009045044891536236, -0.026849888265132904, 1.0015771389007568, -0.025120126083493233, -0.14711761474609375, 1.48388671875, 1.387939453125, 0.0297393798828125, 1.49853515625, 1.39013671875, 10.0, 1.3814666271209717, 1.5, 1.3814666271209717
28993, -1.4815417528152466, 0.4103292226791382, 0.12526018917560577, 0.0, 0.0, -8.532238006591797, 0.0, 0.0, 0.05359649658203125, 0, 0, 0, 0, 0, 0, 9362.0, 30146.0, 35388.0, 9362.0, 8.271075248718262, -0.177801713347435, 0.14650192856788635, -0.19140487909317017, 0.009045044891536236, -0.026849888265132904, 1.0015771389007568, -0.04087431728839874, -0.12023735046386719, 1.486083984375, 1.387939453125, 0.0297393798828125, 1.49853515625, 1.39013671875, 10.0, 1.3814666271209717, 1.5, 1.3814666271209717
29003, -1.4818590879440308, 0.403277188539505, 0.12507854402065277, 0.0, 0.0, -8.531755447387695, 0.0, 0.0, 0.04825592041015625, 0, 0, 0, 0, 0, 0, 9362.0, 30146.0, 35388.0, 9362.0, 8.271075248718262, 0.02063831128180027, 0.6319929957389832, 0.026390835642814636, 0.007197824772447348, -0.030200006440281868, 0.9993385672569275, -0.04087431728839874, -0.12023735046386719, 1.486083984375, 1.387939453125, 0.0297393798828125, 1.49853515625, 1.39013671875, 10.0, 1.3814666271209717, 1.5, 1.3814666271209717
29013, -1.4835678339004517, 0.404969722032547, 0.12380015105009079, 0.0, 0.0, -8.52311897277832, 0.0, 0.0, 0.8636474609375, 0, 0, 0, 0, 0, 0, 9362.0, 30146.0, 35388.0, 9362.0, 8.271075248718262, -0.18299904465675354, -0.31739211082458496, -0.21552106738090515, 0.007197824772447348, -0.030200006440281868, 0.9993385672569275, -0.04087431728839874, -0.12023735046386719, 1.486083984375, 1.387939453125, 0.0297393798828125, 1.49853515625, 1.393798828125, 10.0, 1.3814666271209717, 1.5, 1.3814666271209717
29023, -1.4821727275848389, 0.40663161873817444, 0.12428369373083115, 0.0, 0.0, -8.51534652709961, 0.0, 0.0, 0.7772445678710938, 0, 0, 0, 0, 0, 0, 9362.0, 30146.0, 35388.0, 9362.0, 8.271075248718262, -0.18299904465675354, -0.31739211082458496, -0.21552106738090515, 0.009822827763855457, -0.025704754516482353, 1.0001230239868164, -0.04087431728839874, -0.12023735046386719, 1.486083984375, 1.387939453125, 0.0297393798828125, 1.49560546875, 1.393798828125, 10.0, 1.3814666271209717, 1.5, 1.3814666271209717
29033, -1.4790502786636353, 0.4073828160762787, 0.1256156861782074, 0.0, 0.0, -8.511085510253906, 0.0, 0.0, 0.4261016845703125, 0, 0, 0, 0, 0, 0, 9362.0, 30146.0, 35388.0, 9362.0, 8.271075248718262, 0.3756314814090729, -0.10481160879135132, 0.12088433653116226, 0.009822827763855457, -0.025704754516482353, 1.0001230239868164, -0.04087431728839874, -0.12023735046386719, 1.486083984375, 1.387939453125, 0.0297393798828125, 1.49560546875, 1.393798828125, 10.0, 1.3810765743255615, 1.5, 1.3810765743255615
29043, -1.477038860321045, 0.4088163375854492, 0.12771281599998474, 0.0, 0.0, -8.507250785827637, 0.0, 0.0, 0.3834724426269531, 0, 0, 0, 0, 0, 0, 9362.0, 30146.0, 35388.0, 9362.0, 8.271075248718262, 0.12424466013908386, -0.0659550353884697, 0.21661078929901123, 0.009822827763855457, -0.025704754516482353, 1.0001230239868164, -0.04087431728839874, -0.12023735046386719, 1.486083984375, 1.387939453125, 0.0297393798828125, 1.49560546875, 1.393798828125, 10.0, 1.3809566497802734, 1.5, 1.3809566497802734
29053, -1.4755884408950806, 0.4106527864933014, 0.12737147510051727, 0.0, 0.0, -8.496964454650879, 0.0, 0.0, 1.0286331176757812, 0, 0, 0, 0, 0, 0, 9362.0, 30146.0, 35388.0, 9362.0, 8.271075248718262, 0.18317189812660217, -0.22404401004314423, 0.0728941410779953, 0.009194381535053253, -0.026189545169472694, 0.9980269074440002, -0.04087431728839874, -0.12023735046386719, 1.486083984375, 1.387939453125, 0.0297393798828125, 1.49560546875, 1.393798828125, 10.0, 1.3809566497802734, 1.5, 1.3809566497802734
29063, -1.4748293161392212, 0.4138948321342468, 0.125572070479393, 0.0, 0.0, -8.48770523071289, 0.0, 0.0, 0.9259223937988281, 0, 0, 0, 0, 0, 0, 9362.0, 30146.0, 35388.0, 9362.0, 8.271075248718262, 0.18317189812660217, -0.22404401004314423, 0.0728941410779953, 0.009214658290147781, -0.02833458036184311, 0.9990847706794739, -0.04087431728839874, -0.12023735046386719, 1.486083984375, 1.387939453125, 0.0297393798828125, 1.4970703125, 1.393798828125, 10.0, 1.3809775114059448, 1.5, 1.3809775114059448
29073, -1.4756344556808472, 0.41749289631843567, 0.12612932920455933, 0.0, 0.0, -8.48770523071289, 0.0, 0.0, 0.9259223937988281, 0, 0, 0, 0, 0, 0, 9362.0, 30146.0, 35388.0, 9362.0, 8.271075248718262, -0.14454840123653412, -0.30975618958473206, 0.17105484008789062, 0.009021199308335781, -0.026885148137807846, 1.0005862712860107, -0.04087431728839874, -0.12023735046386719, 1.486083984375, 1.387939453125, 0.0297393798828125, 1.4970703125, 1.393798828125, 10.0, 1.3809775114059448, 1.5, 1.3809775114059448
29083, -1.4765169620513916, 0.42460697889328003, 0.1230219379067421, 0.0, 0.0, -8.459925651550293, 0.0, 0.0, 1.3158798217773438, 0, 0, 0, 0, 0, 0, 9362.0, 30146.0, 35388.0, 9362.0, 8.271075248718262, -0.1506269872188568, -0.6915656328201294, -0.6007303595542908, 0.009021199308335781, -0.026885148137807846, 1.0005862712860107, -0.04087431728839874, -0.12023735046386719, 1.486083984375, 1.387939453125, 0.0297393798828125, 1.49853515625, 1.393798828125, 10.0, 1.3810402154922485, 1.5, 1.3810402154922485
29093, -1.4772381782531738, 0.42723381519317627, 0.12273064255714417, 0.0, 0.0, -8.459925651550293, 0.0, 0.0, 1.3158798217773438, 0, 0, 0, 0, 0, 0, 9362.0, 30146.0, 35388.0, 9362.0, 8.271075248718262, -0.1506269872188568, -0.6915656328201294, -0.6007303595542908, 0.010283701121807098, -0.02738071046769619, 0.9997517466545105, -0.04087431728839874, -0.12023735046386719, 1.486083984375, 1.387939453125, 0.0297393798828125, 1.49853515625, 1.393798828125, 10.0, 1.3810402154922485, 1.5, 1.3810402154922485
29103, -1.4826308488845825, 0.4316341280937195, 0.11996167153120041, 0.0, 0.0, -8.449370384216309, 0.0, 0.0, 0.5000114440917969, 0, 0, 0, 0, 0, 0, 9362.0, 30146.0, 35388.0, 9362.0, 8.271075248718262, -0.3121758699417114, -0.2927197813987732, -0.14288996160030365, 0.010283701121807098, -0.02738071046769619, 0.9997517466545105, -0.04087431728839874, -0.12023735046386719, 1.486083984375, 1.387939453125, 0.0297393798828125, 1.49853515625, 1.393798828125, 10.0, 1.3808538913726807, 1.5, 1.3808538913726807
29113, -1.4857828617095947, 0.43436169624328613, 0.12064871191978455, 0.0, 0.0, -8.448698043823242, 0.0, 0.0, 0.06723403930664062, 0, 0, 0, 0, 0, 0, 9362.0, 30146.0, 35388.0, 9362.0, 8.271075248718262, -0.40796172618865967, -0.21915140748023987, 0.1127837747335434, 0.010283701121807098, -0.02738071046769619, 0.9997517466545105, -0.04087431728839874, -0.12023735046386719, 1.486083984375, 1.387939453125, 0.0297393798828125, 1.49853515625, 1.363037109375, 10.0, 1.3808538913726807, 1.5, 1.3808538913726807
29123, -1.4901280403137207, 0.43545544147491455, 0.12181849777698517, 0.0, 0.0, -8.448698043823242, 0.0, 0.0, 0.06723403930664062, 0, 0, 0, 0, 0, 0, 9362.0, 30146.0, 35388.0, 9362.0, 8.271075248718262, -0.32441389560699463, 0.10468912869691849, 0.04444398358464241, 0.01095037441700697, -0.027067113667726517, 0.9999381303787231, -0.04087431728839874, -0.12023735046386719, 1.486083984375, 1.387939453125, 0.0297393798828125, 1.49853515625, 1.363037109375, 10.0, 1.3808538913726807, 1.5, 1.3808538913726807
29133, -1.4926886558532715, 0.43395593762397766, 0.122430220246315, 0.0, 0.0, -8.443721771240234, 0.0, 0.0, 0.437164306640625, 0, 0, 0, 0, 0, 0, 9362.0, 30146.0, 35388.0, 9362.0, 8.271075248718262, -0.14457957446575165, 0.29882994294166565, 0.19963213801383972, 0.009637285023927689, -0.030240138992667198, 0.9963571429252625, -0.04087431728839874, -0.12023735046386719, 1.486083984375, 1.387939453125, 0.0297393798828125, 1.49853515625, 1.363037109375, 10.0, 1.3808538913726807, 1.5, 1.3808538913726807
29143, -1.495478630065918, 0.43009695410728455, 0.1204383373260498, 0.0, 0.0, -8.439786911010742, 0.0, 0.0, 0.39348602294921875, 0, 0, 0, 0, 0, 0, 9362.0, 30146.0, 35388.0, 9362.0, 8.271075248718262, -0.1910034865140915, 0.21719323098659515, -0.09484759718179703, 0.008202075026929379, -0.029564397409558296, 0.9987195730209351, -0.04087431728839874, -0.12023735046386719, 1.486083984375, 1.387939453125, 0.0297393798828125, 1.49853515625, 1.363037109375, 10.0, 1.3808538913726807, 1.5, 1.3808538913726807
29153, -1.4952266216278076, 0.4247570037841797, 0.12110545486211777, 0.0, 0.0, -8.435425758361816, 0.0, 0.0, 0.4361152648925781, 0, 0, 0, 0, 0, 0, 9362.0, 30146.0, 35388.0, 9362.0, 8.271075248718262, 0.20456820726394653, 0.638824999332428, 0.1286197453737259, 0.008202075026929379, -0.029564397409558296, 0.9987195730209351, -0.04087431728839874, -0.12023735046386719, 1.486083984375, 1.387939453125, 0.0297393798828125, 1.49853515625, 1.40185546875, 10.0, 1.3808308839797974, 1.5, 1.3808308839797974
29163, -1.4951051473617554, 0.4173622727394104, 0.12271272391080856, 0.0, 0.0, -8.435425758361816, 0.0, 0.0, 0.4361152648925781, 0, 0, 0, 0, 0, 0, 9362.0, 30146.0, 35388.0, 9362.0, 8.271075248718262, 0.20456820726394653, 0.638824999332428, 0.1286197453737259, 0.00907138828188181, -0.02897696942090988, 0.9978278875350952, -0.04087431728839874, -0.12023735046386719, 1.486083984375, 1.387939453125, 0.0297393798828125, 1.49853515625, 1.40185546875, 10.0, 1.3808789253234863, 1.5, 1.3808789253234863
29173, -1.493627667427063, 0.41386842727661133, 0.12261916697025299, 0.0, 0.0, -8.435425758361816, 0.0, 0.0, 0.4361152648925781, 0, 0, 0, 0, 0, 0, 9362.0, 30146.0, 35388.0, 9362.0, 8.271075248718262, 0.2307991236448288, 0.252368301153183, -0.04022033512592316, 0.008362673223018646, -0.02674778178334236, 0.9967024326324463, -0.04087431728839874, -0.12023735046386719, 1.486083984375, 1.387939453125, 0.0297393798828125, 1.49853515625, 1.40185546875, 10.0, 1.3808789253234863, 1.5, 1.3808789253234863
29183, -1.4914740324020386, 0.4083656072616577, 0.12077832967042923, 0.0, 0.0, -8.435176849365234, 0.0, 0.0, -0.17414093017578125, 0, 0, 0, 0, 0, 0, 9362.0, 30146.0, 35388.0, 9362.0, 8.271075248718262, 0.4440208077430725, 0.27747297286987305, -0.2323402315378189, 0.008362673223018646, -0.02674778178334236, 0.9967024326324463, -0.04087431728839874, -0.12023735046386719, 1.486083984375, 1.387939453125, 0.0297393798828125, 1.491943359375, 1.40185546875, 10.0, 1.3809165954589844, 1.5, 1.3809165954589844
29193, -1.487810492515564, 0.4042360186576843, 0.12092255800962448, 0.0, 0.0, -8.433736801147461, 0.0, 0.0, 0.14400482177734375, 0, 0, 0, 0, 0, 0, 9362.0, 30146.0, 35388.0, 9362.0, 8.271075248718262, 0.4440208077430725, 0.27747297286987305, -0.2323402315378189, 0.009529439732432365, -0.028452198952436447, 0.9997102618217468, -0.04087431728839874, -0.12023735046386719, 1.486083984375, 1.387939453125, 0.0297393798828125, 1.491943359375, 1.40185546875, 10.0, 1.3809165954589844, 1.5, 1.3809165954589844
29203, -1.482848048210144, 0.403068870306015, 0.12172667682170868, 0.0, 0.0, -8.432440757751465, 0.0, 0.0, 0.12960433959960938, 0, 0, 0, 0, 0, 0, 9362.0, 30146.0, 35388.0, 9362.0, 8.271075248718262, 0.6461393237113953, -0.17971749603748322, 0.07284527271986008, 0.009529439732432365, -0.028452198952436447, 0.9997102618217468, -0.04087431728839874, -0.12023735046386719, 1.486083984375, 1.387939453125, 0.0297393798828125, 1.491943359375, 1.40185546875, 10.0, 1.3808449506759644, 1.5, 1.3808449506759644
29213, -1.4800934791564941, 0.4037219285964966, 0.12158839404582977, 0.0, 0.0, -8.438109397888184, 0.0, 0.0, -0.566864013671875, 0, 0, 0, 0, 0, 0, 9362.0, 30146.0, 35388.0, 9362.0, 8.271075248718262, 0.29896417260169983, -0.11422207951545715, -0.03800806403160095, 0.00838010199368, -0.027546169236302376, 0.9987933039665222, -0.04087431728839874, -0.12023735046386719, 1.486083984375, 1.387939453125, 0.0297393798828125, 1.491943359375, 1.40185546875, 10.0, 1.3809231519699097, 1.5, 1.3809231519699097
29223, -1.4764825105667114, 0.4064435660839081, 0.12147457897663116, 0.0, 0.0, -8.443211555480957, 0.0, 0.0, -0.5102157592773438, 0, 0, 0, 0, 0, 0, 9362.0, 30146.0, 35388.0, 9362.0, 8.271075248718262, 0.29896417260169983, -0.11422207951545715, -0.03800806403160095, 0.008509091101586819, -0.02874511107802391, 0.9976801872253418, -0.04087431728839874, -0.12023735046386719, 1.486083984375, 1.387939453125, 0.0297393798828125, 1.499267578125, 1.40185546875, 10.0, 1.3810569047927856, 1.5, 1.3810569047927856
29233, -1.4747612476348877, 0.40958985686302185, 0.12224403023719788, 0.0, 0.0, -8.44971752166748, 0.0, 0.0, -0.6505966186523438, 0, 0, 0, 0, 0, 0, 9362.0, 30146.0, 35388.0, 9362.0, 8.271075248718262, 0.2866535782814026, -0.3921334445476532, 0.026039574295282364, 0.008744332008063793, -0.026045789942145348, 1.0012671947479248, -0.04087431728839874, -0.12023735046386719, 1.486083984375, 1.387939453125, 0.0297393798828125, 1.499267578125, 1.40185546875, 10.0, 1.381085753440857, 1.5, 1.381085753440857
29243, -1.4750264883041382, 0.41381892561912537, 0.12362890690565109, 0.0, 0.0, -8.455572128295898, 0.0, 0.0, -0.5854606628417969, 0, 0, 0, 0, 0, 0, 9362.0, 30146.0, 35388.0, 9362.0, 8.271075248718262, 0.2866535782814026, -0.3921334445476532, 0.026039574295282364, 0.007240199018269777, -0.025038281455636024, 1.0002137422561646, -0.04087431728839874, -0.12023735046386719, 1.486083984375, 1.387939453125, 0.0297393798828125, 1.49853515625, 1.40185546875, 10.0, 1.381085753440857, 1.5, 1.381085753440857
29253, -1.4757789373397827, 0.4155021905899048, 0.12217189371585846, 0.0, 0.0, -8.461935043334961, 0.0, 0.0, -0.63629150390625, 0, 0, 0, 0, 0, 0, 9362.0, 30146.0, 35388.0, 9362.0, 8.271075248718262, -0.041964467614889145, -0.19002507627010345, -0.2640579640865326, 0.007389388512820005, -0.02707589790225029, 0.9988141059875488, -0.04087431728839874, -0.12023735046386719, 1.486083984375, 1.387939453125, 0.0297393798828125, 1.49853515625, 1.40185546875, 10.0, 1.381085753440857, 1.5, 1.381085753440857
29263, -1.4781748056411743, 0.4181925356388092, 0.1220049113035202, 0.0, 0.0, -8.46766185760498, 0.0, 0.0, -0.5726814270019531, 0, 0, 0, 0, 0, 0, 9362.0, 30146.0, 35388.0, 9362.0, 8.271075248718262, -0.36370837688446045, -0.38328248262405396, -0.003326544538140297, 0.007389388512820005, -0.02707589790225029, 0.9988141059875488, -0.04087431728839874, -0.12023735046386719, 1.486083984375, 1.387939453125, 0.0297393798828125, 1.496337890625, 1.40185546875, 10.0, 1.3812967538833618, 1.5, 1.3812967538833618
29273, -1.4797574281692505, 0.4168092906475067, 0.12211606651544571, 0.0, 0.0, -8.476097106933594, 0.0, 0.0, -0.8435249328613281, 0, 0, 0, 0, 0, 0, 9362.0, 30146.0, 35388.0, 9362.0, 8.271075248718262, -0.19433853030204773, 0.1413760483264923, 0.006063181906938553, 0.007389388512820005, -0.02707589790225029, 0.9988141059875488, -0.04087431728839874, -0.12023735046386719, 1.486083984375, 1.387939453125, 0.0297393798828125, 1.496337890625, 1.360107421875, 10.0, 1.3812967538833618, 1.5, 1.3812967538833618
29303, -1.4786591529846191, 0.42484697699546814, 0.11744490265846252, 0.0, 0.0, -8.493553161621094, 0.0, 0.0, -0.4673004150390625, 0, 0, 0, 0, 0, 0, 9362.0, 30146.0, 35388.0, 9362.0, 8.290909767150879, 0.21129684150218964, -0.5407105684280396, -0.21555247902870178, 0.011558455415070057, -0.026319704949855804, 0.9972690343856812, -0.01945495791733265, -0.13815879821777344, 1.484619140625, 1.387939453125, 0.0297393798828125, 1.4970703125, 1.360107421875, 10.0, 1.3812828063964844, 1.5, 1.3812828063964844
29313, -1.4790031909942627, 0.4290652275085449, 0.11553153395652771, 0.0, 0.0, -8.497485160827637, 0.0, 0.0, -0.3931999206542969, 0, 0, 0, 0, 0, 0, 9362.0, 30146.0, 35388.0, 9362.0, 8.290909767150879, 0.13021250069141388, -0.42442429065704346, -0.20261941850185394, 0.011737851426005363, -0.027000004425644875, 0.998017430305481, -0.01945495791733265, -0.13815879821777344, 1.484619140625, 1.387939453125, 0.0297393798828125, 1.4970703125, 1.360107421875, 10.0, 1.3812828063964844, 1.5, 1.3812828063964844
29333, -1.4806227684020996, 0.436893105506897, 0.11218350380659103, 0.0, 0.0, -8.503935813903809, 0.0, 0.0, -0.2911567687988281, 0, 0, 0, 0, 0, 0, 9362.0, 30146.0, 35388.0, 9362.0, 8.290909767150879, -0.19793415069580078, 0.2676534950733185, -0.18347451090812683, 0.012584196403622627, -0.025200655683875084, 0.9995622038841248, -0.01945495791733265, -0.13815879821777344, 1.484619140625, 1.387939453125, 0.0297393798828125, 1.4970703125, 1.38720703125, 10.0, 1.3811527490615845, 1.5, 1.3811527490615845
29353, -1.4850256443023682, 0.43634170293807983, 0.1119862049818039, 0.0, 0.0, -8.511921882629395, 0.0, 0.0, -0.5365371704101562, 0, 0, 0, 0, 0, 0, 9362.0, 30146.0, 35388.0, 9362.0, 8.290909767150879, -0.14859403669834137, 0.1722952276468277, 0.16132402420043945, 0.01012061070650816, -0.028091490268707275, 0.99799644947052, -0.01945495791733265, -0.13815879821777344, 1.484619140625, 1.387939453125, 0.0297393798828125, 1.496337890625, 1.38720703125, 10.0, 1.3812206983566284, 1.5, 1.3812206983566284
29363, -1.4879605770111084, 0.4317473769187927, 0.11230335384607315, 0.0, 0.0, -8.516751289367676, 0.0, 0.0, -0.482940673828125, 0, 0, 0, 0, 0, 0, 9362.0, 30146.0, 35388.0, 9362.0, 8.290909767150879, -0.12159882485866547, 0.17878104746341705, -0.0343889556825161, 0.00933163333684206, -0.02774902805685997, 0.9995715618133545, -0.01945495791733265, -0.13815879821777344, 1.484619140625, 1.387939453125, 0.0297393798828125, 1.49853515625, 1.38720703125, 10.0, 1.3812206983566284, 1.5, 1.3812206983566284
29373, -1.4901294708251953, 0.4304285943508148, 0.11259613186120987, 0.0, 0.0, -8.524651527404785, 0.0, 0.0, -0.7900238037109375, 0, 0, 0, 0, 0, 0, 9362.0, 30146.0, 35388.0, 9362.0, 8.290909767150879, -0.17756669223308563, 0.23401445150375366, 0.13397201895713806, 0.00933163333684206, -0.02774902805685997, 0.9995715618133545, -0.01945495791733265, -0.13815879821777344, 1.484619140625, 1.387939453125, 0.0297393798828125, 1.49853515625, 1.349853515625, 10.0, 1.3808255195617676, 1.5, 1.3808255195617676
29383, -1.4925159215927124, 0.42718514800071716, 0.11536458879709244, 0.0, 0.0, -8.53176212310791, 0.0, 0.0, -0.7110595703125, 0, 0, 0, 0, 0, 0, 9362.0, 30146.0, 35388.0, 9362.0, 8.290909767150879, -0.2386971265077591, 0.4187197685241699, 0.09184937924146652, 0.00933163333684206, -0.02774902805685997, 0.9995715618133545, -0.01945495791733265, -0.13815879821777344, 1.484619140625, 1.387939453125, 0.0297393798828125, 1.49853515625, 1.349853515625, 10.0, 1.3807064294815063, 1.5, 1.3807064294815063
29393, -1.492685079574585, 0.42447105050086975, 0.11591044813394547, 0.0, 0.0, -8.543355941772461, 0.0, 0.0, -1.1593818664550781, 0, 0, 0, 0, 0, 0, 9362.0, 30146.0, 35388.0, 9362.0, 8.271075248718262, 0.0954938754439354, 0.339050829410553, 0.03390054032206535, 0.00933163333684206, -0.02774902805685997, 0.9995715618133545, -0.01945495791733265, -0.13815879821777344, 1.484619140625, 1.387939453125, 0.0297393798828125, 1.49853515625, 1.349853515625, 10.0, 1.3807064294815063, 1.5, 1.3807064294815063
29403, -1.4924592971801758, 0.41868436336517334, 0.11845826357603073, 0.0, 0.0, -8.553790092468262, 0.0, 0.0, -1.0434150695800781, 0, 0, 0, 0, 0, 0, 9362.0, 30146.0, 35388.0, 9362.0, 8.271075248718262, 0.21330243349075317, 0.4082132875919342, 0.10111162811517715, 0.00933163333684206, -0.02774902805685997, 0.9995715618133545, -0.01945495791733265, -0.13815879821777344, 1.484619140625, 1.387939453125, 0.0297393798828125, 1.49853515625, 1.349853515625, 10.0, 1.380527377128601, 1.5, 1.380527377128601
29413, -1.4915101528167725, 0.41982051730155945, 0.1189291700720787, 0.0, 0.0, -8.556893348693848, 0.0, 0.0, -0.31032562255859375, 0, 0, 0, 0, 0, 0, 9362.0, 30146.0, 35388.0, 9362.0, 8.271075248718262, 0.007620090153068304, -0.2896145284175873, -0.05106477811932564, 0.00933163333684206, -0.02774902805685997, 0.9995715618133545, -0.01945495791733265, -0.13815879821777344, 1.484619140625, 1.387939453125, 0.0297393798828125, 1.49853515625, 1.349853515625, 10.0, 1.3805021047592163, 1.5, 1.3805021047592163
29423, -1.4889647960662842, 0.42093873023986816, 0.12047060579061508, 0.0, 0.0, -8.559685707092285, 0.0, 0.0, -0.27923583984375, 0, 0, 0, 0, 0, 0, 9362.0, 30146.0, 35388.0, 9362.0, 8.271075248718262, 0.007620090153068304, -0.2896145284175873, -0.05106477811932564, 0.00933163333684206, -0.02774902805685997, 0.9995715618133545, -0.01945495791733265, -0.13815879821777344, 1.484619140625, 1.387939453125, 0.0297393798828125, 1.497802734375, 1.408447265625, 10.0, 1.3805164098739624, 1.5, 1.3805164098739624
29433, -1.4879038333892822, 0.4188811480998993, 0.12252913415431976, 0.0, 0.0, -8.564112663269043, 0.0, 0.0, -0.44269561767578125, 0, 0, 0, 0, 0, 0, 9362.0, 30146.0, 35388.0, 9362.0, 8.271075248718262, 0.24710683524608612, 0.3447735607624054, 0.2696904242038727, 0.00932286586612463, -0.029253963381052017, 0.9970235824584961, -0.01945495791733265, -0.13815879821777344, 1.484619140625, 1.387939453125, 0.0297393798828125, 1.497802734375, 1.408447265625, 10.0, 1.380623459815979, 1.5, 1.380623459815979
29453, -1.4890302419662476, 0.4160410761833191, 0.12279915064573288, 0.0, 0.0, -8.56539535522461, 0.0, 0.0, 0.2701759338378906, 0, 0, 0, 0, 0, 0, 9362.0, 30146.0, 35388.0, 9362.0, 8.271075248718262, 0.0529547855257988, 0.16036337614059448, 0.028221309185028076, 0.010125454515218735, -0.029416613280773163, 0.9987988471984863, -0.01945495791733265, -0.13815879821777344, 1.484619140625, 1.387939453125, 0.0297393798828125, 1.49267578125, 1.408447265625, 10.0, 1.3806997537612915, 1.5, 1.3806997537612915
29463, -1.4908982515335083, 0.41671445965766907, 0.1242775022983551, 0.0, 0.0, -8.562963485717773, 0.0, 0.0, 0.24318695068359375, 0, 0, 0, 0, 0, 0, 9362.0, 30146.0, 35388.0, 9362.0, 8.271075248718262, -0.15750427544116974, -0.06875859200954437, 0.3785647749900818, 0.010125454515218735, -0.029416613280773163, 0.9987988471984863, -0.01945495791733265, -0.13815879821777344, 1.484619140625, 1.387939453125, 0.0297393798828125, 1.494140625, 1.408447265625, 10.0, 1.3806997537612915, 1.5, 1.3806997537612915
29503, -1.4892984628677368, 0.41244375705718994, 0.1261519491672516, 0.0, 0.0, -8.571887016296387, 0.0, 0.0, -0.4474639892578125, 0, 0, 0, 0, 0, 0, 9362.0, 30146.0, 35388.0, 9362.0, 8.290909767150879, 0.09576898068189621, -0.4247085750102997, 0.2296140491962433, 0.009503047913312912, -0.026771966367959976, 1.0000872611999512, -0.017607448622584343, 0.03208160400390625, 1.49853515625, 1.387939453125, 0.0297393798828125, 1.494140625, 1.34326171875, 10.0, 1.380717396736145, 1.5, 1.380717396736145
29513, -1.4886959791183472, 0.41516709327697754, 0.12458691000938416, 0.0, 0.0, -8.579468727111816, 0.0, 0.0, -0.7581710815429688, 0, 0, 0, 0, 0, 0, 9362.0, 30146.0, 35388.0, 9362.0, 8.290909767150879, 0.11109805107116699, -0.2706775665283203, -0.11848123371601105, 0.009503047913312912, -0.026771966367959976, 1.0000872611999512, -0.017607448622584343, 0.03208160400390625, 1.49853515625, 1.387939453125, 0.0297393798828125, 1.494140625, 1.365234375, 10.0, 1.380717396736145, 1.5, 1.380717396736145
29523, -1.4868383407592773, 0.4160063564777374, 0.1252795159816742, 0.0, 0.0, -8.586292266845703, 0.0, 0.0, -0.6823539733886719, 0, 0, 0, 0, 0, 0, 9362.0, 30146.0, 35388.0, 9362.0, 8.290909767150879, -0.031562916934490204, 0.12900906801223755, 0.1523055136203766, 0.009503047913312912, -0.026771966367959976, 1.0000872611999512, -0.017607448622584343, 0.03208160400390625, 1.49853515625, 1.387939453125, 0.0297393798828125, 1.49560546875, 1.365234375, 10.0, 1.3805640935897827, 1.5, 1.3805640935897827
29533, -1.4860533475875854, 0.4196488559246063, 0.12678022682666779, 0.0, 0.0, -8.589426040649414, 0.0, 0.0, -0.31337738037109375, 0, 0, 0, 0, 0, 0, 9362.0, 30146.0, 35388.0, 9362.0, 8.290909767150879, 0.1867535263299942, -0.4651445746421814, 0.19940660893917084, 0.008313949219882488, -0.027201365679502487, 0.9982604384422302, -0.017607448622584343, 0.03208160400390625, 1.49853515625, 1.387939453125, 0.0297393798828125, 1.49560546875, 1.365234375, 10.0, 1.3805640935897827, 1.5, 1.3805640935897827
29543, -1.4868156909942627, 0.4250308871269226, 0.12486028671264648, 0.0, 0.0, -8.592246055603027, 0.0, 0.0, -0.2820014953613281, 0, 0, 0, 0, 0, 0, 9362.0, 30146.0, 35388.0, 9362.0, 8.290909767150879, -0.07111717760562897, -0.3836970925331116, -0.35882601141929626, 0.0066642751917243, -0.02685682661831379, 1.0009260177612305, -0.017607448622584343, 0.03208160400390625, 1.49853515625, 1.387939453125, 0.0297393798828125, 1.49853515625, 1.365234375, 10.0, 1.3805640935897827, 1.5, 1.3805640935897827
29553, -1.489087462425232, 0.42722707986831665, 0.12421203404664993, 0.0, 0.0, -8.592050552368164, 0.0, 0.0, 0.019550323486328125, 0, 0, 0, 0, 0, 0, 9362.0, 30146.0, 35388.0, 9362.0, 8.290909767150879, -0.3575924038887024, -0.259990394115448, -0.19067104160785675, 0.0066642751917243, -0.02685682661831379, 1.0009260177612305, -0.017607448622584343, 0.03208160400390625, 1.49853515625, 1.387939453125, 0.0297393798828125, 1.49853515625, 1.428955078125, 10.0, 1.3807401657104492, 1.5, 1.3807401657104492
29563, -1.492908000946045, 0.4257286787033081, 0.12312585115432739, 0.0, 0.0, -8.591874122619629, 0.0, 0.0, 0.017642974853515625, 0, 0, 0, 0, 0, 0, 9362.0, 30146.0, 35388.0, 9362.0, 8.290909767150879, -0.31513962149620056, 0.49719277024269104, -0.16737201809883118, 0.0066642751917243, -0.02685682661831379, 1.0009260177612305, -0.017607448622584343, 0.03208160400390625, 1.49853515625, 1.387939453125, 0.0297393798828125, 1.497802734375, 1.428955078125, 10.0, 1.380844235420227, 1.5, 1.380844235420227
29573, -1.49592125415802, 0.4257648289203644, 0.12168799340724945, 0.0, 0.0, -8.591442108154297, 0.0, 0.0, 0.043201446533203125, 0, 0, 0, 0, 0, 0, 9362.0, 30146.0, 35388.0, 9362.0, 8.290909767150879, -0.28675252199172974, 0.14824281632900238, -0.21994657814502716, 0.010158415883779526, -0.028332138434052467, 0.9994845390319824, -0.017607448622584343, 0.03208160400390625, 1.49853515625, 1.387939453125, 0.0297393798828125, 1.497802734375, 1.428955078125, 10.0, 1.380844235420227, 1.5, 1.380844235420227
29583, -1.501275658607483, 0.4247574210166931, 0.11930570751428604, 0.0, 0.0, -8.591053009033203, 0.0, 0.0, 0.038909912109375, 0, 0, 0, 0, 0, 0, 9362.0, 30146.0, 35388.0, 9362.0, 8.290909767150879, -0.19896332919597626, 0.3074815273284912, -0.18780425190925598, 0.009029459208250046, -0.029780777171254158, 0.9987391829490662, -0.017607448622584343, 0.03208160400390625, 1.49853515625, 1.387939453125, 0.0297393798828125, 1.497802734375, 1.428955078125, 10.0, 1.380844235420227, 1.5, 1.380844235420227
29593, -1.503790259361267, 0.4255430996417999, 0.1171940341591835, 0.0, 0.0, -8.589609146118164, 0.0, 0.0, 0.14438629150390625, 0, 0, 0, 0, 0, 0, 9362.0, 30146.0, 35388.0, 9362.0, 8.290909767150879, -0.46920245885849, -0.05102661997079849, -0.2748390734195709, 0.009029459208250046, -0.029780777171254158, 0.9987391829490662, -0.026211317628622055, -0.06647872924804688, 1.490478515625, 1.387939453125, 0.0297393798828125, 1.497802734375, 1.428955078125, 10.0, 1.380844235420227, 1.5, 1.380844235420227
29603, -1.504117488861084, 0.42839673161506653, 0.11590190976858139, 0.0, 0.0, -8.588310241699219, 0.0, 0.0, 0.12989044189453125, 0, 0, 0, 0, 0, 0, 9362.0, 30146.0, 35388.0, 9362.0, 8.290909767150879, -0.46920245885849, -0.05102661997079849, -0.2748390734195709, 0.010691100731492043, -0.0249557513743639, 0.9990067481994629, -0.026211317628622055, -0.06647872924804688, 1.490478515625, 1.387939453125, 0.0297393798828125, 1.497802734375, 1.428955078125, 10.0, 1.3806489706039429, 1.5, 1.3806489706039429
