timeTick, roll, pitch, yaw, stateX, stateY, stateZ, stateVX, stateVY, stateVZ, otX0, otY0, otZ0, otRoll0, otPitch0, otYaw0, left wing, pitch motor, yaw motor, right wing, voltage, roll rate, pitch rate, yaw rate, A_x, A_y, A_z, current, i_raw, v_raw, airflow_voltage, airflow_speed, pot_Pitch, voltage_nKF, kFFx, state_vel, State_vel, volt_KF_vel
19584, -1.4568359851837158, 1.9828038215637207, -1.0102132558822632, 0, 0, 0, 0, 0, 0, -0.8156031966209412, -0.9770389199256897, 0.05715786665678024, 0.012125034498551063, -0.6123286456789572, 0.4879361258454513, 0, 0, 0, 0, 0, 0, 0, 0, 0, 0, 0, 0, 0, 0, 0, 0, 0, 0, 0, 0, 0, 0
19594, -1.456641435623169, 1.9834315776824951, -1.0108267068862915, 0.00020457670325413346, -0.00015598355093970895, -3.5752110481262207, 0.0068775322288274765, -0.005243716295808554, -0.39752325415611267, -0.8155932426452637, -0.9770214557647705, 0.057160403579473495, -0.0005427030707033409, -0.6078209130008076, 0.5191155291969572, 9362.0, 30146.0, 35388.0, 9362.0, 0, -0.09428645670413971, 0.10667548328638077, 0.17878754436969757, 0.000957922893576324, -0.056528788059949875, 0.999290406703949, 0, 0, 0, 0, 0, 0, 0, 0, 0, 0, 0
19604, -1.4571566581726074, 1.9817732572555542, -1.0096327066421509, 0.00025661030667833984, -0.0001956596242962405, -3.5791869163513184, 0.00352913374081254, -0.0026915674097836018, -0.39765235781669617, -0.8155609369277954, -0.9770611524581909, 0.0571923553943634, -0.03135261018645518, -0.5872141963527326, 0.5363737711067066, 9362.0, 30146.0, 35388.0, 9362.0, 0, 0.20517225563526154, 0.32824787497520447, -0.0944068431854248, -0.0002208689256804064, -0.055282171815633774, 0.9957013726234436, 0, 0, 0, 1.43115234375, 0.0766143798828125, 0, 1.374755859375, 10.0, 1.0, 10.0, 1.3872891664505005
19614, -1.4557597637176514, 1.97832453250885, -1.0094355344772339, 0.0002752002328634262, -0.00020983048307243735, -3.583164930343628, 0.00018882339645642787, -0.000142610544571653, -0.39793527126312256, -0.8155928254127502, -0.9770303964614868, 0.05716394633054733, 0.001694874329301543, -0.6146353743662871, 0.5192985975245977, 9362.0, 30146.0, 35388.0, 9362.0, 0, 0.019539637491106987, -0.491397500038147, -0.2521827220916748, 0.0016613550251349807, -0.05807136744260788, 0.9972409605979919, 0, 0, 0, 1.3681640625, 0.0185394287109375, 1.48974609375, 1.404052734375, 10.0, 1.0, 10.0, 1.3871421813964844
19624, -1.4560171365737915, 1.9815340042114258, -1.0111701488494873, 0.0002604478504508734, -0.0001985484268516302, -3.587146520614624, -0.0031391934026032686, 0.002399120945483446, -0.39840391278266907, -0.8156111240386963, -0.9770167469978333, 0.057171858847141266, 0.010643236948782607, -0.6182010634933306, 0.5049590179841508, 9362.0, 30146.0, 35388.0, 9362.0, 0, 0.04679689556360245, -0.34959331154823303, 0.16332006454467773, 0.0005208534421399236, -0.05805208906531334, 0.9981985092163086, 0, 0, 0, 1.34619140625, 0.015594482421875, 1.48974609375, 1.39306640625, 10.0, 1.0, 10.0, 1.3871424198150635
19634, -1.4557082653045654, 1.986132025718689, -1.0103938579559326, 0.00021234931773506105, -0.00016181608953047544, -3.5911316871643066, -0.006480534095317125, 0.004947304259985685, -0.39864397048950195, -0.8156103491783142, -0.9770247340202332, 0.05714130029082298, 0.013436115574946445, -0.6252773959783156, 0.5146240976264508, 9362.0, 30146.0, 35388.0, 9362.0, 0, -0.08172648400068283, 0.0068499124608933926, -0.08932258933782578, 0.002330578165128827, -0.058465659618377686, 0.9995003938674927, 0, 0, 0, 1.36376953125, 0.017181396484375, 1.493408203125, 1.354248046875, 10.0, 1.0, 10.0, 1.3871729373931885
19644, -1.4561967849731445, 1.9855877161026, -1.0117543935775757, 0.00013079438940621912, -9.960140596376732e-05, -3.5951192378997803, -0.009830388240516186, 0.007495710160583258, -0.3988635838031769, -0.8155622482299805, -0.9770476222038269, 0.057214051485061646, -0.0450857143391295, -0.5877881921828703, 0.5377192292054035, 9362.0, 30146.0, 35388.0, 9362.0, 0, -0.23737208545207977, 0.32073384523391724, 0.41921690106391907, 0.00039568691863678396, -0.058797258883714676, 0.9994421601295471, 0, 0, 0, 1.36669921875, 0.01806640625, 1.493408203125, 1.37255859375, 10.0, 1.0, 10.0, 1.387054204940796
19654, -1.456613302230835, 1.9838099479675293, -1.0099987983703613, 1.5736055502202362e-05, -1.1890631867572665e-05, -3.5991086959838867, -0.013181358575820923, 0.01004633866250515, -0.39902523159980774, -0.8156058192253113, -0.9770174026489258, 0.05715292692184448, 0.004369161641605886, -0.6189939605832819, 0.5200927827972558, 9362.0, 30146.0, 35388.0, 9362.0, 0, -0.13782857358455658, -0.2044372856616974, -0.07949917018413544, 0.0015482446178793907, -0.05847378447651863, 1.000138759613037, 0, 0, 0, 1.37109375, 0.0197906494140625, 1.49560546875, 1.38134765625, 10.0, 1.0, 10.0, 1.3868310451507568
19664, -1.456648588180542, 1.9840936660766602, -1.009934663772583, -0.00013283404405228794, 0.00010134209151146933, -3.6030993461608887, -0.016532663255929947, 0.012600203044712543, -0.39908793568611145, -0.8156036138534546, -0.9770413041114807, 0.057185009121894836, 0.0023783413351116923, -0.6288207769601968, 0.5063562847527372, 9362.0, 30146.0, 35388.0, 9362.0, 0, 0.1739741563796997, -0.44686079025268555, -0.23036201298236847, 0.00032738238223828375, -0.056218069046735764, 0.9996453523635864, 0, 0, 0, 1.411376953125, 0.05181884765625, 1.49560546875, 1.37841796875, 10.0, 1.0, 10.0, 1.3867297172546387
19674, -1.455966591835022, 1.9883086681365967, -1.0103331804275513, -0.00031491409754380584, 0.0002401095989625901, -3.607090711593628, -0.019883325323462486, 0.015153313986957073, -0.3991829454898834, -0.8155856728553772, -0.9770391583442688, 0.057166848331689835, 0.009800486421997916, -0.6146245856633072, 0.5220966832561031, 9362.0, 30146.0, 35388.0, 9362.0, 0, -0.17542850971221924, -0.057557251304388046, 0.20501796901226044, 0.0003452821692917496, -0.056488942354917526, 1.0010539293289185, 0, 0, 0, 1.374755859375, 0.021392822265625, 1.4853515625, 1.387939453125, 10.0, 1.0, 10.0, 1.3866753578186035
19684, -1.4549684524536133, 1.9895215034484863, -1.009718894958496, -0.0005305424565449357, 0.00040440732846036553, -3.6110827922821045, -0.023242365568876266, 0.01770620048046112, -0.39924564957618713, -0.8156087398529053, -0.9770373702049255, 0.057174865156412125, 0.011152430907994244, -0.6120963095497132, 0.5078184537281796, 9362.0, 30146.0, 35388.0, 9362.0, 8.370248794555664, 0.03748217597603798, -0.0980353057384491, -0.07995912432670593, 0.001680089975707233, -0.057479437440633774, 1.0001733303070068, -0.05438552796840668, -0.030637741088867188, 1.493408203125, 1.380615234375, 0.024749755859375, 1.4853515625, 1.426025390625, 10.0, 1.0, 10.0, 1.386749267578125
19694, -1.4551068544387817, 1.9886274337768555, -1.0086231231689453, -0.0007797778816893697, 0.0005942299612797797, -3.6150753498077393, -0.026604769751429558, 0.020258262753486633, -0.3992730379104614, -0.8156020641326904, -0.9770256280899048, 0.05714030936360359, 0.013450368344616367, -0.6258628714732026, 0.5001447553631898, 9362.0, 30146.0, 35388.0, 9362.0, 8.370248794555664, -0.22575685381889343, 0.009842283092439175, -0.26431265473365784, 0.0005247470689937472, -0.055788490921258926, 0.9980977773666382, -0.05438552796840668, -0.030637741088867188, 1.493408203125, 1.38427734375, 0.027099609375, 1.487548828125, 1.349853515625, 10.0, 1.0, 10.0, 1.3868485689163208
19704, -1.4556918144226074, 1.9900156259536743, -1.0081499814987183, -0.0010626011062413454, 0.0008095520897768438, -3.6190690994262695, -0.029959896579384804, 0.022806139662861824, -0.39946845173835754, -0.8156027793884277, -0.977030873298645, 0.057161733508110046, 0.005710764144677735, -0.6272580655989373, 0.49780739431166243, 9362.0, 30146.0, 35388.0, 9362.0, 8.370248794555664, 0.02279929257929325, -0.1421418935060501, 0.07733951508998871, -8.712796989129856e-05, -0.054148364812135696, 0.9991448521614075, -0.05438552796840668, -0.030637741088867188, 1.493408203125, 1.40478515625, 0.0446624755859375, 1.487548828125, 1.423828125, 10.0, 1.0, 10.0, 1.3868613243103027
19714, -1.4558662176132202, 1.9894472360610962, -1.0082292556762695, -0.0013789921067655087, 0.001050361548550427, -3.6230645179748535, -0.03331829980015755, 0.025355756282806396, -0.3996371328830719, -0.8155471682548523, -0.9770697951316833, 0.057234641164541245, -0.030833644527841104, -0.5906808422107019, 0.5311030962392768, 9362.0, 30146.0, 35388.0, 9362.0, 8.370248794555664, -0.0011925462167710066, 0.3135664165019989, -0.1587693840265274, -0.0018245682585984468, -0.056199997663497925, 0.9993821978569031, -0.05438552796840668, -0.030637741088867188, 1.493408203125, 1.41650390625, 0.0577545166015625, 1.49267578125, 1.34912109375, 10.0, 1.0, 10.0, 1.3868414163589478
19724, -1.456358551979065, 1.9883313179016113, -1.008872151374817, -0.0017289530951529741, 0.0013166615972295403, -3.6270620822906494, -0.036673855036497116, 0.02790430188179016, -0.3998592793941498, -0.8155742287635803, -0.9770528674125671, 0.057200826704502106, -0.011015028618040395, -0.6023513300252716, 0.521398686767879, 9362.0, 30146.0, 35388.0, 9362.0, 8.370248794555664, -0.014924675226211548, 0.012738731689751148, 0.10788516700267792, 0.0004983068793080747, -0.05465807765722275, 1.0007362365722656, -0.05438552796840668, -0.030637741088867188, 1.493408203125, 1.39599609375, 0.0362701416015625, 1.49267578125, 1.338134765625, 10.0, 1.0, 10.0, 1.3868519067764282
19734, -1.4568899869918823, 1.9880132675170898, -1.0090107917785645, -0.002112494083121419, 0.0016084774397313595, -3.631060838699341, -0.04003433510661125, 0.03045886754989624, -0.3998816907405853, -0.8155873417854309, -0.9770649075508118, 0.05721185356378555, -0.022360189671003686, -0.5993946842184528, 0.5301164133044285, 9362.0, 30146.0, 35388.0, 9362.0, 8.370248794555664, 0.07853986322879791, -0.26015543937683105, -0.0511171892285347, 0.001618941780179739, -0.05425185710191727, 0.9994670748710632, -0.05438552796840668, -0.030637741088867188, 1.493408203125, 1.33154296875, 0.0198516845703125, 1.49560546875, 1.361572265625, 10.0, 1.0, 10.0, 1.3867878913879395
19744, -1.4568389654159546, 1.9904512166976929, -1.009464979171753, -0.0025296248495578766, 0.0019258341053500772, -3.6350600719451904, -0.043391771614551544, 0.03301249071955681, -0.3999760150909424, -0.8156172633171082, -0.9770239591598511, 0.05712825804948807, 0.0004983603241459761, -0.615564278094638, 0.508024980111798, 9362.0, 30146.0, 35388.0, 9362.0, 8.370248794555664, 0.12989038228988647, 0.06323467195034027, 0.27342987060546875, 0.002554025035351515, -0.053137362003326416, 0.9989994168281555, -0.05438552796840668, -0.030637741088867188, 1.493408203125, 1.32861328125, 0.0214385986328125, 1.49560546875, 1.346923828125, 10.0, 1.0, 10.0, 1.3866122961044312
19754, -1.4567301273345947, 1.9901119470596313, -1.0069286823272705, -0.0029803391080349684, 0.002268718322739005, -3.6390607357025146, -0.046751171350479126, 0.03556418791413307, -0.40013769268989563, -0.8156200647354126, -0.9770252108573914, 0.05715592950582504, 0.011403222287355522, -0.6273966582018602, 0.5017644683593399, 9362.0, 30146.0, 35388.0, 9362.0, 8.370248794555664, -0.04362993687391281, -0.12034079432487488, -0.020375899970531464, 0.0009934519184753299, -0.05491030588746071, 0.998049259185791, -0.05438552796840668, -0.030637741088867188, 1.493408203125, 1.389404296875, 0.03082275390625, 1.49560546875, 1.323486328125, 10.0, 1.0, 10.0, 1.3865675926208496
19764, -1.4561597108840942, 1.9913976192474365, -1.007572054862976, -0.0034646305721253157, 0.002637106692418456, -3.6430633068084717, -0.05010709539055824, 0.0381135419011116, -0.40038374066352844, -0.8156137466430664, -0.9770349860191345, 0.05716882646083832, 0.005866290919561166, -0.6222855646981031, 0.5095133584783115, 9362.0, 30146.0, 35388.0, 9362.0, 8.370248794555664, -0.07939142733812332, 0.17978104948997498, 0.06885823607444763, 0.0008419858640991151, -0.056706495583057404, 0.9988066554069519, -0.05438552796840668, -0.030637741088867188, 1.493408203125, 1.388671875, 0.03033447265625, 1.49560546875, 1.399658203125, 10.0, 1.0, 10.0, 1.3865067958831787
19774, -1.456290602684021, 1.9904271364212036, -1.0071783065795898, -0.003982495050877333, 0.0030309862922877073, -3.6470682621002197, -0.0534658282995224, 0.04066237434744835, -0.40061262249946594, -0.8155917525291443, -0.9770300388336182, 0.05719446763396263, 0.007999525997371987, -0.6126377926611042, 0.5180121455748329, 9362.0, 30146.0, 35388.0, 9362.0, 8.370248794555664, 0.11707475036382675, 0.13799892365932465, -0.1907932311296463, 0.0001391289260936901, -0.05747031792998314, 0.9989290237426758, -0.05438552796840668, -0.030637741088867188, 1.493408203125, 1.35498046875, 0.01556396484375, 1.490478515625, 1.329345703125, 10.0, 1.0, 10.0, 1.3866324424743652
19784, -1.45492422580719, 1.988646388053894, -1.0072886943817139, -0.00453394278883934, 0.003450358286499977, -3.6510753631591797, -0.056823741644620895, 0.043212052434682846, -0.400816947221756, -0.8156037926673889, -0.9770199060440063, 0.05713865906000137, 0.004793317534733572, -0.6211293371191289, 0.5129337955116732, 9362.0, 30146.0, 35388.0, 9362.0, 8.370248794555664, 0.12413835525512695, -0.08058680593967438, 0.0073028146289289, 0.0024153245612978935, -0.056056976318359375, 0.997920036315918, -0.027986418455839157, -0.021678924560546875, 1.494140625, 1.353515625, 0.0154571533203125, 1.490478515625, 1.34619140625, 10.0, 1.0, 10.0, 1.3864270448684692
19794, -1.4539282321929932, 1.9894860982894897, -1.0076957941055298, -0.00511894840747118, 0.0038952103350311518, -3.6550848484039307, -0.060177307575941086, 0.045758362859487534, -0.4010591208934784, -0.8155998587608337, -0.9770346879959106, 0.057165034115314484, 0.010245898260889317, -0.6100547071574738, 0.505449803241545, 9362.0, 30146.0, 35388.0, 9362.0, 8.370248794555664, -0.11698377877473831, 0.01029549352824688, -0.0881718099117279, 0.0011893686605617404, -0.054399020969867706, 0.9972465634346008, -0.027986418455839157, -0.021678924560546875, 1.494140625, 1.40478515625, 0.0446624755859375, 1.490478515625, 1.36083984375, 10.0, 1.0, 10.0, 1.386233925819397
19804, -1.4546200037002563, 1.990362524986267, -1.007249355316162, -0.0057374765165150166, 0.004365501459687948, -3.659097194671631, -0.06352829933166504, 0.0482998862862587, -0.40142056345939636, -0.8156067132949829, -0.9770185947418213, 0.057150449603796005, 0.002465070098767133, -0.6037027418199443, 0.5085767470797651, 9362.0, 30146.0, 35388.0, 9362.0, 8.370248794555664, 0.12766923010349274, -0.03762093186378479, -0.3347858190536499, 0.0015712917083874345, -0.05795406922698021, 0.9975374937057495, -0.027986418455839157, -0.021678924560546875, 1.494140625, 1.37841796875, 0.023406982421875, 1.490478515625, 1.365234375, 10.0, 1.0, 10.0, 1.386008858680725
19814, -1.4534094333648682, 1.990590214729309, -1.0109343528747559, -0.006389527581632137, 0.004861218389123678, -3.6631131172180176, -0.06688172370195389, 0.05084368959069252, -0.4017488360404968, -0.8156120181083679, -0.9770330190658569, 0.05715533345937729, 0.012133561205890127, -0.613692953725149, 0.5004181661509088, 9362.0, 30146.0, 35388.0, 9362.0, 8.370248794555664, 0.055171675980091095, -0.2637981176376343, -0.06608716398477554, -0.0005403232062235475, -0.05737421289086342, 0.9997109174728394, -0.027986418455839157, -0.021678924560546875, 1.494140625, 1.355712890625, 0.0155029296875, 1.49267578125, 1.417236328125, 10.0, 1.0, 10.0, 1.3859754800796509
19824, -1.453005075454712, 1.9916170835494995, -1.0108952522277832, -0.007075132802128792, 0.0053823781199753284, -3.6671316623687744, -0.07023933529853821, 0.053388260304927826, -0.40196818113327026, -0.8155980706214905, -0.9770228862762451, 0.05717170983552933, 0.010962266116094641, -0.6143795112558621, 0.5134385390824009, 9362.0, 30146.0, 35388.0, 9362.0, 8.370248794555664, -0.21629108488559723, 0.264167845249176, 0.1089639663696289, -0.000808179669547826, -0.05748924985527992, 1.000365138053894, -0.027986418455839157, -0.021678924560546875, 1.494140625, 1.3916015625, 0.0325927734375, 1.49267578125, 1.40185546875, 10.0, 1.0, 10.0, 1.3859142065048218
19834, -1.45315420627594, 1.990405559539795, -1.010467290878296, -0.007794349454343319, 0.005929000210016966, -3.671151638031006, -0.07360399514436722, 0.05593615397810936, -0.4020336866378784, -0.815532386302948, -0.9770670533180237, 0.05715220421552658, -0.014520182604278982, -0.591541763676446, 0.5469679948013683, 9362.0, 30146.0, 35388.0, 9362.0, 8.370248794555664, 0.18284353613853455, 0.11667461693286896, 0.34561529755592346, -0.00026618604897521436, -0.05595202371478081, 0.9999054670333862, -0.027986418455839157, -0.021678924560546875, 1.494140625, 1.373291015625, 0.0207366943359375, 1.49267578125, 1.398193359375, 10.0, 1.0, 10.0, 1.3858903646469116
19844, -1.452298879623413, 1.990048885345459, -1.0091757774353027, -0.008547206409275532, 0.006501105614006519, -3.6751720905303955, -0.0769675150513649, 0.05848484858870506, -0.4020736813545227, -0.8156256079673767, -0.9770384430885315, 0.05712865665555, 0.0068929163855712796, -0.6104322391631172, 0.500138902427644, 9362.0, 30146.0, 35388.0, 9362.0, 8.370248794555664, 0.07013534754514694, -0.1676468849182129, -0.21990519762039185, -0.00036436825757846236, -0.05653165280818939, 0.9973359107971191, -0.027986418455839157, -0.021678924560546875, 1.494140625, 1.37255859375, 0.02044677734375, 1.49267578125, 1.3740234375, 10.0, 1.0, 10.0, 1.3858014345169067
19854, -1.4516916275024414, 1.9907383918762207, -1.0111749172210693, -0.009333659894764423, 0.007098662666976452, -3.679194211959839, -0.08032303303480148, 0.06102663278579712, -0.4023268520832062, -0.8155546188354492, -0.9770440459251404, 0.05720900371670723, -0.028866223554421377, -0.5866738110894403, 0.5421182642294637, 9362.0, 30146.0, 35388.0, 9362.0, 8.370248794555664, -0.11859413236379623, -0.10048465430736542, 0.041289061307907104, 0.0006698250072076917, -0.05599145591259003, 0.9980734586715698, -0.027986418455839157, -0.021678924560546875, 1.494140625, 1.387939453125, 0.0297393798828125, 1.487548828125, 1.40771484375, 10.0, 1.0, 10.0, 1.3855079412460327
19864, -1.4530388116836548, 1.9900803565979004, -1.0104879140853882, -0.01015365868806839, 0.007721621077507734, -3.6832191944122314, -0.08367668092250824, 0.06356501579284668, -0.4026709794998169, -0.815558135509491, -0.9770722389221191, 0.05724077671766281, -0.03162284420429563, -0.5892613289614133, 0.5305031748189255, 9362.0, 30146.0, 35388.0, 9362.0, 8.370248794555664, 0.08772178739309311, 0.18282781541347504, -0.044477127492427826, 0.002156043890863657, -0.05465686321258545, 0.997536838054657, -0.027986418455839157, -0.021678924560546875, 1.494140625, 1.341064453125, 0.01654052734375, 1.487548828125, 1.388671875, 10.0, 1.0, 10.0, 1.3855249881744385
19874, -1.4522758722305298, 1.9880623817443848, -1.0104901790618896, -0.011007205583155155, 0.008369987830519676, -3.6872470378875732, -0.087032750248909, 0.06610839068889618, -0.40291041135787964, -0.8156276941299438, -0.9770221710205078, 0.05714670941233635, 0.009108150539257037, -0.6153364300353985, 0.5055154322163525, 9362.0, 30146.0, 35388.0, 9362.0, 8.370248794555664, -0.1552477926015854, -0.03716122731566429, 0.1943025439977646, 0.0013669680338352919, -0.05605471506714821, 0.9985794425010681, -0.027986418455839157, -0.021678924560546875, 1.494140625, 1.401123046875, 0.041015625, 1.490478515625, 1.385009765625, 10.0, 1.0, 10.0, 1.38545823097229
19884, -1.4529802799224854, 1.9864763021469116, -1.0094467401504517, -0.011894280090928078, 0.009043769910931587, -3.6912777423858643, -0.09038220345973969, 0.06864787638187408, -0.4032444953918457, -0.8155966401100159, -0.9770218133926392, 0.0571579784154892, 0.005528374346965643, -0.6170623734820708, 0.5097202306553689, 9362.0, 30146.0, 35388.0, 9362.0, 8.370248794555664, 0.0591755174100399, -0.33494994044303894, 0.04833338409662247, 0.002618371741846204, -0.05581512302160263, 0.9989935755729675, -0.028634000569581985, -0.2546367645263672, 1.47509765625, 1.434814453125, 0.081787109375, 1.490478515625, 1.387939453125, 10.0, 1.0, 10.0, 1.385452151298523
19894, -1.452828049659729, 1.9880642890930176, -1.010159969329834, -0.012814868241548538, 0.009742976166307926, -3.6953108310699463, -0.09373530000448227, 0.07119343429803848, -0.40339091420173645, -0.815561830997467, -0.9770507216453552, 0.05723480507731438, -0.022582096212331662, -0.6089266362205592, 0.5148636294363385, 9362.0, 30146.0, 35388.0, 9362.0, 8.370248794555664, 0.015717145055532455, -0.09848038107156754, 0.040833618491888046, 0.0032168100588023663, -0.055885668843984604, 0.9987960457801819, -0.028634000569581985, -0.2546367645263672, 1.47509765625, 1.38134765625, 0.025177001953125, 1.4912109375, 1.38720703125, 10.0, 1.0, 10.0, 1.3854856491088867
19914, -1.4533886909484863, 1.9893041849136353, -1.0109518766403198, -0.013768989592790604, 0.010467628948390484, -3.699345827102661, -0.09708897769451141, 0.07373715192079544, -0.4035998582839966, -0.8156013488769531, -0.977027177810669, 0.05716113746166229, 0.01282786197706709, -0.6205974812602051, 0.5001972610442977, 9362.0, 30146.0, 35388.0, 9362.0, 8.370248794555664, -0.08821315318346024, -0.051632076501846313, -0.06142392009496689, 0.0008118068217299879, -0.05562980845570564, 0.9982951283454895, -0.028634000569581985, -0.2546367645263672, 1.47509765625, 1.32275390625, 0.0251312255859375, 1.48974609375, 1.32568359375, 10.0, 1.0, 10.0, 1.3854848146438599
19924, -1.4543884992599487, 1.9896024465560913, -1.0096198320388794, -0.015777871012687683, 0.011993281543254852, -3.7074215412139893, -0.10380012542009354, 0.07882799208164215, -0.40396419167518616, -0.8156102299690247, -0.9770261645317078, 0.05713948979973793, 0.015455219990753225, -0.6255157487459542, 0.507281269049534, 9362.0, 30146.0, 35388.0, 9362.0, 8.370248794555664, 0.07215140759944916, 0.02425178326666355, 0.03697432205080986, 0.0013837860897183418, -0.05573469400405884, 0.9971681237220764, -0.028634000569581985, -0.2546367645263672, 1.47509765625, 1.32275390625, 0.0251312255859375, 1.48974609375, 1.32568359375, 10.0, 1.0, 10.0, 1.3854848146438599
19974, -1.4559143781661987, 1.985762596130371, -1.0061894655227661, -0.01792093738913536, 0.013620722107589245, -3.7155065536499023, -0.11050564795732498, 0.08391500264406204, -0.4045588970184326, -0.8156129717826843, -0.9770437479019165, 0.057150546461343765, 0.005201751216130967, -0.6207840754614153, 0.5018111660258837, 9362.0, 30146.0, 35388.0, 9362.0, 8.370248794555664, -0.2296733260154724, 0.2662788927555084, 0.16059868037700653, 0.0006185070378705859, -0.05569406971335411, 0.9982566833496094, -0.028634000569581985, -0.2546367645263672, 1.47509765625, 1.335205078125, 0.018280029296875, 1.496337890625, 1.402587890625, 10.0, 1.0, 10.0, 1.3849393129348755
19994, -1.4553548097610474, 1.9865567684173584, -1.0062369108200073, -0.023864785209298134, 0.018134595826268196, -3.735769748687744, -0.12724703550338745, 0.0966428592801094, -0.4059661030769348, -0.8156087398529053, -0.9770247340202332, 0.057180024683475494, 0.0015420898114344899, -0.6070920665045207, 0.5104499862537095, 9362.0, 30146.0, 35388.0, 9362.0, 8.370248794555664, 0.104476198554039, 0.0245489664375782, -0.11958669126033783, 0.0004514394677244127, -0.05805004760622978, 0.9980687499046326, -0.028634000569581985, -0.2546367645263672, 1.47509765625, 1.32275390625, 0.0251312255859375, 1.494140625, 1.415771484375, 10.0, 1.0, 10.0, 1.3849393129348755
20004, -1.4553196430206299, 1.9849070310592651, -1.0074255466461182, -0.023864785209298134, 0.018134595826268196, -3.735769748687744, -0.12724703550338745, 0.0966428592801094, -0.4059661030769348, -0.8156251311302185, -0.9770187139511108, 0.05716387927532196, 0.009637219166794393, -0.6213386218233268, 0.4987466740354935, 9362.0, 30146.0, 35388.0, 9362.0, 8.370248794555664, 0.104476198554039, 0.0245489664375782, -0.11958669126033783, 0.0012220802018418908, -0.057436682283878326, 1.0008103847503662, -0.028634000569581985, -0.2546367645263672, 1.47509765625, 1.3037109375, 0.04412841796875, 1.494140625, 1.4033203125, 10.0, 1.0, 10.0, 1.3844834566116333
20014, -1.454894781112671, 1.984144687652588, -1.007506251335144, -0.02647671103477478, 0.020118391141295433, -3.74389386177063, -0.13394619524478912, 0.10173819214105606, -0.40639328956604004, -0.8156182169914246, -0.9770307540893555, 0.0571550577878952, 0.013726520909545131, -0.6152075562266077, 0.5071676338458891, 9362.0, 30146.0, 35388.0, 9362.0, 8.370248794555664, -0.08062043786048889, -0.21413323283195496, -0.03500797972083092, 0.002148672705516219, -0.05565651133656502, 0.9996573328971863, -0.028634000569581985, -0.2546367645263672, 1.47509765625, 1.3037109375, 0.04412841796875, 1.493408203125, 1.4033203125, 10.0, 1.0, 10.0, 1.3844834566116333
20054, -1.4541409015655518, 1.9843231439590454, -1.005177617073059, -0.029222654178738594, 0.022204149514436722, -3.752023935317993, -0.14064544439315796, 0.10683504492044449, -0.40667614340782166, -0.8155999183654785, -0.9770123958587646, 0.05715261772274971, 0.006473337531098253, -0.6167015867843588, 0.5067274975898858, 9362.0, 30146.0, 35388.0, 9362.0, 8.370248794555664, -0.08725742995738983, 0.14135277271270752, 0.11332016438245773, -0.0006915376870892942, -0.05648495629429817, 0.9982437491416931, -0.028634000569581985, -0.2546367645263672, 1.47509765625, 1.336669921875, 0.0177764892578125, 1.48974609375, 1.39892578125, 10.0, 1.0, 10.0, 1.3842663764953613
20064, -1.4544249773025513, 1.9844716787338257, -1.0062655210494995, -0.03359265998005867, 0.025523656979203224, -3.7642362117767334, -0.15068988502025604, 0.11446847021579742, -0.4073699414730072, -0.8156042695045471, -0.9770209789276123, 0.05717821791768074, 0.012185886652266612, -0.6122097498997903, 0.5022152455131859, 9362.0, 30146.0, 35388.0, 9362.0, 8.370248794555664, -0.09729491174221039, 0.2332278937101364, -0.11113078147172928, 0.0013541997177526355, -0.05616670101881027, 0.9989360570907593, -0.028634000569581985, -0.2546367645263672, 1.47509765625, 1.336669921875, 0.0177764892578125, 1.48974609375, 1.39306640625, 10.0, 1.0, 10.0, 1.3842663764953613
20124, -1.453781008720398, 1.9765112400054932, -1.0112839937210083, -0.038263995200395584, 0.029072370380163193, -3.776463747024536, -0.16072852909564972, 0.12211377918720245, -0.4077341854572296, -0.8155849575996399, -0.9770267009735107, 0.057176440954208374, 0.0025054346675367324, -0.6240655525081138, 0.5105247655936328, 9362.0, 30146.0, 35388.0, 9362.0, 8.370248794555664, -0.005070433486253023, 0.009886938147246838, 0.14210239052772522, 0.0003106561489403248, -0.05783907696604729, 1.000014305114746, -0.028634000569581985, -0.2546367645263672, 1.47509765625, 1.32861328125, 0.0214385986328125, 1.493408203125, 1.405517578125, 10.0, 1.0, 10.0, 1.383615255355835
20194, -1.451910376548767, 1.9825440645217896, -1.0165319442749023, -0.05600534752011299, 0.042556945234537125, -3.8173179626464844, -0.19410988688468933, 0.1475682258605957, -0.40934351086616516, -0.8155837059020996, -0.9770584106445312, 0.05721288546919823, -0.016221790534134767, -0.605279338544193, 0.5143927826919268, 9362.0, 30146.0, 35388.0, 9362.0, 8.370248794555664, 0.034642040729522705, -0.3738533854484558, 0.24280400574207306, 0.0006730396999046206, -0.05590638890862465, 1.0003228187561035, -0.05992071330547333, 0.15752029418945312, 1.5087890625, 1.3154296875, 0.03118896484375, 1.48974609375, 1.420166015625, 10.0, 1.0, 10.0, 1.3831260204315186
20234, -1.4515142440795898, 1.9867435693740845, -1.017366886138916, -0.05995449423789978, 0.04555918648838997, -3.825507879257202, -0.20080888271331787, 0.1526573896408081, -0.40958234667778015, -0.8156002759933472, -0.9770137071609497, 0.05717029049992561, 0.006306444948516467, -0.6213119929086588, 0.49190082795150947, 9362.0, 30146.0, 35388.0, 9362.0, 8.370248794555664, -0.1016845554113388, 0.0023750830441713333, 0.1612597405910492, 0.000351057416992262, -0.05783184617757797, 0.9991439580917358, -0.05992071330547333, 0.15752029418945312, 1.5087890625, 1.35498046875, 0.01556396484375, 1.49560546875, 1.353515625, 10.0, 1.0, 10.0, 1.3831157684326172
20244, -1.4519449472427368, 1.9858778715133667, -1.0159361362457275, -0.05995449423789978, 0.04555918648838997, -3.825507879257202, -0.20080888271331787, 0.1526573896408081, -0.40958234667778015, -0.8155577778816223, -0.9770594239234924, 0.05722697824239731, -0.023677192597329397, -0.5848268243605901, 0.5293041086361133, 9362.0, 30146.0, 35388.0, 9362.0, 8.370248794555664, -0.12527869641780853, 0.2137213498353958, -0.022900903597474098, 0.0011934880167245865, -0.05783592909574509, 0.999405562877655, -0.05992071330547333, 0.15752029418945312, 1.5087890625, 1.302978515625, 0.0450897216796875, 1.49560546875, 1.39013671875, 10.0, 1.0, 10.0, 1.3831157684326172
20254, -1.4522004127502441, 1.985763669013977, -1.0155130624771118, -0.06825465708971024, 0.05186876654624939, -3.8419084548950195, -0.21420346200466156, 0.16282379627227783, -0.41041260957717896, -0.8155942559242249, -0.9770302772521973, 0.05719010904431343, 0.010900258171996325, -0.622027663987609, 0.5137109267745431, 9362.0, 30146.0, 35388.0, 9362.0, 8.370248794555664, 0.21039867401123047, 0.08272098004817963, 0.09422364830970764, 0.0035850796848535538, -0.05810093507170677, 0.9976792931556702, -0.05992071330547333, 0.15752029418945312, 1.5087890625, 1.302978515625, 0.0450897216796875, 1.49560546875, 1.390869140625, 10.0, 1.0, 10.0, 1.3831157684326172
20264, -1.4516857862472534, 1.9873108863830566, -1.0134501457214355, -0.07041343301534653, 0.05350971221923828, -3.8460137844085693, -0.2175515741109848, 0.16536542773246765, -0.41066497564315796, -0.8156052827835083, -0.9770183563232422, 0.057146668434143066, 0.00800491807836687, -0.6198572239392774, 0.5052813262007044, 9362.0, 30146.0, 35388.0, 9362.0, 8.370248794555664, -0.033794473856687546, -0.1810724437236786, -0.23391233384609222, 0.00269610108807683, -0.05684245005249977, 0.9979827404022217, -0.05992071330547333, 0.15752029418945312, 1.5087890625, 1.302978515625, 0.0450897216796875, 1.49560546875, 1.399658203125, 10.0, 1.0, 10.0, 1.3831157684326172
20294, -1.4524576663970947, 1.9903106689453125, -1.0147274732589722, -0.07483144849538803, 0.0568678192794323, -3.8542327880859375, -0.22425082325935364, 0.17044587433338165, -0.41117656230926514, -0.8155925273895264, -0.9770302176475525, 0.05717287212610245, 0.010252887148761894, -0.6212124371322147, 0.5161435643770148, 9362.0, 30146.0, 35388.0, 9362.0, 8.370248794555664, -0.16093115508556366, 0.4928061366081238, 0.24527369439601898, 0.0023193436209112406, -0.05396512523293495, 0.9971126317977905, -0.06278058886528015, -0.05751800537109375, 1.4912109375, 1.341064453125, 0.01654052734375, 1.496337890625, 1.393798828125, 10.0, 1.0, 10.0, 1.3831214904785156
20304, -1.4531244039535522, 1.9877680540084839, -1.0143377780914307, -0.079383485019207, 0.060327500104904175, -3.8624632358551025, -0.23095278441905975, 0.1755225658416748, -0.41189756989479065, -0.8156092762947083, -0.9770177602767944, 0.05712523311376572, 0.0049319936146673725, -0.6065427957562122, 0.500315806255335, 9362.0, 30146.0, 35388.0, 9362.0, 8.370248794555664, -0.20545892417430878, -0.15455734729766846, 0.04424191266298294, 6.862876034574583e-05, -0.054340433329343796, 0.9986846446990967, -0.06278058886528015, -0.05751800537109375, 1.4912109375, 1.341064453125, 0.01654052734375, 1.496337890625, 1.42822265625, 10.0, 1.0, 10.0, 1.3831214904785156
20354, -1.4535183906555176, 1.984607458114624, -1.0144773721694946, -0.08406957983970642, 0.06388883292675018, -3.8707058429718018, -0.2376602739095688, 0.1806139498949051, -0.41228216886520386, -0.815613865852356, -0.9770255088806152, 0.05712256208062172, 0.00680702308912, -0.6056707086738982, 0.4965643244878978, 9362.0, 30146.0, 35388.0, 9362.0, 8.370248794555664, -0.17034506797790527, -0.04448142275214195, -0.14316309988498688, 0.0024341600947082043, -0.055542297661304474, 0.9983331561088562, -0.06278058886528015, -0.05751800537109375, 1.4912109375, 1.305908203125, 0.0413360595703125, 1.49267578125, 1.35205078125, 10.0, 1.0, 10.0, 1.3829721212387085
20364, -1.453386902809143, 1.9838407039642334, -1.0152838230133057, -0.08406957983970642, 0.06388883292675018, -3.8707058429718018, -0.2376602739095688, 0.1806139498949051, -0.41228216886520386, -0.8155874609947205, -0.9770299792289734, 0.05717926844954491, 0.0010489291258328978, -0.6129710323618838, 0.5189065566691985, 9362.0, 30146.0, 35388.0, 9362.0, 8.370248794555664, -0.20618471503257751, -0.26979970932006836, 0.17882806062698364, 0.002471062820404768, -0.0564044713973999, 1.0001475811004639, -0.06278058886528015, -0.05751800537109375, 1.4912109375, 1.31689453125, 0.0298919677734375, 1.49267578125, 1.4091796875, 10.0, 1.0, 10.0, 1.3829721212387085
20374, -1.454032301902771, 1.984324336051941, -1.0140680074691772, -0.09637127071619034, 0.07323737442493439, -3.8913567066192627, -0.25440576672554016, 0.19333301484584808, -0.41353321075439453, -0.815596878528595, -0.9770257472991943, 0.057184625416994095, 0.00810402413057879, -0.6181043856369968, 0.5017800981730703, 9362.0, 30146.0, 35388.0, 9362.0, 8.370248794555664, 0.1638215184211731, -0.07416912913322449, 0.0365542508661747, 0.0015059997094795108, -0.05677782744169235, 0.9986613988876343, -0.06278058886528015, -0.05751800537109375, 1.4912109375, 1.31689453125, 0.0298919677734375, 1.496337890625, 1.4091796875, 10.0, 1.0, 10.0, 1.3829721212387085
20424, -1.4529412984848022, 1.9886623620986938, -1.0174888372421265, -0.10951028019189835, 0.08322236686944962, -3.9120547771453857, -0.2711678147315979, 0.2060716450214386, -0.4142373204231262, -0.8155840635299683, -0.9770437479019165, 0.05717937648296356, -0.012085682161259931, -0.6049235980867422, 0.5193907403359214, 9362.0, 30146.0, 35388.0, 9362.0, 8.370248794555664, 0.05277968943119049, 0.18760335445404053, 0.17945539951324463, 0.00020048509759362787, -0.05629442259669304, 0.9988530874252319, -0.06278058886528015, -0.05751800537109375, 1.4912109375, 1.37841796875, 0.023406982421875, 1.493408203125, 1.408447265625, 10.0, 1.0, 10.0, 1.38287353515625
20434, -1.4525943994522095, 1.987274169921875, -1.0160503387451172, -0.10951028019189835, 0.08322236686944962, -3.9120547771453857, -0.2711678147315979, 0.2060716450214386, -0.4142373204231262, -0.8155503273010254, -0.9770630598068237, 0.05723975598812103, -0.025479925872818606, -0.5919365241093999, 0.530614846360157, 9362.0, 30146.0, 35388.0, 9362.0, 8.370248794555664, 0.2116483896970749, 0.025549868121743202, 0.01953166350722313, 0.0012257372727617621, -0.05805181711912155, 0.9973940253257751, -0.06278058886528015, -0.05751800537109375, 1.4912109375, 1.341064453125, 0.01654052734375, 1.493408203125, 1.408447265625, 10.0, 1.0, 10.0, 1.3827457427978516
20474, -1.4495041370391846, 1.9897104501724243, -1.0146311521530151, -0.11779621243476868, 0.08951899409294128, -3.9244911670684814, -0.281220406293869, 0.21369796991348267, -0.41503551602363586, -0.8156147599220276, -0.9770300984382629, 0.0571574941277504, 0.01821842045157911, -0.6174933314105715, 0.5023558027961686, 9362.0, 30146.0, 35388.0, 9362.0, 8.370248794555664, -0.04634657874703407, -0.24906349182128906, -0.2103366106748581, -0.00113764894194901, -0.05812619999051094, 0.9999170899391174, -0.06278058886528015, -0.05751800537109375, 1.4912109375, 1.37548828125, 0.021820068359375, 1.49853515625, 1.36376953125, 10.0, 1.0, 10.0, 1.3828741312026978
20504, -1.4502146244049072, 1.992105484008789, -1.0123175382614136, -0.12931352853775024, 0.09827045351266861, -3.941103935241699, -0.29465287923812866, 0.22387033700942993, -0.41559281945228577, -0.8155676126480103, -0.9770479798316956, 0.05718984082341194, -0.025765621302410103, -0.6038645568081904, 0.5146059395460799, 9362.0, 30146.0, 35388.0, 9362.0, 8.370248794555664, -0.018103597685694695, -0.23558709025382996, -0.12021613866090775, 0.0027432944625616074, -0.05776377394795418, 0.9991368055343628, -0.028162837028503418, -0.1291980743408203, 1.4853515625, 1.373291015625, 0.0207366943359375, 1.49853515625, 1.367431640625, 10.0, 1.0, 10.0, 1.382910966873169
20524, -1.4500160217285156, 1.992074728012085, -1.010905385017395, -0.12931352853775024, 0.09827045351266861, -3.941103935241699, -0.29465287923812866, 0.22387033700942993, -0.41559281945228577, -0.8156083226203918, -0.9770113229751587, 0.05715290829539299, 0.00929653487990777, -0.6113565640216905, 0.513288798053704, 9362.0, 30146.0, 35388.0, 9362.0, 8.370248794555664, 0.06606981158256531, -0.4316486716270447, 0.07088588923215866, 0.0021445080637931824, -0.05856531485915184, 1.0016672611236572, -0.028162837028503418, -0.1291980743408203, 1.4853515625, 1.357177734375, 0.0157928466796875, 1.48974609375, 1.367431640625, 10.0, 1.0, 10.0, 1.3826854228973389
20534, -1.450223684310913, 1.9926700592041016, -1.0089337825775146, -0.14136868715286255, 0.10742858052253723, -3.957740068435669, -0.30811071395874023, 0.234038844704628, -0.4160376191139221, -0.8155978322029114, -0.977006196975708, 0.05715618282556534, 0.0057061152068715185, -0.6092171427492019, 0.502461560085004, 9362.0, 30146.0, 35388.0, 9362.0, 8.370248794555664, 0.06606981158256531, -0.4316486716270447, 0.07088588923215866, 0.0016424045898020267, -0.05526163429021835, 0.9991484880447388, -0.028162837028503418, -0.1291980743408203, 1.4853515625, 1.357177734375, 0.0157928466796875, 1.48974609375, 1.411376953125, 10.0, 1.0, 10.0, 1.3826854228973389
20554, -1.4502675533294678, 1.9905571937561035, -1.0058079957962036, -0.14759820699691772, 0.11216019839048386, -3.966062545776367, -0.31483978033065796, 0.2391217052936554, -0.41628625988960266, -0.815584123134613, -0.9770433306694031, 0.05722294747829437, -0.025286413186091743, -0.5967054743811104, 0.518544429219782, 9362.0, 30146.0, 35388.0, 9362.0, 8.370248794555664, -0.1984725147485733, -0.05235949903726578, -0.10388018190860748, 0.002060729544609785, -0.0594332180917263, 0.9989919066429138, -0.028162837028503418, -0.1291980743408203, 1.4853515625, 1.409912109375, 0.0501251220703125, 1.48974609375, 1.393798828125, 10.0, 1.0, 10.0, 1.3826854228973389
20574, -1.4500670433044434, 1.9918015003204346, -1.0064090490341187, -0.14759820699691772, 0.11216019839048386, -3.966062545776367, -0.31483978033065796, 0.2391217052936554, -0.41628625988960266, -0.8156143426895142, -0.9770273566246033, 0.05715310573577881, 0.002460117408823262, -0.6160123381029621, 0.4982073881270009, 9362.0, 30146.0, 35388.0, 9362.0, 8.370248794555664, -0.005821655038744211, 0.20435981452465057, 0.15816237032413483, 0.0015894724056124687, -0.0565822571516037, 0.9990562200546265, -0.028162837028503418, -0.1291980743408203, 1.4853515625, 1.352783203125, 0.015350341796875, 1.48974609375, 1.393798828125, 10.0, 1.0, 10.0, 1.3826512098312378
20604, -1.450026035308838, 1.9887263774871826, -1.0050816535949707, -0.16046060621738434, 0.12192829698324203, -3.9827282428741455, -0.328281432390213, 0.2492816299200058, -0.41702795028686523, -0.8155797123908997, -0.9770217537879944, 0.05716940760612488, 0.010981530452842989, -0.6163162847723527, 0.5109024779456348, 9362.0, 30146.0, 35388.0, 9362.0, 8.370248794555664, -0.036389488726854324, -0.021768901497125626, 0.13627175986766815, 0.0013506748946383595, -0.05962089076638222, 0.9988188147544861, -0.028162837028503418, -0.1291980743408203, 1.4853515625, 1.3388671875, 0.017120361328125, 1.48974609375, 1.405517578125, 10.0, 1.0, 10.0, 1.3823466300964355
20614, -1.4504461288452148, 1.987256646156311, -1.005597472190857, -0.16709327697753906, 0.12696465849876404, -3.991074800491333, -0.3349858820438385, 0.2543542981147766, -0.4176272451877594, -0.815572202205658, -0.9770441651344299, 0.05723366141319275, -0.021538833091198743, -0.6063789270654638, 0.5143247351463971, 9362.0, 30146.0, 35388.0, 9362.0, 8.370248794555664, -0.036389488726854324, -0.021768901497125626, 0.13627175986766815, 0.001728700939565897, -0.058742083609104156, 0.9988207221031189, -0.028162837028503418, -0.1291980743408203, 1.4853515625, 1.3388671875, 0.017120361328125, 1.48974609375, 1.39013671875, 10.0, 1.0, 10.0, 1.3823466300964355
20664, -1.4481680393218994, 1.9852044582366943, -1.0039435625076294, -0.1842617392539978, 0.13999958336353302, -4.011984348297119, -0.35174429416656494, 0.26703232526779175, -0.41900816559791565, -0.8156033754348755, -0.9770196676254272, 0.057153426110744476, 0.013010208605826414, -0.6171013735340978, 0.4973155844482708, 9362.0, 30146.0, 35388.0, 9362.0, 8.370248794555664, 0.027827303856611252, 0.10363895446062088, 0.0777709037065506, 0.0013947923434898257, -0.05803418532013893, 0.9989446997642517, -0.028162837028503418, -0.1291980743408203, 1.4853515625, 1.376953125, 0.0225982666015625, 1.494873046875, 1.39013671875, 10.0, 1.0, 10.0, 1.382663607597351
20674, -1.4477325677871704, 1.9840537309646606, -1.0025320053100586, -0.1842617392539978, 0.13999958336353302, -4.011984348297119, -0.35174429416656494, 0.26703232526779175, -0.41900816559791565, -0.8156043291091919, -0.9770159721374512, 0.057158879935741425, 0.01094182805197064, -0.6248039554285754, 0.504294448764565, 9362.0, 30146.0, 35388.0, 9362.0, 8.370248794555664, -0.05742425099015236, -0.32059216499328613, -0.08340632915496826, 0.0009529208182357252, -0.05618227645754814, 1.0009279251098633, -0.028162837028503418, -0.1291980743408203, 1.4853515625, 1.349853515625, 0.015350341796875, 1.494873046875, 1.404052734375, 10.0, 1.0, 10.0, 1.382663607597351
20714, -1.4471912384033203, 1.9874590635299683, -1.000777006149292, -0.20226794481277466, 0.15366829931735992, -4.032950401306152, -0.3685128092765808, 0.279721200466156, -0.41946402192115784, -0.8156040906906128, -0.9770246744155884, 0.05714321509003639, 0.007048956617785388, -0.6163486039696977, 0.5137513989824677, 9362.0, 30146.0, 35388.0, 9362.0, 8.370248794555664, 0.17849348485469818, -0.11427278071641922, -0.13313311338424683, 0.001955599058419466, -0.05694844573736191, 1.001009225845337, -0.028162837028503418, -0.1291980743408203, 1.4853515625, 1.39306640625, 0.0337982177734375, 1.494873046875, 1.40478515625, 10.0, 1.0, 10.0, 1.3828966617584229
20724, -1.4481480121612549, 1.9887268543243408, -1.0009238719940186, -0.20226794481277466, 0.15366829931735992, -4.032950401306152, -0.3685128092765808, 0.279721200466156, -0.41946402192115784, -0.8156006932258606, -0.977020800113678, 0.057161569595336914, 0.014982892738023966, -0.6189855831970021, 0.5071896205741525, 9362.0, 30146.0, 35388.0, 9362.0, 8.370248794555664, 0.17849348485469818, -0.11427278071641922, -0.13313311338424683, 0.000617461686488241, -0.05680447816848755, 0.999485194683075, -0.028162837028503418, -0.1291980743408203, 1.4853515625, 1.318359375, 0.028656005859375, 1.494873046875, 1.3681640625, 10.0, 1.0, 10.0, 1.382859230041504
20744, -1.446847915649414, 1.9855207204818726, -0.9973488450050354, -0.21347440779209137, 0.16217409074306488, -4.045539379119873, -0.3785787522792816, 0.28732767701148987, -0.4199067950248718, -0.8155915141105652, -0.9770265817642212, 0.057148464024066925, 0.011768976637791488, -0.6103925905186998, 0.5110359968973123, 9362.0, 30146.0, 35388.0, 9362.0, 8.370248794555664, 0.1351473480463028, 0.06840388476848602, 0.22741007804870605, 0.0002131299552274868, -0.05494226887822151, 0.9983720779418945, -0.028162837028503418, -0.1291980743408203, 1.4853515625, 1.36083984375, 0.016387939453125, 1.494873046875, 1.383544921875, 10.0, 1.0, 10.0, 1.382995367050171
20764, -1.4465032815933228, 1.984323501586914, -0.9946833848953247, -0.21347440779209137, 0.16217409074306488, -4.045539379119873, -0.3785787522792816, 0.28732767701148987, -0.4199067950248718, -0.8156138062477112, -0.9770345091819763, 0.05714711546897888, 0.0020541030889725934, -0.6046648617032702, 0.5115973243772332, 9362.0, 30146.0, 35388.0, 9362.0, 8.370248794555664, 0.011338178999722004, 0.1716834306716919, 0.10459057241678238, -0.0001830621185945347, -0.0547468401491642, 0.9995355010032654, -0.028162837028503418, -0.1291980743408203, 1.4853515625, 1.329345703125, 0.02105712890625, 1.487548828125, 1.383544921875, 10.0, 1.0, 10.0, 1.3829892873764038
20794, -1.4454021453857422, 1.9808791875839233, -0.9930044412612915, -0.23282159864902496, 0.17685683071613312, -4.066567897796631, -0.3953029215335846, 0.29998019337654114, -0.4212040305137634, -0.8155671954154968, -0.9770387411117554, 0.0572122260928154, -0.021729263270678555, -0.5966251089998593, 0.5193645437043272, 9362.0, 30146.0, 35388.0, 9362.0, 8.370248794555664, -0.0749884620308876, -0.38653135299682617, 0.0715458020567894, 0.002488817786797881, -0.055943407118320465, 0.9979680776596069, -0.06770527362823486, -0.09335899353027344, 1.48828125, 1.32275390625, 0.0251312255859375, 1.487548828125, 1.41650390625, 10.0, 1.0, 10.0, 1.3829892873764038
20834, -1.4440908432006836, 1.986167073249817, -0.9949520826339722, -0.23679132759571075, 0.17986927926540375, -4.070781230926514, -0.39864423871040344, 0.3025091290473938, -0.4214452803134918, -0.8155927658081055, -0.9770219326019287, 0.05713648349046707, 0.009046431818468224, -0.6185767134582534, 0.517292636236582, 9362.0, 30146.0, 35388.0, 9362.0, 8.370248794555664, 0.1802418828010559, -0.10832847654819489, 0.013648726046085358, 0.0019102864898741245, -0.05579580366611481, 0.9994544386863708, -0.06770527362823486, -0.09335899353027344, 1.48828125, 1.417236328125, 0.058624267578125, 1.49267578125, 1.370361328125, 10.0, 1.0, 10.0, 1.3829548358917236
20844, -1.4437812566757202, 1.9866777658462524, -0.9938294887542725, -0.23679132759571075, 0.17986927926540375, -4.070781230926514, -0.39864423871040344, 0.3025091290473938, -0.4214452803134918, -0.8155585527420044, -0.9770403504371643, 0.0572134405374527, -0.03854421080302999, -0.5874078554014659, 0.5431099777971917, 9362.0, 30146.0, 35388.0, 9362.0, 8.370248794555664, -0.009586862288415432, -0.2489638328552246, -0.1645112782716751, 0.0009929484222084284, -0.05580248311161995, 0.9992085695266724, -0.06770527362823486, -0.09335899353027344, 1.48828125, 1.417236328125, 0.058624267578125, 1.49267578125, 1.41064453125, 10.0, 1.0, 10.0, 1.3829548358917236
20864, -1.4449406862258911, 1.9849742650985718, -0.9949795603752136, -0.25714248418807983, 0.19531093537807465, -4.0918779373168945, -0.4154103994369507, 0.3151589632034302, -0.4222470819950104, -0.8155845403671265, -0.9770334959030151, 0.05719735845923424, -0.028182119062105524, -0.6008672795443601, 0.5186811977363853, 9362.0, 30146.0, 35388.0, 9362.0, 8.370248794555664, 0.048205893486738205, -0.23871737718582153, -0.052249304950237274, 0.0015299611259251833, -0.05521257966756821, 0.9989202618598938, -0.06770527362823486, -0.09335899353027344, 1.48828125, 1.41357421875, 0.0542449951171875, 1.49267578125, 1.420166015625, 10.0, 1.0, 10.0, 1.3827043771743774
20894, -1.444535255432129, 1.9845011234283447, -0.9985437989234924, -0.25714248418807983, 0.19531093537807465, -4.0918779373168945, -0.4154103994369507, 0.3151589632034302, -0.4222470819950104, -0.8155920505523682, -0.9770216345787048, 0.057156872004270554, 0.007184219789598102, -0.6174639537415771, 0.5073248203976536, 9362.0, 30146.0, 35388.0, 9362.0, 8.370248794555664, -0.13056503236293793, -0.035856667906045914, 0.13640320301055908, 0.0014182867016643286, -0.056215256452560425, 0.9984527230262756, -0.06770527362823486, -0.09335899353027344, 1.48828125, 1.379150390625, 0.0238189697265625, 1.497802734375, 1.39599609375, 10.0, 1.0, 10.0, 1.3825422525405884
20904, -1.4441159963607788, 1.9835662841796875, -0.999577522277832, -0.2783322334289551, 0.21138520538806915, -4.11300802230835, -0.43217232823371887, 0.32781264185905457, -0.42293915152549744, -0.8155604600906372, -0.9770415425300598, 0.057204924523830414, -0.036752348909637515, -0.5877445481399377, 0.5342653053331667, 9362.0, 30146.0, 35388.0, 9362.0, 8.370248794555664, 0.06552236527204514, -0.1372782438993454, 0.22179225087165833, 0.0014182867016643286, -0.056215256452560425, 0.9984527230262756, -0.06770527362823486, -0.09335899353027344, 1.48828125, 1.379150390625, 0.0238189697265625, 1.497802734375, 1.39599609375, 10.0, 1.0, 10.0, 1.3825422525405884
20914, -1.4438832998275757, 1.9844729900360107, -0.9993780851364136, -0.2783322334289551, 0.21138520538806915, -4.11300802230835, -0.43217232823371887, 0.32781264185905457, -0.42293915152549744, -0.8155516982078552, -0.9770497679710388, 0.05726687237620354, -0.030153759900691964, -0.596815353151726, 0.5297115135711142, 9362.0, 30146.0, 35388.0, 9362.0, 8.370248794555664, 0.06552236527204514, -0.1372782438993454, 0.22179225087165833, -0.0005279284087009728, -0.05610937252640724, 0.9989756941795349, -0.06770527362823486, -0.09335899353027344, 1.48828125, 1.379150390625, 0.0238189697265625, 1.493408203125, 1.39599609375, 10.0, 1.0, 10.0, 1.3822661638259888
20954, -1.4426629543304443, 1.9841806888580322, -1.0017242431640625, -0.2870425879955292, 0.21799199283123016, -4.121471881866455, -0.4388660192489624, 0.332867294549942, -0.4233982563018799, -0.8155919909477234, -0.977019727230072, 0.05715519189834595, 0.0024150307337224668, -0.6136914148134451, 0.5157460890633384, 9362.0, 30146.0, 35388.0, 9362.0, 8.370248794555664, -0.08701515197753906, 0.12640619277954102, -0.04269590228796005, 0.001931562670506537, -0.05695439130067825, 1.0001026391983032, -0.06770527362823486, -0.09335899353027344, 1.48828125, 1.327880859375, 0.0218353271484375, 1.48974609375, 1.44140625, 10.0, 1.0, 10.0, 1.3825023174285889
20964, -1.4430643320083618, 1.9828675985336304, -1.0038901567459106, -0.2870425879955292, 0.21799199283123016, -4.121471881866455, -0.4388660192489624, 0.332867294549942, -0.4233982563018799, -0.8155940771102905, -0.9770287275314331, 0.05716255307197571, 0.014175400046926865, -0.628774215143693, 0.5017244735421701, 9362.0, 30146.0, 35388.0, 9362.0, 8.370248794555664, -0.07107651233673096, -0.6838694214820862, -0.2332799732685089, 0.002212169114500284, -0.05437765643000603, 0.9967001676559448, -0.06770527362823486, -0.09335899353027344, 1.48828125, 1.327880859375, 0.0218353271484375, 1.48974609375, 1.40185546875, 10.0, 1.0, 10.0, 1.3825023174285889
21014, -1.4399993419647217, 1.9931976795196533, -1.0093507766723633, -0.31397804617881775, 0.23841914534568787, -4.146900177001953, -0.45897454023361206, 0.34803134202957153, -0.4244348406791687, -0.8155827522277832, -0.9770350456237793, 0.05718574300408363, 0.0060371742838309156, -0.6228584219066136, 0.5128168248578236, 9362.0, 30146.0, 35388.0, 9362.0, 8.370248794555664, -0.006323498673737049, -0.2861182689666748, 0.11687608808279037, 0.0012540265452116728, -0.054160211235284805, 1.0005497932434082, -0.06770527362823486, -0.09335899353027344, 1.48828125, 1.30224609375, 0.0460052490234375, 1.49267578125, 1.4091796875, 10.0, 1.0, 10.0, 1.3822187185287476
21024, -1.4400851726531982, 1.9945275783538818, -1.0078113079071045, -0.31397804617881775, 0.23841914534568787, -4.146900177001953, -0.45897454023361206, 0.34803134202957153, -0.4244348406791687, -0.8155969381332397, -0.9770317673683167, 0.057161904871463776, 0.001535227075575775, -0.6163716399483974, 0.5174816546181653, 9362.0, 30146.0, 35388.0, 9362.0, 8.370248794555664, 0.19961005449295044, 0.13978102803230286, -0.03161538392305374, 0.001763543114066124, -0.05530298501253128, 1.00007164478302, -0.06770527362823486, -0.09335899353027344, 1.48828125, 1.30224609375, 0.0460052490234375, 1.49267578125, 1.4091796875, 10.0, 1.0, 10.0, 1.3822187185287476
21034, -1.4377872943878174, 1.9942278861999512, -1.0087566375732422, -0.31397804617881775, 0.23841914534568787, -4.146900177001953, -0.45897454023361206, 0.34803134202957153, -0.4244348406791687, -0.8155843019485474, -0.9770218729972839, 0.05716684088110924, 0.0060937073054650685, -0.629820541678157, 0.5029479678618056, 9362.0, 30146.0, 35388.0, 9362.0, 8.370248794555664, 0.19961005449295044, 0.13978102803230286, -0.03161538392305374, 0.0008935582591220737, -0.05537452548742294, 0.9978119730949402, -0.06770527362823486, -0.09335899353027344, 1.48828125, 1.30224609375, 0.0460052490234375, 1.48974609375, 1.4091796875, 10.0, 1.0, 10.0, 1.3826299905776978
21054, -1.438392162322998, 1.9957568645477295, -1.0085078477859497, -0.31397804617881775, 0.23841914534568787, -4.146900177001953, -0.45897454023361206, 0.34803134202957153, -0.4244348406791687, -0.8155463933944702, -0.977069616317749, 0.05727754533290863, -0.02740178168886344, -0.5925457443006508, 0.5346891477928346, 9362.0, 30146.0, 35388.0, 9362.0, 8.370248794555664, -0.04069206863641739, -0.10426735132932663, -0.07875880599021912, -0.0001742807071423158, -0.056288670748472214, 0.9974035024642944, -0.06770527362823486, -0.09335899353027344, 1.48828125, 1.38720703125, 0.0291900634765625, 1.48974609375, 1.4091796875, 10.0, 1.0, 10.0, 1.3827885389328003
21074, -1.4406623840332031, 1.9967432022094727, -1.0093985795974731, -0.31397804617881775, 0.23841914534568787, -4.146900177001953, -0.45897454023361206, 0.34803134202957153, -0.4244348406791687, -0.8156041502952576, -0.9770328998565674, 0.05714874714612961, 0.006107251694887279, -0.6066367236384735, 0.4941876102909392, 9362.0, 30146.0, 35388.0, 9362.0, 8.370248794555664, -0.2322862595319748, -0.06703291088342667, -0.21850648522377014, 0.0011011662427335978, -0.05623758211731911, 0.9976356029510498, -0.06770527362823486, -0.09335899353027344, 1.48828125, 1.385009765625, 0.0276336669921875, 1.48974609375, 1.4091796875, 10.0, 1.0, 10.0, 1.3826751708984375
21094, -1.4430309534072876, 1.9977436065673828, -1.009649395942688, -0.3664986491203308, 0.27822813391685486, -4.193721771240234, -0.4959712326526642, 0.3757641613483429, -0.42698705196380615, -0.8155945539474487, -0.977022111415863, 0.05713647976517677, -0.004401515273692078, -0.5998487589034767, 0.5090916221722783, 9362.0, 30146.0, 35388.0, 9362.0, 8.370248794555664, -0.289660781621933, -0.0020458779763430357, 0.12695547938346863, 0.003373275976628065, -0.057370930910110474, 0.9995265007019043, -0.05135200917720795, -0.08439826965332031, 1.489013671875, 1.373291015625, 0.0207366943359375, 1.48974609375, 1.402587890625, 10.0, 1.0, 10.0, 1.3826751708984375
21104, -1.4436520338058472, 1.9974380731582642, -1.0071886777877808, -0.3714752495288849, 0.2819984257221222, -4.197991847991943, -0.49934613704681396, 0.37829431891441345, -0.4270751178264618, -0.8155993819236755, -0.9770207405090332, 0.057149700820446014, 0.008610980222762197, -0.6176912035555233, 0.4978993925661737, 9362.0, 30146.0, 35388.0, 9362.0, 8.370248794555664, -0.289660781621933, -0.0020458779763430357, 0.12695547938346863, 0.0019505671225488186, -0.05634532496333122, 0.9970798492431641, -0.05135200917720795, -0.08439826965332031, 1.489013671875, 1.373291015625, 0.0207366943359375, 1.48974609375, 1.402587890625, 10.0, 1.0, 10.0, 1.3825562000274658
21124, -1.4442602396011353, 1.9952082633972168, -1.007193922996521, -0.3714752495288849, 0.2819984257221222, -4.197991847991943, -0.49934613704681396, 0.37829431891441345, -0.4270751178264618, -0.8155543208122253, -0.9770652651786804, 0.05726374685764313, -0.03397184493779598, -0.5950534234211489, 0.5334322191141683, 9362.0, 30146.0, 35388.0, 9362.0, 8.370248794555664, -0.26592910289764404, -0.4516877830028534, 0.1420268714427948, 0.0013932567089796066, -0.056802570819854736, 0.9992547035217285, -0.05135200917720795, -0.08439826965332031, 1.489013671875, 1.361572265625, 0.016571044921875, 1.493408203125, 1.38427734375, 10.0, 1.0, 10.0, 1.3825562000274658
21154, -1.4474350214004517, 2.001863479614258, -1.0108356475830078, -0.3714752495288849, 0.2819984257221222, -4.197991847991943, -0.49934613704681396, 0.37829431891441345, -0.4270751178264618, -0.8156100511550903, -0.9770206809043884, 0.057122550904750824, 0.007544330291110322, -0.612248089546398, 0.5071956761143571, 9362.0, 30146.0, 35388.0, 9362.0, 8.370248794555664, -0.26102524995803833, -0.35227805376052856, 0.09179277718067169, 0.0019976829644292593, -0.05516175180673599, 0.999505341053009, -0.05135200917720795, -0.08439826965332031, 1.489013671875, 1.335205078125, 0.018280029296875, 1.4970703125, 1.4384765625, 10.0, 1.0, 10.0, 1.3824352025985718
21174, -1.4478514194488525, 2.0032668113708496, -1.0110303163528442, -0.4020417630672455, 0.30515092611312866, -4.2236738204956055, -0.5195501446723938, 0.39346712827682495, -0.4288369119167328, -0.8155925273895264, -0.9770066142082214, 0.057156533002853394, -0.00638859422799409, -0.6046156591197587, 0.5194134756558751, 9362.0, 30146.0, 35388.0, 9362.0, 8.370248794555664, 0.11076392978429794, -0.016222240403294563, -0.01526645477861166, -0.0009583157952874899, -0.05803900584578514, 0.9960492253303528, -0.05135200917720795, -0.08439826965332031, 1.489013671875, 1.37109375, 0.0197906494140625, 1.49267578125, 1.376220703125, 10.0, 1.0, 10.0, 1.3824936151504517
21194, -1.447595238685608, 2.003413200378418, -1.0082868337631226, -0.4125003218650818, 0.31307095289230347, -4.2322564125061035, -0.526301920413971, 0.39853236079216003, -0.4295165538787842, -0.8156114220619202, -0.9770271182060242, 0.0571560375392437, 0.0071219091989512305, -0.6145271958170042, 0.512677936602086, 9362.0, 30146.0, 35388.0, 9362.0, 8.370248794555664, 0.008442006073892117, 0.15440654754638672, 0.0940500870347023, -0.0006025580805726349, -0.0557657890021801, 0.9967806935310364, -0.05135200917720795, -0.08439826965332031, 1.489013671875, 1.34326171875, 0.01605224609375, 1.490478515625, 1.426025390625, 10.0, 1.0, 10.0, 1.3823679685592651
21214, -1.446440577507019, 2.000290632247925, -1.0052164793014526, -0.42844119668006897, 0.3251408338546753, -4.2451581954956055, -0.5364301800727844, 0.4061295688152313, -0.43046101927757263, -0.8156111240386963, -0.9770097732543945, 0.05714702606201172, -0.0004714819327861797, -0.6151367080880163, 0.5180380604556555, 9362.0, 30146.0, 35388.0, 9362.0, 8.370248794555664, 0.18430030345916748, -0.023710809648036957, -0.02326602302491665, 0.0004024566733278334, -0.05809552222490311, 0.9956700801849365, -0.05135200917720795, -0.08439826965332031, 1.489013671875, 1.34326171875, 0.01605224609375, 1.490478515625, 1.41357421875, 10.0, 1.0, 10.0, 1.3823679685592651
21224, -1.4445810317993164, 1.99885094165802, -1.0043468475341797, -0.4338223338127136, 0.32921475172042847, -4.249464988708496, -0.5397973656654358, 0.4086565375328064, -0.43089786171913147, -0.8155983686447144, -0.977019190788269, 0.057151906192302704, -0.003322443121534828, -0.5969205667452115, 0.5152488073748909, 9362.0, 30146.0, 35388.0, 9362.0, 8.370248794555664, 0.12287840247154236, -0.2104443907737732, -0.24699315428733826, -0.00015701702795922756, -0.05768277496099472, 0.9969810247421265, -0.05135200917720795, -0.08439826965332031, 1.489013671875, 1.34326171875, 0.01605224609375, 1.490478515625, 1.42236328125, 10.0, 1.0, 10.0, 1.3823679685592651
21234, -1.443243145942688, 1.9990308284759521, -1.0050272941589355, -0.4338223338127136, 0.32921475172042847, -4.249464988708496, -0.5397973656654358, 0.4086565375328064, -0.43089786171913147, -0.8155955672264099, -0.977022111415863, 0.0571499764919281, 0.0007823743092851029, -0.6107408974097268, 0.5094765558929877, 9362.0, 30146.0, 35388.0, 9362.0, 8.370248794555664, 0.20691977441310883, 0.2494976669549942, 0.20093756914138794, -0.000711241620592773, -0.057964637875556946, 0.9990096688270569, -0.05135200917720795, -0.08439826965332031, 1.489013671875, 1.34326171875, 0.01605224609375, 1.496337890625, 1.360107421875, 10.0, 1.0, 10.0, 1.3823679685592651
21264, -1.441117763519287, 1.996099829673767, -1.0015366077423096, -0.4556836783885956, 0.3457629978656769, -4.266726493835449, -0.5532754063606262, 0.4187559485435486, -0.4319610297679901, -0.8156018257141113, -0.9770190715789795, 0.05714280903339386, 0.0026085870951382166, -0.5980018218872374, 0.5068137203357164, 9362.0, 30146.0, 35388.0, 9362.0, 8.370248794555664, 0.06752324104309082, -0.16361653804779053, -0.1788269579410553, 0.0006837844848632812, -0.05517933890223503, 0.9973806142807007, -0.05135200917720795, -0.08439826965332031, 1.489013671875, 1.353515625, 0.0154571533203125, 1.496337890625, 1.40478515625, 10.0, 1.0, 10.0, 1.3823730945587158
