timeTick, roll, pitch, yaw, stateX, stateY, stateZ, stateVX, stateVY, stateVZ, otX0, otY0, otZ0, otRoll0, otPitch0, otYaw0, left wing, pitch motor, yaw motor, right wing, voltage, roll rate, pitch rate, yaw rate, A_x, A_y, A_z, current, i_raw, v_raw, airflow_voltage, airflow_speed, pot_Pitch, voltage_nKF, kFFx, state_vel, State_vel, volt_KF_vel
36778, 1.6318130493164062, 8.488471984863281, -7.340047836303711, 0, 0, 0, 0, 0, 0, -0.8292257189750671, -0.9704288244247437, 0.056036531925201416, -0.11257646282029318, -0.33711702958609635, 5.711152552571156, 0, 0, 0, 0, 0, 0, 0, 0, 0, 0, 0, 0, 0, 0, 0, 0, 0, 0, 0, 0, 0, 0
36788, 1.6339315176010132, 8.487604141235352, -7.343016624450684, 0.0020911716856062412, 0.0001308394130319357, -10.760387420654297, 0.04765619337558746, 0.002983398037031293, -0.6084736585617065, -0.82914137840271, -0.9704650640487671, 0.0561215840280056, -0.1475958307695404, -0.3224929046265572, 5.730079383803897, 9362.0, 30146.0, 35388.0, 9362.0, 0, 0.16586367785930634, -0.07898232340812683, -0.12408114224672318, -0.000575824873521924, -0.05827654153108597, 0.9970366358757019, 0, 0, 0, 0, 0, 0, 0, 0, 0, 0, 0
36798, 1.6350882053375244, 8.488035202026367, -7.346013069152832, 0.002494387561455369, 0.0001560800737934187, -10.7664794921875, 0.03298690915107727, 0.0020654676482081413, -0.6098757982254028, -0.8291506171226501, -0.9704703688621521, 0.0560925267636776, -0.15662765496726053, -0.3246766236895553, 5.725516783002679, 9362.0, 30146.0, 35388.0, 9362.0, 0, 0.15903589129447937, -0.19886411726474762, -0.31720036268234253, -0.0017174318199977279, -0.055909641087055206, 0.9981912970542908, 0, 0, 0, 0.840087890625, 8.3499755859375, 0, 0.979248046875, 10.0, 1.0, 10.0, 1.388085961341858
36808, 1.636251449584961, 8.489052772521973, -7.34548807144165, 0.0027508512139320374, 0.00017212232341989875, -10.772584915161133, 0.01830577664077282, 0.00114373117685318, -0.6111935377120972, -0.8292339444160461, -0.9704256057739258, 0.05607597529888153, -0.11406995341231023, -0.3401028361582519, 5.702876582199352, 9362.0, 30146.0, 35388.0, 9362.0, 0, 0.032125044614076614, 0.0055429888889193535, 0.1114191934466362, -0.0023804062511771917, -0.05528249219059944, 0.9988085627555847, 0, 0, 0, 1.1103515625, 1.1422271728515625, 1.493408203125, 1.458984375, 10.0, 1.0, 10.0, 1.3891700506210327
36818, 1.6368392705917358, 8.491450309753418, -7.345517158508301, 0.002860491396859288, 0.0001789412781363353, -10.778703689575195, 0.003622331190854311, 0.0002199058362748474, -0.6125025749206543, -0.8292296528816223, -0.9704153537750244, 0.05606542527675629, -0.11629123667838094, -0.3376184273498666, 5.709504269313855, 9362.0, 30146.0, 35388.0, 9362.0, 0, -0.02717621996998787, -0.12711362540721893, -0.16478334367275238, -0.0014012509491294622, -0.05651167035102844, 0.9989174008369446, 0, 0, 0, 0.9287109375, 4.90576171875, 1.493408203125, 1.16455078125, 10.0, 1.0, 10.0, 1.3876954317092896
36828, 1.636642336845398, 8.491064071655273, -7.347574710845947, 0.0028231830801814795, 0.00017650598601903766, -10.784834861755371, -0.011083928868174553, -0.0007069758139550686, -0.6136745810508728, -0.8292266130447388, -0.9704306721687317, 0.05605979263782501, -0.12090787978422947, -0.3440138021586563, 5.711116716832027, 9362.0, 30146.0, 35388.0, 9362.0, 0, 0.018293654546141624, -0.28118643164634705, -0.2652205228805542, -0.0013264187145978212, -0.055933866649866104, 0.9966920018196106, 0, 0, 0, 0.95068359375, 4.2411346435546875, 1.490478515625, 1.48828125, 10.0, 1.0, 10.0, 1.3871434926986694
36838, 1.6388417482376099, 8.494141578674316, -7.349297523498535, 0.0026389050763100386, 0.00016480666818097234, -10.79097843170166, -0.025771725922822952, -0.0016323544550687075, -0.6149962544441223, -0.8291499018669128, -0.9704759120941162, 0.056096211075782776, -0.1495253794115161, -0.3358037576834363, 5.7205568328640615, 9362.0, 30146.0, 35388.0, 9362.0, 0, 0.09111372381448746, -0.2916124165058136, -0.3977837562561035, -0.0026179125998169184, -0.05555390194058418, 0.9979649186134338, 0, 0, 0, 0.64892578125, 21.226486206054688, 1.490478515625, 1.723388671875, 10.0, 1.0, 10.0, 1.3874350786209106
36848, 1.6398308277130127, 8.495840072631836, -7.350523471832275, 0.002307804301381111, 0.0001438607432646677, -10.797135353088379, -0.040448375046253204, -0.0025564359966665506, -0.616387128829956, -0.8291698098182678, -0.970465898513794, 0.05611909180879593, -0.16087144991891145, -0.3310866321028527, 5.731638284101089, 9362.0, 30146.0, 35388.0, 9362.0, 0, -0.10732981562614441, -0.06031230092048645, 0.007728648371994495, -0.00303935119882226, -0.0552242249250412, 0.9978457093238831, 0, 0, 0, 1.5966796875, 0.409210205078125, 1.4912109375, 1.017333984375, 10.0, 1.0, 10.0, 1.387471318244934
36858, 1.6378213167190552, 8.49610424041748, -7.348565101623535, 0.001829836517572403, 0.00011365632235538214, -10.803305625915527, -0.05514517426490784, -0.0034841541200876236, -0.6176831722259521, -0.8291535377502441, -0.9704638719558716, 0.05607965588569641, -0.1485336493178491, -0.32676183889500976, 5.7273633962993875, 9362.0, 30146.0, 35388.0, 9362.0, 0, -0.04120084270834923, -0.31691473722457886, 0.005533342249691486, -0.0031721529085189104, -0.05439569801092148, 0.9984415173530579, 0, 0, 0, 1.4677734375, 0.1347198486328125, 1.4912109375, 0.95361328125, 10.0, 1.0, 10.0, 1.3869109153747559
36868, 1.637984037399292, 8.496296882629395, -7.347443103790283, 0.0012048822827637196, 7.41695475880988e-05, -10.809489250183105, -0.06984566152095795, -0.004413668531924486, -0.6189752221107483, -0.8291566967964172, -0.970459520816803, 0.056103914976119995, -0.17131214963158314, -0.3258375897419796, 5.731202610744306, 9362.0, 30146.0, 35388.0, 9362.0, 0, 0.05956186726689339, -0.022032853215932846, -0.03035556524991989, -0.0020894883200526237, -0.05608765035867691, 0.9990378022193909, 0, 0, 0, 1.160888671875, 0.6495208740234375, 1.490478515625, 0.917724609375, 10.0, 1.0, 10.0, 1.3859082460403442
36878, 1.6380029916763306, 8.497308731079102, -7.3492021560668945, 0.0004328947397880256, 2.5400651793461293e-05, -10.815685272216797, -0.08455182611942291, -0.005340400617569685, -0.6202297806739807, -0.8292161226272583, -0.970427393913269, 0.05607428774237633, -0.1170751347979966, -0.3468392788211361, 5.712906126591063, 9362.0, 30146.0, 35388.0, 9362.0, 8.152067184448242, -0.016763940453529358, 0.09438013285398483, -0.08794304728507996, -0.00037815101677551866, -0.05694549158215523, 0.9982105493545532, -0.04974100738763809, -0.03959846496582031, 1.49267578125, 1.5029296875, 0.201446533203125, 1.490478515625, 0.988037109375, 10.0, 1.0, 10.0, 1.386206030845642
36888, 1.639657735824585, 8.494312286376953, -7.348365306854248, -0.0004861474735662341, -3.263766848249361e-05, -10.821893692016602, -0.09925660490989685, -0.0062668113969266415, -0.6214960217475891, -0.8292357325553894, -0.9704300761222839, 0.056066423654556274, -0.1228268549921004, -0.34337665981888676, 5.69839897784189, 9362.0, 30146.0, 35388.0, 9362.0, 8.152067184448242, 0.14022178947925568, 0.12834985554218292, 0.04405071958899498, -0.002657882869243622, -0.056762292981147766, 0.9991268515586853, -0.04974100738763809, -0.03959846496582031, 1.49267578125, 1.41357421875, 0.0542449951171875, 1.49267578125, 1.017333984375, 10.0, 1.0, 10.0, 1.3866254091262817
36898, 1.639510154724121, 8.494792938232422, -7.347955703735352, -0.0015522248577326536, -9.993551793741062e-05, -10.828115463256836, -0.113958939909935, -0.0071929870173335075, -0.6227898001670837, -0.8291691541671753, -0.9704691171646118, 0.056082263588905334, -0.15593971739793205, -0.305402504484249, 5.727165122170683, 9362.0, 30146.0, 35388.0, 9362.0, 8.152067184448242, 0.15699872374534607, -0.0844360813498497, 0.08922801166772842, -0.0006975802825763822, -0.05699271336197853, 0.9990745186805725, -0.04974100738763809, -0.03959846496582031, 1.49267578125, 1.680908203125, 0.6174774169921875, 1.49267578125, 1.380615234375, 10.0, 1.0, 10.0, 1.3859913349151611
36908, 1.6385176181793213, 8.494218826293945, -7.347507953643799, -0.0027653882279992104, -0.00017651892267167568, -10.834349632263184, -0.12867364287376404, -0.008123804815113544, -0.6239702701568604, -0.8291575312614441, -0.9704505801200867, 0.056098900735378265, -0.15819342402305644, -0.3273677520371905, 5.735998122572463, 9362.0, 30146.0, 35388.0, 9362.0, 8.152067184448242, -0.03498464450240135, -0.029039477929472923, 0.004230437334626913, -0.0010705876629799604, -0.05724526196718216, 0.9983922839164734, -0.04974100738763809, -0.03959846496582031, 1.49267578125, 1.257568359375, 0.1398162841796875, 1.48974609375, 1.727783203125, 10.0, 1.0, 10.0, 1.386184811592102
36918, 1.638258934020996, 8.49321174621582, -7.348353385925293, -0.004125645849853754, -0.00026240566512569785, -10.840595245361328, -0.14337794482707977, -0.009053641930222511, -0.6252246499061584, -0.8291596174240112, -0.9705703854560852, 0.056250348687171936, -0.12499932121478131, -0.39165702857710016, 5.8143139707326, 9362.0, 30146.0, 35388.0, 9362.0, 8.152067184448242, 0.058446094393730164, 0.2768245339393616, -0.2527793049812317, -0.0023208498023450375, -0.05576710402965546, 0.9988188743591309, -0.04974100738763809, -0.03959846496582031, 1.49267578125, 1.382080078125, 0.0256195068359375, 1.48974609375, 0.862060546875, 10.0, 1.0, 10.0, 1.3842085599899292
36928, 1.6400949954986572, 8.49245548248291, -7.349892616271973, -0.005632940214127302, -0.00035758354351855814, -10.846854209899902, -0.15808096528053284, -0.009981708601117134, -0.6264795660972595, -0.8291629552841187, -0.9704650044441223, 0.056092191487550735, -0.16059322308331317, -0.3236975533595512, 5.72589314259586, 9362.0, 30146.0, 35388.0, 9362.0, 8.152067184448242, 0.12875205278396606, 0.24762271344661713, -0.07518428564071655, -0.0017746001249179244, -0.05654168128967285, 0.997503399848938, -0.04974100738763809, -0.03959846496582031, 1.49267578125, 1.0751953125, 1.6026458740234375, 1.48974609375, 1.44140625, 10.0, 1.0, 10.0, 1.385175347328186
36938, 1.6407430171966553, 8.491507530212402, -7.349911689758301, -0.007287289015948772, -0.0004620419640559703, -10.853124618530273, -0.1727888584136963, -0.01090961042791605, -0.6276910901069641, -0.8291765451431274, -0.970443844795227, 0.05608015134930611, -0.15163089332978477, -0.3134354804530801, 5.727524112938402, 9362.0, 30146.0, 35388.0, 9362.0, 8.152067184448242, 0.14715339243412018, 0.16218769550323486, 0.050919197499752045, -0.001209249603562057, -0.05571654811501503, 0.9980817437171936, -0.04974100738763809, -0.03959846496582031, 1.49267578125, 1.4443359375, 0.0959930419921875, 1.48974609375, 1.6875, 10.0, 1.0, 10.0, 1.3838450908660889
36948, 1.6418514251708984, 8.48904800415039, -7.347890853881836, -0.009088560938835144, -0.0005757843027822673, -10.859408378601074, -0.1874656081199646, -0.011838852427899837, -0.6291016340255737, -0.8292292356491089, -0.9704274535179138, 0.05608609691262245, -0.11744449370322804, -0.34708345022261256, 5.71692590315095, 9362.0, 30146.0, 35388.0, 9362.0, 8.152067184448242, 0.05315828695893288, 0.37181156873703003, 0.3345499038696289, -0.0017861858941614628, -0.05609162151813507, 0.9994300007820129, -0.04974100738763809, -0.03959846496582031, 1.49267578125, 1.676513671875, 0.606201171875, 1.487548828125, 1.41796875, 10.0, 1.0, 10.0, 1.3841216564178467
36958, 1.6414644718170166, 8.490377426147461, -7.348661422729492, -0.011036764830350876, -0.0006988363456912339, -10.865705490112305, -0.20217503607273102, -0.012772083282470703, -0.630286455154419, -0.8291745781898499, -0.9704583287239075, 0.05611173063516617, -0.14788407828362804, -0.3159551214029648, 5.738280136770101, 9362.0, 30146.0, 35388.0, 9362.0, 8.152067184448242, -0.019564557820558548, -0.044606246054172516, -0.1476491540670395, -0.0018593358108773828, -0.05853123962879181, 0.9967078566551208, -0.04974100738763809, -0.03959846496582031, 1.49267578125, 0.8759765625, 6.79736328125, 1.487548828125, 0.99169921875, 10.0, 1.0, 10.0, 1.3851141929626465
36968, 1.642525315284729, 8.489686965942383, -7.34759521484375, -0.013131950050592422, -0.0008312294376082718, -10.872014999389648, -0.21686193346977234, -0.01370632741600275, -0.6315943598747253, -0.8292344212532043, -0.9704364538192749, 0.056084297597408295, -0.1199040179695327, -0.34272342128727473, 5.721317618059404, 9362.0, 30146.0, 35388.0, 9362.0, 8.152067184448242, 0.10448169708251953, 0.13545408844947815, 0.06933160126209259, -0.0013671544147655368, -0.05858234688639641, 0.9986587762832642, -0.04974100738763809, -0.03959846496582031, 1.49267578125, 1.65234375, 0.5445709228515625, 1.491943359375, 0.908935546875, 10.0, 1.0, 10.0, 1.3844895362854004
36978, 1.6430503129959106, 8.490372657775879, -7.348300457000732, -0.015373977832496166, -0.0009729568846523762, -10.878337860107422, -0.23154357075691223, -0.01463946420699358, -0.6329509615898132, -0.8291751742362976, -0.970453143119812, 0.056114766746759415, -0.1467189625999587, -0.3242673652488861, 5.7343899055528205, 9362.0, 30146.0, 35388.0, 9362.0, 8.152067184448242, 0.016074026003479958, 0.024406228214502335, -0.1916627585887909, -0.002514946274459362, -0.05522868409752846, 1.0002208948135376, -0.06850994378328323, -0.10231781005859375, 1.487548828125, 1.656005859375, 0.553802490234375, 1.491943359375, 1.623046875, 10.0, 1.0, 10.0, 1.3854461908340454
36988, 1.6432944536209106, 8.491682052612305, -7.3504767417907715, -0.017762992531061172, -0.0011240378953516483, -10.884673118591309, -0.2462591826915741, -0.015576562844216824, -0.6340779066085815, -0.8291662335395813, -0.9704638719558716, 0.056108258664608, -0.14716589186190293, -0.323817147159275, 5.73288478709865, 9362.0, 30146.0, 35388.0, 9362.0, 8.152067184448242, -0.09196717292070389, -0.029248535633087158, -0.09923827648162842, -0.0021912921220064163, -0.0538511760532856, 0.9974837303161621, -0.06850994378328323, -0.10231781005859375, 1.487548828125, 1.26708984375, 0.1136474609375, 1.4912109375, 1.587890625, 10.0, 1.0, 10.0, 1.386177897453308
36998, 1.6430492401123047, 8.49360466003418, -7.349563121795654, -0.02029908075928688, -0.0012844871962442994, -10.891019821166992, -0.26095858216285706, -0.016512742266058922, -0.6353201866149902, -0.8291659951210022, -0.9704557657241821, 0.05610353499650955, -0.15731138160481486, -0.3170557462906345, 5.737465419382697, 9362.0, 30146.0, 35388.0, 9362.0, 8.152067184448242, -0.033694375306367874, -0.20923633873462677, 0.2305508702993393, -0.0015189794357866049, -0.05669005587697029, 0.9978817105293274, -0.06850994378328323, -0.10231781005859375, 1.487548828125, 1.563720703125, 0.3327789306640625, 1.4912109375, 1.25830078125, 10.0, 1.0, 10.0, 1.3860169649124146
37008, 1.6434766054153442, 8.4943265914917, -7.350863456726074, -0.02298211306333542, -0.0014542922144755721, -10.897379875183105, -0.27564772963523865, -0.017448484897613525, -0.6366451382637024, -0.8292149305343628, -0.9704226851463318, 0.05605596676468849, -0.12000530501620803, -0.34498869355243755, 5.7014392966675, 9362.0, 30146.0, 35388.0, 9362.0, 8.152067184448242, -0.03432597219944, 0.09080636501312256, -0.2117692083120346, -0.0034070468973368406, -0.05893193185329437, 1.0006189346313477, -0.06850994378328323, -0.10231781005859375, 1.487548828125, 1.527099609375, 0.2517852783203125, 1.48974609375, 1.601806640625, 10.0, 1.0, 10.0, 1.3869110345840454
37018, 1.6433128118515015, 8.495382308959961, -7.352506160736084, -0.02581212855875492, -0.0016334564425051212, -10.903752326965332, -0.2903554141521454, -0.018384046852588654, -0.6378692984580994, -0.8291777968406677, -0.9704519510269165, 0.05612269043922424, -0.15627318694784229, -0.31181206534617445, 5.730346841970724, 9362.0, 30146.0, 35388.0, 9362.0, 8.152067184448242, 0.007874414324760437, -0.2611193060874939, -0.028985626995563507, -0.001248515211045742, -0.05749206244945526, 0.9984391331672668, -0.06850994378328323, -0.10231781005859375, 1.487548828125, 1.6083984375, 0.437225341796875, 1.48974609375, 1.480224609375, 10.0, 1.0, 10.0, 1.3851938247680664
37028, 1.6448668241500854, 8.498553276062012, -7.354963302612305, -0.028789274394512177, -0.0018219805788248777, -10.910137176513672, -0.3050738573074341, -0.019320355728268623, -0.6390314102172852, -0.829168975353241, -0.9704719185829163, 0.05610895901918411, -0.14386426418163337, -0.3269307886904471, 5.722231289525243, 9362.0, 30146.0, 35388.0, 9362.0, 8.152067184448242, 0.1906847506761551, -0.3845905363559723, -0.38091862201690674, -0.001413846737705171, -0.058090921491384506, 0.9989571571350098, -0.06850994378328323, -0.10231781005859375, 1.487548828125, 1.1982421875, 0.3938140869140625, 1.4912109375, 1.677978515625, 10.0, 1.0, 10.0, 1.386055827140808
37038, 1.6447480916976929, 8.49577522277832, -7.35679817199707, -0.031913552433252335, -0.0020198591519147158, -10.916533470153809, -0.3197815418243408, -0.02025475911796093, -0.6402770280838013, -0.8291738033294678, -0.9704428315162659, 0.05609430745244026, -0.14713895501230267, -0.3295758305011134, 5.734186780073934, 9362.0, 30146.0, 35388.0, 9362.0, 8.152067184448242, -0.039113257080316544, -0.00023940271057654172, -0.30728715658187866, -0.0022721155546605587, -0.05736018344759941, 0.9988959431648254, -0.06850994378328323, -0.10231781005859375, 1.487548828125, 1.606201171875, 0.4319305419921875, 1.4912109375, 1.6845703125, 10.0, 1.0, 10.0, 1.3859461545944214
37048, 1.6435796022415161, 8.496091842651367, -7.357046604156494, -0.03518495336174965, -0.002227089600637555, -10.922942161560059, -0.3344990909099579, -0.02119085006415844, -0.6414952874183655, -0.829156219959259, -0.9704715609550476, 0.056109584867954254, -0.15116481332330206, -0.3247299481885477, 5.7235082448240835, 9362.0, 30146.0, 35388.0, 9362.0, 8.152067184448242, -0.22137857973575592, 0.2530722916126251, 0.16036725044250488, -0.002009525429457426, -0.05530516058206558, 0.9981081485748291, -0.06850994378328323, -0.10231781005859375, 1.487548828125, 1.61279296875, 0.4476470947265625, 1.49267578125, 1.0283203125, 10.0, 1.0, 10.0, 1.3867225646972656
37058, 1.6421189308166504, 8.496726036071777, -7.35657262802124, -0.038603439927101135, -0.0024436763487756252, -10.929363250732422, -0.34919843077659607, -0.02212642692029476, -0.6428020596504211, -0.8292346000671387, -0.9704058170318604, 0.056057158857584, -0.12437782857990475, -0.33742208981155386, 5.70644165852761, 9362.0, 30146.0, 35388.0, 9362.0, 8.152067184448242, -0.02190965786576271, -0.25928935408592224, 0.1959589272737503, -0.002131517743691802, -0.05641854181885719, 0.9977521896362305, -0.06850994378328323, -0.10231781005859375, 1.487548828125, 1.60107421875, 0.4197540283203125, 1.49267578125, 1.650146484375, 10.0, 1.0, 10.0, 1.3858870267868042
37068, 1.6417264938354492, 8.498836517333984, -7.355710506439209, -0.04216893017292023, -0.002669608686119318, -10.935797691345215, -0.36389926075935364, -0.02306012250483036, -0.6441007256507874, -0.829170286655426, -0.9704567790031433, 0.05609969049692154, -0.145903309263024, -0.31339122106112427, 5.73019494550373, 9362.0, 30146.0, 35388.0, 9362.0, 8.152067184448242, 0.0482332780957222, -0.11590950936079025, -0.07972420006990433, 0.0006180020282045007, -0.05669388547539711, 0.9977626800537109, -0.06850994378328323, -0.10231781005859375, 1.487548828125, 1.5966796875, 0.409210205078125, 1.49267578125, 1.564453125, 10.0, 1.0, 10.0, 1.385419487953186
37078, 1.64306640625, 8.498333930969238, -7.356998920440674, -0.045881424099206924, -0.0029048649594187737, -10.942245483398438, -0.37859952449798584, -0.023991379886865616, -0.6454082131385803, -0.8291603922843933, -0.9704519510269165, 0.056098759174346924, -0.15732621465724508, -0.3298198325168755, 5.731657936822326, 9362.0, 30146.0, 35388.0, 9362.0, 8.152067184448242, 0.0017691514221951365, -0.054213669151067734, -0.35548916459083557, -0.0010537399211898446, -0.057364944368600845, 0.9957811236381531, -0.0741691142320633, -0.08439826965332031, 1.489013671875, 1.00927734375, 2.780548095703125, 1.49267578125, 1.609130859375, 10.0, 1.0, 10.0, 1.386035680770874
37088, 1.643174648284912, 8.497936248779297, -7.358968257904053, -0.049740828573703766, -0.0031494225841015577, -10.94870662689209, -0.39328140020370483, -0.024919817224144936, -0.6468603014945984, -0.8291547894477844, -0.970471978187561, 0.05610191822052002, -0.14895479207641052, -0.32614046666876106, 5.729682912107467, 9362.0, 30146.0, 35388.0, 9362.0, 8.152067184448242, 0.0015945645282045007, -0.05827229470014572, 0.061877328902482986, -0.0025262413546442986, -0.05801863223314285, 0.9975239038467407, -0.0741691142320633, -0.08439826965332031, 1.489013671875, 1.15869140625, 0.6672515869140625, 1.48681640625, 1.5849609375, 10.0, 1.0, 10.0, 1.3867400884628296
37098, 1.64326810836792, 8.499293327331543, -7.3595170974731445, -0.05374700948596001, -0.003403272246941924, -10.955183029174805, -0.40795496106147766, -0.025849610567092896, -0.6483633518218994, -0.829158365726471, -0.9704535603523254, 0.056092165410518646, -0.15342120012079716, -0.3301780644429755, 5.7333524316242075, 9362.0, 30146.0, 35388.0, 9362.0, 8.152067184448242, -0.11505153775215149, -0.20545180141925812, -0.19783806800842285, -0.003805719781666994, -0.0580907016992569, 0.9979013204574585, -0.0741691142320633, -0.08439826965332031, 1.489013671875, 1.697021484375, 0.6600189208984375, 1.48681640625, 1.399658203125, 10.0, 1.0, 10.0, 1.38754403591156
37108, 1.6436893939971924, 8.498488426208496, -7.358857154846191, -0.057900115847587585, -0.0036664309445768595, -10.96167278289795, -0.4226665794849396, -0.026782002300024033, -0.6496122479438782, -0.8291702270507812, -0.9704439043998718, 0.05607711896300316, -0.15429947788190174, -0.31309809844711367, 5.731373365298421, 9362.0, 30146.0, 35388.0, 9362.0, 8.152067184448242, 0.07821237295866013, 0.19986708462238312, 0.11961693316698074, -0.0032755013089627028, -0.058411698788404465, 0.9961996674537659, -0.0741691142320633, -0.08439826965332031, 1.489013671875, 1.636962890625, 0.5064239501953125, 1.48974609375, 1.6787109375, 10.0, 1.0, 10.0, 1.387325644493103
37118, 1.6435773372650146, 8.497157096862793, -7.358419418334961, -0.062200237065553665, -0.0039389049634337425, -10.968175888061523, -0.4373575448989868, -0.027712956070899963, -0.6510119438171387, -0.8291776180267334, -0.9704448580741882, 0.056087009608745575, -0.1585964078679425, -0.3102856970653818, 5.7362085026144705, 9362.0, 30146.0, 35388.0, 9362.0, 8.152067184448242, 0.06604903936386108, 0.02598903328180313, -0.020031534135341644, -0.0021636574529111385, -0.05809782072901726, 0.9984971880912781, -0.0741691142320633, -0.08439826965332031, 1.489013671875, 1.60693359375, 0.4335479736328125, 1.48974609375, 0.85546875, 10.0, 1.0, 10.0, 1.3851630687713623
37128, 1.6433926820755005, 8.50197696685791, -7.360424995422363, -0.062200237065553665, -0.0039389049634337425, -10.968175888061523, -0.4373575448989868, -0.027712956070899963, -0.6510119438171387, -0.829167366027832, -0.9704557061195374, 0.05609786510467529, -0.16277525979435403, -0.3173974015836336, 5.730942252267955, 9362.0, 30146.0, 35388.0, 9362.0, 8.152067184448242, 0.06604903936386108, 0.02598903328180313, -0.020031534135341644, 0.000247553747612983, -0.056928299367427826, 0.9989389181137085, -0.0741691142320633, -0.08439826965332031, 1.489013671875, 1.571044921875, 0.349578857421875, 1.48828125, 1.685302734375, 10.0, 1.0, 10.0, 1.3851630687713623
37148, 1.6418713331222534, 8.503621101379395, -7.3615007400512695, -0.062200237065553665, -0.0039389049634337425, -10.968175888061523, -0.4373575448989868, -0.027712956070899963, -0.6510119438171387, -0.8292402029037476, -0.9704352021217346, 0.05604469031095505, -0.12695462798329146, -0.33823663240588075, 5.71239918264884, 9362.0, 30146.0, 35388.0, 9362.0, 8.152067184448242, -0.39137163758277893, -0.12640629708766937, -0.16723543405532837, -3.4839711588574573e-05, -0.05453191697597504, 0.9960465431213379, -0.0741691142320633, -0.08439826965332031, 1.489013671875, 1.571044921875, 0.349578857421875, 1.494140625, 1.23486328125, 10.0, 1.0, 10.0, 1.3851630687713623
37158, 1.6416027545928955, 8.504756927490234, -7.36192512512207, -0.062200237065553665, -0.0039389049634337425, -10.968175888061523, -0.4373575448989868, -0.027712956070899963, -0.6510119438171387, -0.8291768431663513, -0.9704546332359314, 0.056096598505973816, -0.16158541139929772, -0.31550096642882863, 5.728187137310379, 9362.0, 30146.0, 35388.0, 9362.0, 8.152067184448242, -0.11415962874889374, -0.1309412568807602, -0.052182480692863464, -3.4839711588574573e-05, -0.05453191697597504, 0.9960465431213379, -0.0741691142320633, -0.08439826965332031, 1.489013671875, 1.177734375, 0.5238800048828125, 1.494140625, 1.23486328125, 10.0, 1.0, 10.0, 1.3824304342269897
37168, 1.6419190168380737, 8.50284194946289, -7.361639022827148, -0.062200237065553665, -0.0039389049634337425, -10.968175888061523, -0.4373575448989868, -0.027712956070899963, -0.6510119438171387, -0.8292322158813477, -0.9704161286354065, 0.05607984960079193, -0.11596220558194989, -0.34171944410914534, 5.7075519219265, 9362.0, 30146.0, 35388.0, 9362.0, 8.152067184448242, -0.036430470645427704, 0.29983997344970703, 0.3035753071308136, -0.0016891728155314922, -0.05711319297552109, 0.9989093542098999, -0.0741691142320633, -0.08439826965332031, 1.489013671875, 1.177734375, 0.5238800048828125, 1.494140625, 1.62890625, 10.0, 1.0, 10.0, 1.3824304342269897
37188, 1.6428954601287842, 8.501039505004883, -7.358719825744629, -0.09108759462833405, -0.0057692741975188255, -11.007479667663574, -0.5255812406539917, -0.0332927405834198, -0.6590440273284912, -0.8291535377502441, -0.9704481363296509, 0.056056998670101166, -0.15772459297078031, -0.32676535667221174, 5.7240659917354595, 9362.0, 30146.0, 35388.0, 9362.0, 8.152067184448242, 0.003006154205650091, 0.41534775495529175, 0.22906070947647095, 0.0008963419240899384, -0.05719456449151039, 0.9986414313316345, -0.06917891651391983, 0.08584022521972656, 1.5029296875, 1.177734375, 0.5238800048828125, 1.48974609375, 1.646484375, 10.0, 1.0, 10.0, 1.3831347227096558
37198, 1.6419814825057983, 8.501487731933594, -7.359803199768066, -0.09108759462833405, -0.0057692741975188255, -11.007479667663574, -0.5255812406539917, -0.0332927405834198, -0.6590440273284912, -0.8291643857955933, -0.9704613089561462, 0.05608531832695007, -0.1489844818205943, -0.33132529280734957, 5.7389710897238535, 9362.0, 30146.0, 35388.0, 9362.0, 8.152067184448242, -0.14088648557662964, -0.3136482834815979, -0.14345014095306396, 0.0008963419240899384, -0.05719456449151039, 0.9986414313316345, -0.06917891651391983, 0.08584022521972656, 1.5029296875, 1.198974609375, 0.38958740234375, 1.48974609375, 1.646484375, 10.0, 1.0, 10.0, 1.3839824199676514
37228, 1.6435562372207642, 8.50130558013916, -7.362060070037842, -0.09108759462833405, -0.0057692741975188255, -11.007479667663574, -0.5255812406539917, -0.0332927405834198, -0.6590440273284912, -0.8291675448417664, -0.9704447984695435, 0.05610749125480652, -0.14688456229615612, -0.32286069222996616, 5.727824219843902, 9362.0, 30146.0, 35388.0, 9362.0, 8.152067184448242, -0.03701972961425781, 0.2106236219406128, 0.11293680965900421, -0.00180527672637254, -0.054036661982536316, 0.9979410171508789, -0.06917891651391983, 0.08584022521972656, 1.5029296875, 1.329345703125, 0.02105712890625, 1.487548828125, 1.5439453125, 10.0, 1.0, 10.0, 1.3832807540893555
37238, 1.6424380540847778, 8.501687049865723, -7.361486911773682, -0.12527087330818176, -0.007934223860502243, -11.047252655029297, -0.6138730645179749, -0.038874153047800064, -0.6666355729103088, -0.8291674852371216, -0.9704556465148926, 0.05608641728758812, -0.15447366640972168, -0.32218435965626213, 5.735142715849086, 9362.0, 30146.0, 35388.0, 9362.0, 8.152067184448242, -0.04312949255108833, -0.274702787399292, 0.15419171750545502, -0.0019172889878973365, -0.057472940534353256, 0.9978232979774475, -0.06917891651391983, 0.08584022521972656, 1.5029296875, 1.329345703125, 0.02105712890625, 1.487548828125, 1.4501953125, 10.0, 1.0, 10.0, 1.3832807540893555
37248, 1.6411912441253662, 8.50361442565918, -7.361835956573486, -0.12527087330818176, -0.007934223860502243, -11.047252655029297, -0.6138730645179749, -0.038874153047800064, -0.6666355729103088, -0.8291813135147095, -0.970460057258606, 0.056082285940647125, -0.15333538521476284, -0.31606474117043604, 5.73514215492308, 9362.0, 30146.0, 35388.0, 9362.0, 8.152067184448242, 0.008582345210015774, -0.1396399587392807, 0.047355737537145615, -0.0028826240450143814, -0.05875444784760475, 0.9995890855789185, -0.06917891651391983, 0.08584022521972656, 1.5029296875, 1.329345703125, 0.02105712890625, 1.491943359375, 1.4501953125, 10.0, 1.0, 10.0, 1.3818087577819824
37258, 1.6413547992706299, 8.502558708190918, -7.362914562225342, -0.12527087330818176, -0.007934223860502243, -11.047252655029297, -0.6138730645179749, -0.038874153047800064, -0.6666355729103088, -0.8291648626327515, -0.9704606533050537, 0.056060146540403366, -0.1610127208015083, -0.3116517425744405, 5.739452072093135, 9362.0, 30146.0, 35388.0, 9362.0, 8.152067184448242, 0.1675918996334076, -0.3466091454029083, -0.15228649973869324, -0.0028826240450143814, -0.05875444784760475, 0.9995890855789185, -0.06917891651391983, 0.08584022521972656, 1.5029296875, 1.329345703125, 0.02105712890625, 1.491943359375, 1.4501953125, 10.0, 1.0, 10.0, 1.379929542541504
37268, 1.641695499420166, 8.507256507873535, -7.362890720367432, -0.12527087330818176, -0.007934223860502243, -11.047252655029297, -0.6138730645179749, -0.038874153047800064, -0.6666355729103088, -0.8291700482368469, -0.9704539775848389, 0.056076955050230026, -0.14763343799905068, -0.3140185641775304, 5.731506499374878, 9362.0, 30146.0, 35388.0, 9362.0, 8.152067184448242, 0.13887354731559753, -0.3592488169670105, 0.31317830085754395, -0.0028826240450143814, -0.05875444784760475, 0.9995890855789185, -0.06917891651391983, 0.08584022521972656, 1.5029296875, 1.241455078125, 0.192626953125, 1.491943359375, 1.4501953125, 10.0, 1.0, 10.0, 1.379929542541504
37288, 1.641838788986206, 8.507342338562012, -7.35933780670166, -0.15780426561832428, -0.009994114749133587, -11.080740928649902, -0.6874840259552002, -0.04351791739463806, -0.6728255152702332, -0.8291605114936829, -0.9704456925392151, 0.0560842901468277, -0.159180266573994, -0.3140995111465088, 5.731677758936568, 9362.0, 30146.0, 35388.0, 9362.0, 8.152067184448242, -0.17388495802879333, -0.21857252717018127, 0.19362248480319977, -0.0010971041629090905, -0.0572485476732254, 0.9976438283920288, -0.05877607688307762, -0.01271820068359375, 1.494873046875, 1.281005859375, 0.0816650390625, 1.491943359375, 1.37255859375, 10.0, 1.0, 10.0, 1.379929542541504
37298, 1.6411021947860718, 8.506753921508789, -7.359801769256592, -0.16475264728069305, -0.010433927178382874, -11.087475776672363, -0.7021917700767517, -0.044445015490055084, -0.6742072105407715, -0.8291813731193542, -0.9704548716545105, 0.05607421696186066, -0.15411503576513105, -0.32309819988014965, 5.727739516156587, 9362.0, 30146.0, 35388.0, 9362.0, 8.152067184448242, 0.155652716755867, -0.22120575606822968, -0.28475382924079895, -0.001648905803449452, -0.0582779236137867, 0.996720016002655, -0.05877607688307762, -0.01271820068359375, 1.494873046875, 1.281005859375, 0.0816650390625, 1.491943359375, 1.658203125, 10.0, 1.0, 10.0, 1.379929542541504
37308, 1.6424974203109741, 8.507652282714844, -7.361831188201904, -0.16475264728069305, -0.010433927178382874, -11.087475776672363, -0.7021917700767517, -0.044445015490055084, -0.6742072105407715, -0.8291603326797485, -0.9704445004463196, 0.05609828606247902, -0.15328445474870728, -0.3104499139322172, 5.736681323062871, 9362.0, 30146.0, 35388.0, 9362.0, 8.152067184448242, 0.0463063083589077, -0.17983707785606384, -0.13801351189613342, -0.0008067333255894482, -0.05405867099761963, 0.9983196258544922, -0.05877607688307762, -0.01271820068359375, 1.494873046875, 1.281005859375, 0.0816650390625, 1.491943359375, 1.658203125, 10.0, 1.0, 10.0, 1.379929542541504
37318, 1.6440508365631104, 8.506688117980957, -7.361639976501465, -0.1790904551744461, -0.011341346427798271, -11.100988388061523, -0.7315924167633057, -0.046296101063489914, -0.6770533323287964, -0.8291622996330261, -0.9704574346542358, 0.056089699268341064, -0.15125549454818904, -0.30696627372461194, 5.725109471870963, 9362.0, 30146.0, 35388.0, 9362.0, 8.152067184448242, 0.1456710249185562, 0.2361210733652115, -0.06529480963945389, -0.0008067333255894482, -0.05405867099761963, 0.9983196258544922, -0.05877607688307762, -0.01271820068359375, 1.494873046875, 1.281005859375, 0.0816650390625, 1.491943359375, 1.658203125, 10.0, 1.0, 10.0, 1.3806322813034058
37338, 1.6443954706192017, 8.503779411315918, -7.361352920532227, -0.1790904551744461, -0.011341346427798271, -11.100988388061523, -0.7315924167633057, -0.046296101063489914, -0.6770533323287964, -0.8292315006256104, -0.9704020619392395, 0.05601732060313225, -0.12677312114168965, -0.33848583426839696, 5.703135222608566, 9362.0, 30146.0, 35388.0, 9362.0, 8.152067184448242, -0.06977248191833496, 0.2502835690975189, 0.06792878359556198, -0.001973617123439908, -0.055699195712804794, 0.9966708421707153, -0.05877607688307762, -0.01271820068359375, 1.494873046875, 1.018798828125, 2.5822601318359375, 1.491943359375, 1.63037109375, 10.0, 1.0, 10.0, 1.3806322813034058
37368, 1.6438006162643433, 8.50410270690918, -7.362381935119629, -0.1790904551744461, -0.011341346427798271, -11.100988388061523, -0.7315924167633057, -0.046296101063489914, -0.6770533323287964, -0.8291627168655396, -0.9704453349113464, 0.05609457194805145, -0.1608939073550667, -0.3172212228903959, 5.7241590085531575, 9362.0, 30146.0, 35388.0, 9362.0, 8.152067184448242, 0.040404196828603745, 0.3781736195087433, -0.25802940130233765, -0.0007016174495220184, -0.056646160781383514, 1.0006483793258667, -0.05877607688307762, -0.01271820068359375, 1.494873046875, 1.342529296875, 0.0161895751953125, 1.4912109375, 1.63037109375, 10.0, 1.0, 10.0, 1.3801827430725098
37388, 1.6448146104812622, 8.507682800292969, -7.362814426422119, -0.2256363183259964, -0.01428664568811655, -11.141839027404785, -0.8199731111526489, -0.051884979009628296, -0.6843329071998596, -0.829170823097229, -0.9704466462135315, 0.056124892085790634, -0.15450408116758035, -0.33151099319323407, 5.72071136335076, 9362.0, 30146.0, 35388.0, 9362.0, 8.152067184448242, 0.0510769784450531, 0.01990780606865883, 0.17997023463249207, -0.0007016174495220184, -0.056646160781383514, 1.0006483793258667, -0.04313727468252182, -0.0037593841552734375, 1.49560546875, 1.342529296875, 0.0161895751953125, 1.490478515625, 1.201171875, 10.0, 1.0, 10.0, 1.3820304870605469
37398, 1.6453865766525269, 8.509245872497559, -7.364094257354736, -0.2256363183259964, -0.01428664568811655, -11.141839027404785, -0.8199731111526489, -0.051884979009628296, -0.6843329071998596, -0.8291789293289185, -0.9704408645629883, 0.05607898160815239, -0.15789164538484426, -0.3036289447389322, 5.718727053009722, 9362.0, 30146.0, 35388.0, 9362.0, 8.152067184448242, 0.0510769784450531, 0.01990780606865883, 0.17997023463249207, -0.0008571638027206063, -0.055311765521764755, 0.9994074702262878, -0.04313727468252182, -0.0037593841552734375, 1.49560546875, 0.92138671875, 5.1427459716796875, 1.490478515625, 1.201171875, 10.0, 1.0, 10.0, 1.3801876306533813
37408, 1.646348476409912, 8.51183032989502, -7.367748737335205, -0.2256363183259964, -0.01428664568811655, -11.141839027404785, -0.8199731111526489, -0.051884979009628296, -0.6843329071998596, -0.8291928172111511, -0.970462441444397, 0.05612238124012947, -0.16087739096176012, -0.30146864512229854, 5.734112472198137, 9362.0, 30146.0, 35388.0, 9362.0, 8.152067184448242, 0.1315719038248062, -0.06673858314752579, -0.3912960886955261, -0.0008571638027206063, -0.055311765521764755, 0.9994074702262878, -0.04313727468252182, -0.0037593841552734375, 1.49560546875, 0.92138671875, 5.1427459716796875, 1.489013671875, 1.61572265625, 10.0, 1.0, 10.0, 1.3801876306533813
37418, 1.6470696926116943, 8.510250091552734, -7.368109703063965, -0.2256363183259964, -0.01428664568811655, -11.141839027404785, -0.8199731111526489, -0.051884979009628296, -0.6843329071998596, -0.8291733264923096, -0.9704477787017822, 0.05609161779284477, -0.15639578865230844, -0.3158641023991038, 5.730934086075687, 9362.0, 30146.0, 35388.0, 9362.0, 8.152067184448242, 0.15494851768016815, 0.24781528115272522, -0.021705318242311478, -0.0008571638027206063, -0.055311765521764755, 0.9994074702262878, -0.04313727468252182, -0.0037593841552734375, 1.49560546875, 0.973388671875, 3.6237640380859375, 1.489013671875, 1.62890625, 10.0, 1.0, 10.0, 1.3801876306533813
37438, 1.6486784219741821, 8.508267402648926, -7.369171619415283, -0.2256363183259964, -0.01428664568811655, -11.141839027404785, -0.8199731111526489, -0.051884979009628296, -0.6843329071998596, -0.8291680216789246, -0.9704579710960388, 0.05608522146940231, -0.1508499248408634, -0.3058464299700745, 5.732085081245057, 9362.0, 30146.0, 35388.0, 9362.0, 8.152067184448242, 0.04103672131896019, 0.16113407909870148, -0.0054101101122796535, 0.00023883694666437805, -0.05586773529648781, 0.9975736737251282, -0.04313727468252182, -0.0037593841552734375, 1.49560546875, 1.072998046875, 1.6350555419921875, 1.49267578125, 1.61572265625, 10.0, 1.0, 10.0, 1.3801876306533813
37448, 1.649936318397522, 8.507997512817383, -7.369537353515625, -0.2256363183259964, -0.01428664568811655, -11.141839027404785, -0.8199731111526489, -0.051884979009628296, -0.6843329071998596, -0.8291854858398438, -0.9704435467720032, 0.056100994348526, -0.1601759309456667, -0.3100919714654822, 5.733209426550854, 9362.0, 30146.0, 35388.0, 9362.0, 8.152067184448242, 0.16340038180351257, -0.20806096494197845, -0.017017381265759468, 0.00023883694666437805, -0.05586773529648781, 0.9975736737251282, -0.04313727468252182, -0.0037593841552734375, 1.49560546875, 1.072998046875, 1.6350555419921875, 1.49267578125, 1.1396484375, 10.0, 1.0, 10.0, 1.3801876306533813
37458, 1.6509472131729126, 8.509917259216309, -7.3698601722717285, -0.2256363183259964, -0.01428664568811655, -11.141839027404785, -0.8199731111526489, -0.051884979009628296, -0.6843329071998596, -0.8291751742362976, -0.9704564809799194, 0.05609988421201706, -0.15661782396094115, -0.3140960099712231, 5.7299502973781715, 9362.0, 30146.0, 35388.0, 9362.0, 8.152067184448242, 0.07592843472957611, -0.08617493510246277, -0.115153968334198, 0.00023883694666437805, -0.05586773529648781, 0.9975736737251282, -0.04313727468252182, -0.0037593841552734375, 1.49560546875, 1.0927734375, 1.3592987060546875, 1.49267578125, 1.647216796875, 10.0, 1.0, 10.0, 1.3801876306533813
37468, 1.6518272161483765, 8.507445335388184, -7.37101411819458, -0.2256363183259964, -0.01428664568811655, -11.141839027404785, -0.8199731111526489, -0.051884979009628296, -0.6843329071998596, -0.8291863203048706, -0.9704589247703552, 0.05610286444425583, -0.15249951085863958, -0.3010207438890973, 5.724993527737503, 9362.0, 30146.0, 35388.0, 9362.0, 8.152067184448242, 0.07592843472957611, -0.08617493510246277, -0.115153968334198, -0.001197722740471363, -0.057265423238277435, 1.0001940727233887, -0.04313727468252182, -0.0037593841552734375, 1.49560546875, 1.0927734375, 1.3592987060546875, 1.49267578125, 1.647216796875, 10.0, 1.0, 10.0, 1.3820639848709106
37488, 1.6540753841400146, 8.507118225097656, -7.3721232414245605, -0.3150014877319336, -0.01994185335934162, -11.210875511169434, -0.9673637747764587, -0.061236269772052765, -0.6962846517562866, -0.8292458057403564, -0.9704141616821289, 0.056057531386613846, -0.12138901447792362, -0.3484730305749224, 5.70605000864245, 9362.0, 30146.0, 35388.0, 9362.0, 8.152067184448242, 0.11405832320451736, 0.008447496220469475, 0.0003397962136659771, -0.0014266446232795715, -0.05706480145454407, 0.9975959062576294, -0.04313727468252182, -0.0037593841552734375, 1.49560546875, 1.0927734375, 1.3592987060546875, 1.490478515625, 1.59375, 10.0, 1.0, 10.0, 1.3820639848709106
37508, 1.6561061143875122, 8.504006385803223, -7.3737030029296875, -0.33464330434799194, -0.021185433492064476, -11.224825859069824, -0.9968076944351196, -0.06312288343906403, -0.6989016532897949, -0.8291743993759155, -0.9704537987709045, 0.056126609444618225, -0.15372421326538743, -0.30728744086221127, 5.724373803553017, 9362.0, 30146.0, 35388.0, 9362.0, 8.152067184448242, 0.024641431868076324, 0.31222525238990784, 0.3429248631000519, -0.0014230218948796391, -0.05545411258935928, 0.9960758090019226, -0.04313727468252182, -0.0037593841552734375, 1.49560546875, 1.231201171875, 0.2321319580078125, 1.490478515625, 1.3505859375, 10.0, 1.0, 10.0, 1.3818267583847046
37518, 1.6572413444519043, 8.505942344665527, -7.376496315002441, -0.33464330434799194, -0.021185433492064476, -11.224825859069824, -0.9968076944351196, -0.06312288343906403, -0.6989016532897949, -0.8291872143745422, -0.9704446792602539, 0.05610764026641846, -0.1515403551139915, -0.3056393392213863, 5.7288849718830654, 9362.0, 30146.0, 35388.0, 9362.0, 8.152067184448242, 0.1419394165277481, -0.3240302801132202, -0.39062824845314026, -0.0014230218948796391, -0.05545411258935928, 0.9960758090019226, -0.04313727468252182, -0.0037593841552734375, 1.49560546875, 1.237060546875, 0.2089996337890625, 1.490478515625, 1.16015625, 10.0, 1.0, 10.0, 1.3818267583847046
37528, 1.6563875675201416, 8.504111289978027, -7.3770647048950195, -0.33464330434799194, -0.021185433492064476, -11.224825859069824, -0.9968076944351196, -0.06312288343906403, -0.6989016532897949, -0.8291773796081543, -0.9704403877258301, 0.05610019713640213, -0.16357299180348628, -0.31384813022242497, 5.7311146273932545, 9362.0, 30146.0, 35388.0, 9362.0, 8.152067184448242, -0.10000229626893997, -0.007822650484740734, -0.11811640113592148, -0.0014452268369495869, -0.05749974399805069, 0.9989082217216492, -0.04313727468252182, -0.0037593841552734375, 1.49560546875, 1.237060546875, 0.2089996337890625, 1.487548828125, 1.16015625, 10.0, 1.0, 10.0, 1.3818267583847046
37538, 1.6564310789108276, 8.506003379821777, -7.377800941467285, -0.3756924867630005, -0.0237860307097435, -11.252890586853027, -1.0556823015213013, -0.06691231578588486, -0.7041302919387817, -0.8291786313056946, -0.9704552888870239, 0.05611741170287132, -0.15043461417465007, -0.31665913720661365, 5.74138616825958, 9362.0, 30146.0, 35388.0, 9362.0, 8.152067184448242, 0.00198555551469326, -0.14524173736572266, 0.0039018907118588686, -0.0013074795715510845, -0.05632268637418747, 0.9984544515609741, -0.04313727468252182, -0.0037593841552734375, 1.49560546875, 1.237060546875, 0.2089996337890625, 1.487548828125, 1.6728515625, 10.0, 1.0, 10.0, 1.3818267583847046
37558, 1.6553348302841187, 8.504256248474121, -7.376834392547607, -0.3971005976200104, -0.025143250823020935, -11.266998291015625, -1.0851329565048218, -0.06880926340818405, -0.7066481113433838, -0.8291727304458618, -0.9704428315162659, 0.05609738454222679, -0.16456113291522548, -0.3005378147217357, 5.7296208937158575, 9362.0, 30146.0, 35388.0, 9362.0, 8.152067184448242, -0.13073797523975372, 0.26875627040863037, -0.04162439703941345, -0.0010298712877556682, -0.058446142822504044, 0.9981735348701477, -0.04313727468252182, -0.0037593841552734375, 1.49560546875, 1.11767578125, 1.0591888427734375, 1.487548828125, 1.6728515625, 10.0, 1.0, 10.0, 1.377915382385254
37588, 1.6563628911972046, 8.505240440368652, -7.379622936248779, -0.3971005976200104, -0.025143250823020935, -11.266998291015625, -1.0851329565048218, -0.06880926340818405, -0.7066481113433838, -0.8291482329368591, -0.9704656004905701, 0.056133996695280075, -0.15341317723445438, -0.3182693696334695, 5.7264610421743125, 9362.0, 30146.0, 35388.0, 9362.0, 8.152067184448242, 0.026199830695986748, -0.48006924986839294, -0.3508671522140503, -0.00016104881069622934, -0.056677982211112976, 0.9993951320648193, -0.07680832594633102, -0.20087814331054688, 1.4794921875, 0.778564453125, 11.581436157226562, 1.487548828125, 1.70068359375, 10.0, 1.0, 10.0, 1.3785789012908936
37608, 1.657275676727295, 8.504512786865234, -7.381208419799805, -0.4416835904121399, -0.02797137200832367, -11.295367240905762, -1.144028902053833, -0.0725974291563034, -0.7117171287536621, -0.8291680216789246, -0.9704299569129944, 0.05606554448604584, -0.15357491090747652, -0.3134831772747475, 5.735242533507755, 9362.0, 30146.0, 35388.0, 9362.0, 8.152067184448242, -0.08982482552528381, -0.1400938183069229, -0.03022075816988945, 0.0008753250003792346, -0.05650224909186363, 0.9982096552848816, -0.07680832594633102, -0.20087814331054688, 1.4794921875, 1.20263671875, 0.368988037109375, 1.487548828125, 1.632568359375, 10.0, 1.0, 10.0, 1.3785789012908936
37638, 1.6590310335159302, 8.508597373962402, -7.384498119354248, -0.46485865116119385, -0.029442278668284416, -11.309626579284668, -1.1734730005264282, -0.07449258863925934, -0.7142987251281738, -0.8291733860969543, -0.970440149307251, 0.05612191557884216, -0.1542028620262376, -0.30879976677718446, 5.732272896985066, 9362.0, 30146.0, 35388.0, 9362.0, 8.152067184448242, 0.003581875702366233, -0.0682145208120346, -0.14923754334449768, 0.000447677361080423, -0.055895838886499405, 1.0016404390335083, -0.07680832594633102, -0.20087814331054688, 1.4794921875, 1.484619140625, 0.1656646728515625, 1.487548828125, 1.41357421875, 10.0, 1.0, 10.0, 1.3766542673110962
37648, 1.6597368717193604, 8.509010314941406, -7.3830037117004395, -0.46485865116119385, -0.029442278668284416, -11.309626579284668, -1.1734730005264282, -0.07449258863925934, -0.7142987251281738, -0.8291805982589722, -0.9704455137252808, 0.05609292536973953, -0.14567943042426512, -0.31308964707693576, 5.725658287779808, 9362.0, 30146.0, 35388.0, 9362.0, 8.152067184448242, 0.10889126360416412, -0.24876947700977325, -0.04091577231884003, -0.0019992063753306866, -0.05651326850056648, 0.9990332722663879, -0.07680832594633102, -0.20087814331054688, 1.4794921875, 1.484619140625, 0.1656646728515625, 1.4912109375, 1.41357421875, 10.0, 1.0, 10.0, 1.3766542673110962
37658, 1.6592576503753662, 8.508952140808105, -7.382242202758789, -0.46485865116119385, -0.029442278668284416, -11.309626579284668, -1.1734730005264282, -0.07449258863925934, -0.7142987251281738, -0.8291753530502319, -0.9704575538635254, 0.05610024929046631, -0.14964756171048238, -0.30141973222004026, 5.724460263050922, 9362.0, 30146.0, 35388.0, 9362.0, 8.152067184448242, -0.08498017489910126, 0.06304779648780823, 0.25749126076698303, 0.0008613079553470016, -0.057415805757045746, 0.9985511898994446, -0.07680832594633102, -0.20087814331054688, 1.4794921875, 0.95947265625, 3.9940338134765625, 1.4912109375, 1.634033203125, 10.0, 1.0, 10.0, 1.3766542673110962
37688, 1.6609265804290771, 8.507648468017578, -7.383876323699951, -0.46485865116119385, -0.029442278668284416, -11.309626579284668, -1.1734730005264282, -0.07449258863925934, -0.7142987251281738, -0.8291928768157959, -0.9704476594924927, 0.05609526485204697, -0.1564389297094387, -0.3143080286968427, 5.734690751005045, 9362.0, 30146.0, 35388.0, 9362.0, 8.152067184448242, -0.02254435420036316, -0.06315014511346817, -0.11229075491428375, 0.00116230477578938, -0.05443798750638962, 0.9967171549797058, -0.059206750243902206, -0.20087814331054688, 1.4794921875, 1.162353515625, 0.637847900390625, 1.493408203125, 1.60693359375, 10.0, 1.0, 10.0, 1.3766542673110962
37698, 1.6619744300842285, 8.506449699401855, -7.383853912353516, -0.46485865116119385, -0.029442278668284416, -11.309626579284668, -1.1734730005264282, -0.07449258863925934, -0.7142987251281738, -0.829180896282196, -0.9704501032829285, 0.05610531568527222, -0.16714765827423633, -0.31119748731353525, 5.727831554376211, 9362.0, 30146.0, 35388.0, 9362.0, 8.152067184448242, 0.10502544045448303, 0.004866752307862043, -0.008931749500334263, -0.0025622951798141003, -0.05768457055091858, 1.0003191232681274, -0.059206750243902206, -0.20087814331054688, 1.4794921875, 0.90966796875, 5.5386810302734375, 1.493408203125, 1.60693359375, 10.0, 1.0, 10.0, 1.3766542673110962
37708, 1.6605671644210815, 8.505416870117188, -7.381310939788818, -0.46485865116119385, -0.029442278668284416, -11.309626579284668, -1.1734730005264282, -0.07449258863925934, -0.7142987251281738, -0.8291802406311035, -0.9704543352127075, 0.05612020567059517, -0.15311611496553346, -0.31161616503609935, 5.73390701634623, 9362.0, 30146.0, 35388.0, 9362.0, 8.152067184448242, -0.12451601028442383, 0.41548851132392883, 0.4721123278141022, -0.0025622951798141003, -0.05768457055091858, 1.0003191232681274, -0.059206750243902206, -0.20087814331054688, 1.4794921875, 0.90966796875, 5.5386810302734375, 1.4912109375, 1.664794921875, 10.0, 1.0, 10.0, 1.3766542673110962
37718, 1.6595990657806396, 8.50744342803955, -7.379255771636963, -0.46485865116119385, -0.029442278668284416, -11.309626579284668, -1.1734730005264282, -0.07449258863925934, -0.7142987251281738, -0.8292270302772522, -0.970419704914093, 0.056081656366586685, -0.12407982732057671, -0.3463563998847974, 5.71341114501515, 9362.0, 30146.0, 35388.0, 9362.0, 8.152067184448242, 0.007904624566435814, -0.23151451349258423, 0.10890062153339386, -0.00019482464995235205, -0.0574844554066658, 0.9985259175300598, -0.059206750243902206, -0.20087814331054688, 1.4794921875, 1.25390625, 0.1508331298828125, 1.4912109375, 1.664794921875, 10.0, 1.0, 10.0, 1.3766542673110962
37728, 1.6592905521392822, 8.50903606414795, -7.3785481452941895, -0.46485865116119385, -0.029442278668284416, -11.309626579284668, -1.1734730005264282, -0.07449258863925934, -0.7142987251281738, -0.8291636109352112, -0.9704585671424866, 0.056128427386283875, -0.15839607739197067, -0.31441677977679205, 5.740557474291734, 9362.0, 30146.0, 35388.0, 9362.0, 8.152067184448242, 0.007904624566435814, -0.23151451349258423, 0.10890062153339386, 0.0003685911069624126, -0.05750378221273422, 0.998157262802124, -0.059206750243902206, -0.20087814331054688, 1.4794921875, 1.25390625, 0.1508331298828125, 1.489013671875, 1.664794921875, 10.0, 1.0, 10.0, 1.3729840517044067
37768, 1.659812331199646, 8.50860595703125, -7.375401973724365, -0.46485865116119385, -0.029442278668284416, -11.309626579284668, -1.1734730005264282, -0.07449258863925934, -0.7142987251281738, -0.8291847705841064, -0.9704418182373047, 0.056132517755031586, -0.1594793766209899, -0.312520908933692, 5.742690357031443, 9362.0, 30146.0, 35388.0, 9362.0, 8.152067184448242, 0.029470302164554596, -0.1493915468454361, 0.056571368128061295, 0.0009728793520480394, -0.05858670175075531, 0.9992344975471497, -0.059206750243902206, -0.20087814331054688, 1.4794921875, 0.98876953125, 3.2432861328125, 1.489013671875, 1.664794921875, 10.0, 1.0, 10.0, 1.3727754354476929
37788, 1.6585969924926758, 8.510407447814941, -7.3730387687683105, -0.46485865116119385, -0.029442278668284416, -11.309626579284668, -1.1734730005264282, -0.07449258863925934, -0.7142987251281738, -0.8292503356933594, -0.9704006910324097, 0.056079208850860596, -0.12735380920014402, -0.342024489143796, 5.723117198910463, 9362.0, 30146.0, 35388.0, 9362.0, 8.152067184448242, -0.11592527478933334, -0.180200457572937, 0.01645803265273571, 0.0012143164640292525, -0.056575875729322433, 0.9993155002593994, -0.08513874560594559, -0.06647872924804688, 1.490478515625, 0.829833984375, 8.836593627929688, 1.4912109375, 1.5146484375, 10.0, 1.0, 10.0, 1.3727754354476929
37798, 1.6586551666259766, 8.51075267791748, -7.3739519119262695, -0.6999543905258179, -0.04439357668161392, -11.440183639526367, -1.4386290311813354, -0.0916416347026825, -0.736901044845581, -0.8291879892349243, -0.9704405069351196, 0.056092508137226105, -0.1613980204919154, -0.2982409730840345, 5.725744018204441, 9362.0, 30146.0, 35388.0, 9362.0, 8.152067184448242, -0.09026076644659042, 0.0325927771627903, -0.27928227186203003, 0.0012143164640292525, -0.056575875729322433, 0.9993155002593994, -0.08513874560594559, -0.06647872924804688, 1.490478515625, 0.829833984375, 8.836593627929688, 1.4912109375, 1.5146484375, 10.0, 1.0, 10.0, 1.3711671829223633
37818, 1.658274531364441, 8.510866165161133, -7.375606060028076, -0.6999543905258179, -0.04439357668161392, -11.440183639526367, -1.4386290311813354, -0.0916416347026825, -0.736901044845581, -0.8291705250740051, -0.9704526662826538, 0.0561269074678421, -0.15798481353860394, -0.3252851632754812, 5.742037573270162, 9362.0, 30146.0, 35388.0, 9362.0, 8.152067184448242, 0.05840447172522545, -0.2554924786090851, -0.04597046226263046, -0.0008938065147958696, -0.05750519782304764, 0.9996495842933655, -0.08513874560594559, -0.06647872924804688, 1.490478515625, 1.111083984375, 1.133758544921875, 1.4912109375, 1.5146484375, 10.0, 1.0, 10.0, 1.3719258308410645
37828, 1.6589974164962769, 8.508489608764648, -7.375827789306641, -0.6999543905258179, -0.04439357668161392, -11.440183639526367, -1.4386290311813354, -0.0916416347026825, -0.736901044845581, -0.829176664352417, -0.9704478979110718, 0.05612547695636749, -0.15712983151451546, -0.3213043135284295, 5.727695758268971, 9362.0, 30146.0, 35388.0, 9362.0, 8.152067184448242, 0.2307262271642685, 0.34195131063461304, 0.038191553205251694, -0.0008938065147958696, -0.05750519782304764, 0.9996495842933655, -0.08513874560594559, -0.06647872924804688, 1.490478515625, 1.2421875, 0.19000244140625, 1.4912109375, 1.5146484375, 10.0, 1.0, 10.0, 1.3727117776870728
37848, 1.6590967178344727, 8.510862350463867, -7.3781046867370605, -0.6999543905258179, -0.04439357668161392, -11.440183639526367, -1.4386290311813354, -0.0916416347026825, -0.736901044845581, -0.8292389512062073, -0.9704086780548096, 0.056101806461811066, -0.1289367529085881, -0.33356557838769163, 5.712583111622227, 9362.0, 30146.0, 35388.0, 9362.0, 8.152067184448242, 0.04861404746770859, 0.1254974603652954, 0.3224315047264099, -0.0010530062718316913, -0.05640402063727379, 0.9993773698806763, -0.08513874560594559, -0.06647872924804688, 1.490478515625, 1.31396484375, 0.0325469970703125, 1.4912109375, 1.598876953125, 10.0, 1.0, 10.0, 1.3727117776870728
37868, 1.6593941450119019, 8.512121200561523, -7.381194591522217, -0.6999543905258179, -0.04439357668161392, -11.440183639526367, -1.4386290311813354, -0.0916416347026825, -0.736901044845581, -0.829190194606781, -0.9704450368881226, 0.056089192628860474, -0.1530058146737278, -0.3094732982384585, 5.734704893129868, 9362.0, 30146.0, 35388.0, 9362.0, 8.152067184448242, -0.09674964845180511, 0.065880686044693, -0.10277381539344788, -0.0012750319438055158, -0.05847802758216858, 0.9998189806938171, -0.08513874560594559, -0.06647872924804688, 1.490478515625, 1.223876953125, 0.2634124755859375, 1.48828125, 1.598876953125, 10.0, 1.0, 10.0, 1.3705586194992065
37888, 1.6598855257034302, 8.510527610778809, -7.379854202270508, -0.6999543905258179, -0.04439357668161392, -11.440183639526367, -1.4386290311813354, -0.0916416347026825, -0.736901044845581, -0.8291720747947693, -0.9704495072364807, 0.056117862462997437, -0.15750114052426206, -0.31565171346161947, 5.7317273051358155, 9362.0, 30146.0, 35388.0, 9362.0, 8.152067184448242, 0.155720517039299, 0.19861283898353577, 0.1378631591796875, -0.0012750319438055158, -0.05847802758216858, 0.9998189806938171, -0.03858540579676628, -0.030637741088867188, 1.493408203125, 1.4384765625, 0.0871429443359375, 1.491943359375, 1.598876953125, 10.0, 1.0, 10.0, 1.3705114126205444
37908, 1.660618543624878, 8.512602806091309, -7.379819869995117, -0.6999543905258179, -0.04439357668161392, -11.440183639526367, -1.4386290311813354, -0.0916416347026825, -0.736901044845581, -0.8291566371917725, -0.9704564213752747, 0.05610492452979088, -0.1529231424076048, -0.32272521747327687, 5.7213076545874895, 9362.0, 30146.0, 35388.0, 9362.0, 8.152067184448242, -0.21154560148715973, -0.0554480254650116, -0.09208065271377563, -0.0031137324403971434, -0.05873241275548935, 0.9973681569099426, -0.03858540579676628, -0.030637741088867188, 1.493408203125, 1.14404296875, 0.7935333251953125, 1.490478515625, 1.617919921875, 10.0, 1.0, 10.0, 1.3705114126205444
37918, 1.6613068580627441, 8.512677192687988, -7.382370471954346, -0.8832042813301086, -0.05607635900378227, -11.529480934143066, -1.615507960319519, -0.10307149589061737, -0.7516684532165527, -0.8291794657707214, -0.9704346656799316, 0.056076906621456146, -0.15077710050020698, -0.31875558457610964, 5.738017311011351, 9362.0, 30146.0, 35388.0, 9362.0, 8.152067184448242, 0.0749063789844513, -0.3072122037410736, -0.3978569209575653, -0.0031137324403971434, -0.05873241275548935, 0.9973681569099426, -0.03858540579676628, -0.030637741088867188, 1.493408203125, 1.14404296875, 0.7935333251953125, 1.490478515625, 1.617919921875, 10.0, 1.0, 10.0, 1.3687692880630493
37938, 1.6636755466461182, 8.514267921447754, -7.383853912353516, -0.9158087968826294, -0.058156825602054596, -11.54454231262207, -1.6449462175369263, -0.10497576743364334, -0.7544538974761963, -0.8291647434234619, -0.9704371094703674, 0.056084681302309036, -0.1591190205079032, -0.3124072075099775, 5.7212952580294285, 9362.0, 30146.0, 35388.0, 9362.0, 8.152067184448242, 0.10445341467857361, -0.03658493608236313, -0.3157167434692383, -0.003101204289123416, -0.055740393698215485, 0.9976846575737, -0.03858540579676628, -0.030637741088867188, 1.493408203125, 1.17919921875, 0.513763427734375, 1.490478515625, 1.617919921875, 10.0, 1.0, 10.0, 1.369225263595581
37948, 1.6616696119308472, 8.515300750732422, -7.383009910583496, -0.9158087968826294, -0.058156825602054596, -11.54454231262207, -1.6449462175369263, -0.10497576743364334, -0.7544538974761963, -0.8291600346565247, -0.9704496264457703, 0.05611994117498398, -0.159327112020512, -0.3227326067365368, 5.733140715636316, 9362.0, 30146.0, 35388.0, 9362.0, 8.152067184448242, 0.10445341467857361, -0.03658493608236313, -0.3157167434692383, -0.0015284109394997358, -0.0573783703148365, 0.9984169602394104, -0.03858540579676628, -0.030637741088867188, 1.493408203125, 1.29931640625, 0.0500640869140625, 1.490478515625, 1.617919921875, 10.0, 1.0, 10.0, 1.3700801134109497
37958, 1.662816047668457, 8.514935493469238, -7.3830790519714355, -0.9158087968826294, -0.058156825602054596, -11.54454231262207, -1.6449462175369263, -0.10497576743364334, -0.7544538974761963, -0.829230785369873, -0.9703925848007202, 0.056079380214214325, -0.11829715877130521, -0.33480033548278243, 5.7085277600304005, 9362.0, 30146.0, 35388.0, 9362.0, 8.152067184448242, 0.21520839631557465, -0.1968345195055008, -0.09691130369901657, -0.0014736748998984694, -0.05759193003177643, 0.9991925358772278, -0.03858540579676628, -0.030637741088867188, 1.493408203125, 1.29931640625, 0.0500640869140625, 1.490478515625, 1.617919921875, 10.0, 1.0, 10.0, 1.3700801134109497
37968, 1.6643352508544922, 8.516934394836426, -7.385728359222412, -0.9158087968826294, -0.058156825602054596, -11.54454231262207, -1.6449462175369263, -0.10497576743364334, -0.7544538974761963, -0.8292333483695984, -0.9704090356826782, 0.05605873465538025, -0.11899867763796312, -0.33099289704082935, 5.7102896941170584, 9362.0, 30146.0, 35388.0, 9362.0, 8.152067184448242, 0.1375005841255188, -0.14117863774299622, -0.43993425369262695, -0.0008425401756539941, -0.05790780112147331, 0.9995261430740356, -0.03858540579676628, -0.030637741088867188, 1.493408203125, 0.9287109375, 4.90576171875, 1.490478515625, 1.6494140625, 10.0, 1.0, 10.0, 1.3700801134109497
37988, 1.6631578207015991, 8.515933990478516, -7.3835768699646, -0.9158087968826294, -0.058156825602054596, -11.54454231262207, -1.6449462175369263, -0.10497576743364334, -0.7544538974761963, -0.82924884557724, -0.9703876376152039, 0.0560774989426136, -0.12939850694565058, -0.3320290733375941, 5.7021051000433625, 9362.0, 30146.0, 35388.0, 9362.0, 8.152067184448242, -0.1254642903804779, 0.1615128219127655, 0.2715880572795868, -0.0008425401756539941, -0.05790780112147331, 0.9995261430740356, -0.0639495924115181, -0.09335899353027344, 1.48828125, 1.08251953125, 1.497955322265625, 1.490478515625, 1.6494140625, 10.0, 1.0, 10.0, 1.3700801134109497
