timeTick, roll, pitch, yaw, stateX, stateY, stateZ, stateVX, stateVY, stateVZ, otX0, otY0, otZ0, otRoll0, otPitch0, otYaw0, left wing, pitch motor, yaw motor, right wing, voltage, roll rate, pitch rate, yaw rate, A_x, A_y, A_z, current, i_raw, v_raw, airflow_voltage, airflow_speed, pot_Pitch, voltage_nKF, kFFx, volt_KF_vel, kP, volt_KF_pos
38438, -0.20119032263755798, -2.726987600326538, -1.0973209142684937, 0, 0, 0, 0, 0, 0, -0.8193590044975281, -0.9653707146644592, 0.056603945791721344, -0.6599828298635666, -0.028158309181549157, 3.9182529831383626, 0, 0, 0, 0, 0, 0, 0, 0, 0, 0, 0, 0, 0, 0, 0, 0, 0, 0, 0, 0, 0, 0
38448, -0.20199190080165863, -2.727898597717285, -1.0961817502975464, -0.0008518036338500679, -4.6352812205441296e-05, -18.271297454833984, -0.03793150559067726, -0.002064282540231943, -0.9920428991317749, -0.8193621635437012, -0.9653763175010681, 0.056593719869852066, -0.6616173635201139, -0.028881067753758316, 3.9234702039612914, 9362.0, 30146.0, 35388.0, 9362.0, 0, 0.013799727894365788, -0.18997584283351898, 0.02411508373916149, -0.0021142454352229834, -0.056671638041734695, 0.9986388683319092, 0, 0, 0, 0, 0, 0, 0, 0, 0, 0, 0
38458, -0.20255650579929352, -2.7274858951568604, -1.095077395439148, -0.0012078023282811046, -6.57231648801826e-05, -18.281219482421875, -0.033268239349126816, -0.001809696201235056, -0.9923587441444397, -0.8193702101707458, -0.9653631448745728, 0.05661468207836151, -0.6674868271138663, -0.025569198208245325, 3.920714027346561, 9362.0, 30146.0, 35388.0, 9362.0, 0, 0.01356557011604309, -0.07995953410863876, -0.3339260220527649, 0.0017096528317779303, -0.057656288146972656, 0.9962488412857056, 0, 0, 0, 1.35498046875, 0.01556396484375, 0, 1.39013671875, 10.0, 1.4119434356689453, 1.5, 1.4119434356689453
38468, -0.20222695171833038, -2.7269539833068848, -1.0964435338974, -0.0015171426348388195, -8.253951818915084e-05, -18.2911434173584, -0.02859983965754509, -0.001553483889438212, -0.9925997853279114, -0.8194282054901123, -0.9654107093811035, 0.05659692361950874, -0.6647823567170248, -0.037856309048919456, 3.8555828098058678, 9362.0, 30146.0, 35388.0, 9362.0, 0, -0.029592372477054596, 0.07271924614906311, 0.004669270943850279, 0.00023909441370051354, -0.05636466667056084, 0.9950592517852783, 0, 0, 0, 1.3798828125, 0.0243377685546875, 1.49267578125, 1.4208984375, 10.0, 1.411934733390808, 1.5, 1.411934733390808
38478, -0.20213405787944794, -2.7275919914245605, -1.0970001220703125, -0.0017798511544242501, -9.679108916316181e-05, -18.301071166992188, -0.023941852152347565, -0.001296940608881414, -0.9930450916290283, -0.8193700313568115, -0.9653709530830383, 0.05662849172949791, -0.6581125741083383, -0.021247123221854736, 3.918784961399628, 9362.0, 30146.0, 35388.0, 9362.0, 0, 0.22577813267707825, 0.13787288963794708, 0.2780945897102356, 0.0007820666651241481, -0.05730349197983742, 0.9972271919250488, 0, 0, 0, 1.387939453125, 0.0297393798828125, 1.49267578125, 1.423095703125, 10.0, 1.412055492401123, 1.5, 1.412055492401123
38488, -0.20127366483211517, -2.72823166847229, -1.0958709716796875, -0.0019960252102464437, -0.00010848275269381702, -18.311004638671875, -0.01929297111928463, -0.0010414366843178868, -0.9936619400978088, -0.8193677067756653, -0.9653408527374268, 0.056606050580739975, -0.6790916626659372, -0.030261862413993867, 3.9266698178686648, 9362.0, 30146.0, 35388.0, 9362.0, 0, -0.06632358580827713, 0.10476450622081757, -0.17130814492702484, 0.00229174317792058, -0.05439648777246475, 0.9956167340278625, 0, 0, 0, 1.41650390625, 0.0577545166015625, 1.4912109375, 1.442138671875, 10.0, 1.4118058681488037, 1.5, 1.4118058681488037
38498, -0.20236453413963318, -2.7281620502471924, -1.0974403619766235, -0.0021656579338014126, -0.0001176179139292799, -18.32094383239746, -0.014633591286838055, -0.0007855003350414336, -0.9940812587738037, -0.8193737268447876, -0.9653676748275757, 0.05661807954311371, -0.6602842488099924, -0.01769306984465402, 3.907983619313367, 9362.0, 30146.0, 35388.0, 9362.0, 0, 0.034417375922203064, -0.10671946406364441, -0.2862189710140228, 9.801970736589283e-05, -0.054986849427223206, 0.9953618049621582, 0, 0, 0, 1.333740234375, 0.0189361572265625, 1.4912109375, 1.41357421875, 10.0, 1.4115617275238037, 1.5, 1.4115617275238037
38508, -0.20122385025024414, -2.726456880569458, -1.0990893840789795, -0.00228871195577085, -0.00012420180428307503, -18.330886840820312, -0.009977200999855995, -0.0005314109730534256, -0.9945860505104065, -0.8193843960762024, -0.9653629064559937, 0.056630197912454605, -0.6768357915626714, -0.020133598365760008, 3.920415110007667, 9362.0, 30146.0, 35388.0, 9362.0, 0, 0.08798301219940186, 0.09961012750864029, 0.22195550799369812, -0.00015215280291158706, -0.055226463824510574, 0.9939914345741272, 0, 0, 0, 1.4150390625, 0.05596923828125, 1.4853515625, 1.40625, 10.0, 1.4115033149719238, 1.5, 1.4115033149719238
38518, -0.2008853554725647, -2.7255752086639404, -1.0979243516921997, -0.00236521870829165, -0.00012823703582398593, -18.340835571289062, -0.005324139725416899, -0.00027576094726100564, -0.9951589703559875, -0.8193711042404175, -0.9653386473655701, 0.05662096291780472, -0.683762439760154, -0.02255060924449026, 3.9105458205479993, 9362.0, 30146.0, 35388.0, 9362.0, 0, -0.07751192152500153, -0.2657391130924225, -0.10497692972421646, 0.0020051461178809404, -0.05792498216032982, 0.9967496991157532, 0, 0, 0, 1.415771484375, 0.0568695068359375, 1.4853515625, 1.382080078125, 10.0, 1.4111078977584839, 1.5, 1.4111078977584839
38528, -0.202218696475029, -2.72251558303833, -1.0994096994400024, -0.002395227551460266, -0.0001297268463531509, -18.35079002380371, -0.000677598814945668, -2.210461752838455e-05, -0.995806872844696, -0.819366455078125, -0.9653820395469666, 0.056615717709064484, -0.6557825302652697, -0.030113905879204594, 3.922147208390416, 9362.0, 30146.0, 35388.0, 9362.0, 0, -0.0683036521077156, -0.017690809443593025, 0.1261967271566391, 0.0012103976914659142, -0.058086395263671875, 0.9989559650421143, 0, 0, 0, 1.371826171875, 0.02008056640625, 1.48681640625, 1.43115234375, 10.0, 1.4111078977584839, 1.5, 1.4111078977584839
38538, -0.20186786353588104, -2.7218620777130127, -1.0985832214355469, -0.002378741977736354, -0.00012868037447333336, -18.360750198364258, 0.003974736202508211, 0.00023127412714529783, -0.996301531791687, -0.8194281458854675, -0.9654146432876587, 0.05660437047481537, -0.663592397041236, -0.02434081480228656, 3.862934858411285, 9362.0, 30146.0, 35388.0, 9362.0, 8.370248794555664, -0.12407051771879196, -0.13805365562438965, 0.09503240138292313, -0.00037173484452068806, -0.058853231370449066, 0.99955153465271, -0.055743686854839325, 0.09480094909667969, 1.503662109375, 1.40478515625, 0.0446624755859375, 1.48681640625, 1.404052734375, 10.0, 1.4110602140426636, 1.5, 1.4110602140426636
38548, -0.20133182406425476, -2.720942258834839, -1.0981357097625732, -0.002315700054168701, -0.00012508560030255467, -18.37071418762207, 0.008633646182715893, 0.00048774603055790067, -0.996549129486084, -0.8193902969360352, -0.9653668403625488, 0.05662834271788597, -0.6669653552083037, -0.007187535058761796, 3.918486256128768, 9362.0, 30146.0, 35388.0, 9362.0, 8.370248794555664, 0.1899091750383377, 0.25075143575668335, 0.11277375370264053, 0.0002890125324483961, -0.05816313251852989, 0.9968500137329102, -0.055743686854839325, 0.09480094909667969, 1.503662109375, 1.385009765625, 0.0276336669921875, 1.490478515625, 1.41064453125, 10.0, 1.4110519886016846, 1.5, 1.4110519886016846
38558, -0.2008970081806183, -2.7225329875946045, -1.0977150201797485, -0.0022060552146285772, -0.00011892759357579052, -18.380680084228516, 0.013295343145728111, 0.0007438913453370333, -0.9967142939567566, -0.8193586468696594, -0.9653605818748474, 0.0566437803208828, -0.6697870068627926, -0.025441768146805543, 3.9122082157143043, 9362.0, 30146.0, 35388.0, 9362.0, 8.370248794555664, 0.13174520432949066, -0.22989852726459503, -0.2871212363243103, 0.0013357197167351842, -0.05762166157364845, 0.9987816214561462, -0.055743686854839325, 0.09480094909667969, 1.503662109375, 1.390869140625, 0.0319671630859375, 1.490478515625, 1.408447265625, 10.0, 1.4109374284744263, 1.5, 1.4109374284744263
38568, -0.20058293640613556, -2.721383810043335, -1.0993430614471436, -0.002049851231276989, -0.00011021512909792364, -18.390649795532227, 0.017945419996976852, 0.000998636707663536, -0.9970899820327759, -0.8193895816802979, -0.96537184715271, 0.05661870166659355, -0.6577600312070767, -0.004753808336658949, 3.915134439230689, 9362.0, 30146.0, 35388.0, 9362.0, 8.370248794555664, -0.2749197781085968, -0.4315342307090759, 0.07960522174835205, 0.0012768803862854838, -0.055125243961811066, 1.000372290611267, -0.055743686854839325, 0.09480094909667969, 1.503662109375, 1.4267578125, 0.070709228515625, 1.494873046875, 1.3212890625, 10.0, 1.4108833074569702, 1.5, 1.4108833074569702
38578, -0.20180781185626984, -2.719118356704712, -1.0992348194122314, -0.0018471122020855546, -9.895787661662325e-05, -18.40062141418457, 0.022602401673793793, 0.0012526825303211808, -0.9973777532577515, -0.8193649649620056, -0.9653427600860596, 0.05664794519543648, -0.674192222257478, -0.01581079993735557, 3.9236599595452737, 9362.0, 30146.0, 35388.0, 9362.0, 8.370248794555664, 0.04509294033050537, 0.13057971000671387, -0.07862760871648788, 0.001879018498584628, -0.055105216801166534, 0.9976341724395752, -0.055743686854839325, 0.09480094909667969, 1.503662109375, 1.377685546875, 0.023040771484375, 1.494873046875, 1.41064453125, 10.0, 1.4108085632324219, 1.5, 1.4108085632324219
38588, -0.20101574063301086, -2.7205872535705566, -1.1008747816085815, -0.0015977704897522926, -8.516099478583783e-05, -18.410594940185547, 0.02726595476269722, 0.0015067062340676785, -0.9974859356880188, -0.8193804025650024, -0.9653716683387756, 0.05660632625222206, -0.6689367767884491, -0.012470698265758529, 3.9145129919717725, 9362.0, 30146.0, 35388.0, 9362.0, 8.370248794555664, -0.0096036521717906, 0.035772014409303665, -0.17704369127750397, -0.00038494003820233047, -0.057264555245637894, 0.9951127171516418, -0.055743686854839325, 0.09480094909667969, 1.503662109375, 1.446533203125, 0.09930419921875, 1.491943359375, 1.40185546875, 10.0, 1.4108288288116455, 1.5, 1.4108288288116455
38598, -0.20144139230251312, -2.7215957641601562, -1.1020526885986328, -0.0013018549652770162, -6.88153158989735e-05, -18.420570373535156, 0.03191713988780975, 0.001762296655215323, -0.9977734088897705, -0.8193660378456116, -0.9653446674346924, 0.05661391466856003, -0.678786093150027, -0.029837777618013206, 3.9196855435668505, 9362.0, 30146.0, 35388.0, 9362.0, 8.370248794555664, -0.0005178548744879663, -0.19014745950698853, -0.20811721682548523, -0.0004677471879404038, -0.057657964527606964, 0.995438277721405, -0.055743686854839325, 0.09480094909667969, 1.503662109375, 1.329345703125, 0.02105712890625, 1.491943359375, 1.35498046875, 10.0, 1.4108028411865234, 1.5, 1.4108028411865234
38608, -0.20120273530483246, -2.7198147773742676, -1.1043745279312134, -0.0009594800649210811, -4.992495087208226e-05, -18.430551528930664, 0.03655783087015152, 0.0020156793761998415, -0.998333752155304, -0.8193885684013367, -0.9653609991073608, 0.05662425979971886, -0.6781978206813389, -0.0005100491023881659, 3.9163188694605093, 9362.0, 30146.0, 35388.0, 9362.0, 8.370248794555664, -0.010410891845822334, -0.29810917377471924, -0.04846521466970444, -0.0013227416202425957, -0.05791422352194786, 0.9993176460266113, -0.055743686854839325, 0.09480094909667969, 1.503662109375, 1.31396484375, 0.0325469970703125, 1.49267578125, 1.36083984375, 10.0, 1.4106496572494507, 1.5, 1.4106496572494507
38618, -0.20161350071430206, -2.718003511428833, -1.1049615144729614, -0.0005706851370632648, -2.8497523089754395e-05, -18.44053840637207, 0.04120119661092758, 0.002269618446007371, -0.9988750219345093, -0.8193457126617432, -0.965369701385498, 0.056606218218803406, -0.6522365556721446, -0.04070503760704014, 3.9307487838980637, 9362.0, 30146.0, 35388.0, 9362.0, 8.370248794555664, 0.05892663821578026, 0.5027321577072144, -0.024782704189419746, -0.00018847805040422827, -0.05725383386015892, 0.9977710843086243, -0.055743686854839325, 0.09480094909667969, 1.503662109375, 1.404052734375, 0.04400634765625, 1.49267578125, 1.363037109375, 10.0, 1.4105247259140015, 1.5, 1.4105247259140015
38628, -0.20199163258075714, -2.7218880653381348, -1.105807900428772, -0.00013539896463043988, -4.529421858023852e-06, -18.450529098510742, 0.04585603252053261, 0.002523954026401043, -0.9991108179092407, -0.8193634748458862, -0.9653692245483398, 0.056596945971250534, -0.6727422663090677, -0.02402091306356624, 3.9110295424672827, 9362.0, 30146.0, 35388.0, 9362.0, 8.370248794555664, 0.04647606238722801, 0.056235745549201965, -0.10675456374883652, 0.0001605386205483228, -0.0579516664147377, 0.9958541393280029, -0.055743686854839325, 0.09480094909667969, 1.503662109375, 1.36669921875, 0.01806640625, 1.490478515625, 1.3974609375, 10.0, 1.4105737209320068, 1.5, 1.4105737209320068
38638, -0.20201757550239563, -2.7221338748931885, -1.108431100845337, 0.0003464038309175521, 2.198470974690281e-05, -18.460521697998047, 0.05050450563430786, 0.0027788029983639717, -0.999415397644043, -0.8193643093109131, -0.9653652310371399, 0.05663015693426132, -0.6639982759626492, -0.019917296764674575, 3.919056873912222, 9362.0, 30146.0, 35388.0, 9362.0, 8.370248794555664, 0.10123075544834137, 0.11534488201141357, 0.20388752222061157, 0.00032984145218506455, -0.05669914558529854, 0.9974867105484009, -0.07238438725471497, -0.06647872924804688, 1.490478515625, 1.40185546875, 0.0417938232421875, 1.490478515625, 1.36962890625, 10.0, 1.4104952812194824, 1.5, 1.4104952812194824
38648, -0.20209185779094696, -2.723752975463867, -1.1067421436309814, 0.00087468430865556, 5.104736555949785e-05, -18.470518112182617, 0.05515161529183388, 0.003033517161384225, -0.9998891353607178, -0.8193507194519043, -0.9653781652450562, 0.056614749133586884, -0.6526498364945305, -0.04081124059817398, 3.91704349784426, 9362.0, 30146.0, 35388.0, 9362.0, 8.370248794555664, -0.2304164469242096, -0.28427854180336, 0.04394709691405296, 0.0003781573905143887, -0.06010095402598381, 0.9993845224380493, -0.07238438725471497, -0.06647872924804688, 1.490478515625, 1.348388671875, 0.0154571533203125, 1.486083984375, 1.3798828125, 10.0, 1.4105188846588135, 1.5, 1.4105188846588135
38658, -0.20254047214984894, -2.7229163646698, -1.1058132648468018, 0.0014494616771116853, 8.265757060144097e-05, -18.480518341064453, 0.05980384349822998, 0.003288663225248456, -1.0002639293670654, -0.8193749785423279, -0.9653303027153015, 0.05661822110414505, -0.6838990036393048, -0.017266029677244887, 3.91381814233731, 9362.0, 30146.0, 35388.0, 9362.0, 8.370248794555664, -0.1021411269903183, -0.5641641020774841, -0.06656987220048904, 4.4035608880221844e-05, -0.05671751871705055, 0.996830940246582, -0.07238438725471497, -0.06647872924804688, 1.490478515625, 1.360107421875, 0.0162506103515625, 1.486083984375, 1.341064453125, 10.0, 1.4105054140090942, 1.5, 1.4105054140090942
38668, -0.2032538801431656, -2.719916820526123, -1.1069010496139526, 0.0020708211231976748, 0.00011682281910907477, -18.490522384643555, 0.06446801871061325, 0.0035444609820842743, -1.0004457235336304, -0.8193797469139099, -0.9653411507606506, 0.05660023167729378, -0.6949834919898376, -0.013940444049069356, 3.9204164738702323, 9362.0, 30146.0, 35388.0, 9362.0, 8.370248794555664, 0.10802672058343887, 0.46607595682144165, -0.0017826147377490997, -0.00039428146556019783, -0.05652911961078644, 0.9965344667434692, -0.07238438725471497, -0.06647872924804688, 1.490478515625, 1.41357421875, 0.0542449951171875, 1.49267578125, 1.423828125, 10.0, 1.4103416204452515, 1.5, 1.4103416204452515
38678, -0.20325982570648193, -2.722959518432617, -1.1068940162658691, 0.0027387747541069984, 0.00015354817151091993, -18.50052833557129, 0.06912273913621902, 0.0038005218375474215, -1.0007967948913574, -0.8193620443344116, -0.965391993522644, 0.05661306157708168, -0.6467056719054944, -0.037846260887391736, 3.920970108388305, 9362.0, 30146.0, 35388.0, 9362.0, 8.370248794555664, 0.2221931666135788, -0.10187035799026489, -0.058365270495414734, 0.0003019465075340122, -0.05732089653611183, 0.9984925985336304, -0.07238438725471497, -0.06647872924804688, 1.490478515625, 1.40478515625, 0.0446624755859375, 1.49267578125, 1.427490234375, 10.0, 1.410400390625, 1.5, 1.410400390625
38688, -0.20152173936367035, -2.7231223583221436, -1.1074262857437134, 0.0034532244317233562, 0.00019283886649645865, -18.51053810119629, 0.07376720011234283, 0.004057617392390966, -1.0012558698654175, -0.8193603754043579, -0.9653446674346924, 0.05660611763596535, -0.6714065572491869, -0.023626530165927306, 3.915151922374857, 9362.0, 30146.0, 35388.0, 9362.0, 8.370248794555664, -0.1074412539601326, 0.08195013552904129, 0.28602373600006104, 0.0008462265832349658, -0.056605517864227295, 0.9978311657905579, -0.07238438725471497, -0.06647872924804688, 1.490478515625, 1.4326171875, 0.0786895751953125, 1.494873046875, 1.377685546875, 10.0, 1.4104335308074951, 1.5, 1.4104335308074951
38698, -0.20212221145629883, -2.723679780960083, -1.1070060729980469, 0.004214188549667597, 0.00023470245650969446, -18.520551681518555, 0.07842559367418289, 0.004315062426030636, -1.001531720161438, -0.8193641901016235, -0.9653592109680176, 0.05659648776054382, -0.6703667760268063, -0.04339157802937166, 3.923134189532302, 9362.0, 30146.0, 35388.0, 9362.0, 8.370248794555664, 0.043651729822158813, 0.32021281123161316, -0.027158573269844055, 0.00156319176312536, -0.0572950579226017, 0.9970806241035461, -0.07238438725471497, -0.06647872924804688, 1.490478515625, 1.36376953125, 0.017181396484375, 1.494873046875, 1.414306640625, 10.0, 1.410404086112976, 1.5, 1.410404086112976
38708, -0.2013554722070694, -2.7250475883483887, -1.1089969873428345, 0.005021733231842518, 0.0002791251754388213, -18.530569076538086, 0.08308333903551102, 0.004569517448544502, -1.0018259286880493, -0.8193599581718445, -0.965386688709259, 0.05662249028682709, -0.6469616046257496, -0.029893618714567083, 3.9140483844285567, 9362.0, 30146.0, 35388.0, 9362.0, 8.370248794555664, 0.03082260861992836, -0.3042479157447815, -0.03199361637234688, 0.0023435510229319334, -0.059816665947437286, 0.9963130950927734, -0.07238438725471497, -0.06647872924804688, 1.490478515625, 1.390869140625, 0.0319671630859375, 1.493408203125, 1.352783203125, 10.0, 1.4102568626403809, 1.5, 1.4102568626403809
38718, -0.2003377228975296, -2.723560333251953, -1.1093292236328125, 0.005875841248780489, 0.00032609663321636617, -18.54058837890625, 0.08773829787969589, 0.004824614617973566, -1.0021986961364746, -0.8193823099136353, -0.9653408527374268, 0.05658474937081337, -0.6843772504017421, -0.010097562379485225, 3.914293002146208, 9362.0, 30146.0, 35388.0, 9362.0, 8.370248794555664, 0.10786203294992447, 0.23348452150821686, 0.03742316737771034, 0.0015956286806613207, -0.059656772762537, 0.9957345128059387, -0.07238438725471497, -0.06647872924804688, 1.490478515625, 1.389404296875, 0.03082275390625, 1.493408203125, 1.35205078125, 10.0, 1.4101886749267578, 1.5, 1.4101886749267578
38728, -0.19965536892414093, -2.7247581481933594, -1.1089746952056885, 0.006776492111384869, 0.00037561048520728946, -18.550613403320312, 0.09239193052053452, 0.005078132264316082, -1.0026484727859497, -0.8193562030792236, -0.9653597474098206, 0.056611545383930206, -0.6762436714041915, -0.031020932367852083, 3.921126984073158, 9362.0, 30146.0, 35388.0, 9362.0, 8.370248794555664, 0.03328746557235718, 0.4585219621658325, -0.09417923539876938, 0.0021662444341927767, -0.059452950954437256, 0.9957751035690308, -0.07238438725471497, -0.06647872924804688, 1.490478515625, 1.42822265625, 0.0726470947265625, 1.48828125, 1.411376953125, 10.0, 1.410032868385315, 1.5, 1.410032868385315
38738, -0.1996404528617859, -2.728257656097412, -1.108856201171875, 0.007723650895059109, 0.0004276500840205699, -18.56064224243164, 0.09703981131315231, 0.0053298212587833405, -1.0031646490097046, -0.8193512558937073, -0.9653476476669312, 0.05660891905426979, -0.6651250682453347, -0.038573695069544556, 3.9202220849382643, 9362.0, 30146.0, 35388.0, 9362.0, 8.370248794555664, 0.0050605167634785175, 0.12984155118465424, 0.0698556900024414, 0.0009177563479170203, -0.056652165949344635, 0.9979904294013977, -0.07227049767971039, 0.0052013397216796875, 1.496337890625, 1.41650390625, 0.0577545166015625, 1.48828125, 1.4091796875, 10.0, 1.409995436668396, 1.5, 1.409995436668396
38748, -0.1997448205947876, -2.7291858196258545, -1.1077316999435425, 0.008717282675206661, 0.0004821998591069132, -18.570676803588867, 0.10168652981519699, 0.005580143537372351, -1.003746747970581, -0.8193602561950684, -0.9653461575508118, 0.05659864470362663, -0.6833573648641464, -0.016618553475097997, 3.9262028507631044, 9362.0, 30146.0, 35388.0, 9362.0, 8.370248794555664, -0.06863554567098618, 0.004929324146360159, -0.4132038354873657, 0.0018484714673832059, -0.057937778532505035, 0.9979242086410522, -0.07227049767971039, 0.0052013397216796875, 1.496337890625, 1.396728515625, 0.0370025634765625, 1.491943359375, 1.426025390625, 10.0, 1.4100114107131958, 1.5, 1.4100114107131958
38758, -0.19991549849510193, -2.729936361312866, -1.1098517179489136, 0.00975746102631092, 0.0005392548628151417, -18.580717086791992, 0.1063491627573967, 0.005830950103700161, -1.0041217803955078, -0.819369912147522, -0.9653785824775696, 0.05660924315452576, -0.6563822282886331, -0.020860993003452677, 3.9135538047859217, 9362.0, 30146.0, 35388.0, 9362.0, 8.370248794555664, 0.04542342573404312, 0.011799076572060585, 0.39607036113739014, 0.0017741660121828318, -0.05910937115550041, 0.9946997165679932, -0.07227049767971039, 0.0052013397216796875, 1.496337890625, 1.3857421875, 0.0280914306640625, 1.491943359375, 1.330810546875, 10.0, 1.409953236579895, 1.5, 1.409953236579895
38768, -0.19951385259628296, -2.7316510677337646, -1.1076947450637817, 0.01084428932517767, 0.0005988199845887721, -18.59075927734375, 0.11101642996072769, 0.006081894971430302, -1.004432201385498, -0.8193655014038086, -0.9653583765029907, 0.05663170665502548, -0.6735147610382347, -0.024533951520282926, 3.9091075369368635, 9362.0, 30146.0, 35388.0, 9362.0, 8.370248794555664, 0.091164730489254, -0.06442556530237198, 0.039674337953329086, 0.0017741660121828318, -0.05910937115550041, 0.9946997165679932, -0.07227049767971039, 0.0052013397216796875, 1.496337890625, 1.367431640625, 0.0183258056640625, 1.49267578125, 1.330810546875, 10.0, 1.409953236579895, 1.5, 1.409953236579895
38778, -0.19943703711032867, -2.7321267127990723, -1.1069085597991943, 0.01084428932517767, 0.0005988199845887721, -18.59075927734375, 0.11101642996072769, 0.006081894971430302, -1.004432201385498, -0.819362461566925, -0.9653671383857727, 0.05663161352276802, -0.663332415790641, -0.03346418978702559, 3.917098835193461, 9362.0, 30146.0, 35388.0, 9362.0, 8.370248794555664, 0.091164730489254, -0.06442556530237198, 0.039674337953329086, 0.0017741660121828318, -0.05910937115550041, 0.9946997165679932, -0.07227049767971039, 0.0052013397216796875, 1.496337890625, 1.367431640625, 0.0183258056640625, 1.49267578125, 1.330810546875, 10.0, 1.4098999500274658, 1.5, 1.4098999500274658
38788, -0.19921155273914337, -2.7316133975982666, -1.1059534549713135, 0.01084428932517767, 0.0005988199845887721, -18.59075927734375, 0.11101642996072769, 0.006081894971430302, -1.004432201385498, -0.819367527961731, -0.9653826951980591, 0.0566379576921463, -0.6611540215036812, -0.031141163634544, 3.913204021154753, 9362.0, 30146.0, 35388.0, 9362.0, 8.370248794555664, 0.11531331390142441, 0.24343372881412506, -0.15814664959907532, 0.0017741660121828318, -0.05910937115550041, 0.9946997165679932, -0.07227049767971039, 0.0052013397216796875, 1.496337890625, 1.367431640625, 0.0183258056640625, 1.48681640625, 1.330810546875, 10.0, 1.4097635746002197, 1.5, 1.4097635746002197
38798, -0.1984284222126007, -2.733018398284912, -1.1070923805236816, 0.01084428932517767, 0.0005988199845887721, -18.59075927734375, 0.11101642996072769, 0.006081894971430302, -1.004432201385498, -0.8193671703338623, -0.9653623700141907, 0.056613072752952576, -0.6628878112263, -0.02436982997247128, 3.9131981728463487, 9362.0, 30146.0, 35388.0, 9362.0, 8.370248794555664, 0.11531331390142441, 0.24343372881412506, -0.15814664959907532, 0.0017741660121828318, -0.05910937115550041, 0.9946997165679932, -0.07227049767971039, 0.0052013397216796875, 1.496337890625, 1.367431640625, 0.0183258056640625, 1.48681640625, 1.405517578125, 10.0, 1.4095096588134766, 1.5, 1.4095096588134766
38808, -0.19873280823230743, -2.73368239402771, -1.10753333568573, 0.01084428932517767, 0.0005988199845887721, -18.59075927734375, 0.11101642996072769, 0.006081894971430302, -1.004432201385498, -0.8193771839141846, -0.9653502106666565, 0.056607622653245926, -0.6722546510457733, -0.021339808187093467, 3.9247675872940238, 9362.0, 30146.0, 35388.0, 9362.0, 8.370248794555664, 0.15918295085430145, 0.27800098061561584, -0.1190340593457222, 0.0017741660121828318, -0.05910937115550041, 0.9946997165679932, -0.07227049767971039, 0.0052013397216796875, 1.496337890625, 1.367431640625, 0.0183258056640625, 1.490478515625, 1.38720703125, 10.0, 1.4095096588134766, 1.5, 1.4095096588134766
38818, -0.19752752780914307, -2.735058307647705, -1.107814073562622, 0.01084428932517767, 0.0005988199845887721, -18.59075927734375, 0.11101642996072769, 0.006081894971430302, -1.004432201385498, -0.8193903565406799, -0.9653375148773193, 0.05661995708942413, -0.6749932774899466, -0.021075585062163782, 3.9178352457647403, 9362.0, 30146.0, 35388.0, 9362.0, 8.370248794555664, 0.14199331402778625, -0.035978492349386215, 0.1385250836610794, 0.0017741660121828318, -0.05910937115550041, 0.9946997165679932, -0.07227049767971039, 0.0052013397216796875, 1.496337890625, 1.367431640625, 0.0183258056640625, 1.490478515625, 1.38720703125, 10.0, 1.4095286130905151, 1.5, 1.4095286130905151
38828, -0.19678208231925964, -2.734879732131958, -1.1070888042449951, 0.01084428932517767, 0.0005988199845887721, -18.59075927734375, 0.11101642996072769, 0.006081894971430302, -1.004432201385498, -0.8193857073783875, -0.9653564691543579, 0.05662941932678223, -0.6722352722142217, -0.00582399791176158, 3.9133494489514415, 9362.0, 30146.0, 35388.0, 9362.0, 8.370248794555664, 0.0022245123982429504, -0.3093472719192505, -0.0832088440656662, 0.0017741660121828318, -0.05910937115550041, 0.9946997165679932, -0.07227049767971039, 0.0052013397216796875, 1.496337890625, 1.367431640625, 0.0183258056640625, 1.4912109375, 1.38720703125, 10.0, 1.4094072580337524, 1.5, 1.4094072580337524
38848, -0.196496844291687, -2.734815835952759, -1.106724739074707, 0.021217428147792816, 0.0011652704561129212, -18.671279907226562, 0.14832906424999237, 0.008071907795965672, -1.0084645748138428, -0.8193774819374084, -0.9653612375259399, 0.05661475285887718, -0.671216553923373, -0.028935248872357988, 3.9250778763735448, 9362.0, 30146.0, 35388.0, 9362.0, 8.370248794555664, 0.030963199213147163, 0.21836906671524048, 0.07030396908521652, 0.00027377993683330715, -0.057140517979860306, 0.9977856874465942, -0.06728585809469223, -0.07543754577636719, 1.48974609375, 1.367431640625, 0.0183258056640625, 1.4912109375, 1.41357421875, 10.0, 1.4094072580337524, 1.5, 1.4094072580337524
38868, -0.1972169429063797, -2.7321629524230957, -1.1086537837982178, 0.021217428147792816, 0.0011652704561129212, -18.671279907226562, 0.14832906424999237, 0.008071907795965672, -1.0084645748138428, -0.8193833231925964, -0.9653681516647339, 0.05661335214972496, -0.6637980981125626, -0.01159248749775088, 3.91790542507556, 9362.0, 30146.0, 35388.0, 9362.0, 8.370248794555664, -0.05390641465783119, -0.02095910906791687, -0.23374970257282257, 0.0024614548310637474, -0.057354316115379333, 0.9969232678413391, -0.06728585809469223, -0.07543754577636719, 1.48974609375, 1.367431640625, 0.0183258056640625, 1.490478515625, 1.40478515625, 10.0, 1.4094072580337524, 1.5, 1.4094072580337524
38878, -0.1973874270915985, -2.7322604656219482, -1.1092404127120972, 0.021217428147792816, 0.0011652704561129212, -18.671279907226562, 0.14832906424999237, 0.008071907795965672, -1.0084645748138428, -0.8193605542182922, -0.9653846025466919, 0.056650105863809586, -0.650943216692111, -0.028930574427931788, 3.9141620193507585, 9362.0, 30146.0, 35388.0, 9362.0, 8.370248794555664, -0.017313022166490555, -0.19242392480373383, -0.06450746208429337, 0.0024614548310637474, -0.057354316115379333, 0.9969232678413391, -0.06728585809469223, -0.07543754577636719, 1.48974609375, 1.367431640625, 0.0183258056640625, 1.490478515625, 1.400390625, 10.0, 1.4094072580337524, 1.5, 1.4094072580337524
38888, -0.19681449234485626, -2.73109769821167, -1.1087565422058105, 0.02752452902495861, 0.0015078568831086159, -18.711647033691406, 0.16702130436897278, 0.009056804701685905, -1.0098652839660645, -0.8193586468696594, -0.9653581976890564, 0.056614167988300323, -0.6749445009603241, -0.027594959870668845, 3.9171062150611564, 9362.0, 30146.0, 35388.0, 9362.0, 8.370248794555664, 0.18134255707263947, 0.22577360272407532, -0.029530299827456474, 0.0024614548310637474, -0.057354316115379333, 0.9969232678413391, -0.06728585809469223, -0.07543754577636719, 1.48974609375, 1.367431640625, 0.0183258056640625, 1.49267578125, 1.400390625, 10.0, 1.4091588258743286, 1.5, 1.4091588258743286
38898, -0.1952238380908966, -2.7322494983673096, -1.1080503463745117, 0.02752452902495861, 0.0015078568831086159, -18.711647033691406, 0.16702130436897278, 0.009056804701685905, -1.0098652839660645, -0.8193554878234863, -0.9653732180595398, 0.05661202222108841, -0.6529075531130712, -0.048058819767248906, 3.926113371178464, 9362.0, 30146.0, 35388.0, 9362.0, 8.370248794555664, -0.141201913356781, 0.08781104534864426, -0.137764573097229, 0.0024614548310637474, -0.057354316115379333, 0.9969232678413391, -0.06728585809469223, -0.07543754577636719, 1.48974609375, 1.367431640625, 0.0183258056640625, 1.49267578125, 1.400390625, 10.0, 1.4089924097061157, 1.5, 1.4089924097061157
38908, -0.19609560072422028, -2.7320587635040283, -1.1081615686416626, 0.03095814399421215, 0.0016939130146056414, -18.731855392456055, 0.1763419359922409, 0.009548565372824669, -1.0109537839889526, -0.819354236125946, -0.9653857946395874, 0.05662702023983002, -0.6394032595711747, -0.034087565623025284, 3.9159142783564294, 9362.0, 30146.0, 35388.0, 9362.0, 8.370248794555664, -0.16284872591495514, 0.2652592957019806, 0.29067283868789673, 0.0024614548310637474, -0.057354316115379333, 0.9969232678413391, -0.06728585809469223, -0.07543754577636719, 1.48974609375, 1.367431640625, 0.0183258056640625, 1.49267578125, 1.400390625, 10.0, 1.4089924097061157, 1.5, 1.4089924097061157
38918, -0.19595788419246674, -2.7333574295043945, -1.1054089069366455, 0.03095814399421215, 0.0016939130146056414, -18.731855392456055, 0.1763419359922409, 0.009548565372824669, -1.0109537839889526, -0.8193596005439758, -0.9653629064559937, 0.05664466693997383, -0.67519905277087, -0.0224720336411508, 3.923003877642539, 9362.0, 30146.0, 35388.0, 9362.0, 8.370248794555664, 0.04281044751405716, 0.014379965141415596, 0.16182154417037964, 0.0024614548310637474, -0.057354316115379333, 0.9969232678413391, -0.06728585809469223, -0.07543754577636719, 1.48974609375, 1.367431640625, 0.0183258056640625, 1.49267578125, 1.396728515625, 10.0, 1.4089924097061157, 1.5, 1.4089924097061157
38928, -0.19485466182231903, -2.7333953380584717, -1.1041004657745361, 0.03095814399421215, 0.0016939130146056414, -18.731855392456055, 0.1763419359922409, 0.009548565372824669, -1.0109537839889526, -0.8193802833557129, -0.9653645157814026, 0.05662674829363823, -0.6748215488868883, -0.008784172822515757, 3.916691404221988, 9362.0, 30146.0, 35388.0, 9362.0, 8.370248794555664, 0.15905365347862244, -0.13709767162799835, -0.24249330163002014, 0.0024614548310637474, -0.057354316115379333, 0.9969232678413391, -0.06728585809469223, -0.07543754577636719, 1.48974609375, 1.367431640625, 0.0183258056640625, 1.4912109375, 1.418701171875, 10.0, 1.4089924097061157, 1.5, 1.4089924097061157
38938, -0.19449199736118317, -2.7326738834381104, -1.1053646802902222, 0.03095814399421215, 0.0016939130146056414, -18.731855392456055, 0.1763419359922409, 0.009548565372824669, -1.0109537839889526, -0.8193779587745667, -0.9653719067573547, 0.056606050580739975, -0.6572836681756676, -0.029783004668530566, 3.9209121551778314, 9362.0, 30146.0, 35388.0, 9362.0, 8.370248794555664, 0.15905365347862244, -0.13709767162799835, -0.24249330163002014, 0.0024614548310637474, -0.057354316115379333, 0.9969232678413391, -0.06690188497304916, -0.0037593841552734375, 1.49560546875, 1.367431640625, 0.0183258056640625, 1.4912109375, 1.418701171875, 10.0, 1.4089924097061157, 1.5, 1.4089924097061157
38958, -0.19355881214141846, -2.7341902256011963, -1.1045559644699097, 0.04035867750644684, 0.002201799303293228, -18.78245735168457, 0.19969458878040314, 0.010765980929136276, -1.0127872228622437, -0.8193672299385071, -0.9653707146644592, 0.056663382798433304, -0.658424233629212, -0.018823029423373328, 3.9202502348619257, 9362.0, 30146.0, 35388.0, 9362.0, 8.370248794555664, 0.03133867308497429, 0.18567143380641937, 0.039441484957933426, 0.0024614548310637474, -0.057354316115379333, 0.9969232678413391, -0.06690188497304916, -0.0037593841552734375, 1.49560546875, 1.367431640625, 0.0183258056640625, 1.491943359375, 1.418701171875, 10.0, 1.4085464477539062, 1.5, 1.4085464477539062
38968, -0.19283880293369293, -2.736551523208618, -1.1036349534988403, 0.04035867750644684, 0.002201799303293228, -18.78245735168457, 0.19969458878040314, 0.010765980929136276, -1.0127872228622437, -0.8193634748458862, -0.9653642177581787, 0.05665154010057449, -0.668708769469123, -0.022772179878103316, 3.913930515665365, 9362.0, 30146.0, 35388.0, 9362.0, 8.370248794555664, 0.17595164477825165, -0.022170372307300568, -0.06468351185321808, 0.0024614548310637474, -0.057354316115379333, 0.9969232678413391, -0.06690188497304916, -0.0037593841552734375, 1.49560546875, 1.367431640625, 0.0183258056640625, 1.4912109375, 1.39892578125, 10.0, 1.4084720611572266, 1.5, 1.4084720611572266
38978, -0.19136129319667816, -2.7367780208587646, -1.1043872833251953, 0.04035867750644684, 0.002201799303293228, -18.78245735168457, 0.19969458878040314, 0.010765980929136276, -1.0127872228622437, -0.8193674087524414, -0.965380072593689, 0.05663943290710449, -0.6544233098486409, -0.03401441097301472, 3.927625151330518, 9362.0, 30146.0, 35388.0, 9362.0, 8.370248794555664, 0.03946111351251602, 0.1852068305015564, -0.13157211244106293, 0.0026746587827801704, -0.05877962335944176, 0.9959452748298645, -0.06690188497304916, -0.0037593841552734375, 1.49560546875, 1.367431640625, 0.0183258056640625, 1.4912109375, 1.39892578125, 10.0, 1.4084720611572266, 1.5, 1.4084720611572266
38988, -0.18991588056087494, -2.738356590270996, -1.1059839725494385, 0.04035867750644684, 0.002201799303293228, -18.78245735168457, 0.19969458878040314, 0.010765980929136276, -1.0127872228622437, -0.819374680519104, -0.9653463363647461, 0.05662690848112106, -0.6806902773191831, -0.023515102305509572, 3.9200719869343454, 9362.0, 30146.0, 35388.0, 9362.0, 8.370248794555664, -0.0038939688820391893, -0.028533458709716797, 0.454703688621521, 0.0026746587827801704, -0.05877962335944176, 0.9959452748298645, -0.06690188497304916, -0.0037593841552734375, 1.49560546875, 1.367431640625, 0.0183258056640625, 1.48681640625, 1.39892578125, 10.0, 1.4082391262054443, 1.5, 1.4082391262054443
39008, -0.18922778964042664, -2.7401881217956543, -1.102335810661316, 0.0509275421500206, 0.0027700886130332947, -18.83314323425293, 0.22305932641029358, 0.011957702226936817, -1.0148754119873047, -0.819366455078125, -0.9653927087783813, 0.05665387213230133, -0.6533184082039053, -0.013855649415148719, 3.9134439176884195, 9362.0, 30146.0, 35388.0, 9362.0, 8.370248794555664, -0.013475331477820873, 0.2841886281967163, 0.029355764389038086, -0.0014456826029345393, -0.058710820972919464, 0.9978517889976501, -0.06690188497304916, -0.0037593841552734375, 1.49560546875, 1.367431640625, 0.0183258056640625, 1.48681640625, 1.434814453125, 10.0, 1.4082380533218384, 1.5, 1.4082380533218384
39018, -0.1890733540058136, -2.741940975189209, -1.1023666858673096, 0.05318153649568558, 0.0028908338863402605, -18.843294143676758, 0.22773970663547516, 0.0121913468465209, -1.0152535438537598, -0.8193728923797607, -0.9653586745262146, 0.05665438994765282, -0.6690842990376572, -0.007312037033329943, 3.914189355178362, 9362.0, 30146.0, 35388.0, 9362.0, 8.370248794555664, -0.11553879827260971, -0.003517912467941642, -0.1052817776799202, -0.0014456826029345393, -0.058710820972919464, 0.9978517889976501, -0.06690188497304916, -0.0037593841552734375, 1.49560546875, 1.367431640625, 0.0183258056640625, 1.48681640625, 1.434814453125, 10.0, 1.4081854820251465, 1.5, 1.4081854820251465
39028, -0.18898214399814606, -2.74126935005188, -1.1023626327514648, 0.055482350289821625, 0.003013912821188569, -18.85344886779785, 0.2324230670928955, 0.012424460612237453, -1.015613317489624, -0.8193807601928711, -0.9653507471084595, 0.05665690451860428, -0.6692378011574903, -0.025829488695535474, 3.9151532483034206, 9362.0, 30146.0, 35388.0, 9362.0, 8.370248794555664, -0.1390884965658188, -0.3428478240966797, 0.010110467672348022, -0.0014456826029345393, -0.058710820972919464, 0.9978517889976501, -0.06690188497304916, -0.0037593841552734375, 1.49560546875, 1.367431640625, 0.0183258056640625, 1.491943359375, 1.434814453125, 10.0, 1.4081400632858276, 1.5, 1.4081400632858276
39048, -0.1878720074892044, -2.739870309829712, -1.1002721786499023, 0.05782999098300934, 0.00313932029530406, -18.86360740661621, 0.23710481822490692, 0.012657021172344685, -1.0160688161849976, -0.8193724155426025, -0.9653602242469788, 0.056647978723049164, -0.6650931091775307, -0.023792099977299586, 3.922500559655578, 9362.0, 30146.0, 35388.0, 9362.0, 8.370248794555664, -0.1721350997686386, -0.19484297931194305, -0.006804984528571367, 0.0015724926488474011, -0.06002926453948021, 0.9967659711837769, -0.06690188497304916, -0.0037593841552734375, 1.49560546875, 1.367431640625, 0.0183258056640625, 1.49267578125, 1.44287109375, 10.0, 1.4081400632858276, 1.5, 1.4081400632858276
39058, -0.18879394233226776, -2.738882303237915, -1.1004279851913452, 0.05782999098300934, 0.00313932029530406, -18.86360740661621, 0.23710481822490692, 0.012657021172344685, -1.0160688161849976, -0.8193722367286682, -0.9653551578521729, 0.05665254220366478, -0.6757167611909191, -0.00154374182511674, 3.9103346437886555, 9362.0, 30146.0, 35388.0, 9362.0, 8.370248794555664, 0.3700486123561859, 0.20046059787273407, 0.22748824954032898, 0.0015724926488474011, -0.06002926453948021, 0.9967659711837769, -0.06690188497304916, -0.0037593841552734375, 1.49560546875, 1.367431640625, 0.0183258056640625, 1.49267578125, 1.409912109375, 10.0, 1.4081400632858276, 1.5, 1.4081400632858276
39068, -0.18756632506847382, -2.7392570972442627, -1.0995500087738037, 0.06515398621559143, 0.0035295060370117426, -18.89410400390625, 0.25115981698036194, 0.013354209251701832, -1.0170321464538574, -0.8193663358688354, -0.9653361439704895, 0.05664810538291931, -0.6849094469109744, -0.016922608364382086, 3.913609745538408, 9362.0, 30146.0, 35388.0, 9362.0, 8.370248794555664, 0.3700486123561859, 0.20046059787273407, 0.22748824954032898, -0.0014197556301951408, -0.059592265635728836, 0.9986515045166016, -0.06690188497304916, -0.0037593841552734375, 1.49560546875, 1.367431640625, 0.0183258056640625, 1.493408203125, 1.409912109375, 10.0, 1.408007025718689, 1.5, 1.408007025718689
39078, -0.1877136528491974, -2.739820718765259, -1.09954833984375, 0.06515398621559143, 0.0035295060370117426, -18.89410400390625, 0.25115981698036194, 0.013354209251701832, -1.0170321464538574, -0.8193636536598206, -0.9653476476669312, 0.05666188895702362, -0.6863605563418929, -0.019331175045863347, 3.918797594367151, 9362.0, 30146.0, 35388.0, 9362.0, 8.370248794555664, 0.13333627581596375, -0.07061559706926346, -0.046418026089668274, -0.0014197556301951408, -0.059592265635728836, 0.9986515045166016, -0.06690188497304916, -0.0037593841552734375, 1.49560546875, 1.367431640625, 0.0183258056640625, 1.493408203125, 1.409912109375, 10.0, 1.407952904701233, 1.5, 1.407952904701233
39088, -0.1873534619808197, -2.73929762840271, -1.0996211767196655, 0.07027062773704529, 0.0038012233562767506, -18.91445541381836, 0.26051151752471924, 0.01381684746593237, -1.0179835557937622, -0.8193619251251221, -0.9653478264808655, 0.056666821241378784, -0.673281740329078, -0.026784739890359788, 3.9180034883528934, 9362.0, 30146.0, 35388.0, 9362.0, 8.370248794555664, -0.179118812084198, 0.3000357449054718, 0.07261372357606888, 0.0023177305702120066, -0.057116080075502396, 0.997268557548523, -0.06690188497304916, -0.0037593841552734375, 1.49560546875, 1.367431640625, 0.0183258056640625, 1.493408203125, 1.38427734375, 10.0, 1.407952904701233, 1.5, 1.407952904701233
39098, -0.18800972402095795, -2.740203857421875, -1.099829077720642, 0.07027062773704529, 0.0038012233562767506, -18.91445541381836, 0.26051151752471924, 0.01381684746593237, -1.0179835557937622, -0.8193679451942444, -0.9653779864311218, 0.05666334182024002, -0.6619423920174838, -0.016641055312874187, 3.9153187480248977, 9362.0, 30146.0, 35388.0, 9362.0, 8.370248794555664, -0.12853272259235382, 0.21238857507705688, 0.08420779556035995, 0.002731170505285263, -0.05628851056098938, 0.9959056377410889, -0.06690188497304916, -0.0037593841552734375, 1.49560546875, 1.367431640625, 0.0183258056640625, 1.493408203125, 1.38720703125, 10.0, 1.407952904701233, 1.5, 1.407952904701233
39108, -0.18814371526241302, -2.7398691177368164, -1.099328637123108, 0.07027062773704529, 0.0038012233562767506, -18.91445541381836, 0.26051151752471924, 0.01381684746593237, -1.0179835557937622, -0.8193739056587219, -0.9653440117835999, 0.05666615441441536, -0.6795447601656645, -0.018847668900718872, 3.921124885424318, 9362.0, 30146.0, 35388.0, 9362.0, 8.370248794555664, 0.23905761539936066, 0.20825454592704773, -0.016830826178193092, 0.0012781204422935843, -0.05710721015930176, 0.9972784519195557, -0.06690188497304916, -0.0037593841552734375, 1.49560546875, 1.367431640625, 0.0183258056640625, 1.4912109375, 1.40771484375, 10.0, 1.407952904701233, 1.5, 1.407952904701233
39128, -0.1865224838256836, -2.741276741027832, -1.1012609004974365, 0.08106563240289688, 0.004372351337224245, -18.955204010009766, 0.2792344391345978, 0.01474015973508358, -1.0195821523666382, -0.8193531632423401, -0.965373694896698, 0.05663455277681351, -0.6528914093081002, -0.04149024858330108, 3.9145472685106593, 9362.0, 30146.0, 35388.0, 9362.0, 8.370248794555664, 0.08797535300254822, 0.07704964280128479, -0.0736546665430069, 0.00225497642531991, -0.05732282996177673, 0.9991061687469482, -0.06690188497304916, -0.0037593841552734375, 1.49560546875, 1.367431640625, 0.0183258056640625, 1.4912109375, 1.359375, 10.0, 1.4077184200286865, 1.5, 1.4077184200286865
39148, -0.18622994422912598, -2.7434492111206055, -1.0998408794403076, 0.0838814303278923, 0.004520900081843138, -18.96540069580078, 0.28392523527145386, 0.014969486743211746, -1.019799828529358, -0.819386899471283, -0.9653481245040894, 0.0566740557551384, -0.679189983313773, -0.009486193672415766, 3.9153245828219982, 9362.0, 30146.0, 35388.0, 9362.0, 8.370248794555664, 0.1163182482123375, 0.0005525229498744011, -0.5082713961601257, 0.0018722077365964651, -0.05670006200671196, 0.9960151314735413, -0.07012449949979782, -0.0037593841552734375, 1.49560546875, 1.367431640625, 0.0183258056640625, 1.4912109375, 1.3974609375, 10.0, 1.4077184200286865, 1.5, 1.4077184200286865
39158, -0.18545818328857422, -2.7442150115966797, -1.1033207178115845, 0.08965359628200531, 0.004824858158826828, -18.98580551147461, 0.2932886481285095, 0.0154262101277709, -1.020686388015747, -0.819395899772644, -0.9653766751289368, 0.05664587765932083, -0.6577652355907465, -0.0044989125804306695, 3.9175426721328557, 9362.0, 30146.0, 35388.0, 9362.0, 8.370248794555664, 0.1163182482123375, 0.0005525229498744011, -0.5082713961601257, 0.0009687748970463872, -0.05801476538181305, 0.9966626763343811, -0.07012449949979782, -0.0037593841552734375, 1.49560546875, 1.367431640625, 0.0183258056640625, 1.4912109375, 1.386474609375, 10.0, 1.4076101779937744, 1.5, 1.4076101779937744
39178, -0.1848878562450409, -2.7439115047454834, -1.1055563688278198, 0.09561309218406677, 0.005137930158525705, -19.006227493286133, 0.30266135931015015, 0.01588008739054203, -1.0215362310409546, -0.8193744421005249, -0.9653669595718384, 0.0566810704767704, -0.6656765274570541, -0.013925736754202944, 3.9181048000827943, 9362.0, 30146.0, 35388.0, 9362.0, 8.370248794555664, 0.11911964416503906, 0.046521447598934174, -0.3675343096256256, 0.0017426786944270134, -0.05855373293161392, 0.997296929359436, -0.07012449949979782, -0.0037593841552734375, 1.49560546875, 1.367431640625, 0.0183258056640625, 1.491943359375, 1.386474609375, 10.0, 1.4075212478637695, 1.5, 1.4075212478637695
39188, -0.18504637479782104, -2.7445621490478516, -1.1077165603637695, 0.09561309218406677, 0.005137930158525705, -19.006227493286133, 0.30266135931015015, 0.01588008739054203, -1.0215362310409546, -0.8193537592887878, -0.9653456807136536, 0.0566621832549572, -0.6764720253234405, -0.030715422968029316, 3.91834688289483, 9362.0, 30146.0, 35388.0, 9362.0, 8.370248794555664, -0.07083593308925629, -0.20922914147377014, -0.15381920337677002, 0.0017426786944270134, -0.05855373293161392, 0.997296929359436, -0.07012449949979782, -0.0037593841552734375, 1.49560546875, 1.367431640625, 0.0183258056640625, 1.49560546875, 1.386474609375, 10.0, 1.407489538192749, 1.5, 1.407489538192749
39198, -0.18493705987930298, -2.743959665298462, -1.1077404022216797, 0.10176009684801102, 0.005460037384182215, -19.02666664123535, 0.3120380938053131, 0.01633036509156227, -1.022328495979309, -0.8193781971931458, -0.9653676152229309, 0.05666094645857811, -0.6516510716255173, -0.019134354465364822, 3.911335579078018, 9362.0, 30146.0, 35388.0, 9362.0, 8.370248794555664, -0.14584198594093323, -0.17061488330364227, 0.38494277000427246, 0.0017426786944270134, -0.05855373293161392, 0.997296929359436, -0.07012449949979782, -0.0037593841552734375, 1.49560546875, 1.367431640625, 0.0183258056640625, 1.49560546875, 1.386474609375, 10.0, 1.407374620437622, 1.5, 1.407374620437622
39208, -0.1854093372821808, -2.743744134902954, -1.1056554317474365, 0.10176009684801102, 0.005460037384182215, -19.02666664123535, 0.3120380938053131, 0.01633036509156227, -1.022328495979309, -0.8193825483322144, -0.9653472900390625, 0.05663132295012474, -0.6747486734899184, -0.010124459461053448, 3.9201379429929317, 9362.0, 30146.0, 35388.0, 9362.0, 8.370248794555664, -0.14584198594093323, -0.17061488330364227, 0.38494277000427246, -0.0005327965482138097, -0.058345526456832886, 0.9977326989173889, -0.07012449949979782, -0.0037593841552734375, 1.49560546875, 1.367431640625, 0.0183258056640625, 1.486083984375, 1.41796875, 10.0, 1.407374620437622, 1.5, 1.407374620437622
39228, -0.1843077391386032, -2.7433602809906006, -1.1047927141189575, 0.11133222281932831, 0.005960090551525354, -19.057353973388672, 0.3261096775531769, 0.017007526010274887, -1.023369312286377, -0.8193792700767517, -0.965373158454895, 0.05666210129857063, -0.654312176170925, -0.019974341814020136, 3.904585735511343, 9362.0, 30146.0, 35388.0, 9362.0, 8.370248794555664, 0.09614910185337067, -0.09520826488733292, -0.13181163370609283, 0.001333314343355596, -0.05850628763437271, 0.9964814782142639, -0.07012449949979782, -0.0037593841552734375, 1.49560546875, 1.367431640625, 0.0183258056640625, 1.486083984375, 1.4208984375, 10.0, 1.407094955444336, 1.5, 1.407094955444336
39248, -0.18279895186424255, -2.7421255111694336, -1.1053389310836792, 0.11133222281932831, 0.005960090551525354, -19.057353973388672, 0.3261096775531769, 0.017007526010274887, -1.023369312286377, -0.8193615674972534, -0.9653543829917908, 0.05665184184908867, -0.6648012717404662, -0.02415356119067269, 3.914773550869889, 9362.0, 30146.0, 35388.0, 9362.0, 8.370248794555664, -0.09255322813987732, 0.2583227753639221, -0.21862661838531494, 0.0007507097907364368, -0.05866044759750366, 0.9970609545707703, -0.07012449949979782, -0.0037593841552734375, 1.49560546875, 1.367431640625, 0.0183258056640625, 1.48974609375, 1.4208984375, 10.0, 1.4067987203598022, 1.5, 1.4067987203598022
39278, -0.1830652952194214, -2.7396023273468018, -1.1053543090820312, 0.1282234936952591, 0.0068384800106287, -19.10857391357422, 0.34953993558883667, 0.018125325441360474, -1.0253316164016724, -0.8193736672401428, -0.9653496146202087, 0.05665270984172821, -0.6791904798476011, -0.02823371971194888, 3.9188001589748875, 9362.0, 30146.0, 35388.0, 9362.0, 8.370248794555664, 0.14724159240722656, -0.476529985666275, 0.06028664857149124, 0.0022630849853157997, -0.05688008293509483, 0.9947524070739746, -0.07012449949979782, -0.0037593841552734375, 1.49560546875, 1.367431640625, 0.0183258056640625, 1.48974609375, 1.386474609375, 10.0, 1.406642198562622, 1.5, 1.406642198562622
39288, -0.18340332806110382, -2.7412524223327637, -1.1040626764297485, 0.1282234936952591, 0.0068384800106287, -19.10857391357422, 0.34953993558883667, 0.018125325441360474, -1.0253316164016724, -0.8193636536598206, -0.965357780456543, 0.05665169283747673, -0.6747260509103562, -0.03488720840186943, 3.914504940929063, 9362.0, 30146.0, 35388.0, 9362.0, 8.370248794555664, -0.007170236203819513, 0.18181553483009338, -0.0031605414114892483, 0.0022630849853157997, -0.05688008293509483, 0.9947524070739746, -0.07012449949979782, -0.0037593841552734375, 1.49560546875, 1.367431640625, 0.0183258056640625, 1.4912109375, 1.408447265625, 10.0, 1.406642198562622, 1.5, 1.406642198562622
39298, -0.18381400406360626, -2.7423219680786133, -1.1044362783432007, 0.1353079080581665, 0.0072054448537528515, -19.129091262817383, 0.35889527201652527, 0.01857060007750988, -1.0263690948486328, -0.8193814158439636, -0.9653742909431458, 0.056664567440748215, -0.6672919994883257, -0.015779431425642088, 3.918276909834702, 9362.0, 30146.0, 35388.0, 9362.0, 8.370248794555664, -0.06637253612279892, -0.034056391566991806, 0.15949630737304688, 0.0022630849853157997, -0.05688008293509483, 0.9947524070739746, -0.07012449949979782, -0.0037593841552734375, 1.49560546875, 1.367431640625, 0.0183258056640625, 1.4912109375, 1.408447265625, 10.0, 1.4065290689468384, 1.5, 1.4065290689468384
39318, -0.1844807267189026, -2.740243673324585, -1.104332685470581, 0.14257954061031342, 0.007581320125609636, -19.149625778198242, 0.3682733178138733, 0.01901748962700367, -1.0269601345062256, -0.8193817734718323, -0.9653545022010803, 0.05662669613957405, -0.6628893319677521, -0.026183712844328966, 3.9220876382590015, 9362.0, 30146.0, 35388.0, 9362.0, 8.370248794555664, -0.023770691826939583, -0.22101649641990662, -0.1101345643401146, 0.0015099822776392102, -0.05885232239961624, 0.9973210692405701, -0.07012449949979782, -0.0037593841552734375, 1.49560546875, 1.367431640625, 0.0183258056640625, 1.49267578125, 1.4091796875, 10.0, 1.4064165353775024, 1.5, 1.4064165353775024
39328, -0.18561629951000214, -2.7388436794281006, -1.1045117378234863, 0.14628571271896362, 0.0077726226300001144, -19.159896850585938, 0.3729610741138458, 0.019243014976382256, -1.0272858142852783, -0.8193770051002502, -0.9653640985488892, 0.05666866526007652, -0.6696355409591722, -0.011466186749203189, 3.9154433768780623, 9362.0, 30146.0, 35388.0, 9362.0, 8.370248794555664, -0.05056150257587433, 0.04390980675816536, 0.08648312836885452, 0.0015099822776392102, -0.05885232239961624, 0.9973210692405701, -0.07012449949979782, -0.0037593841552734375, 1.49560546875, 1.367431640625, 0.0183258056640625, 1.49267578125, 1.411376953125, 10.0, 1.4064165353775024, 1.5, 1.4064165353775024
39348, -0.18508927524089813, -2.7396273612976074, -1.1040610074996948, 0.14628571271896362, 0.0077726226300001144, -19.159896850585938, 0.3729610741138458, 0.019243014976382256, -1.0272858142852783, -0.8193958401679993, -0.9653543829917908, 0.05664888769388199, -0.6815233402122571, -0.006293387006621742, 3.917165773312973, 9362.0, 30146.0, 35388.0, 9362.0, 8.370248794555664, 0.06909831613302231, 0.046799007803201675, -0.13724523782730103, 0.001086769625544548, -0.059462953358888626, 0.9978479146957397, -0.052998583763837814, 0.07688140869140625, 1.502197265625, 1.367431640625, 0.0183258056640625, 1.48828125, 1.411376953125, 10.0, 1.4060750007629395, 1.5, 1.4060750007629395
39358, -0.1844005286693573, -2.7399277687072754, -1.1053091287612915, 0.14628571271896362, 0.0077726226300001144, -19.159896850585938, 0.3729610741138458, 0.019243014976382256, -1.0272858142852783, -0.8193742632865906, -0.9653595685958862, 0.05665632709860802, -0.6687299607823227, -0.025967692688908528, 3.9150325398783807, 9362.0, 30146.0, 35388.0, 9362.0, 8.370248794555664, 0.004744162317365408, 0.3040148615837097, -0.03088514879345894, 0.001086769625544548, -0.059462953358888626, 0.9978479146957397, -0.052998583763837814, 0.07688140869140625, 1.502197265625, 1.367431640625, 0.0183258056640625, 1.48828125, 1.365234375, 10.0, 1.4060750007629395, 1.5, 1.4060750007629395
39368, -0.185043603181839, -2.7425732612609863, -1.10646390914917, 0.16157877445220947, 0.00856043305248022, -19.20101547241211, 0.3916975259780884, 0.020148703828454018, -1.0285450220108032, -0.8193323612213135, -0.9653754830360413, 0.05665469914674759, -0.6591508319853709, -0.0426037786136817, 3.9076281425191404, 9362.0, 30146.0, 35388.0, 9362.0, 8.370248794555664, 0.0151355667039752, -0.22347520291805267, 0.12246708571910858, 0.001086769625544548, -0.059462953358888626, 0.9978479146957397, -0.052998583763837814, 0.07688140869140625, 1.502197265625, 1.367431640625, 0.0183258056640625, 1.48828125, 1.365234375, 10.0, 1.4058083295822144, 1.5, 1.4058083295822144
39388, -0.1855040341615677, -2.745638370513916, -1.1037335395812988, 0.16950643062591553, 0.008967905305325985, -19.22159194946289, 0.4010675549507141, 0.020598886534571648, -1.0292649269104004, -0.8193631768226624, -0.9653356075286865, 0.05663042142987251, -0.6846327434831094, -0.03059079675622911, 3.9179079157879513, 9362.0, 30146.0, 35388.0, 9362.0, 8.370248794555664, -0.06525693833827972, 0.4948727488517761, -0.12396413087844849, 0.00113091547973454, -0.05737468972802162, 0.9962573051452637, -0.052998583763837814, 0.07688140869140625, 1.502197265625, 1.367431640625, 0.0183258056640625, 1.4912109375, 1.365234375, 10.0, 1.4054346084594727, 1.5, 1.4054346084594727
39398, -0.18572956323623657, -2.7484521865844727, -1.104184865951538, 0.16950643062591553, 0.008967905305325985, -19.22159194946289, 0.4010675549507141, 0.020598886534571648, -1.0292649269104004, -0.8193963170051575, -0.9653709530830383, 0.05664902180433273, -0.6617623659475504, -0.007662241053850494, 3.910091574620875, 9362.0, 30146.0, 35388.0, 9362.0, 8.370248794555664, -0.14790907502174377, -0.0434192530810833, -0.1782199740409851, 0.0016912355786189437, -0.05682707205414772, 0.9946889281272888, -0.052998583763837814, 0.07688140869140625, 1.502197265625, 1.367431640625, 0.0183258056640625, 1.4912109375, 1.389404296875, 10.0, 1.4054346084594727, 1.5, 1.4054346084594727
39418, -0.18707169592380524, -2.7501068115234375, -1.106549859046936, 0.18174922466278076, 0.009596016258001328, -19.252492904663086, 0.4151228368282318, 0.021276043727993965, -1.0307838916778564, -0.8193630576133728, -0.9653390049934387, 0.056690458208322525, -0.6825923211161575, -0.020067788393959063, 3.916358674954699, 9362.0, 30146.0, 35388.0, 9362.0, 8.370248794555664, -0.3067241609096527, -0.19857384264469147, -0.03665715083479881, 0.001244531711563468, -0.05802701413631439, 0.9971493482589722, -0.052998583763837814, 0.07688140869140625, 1.502197265625, 1.367431640625, 0.0183258056640625, 1.48828125, 1.389404296875, 10.0, 1.4053505659103394, 1.5, 1.4053505659103394
39428, -0.18880639970302582, -2.7485198974609375, -1.1060038805007935, 0.18592390418052673, 0.009809917770326138, -19.262802124023438, 0.41981443762779236, 0.02150406688451767, -1.0312426090240479, -0.8193678259849548, -0.9653586149215698, 0.056649789214134216, -0.6783228645781617, -0.021740379605205362, 3.9202497654631636, 9362.0, 30146.0, 35388.0, 9362.0, 8.370248794555664, -0.3067241609096527, -0.19857384264469147, -0.03665715083479881, 0.0011238664155825973, -0.05875852331519127, 0.9979836344718933, -0.052998583763837814, 0.07688140869140625, 1.502197265625, 1.367431640625, 0.0183258056640625, 1.494140625, 1.389404296875, 10.0, 1.4052331447601318, 1.5, 1.4052331447601318
39448, -0.18832409381866455, -2.750351667404175, -1.1058462858200073, 0.19441410899162292, 0.010244586504995823, -19.283435821533203, 0.429206907749176, 0.021964453160762787, -1.0320740938186646, -0.8193603157997131, -0.9653695821762085, 0.05663807690143585, -0.6601939886947458, -0.04258566941251729, 3.9232560835613564, 9362.0, 30146.0, 35388.0, 9362.0, 8.370248794555664, 0.15785643458366394, 0.1721189320087433, -0.01941177435219288, -9.182275971397758e-05, -0.056290436536073685, 0.998180627822876, -0.08215238898992538, -0.030637741088867188, 1.493408203125, 1.44287109375, 0.0936279296875, 1.494140625, 1.377685546875, 10.0, 1.405036211013794, 1.5, 1.405036211013794
39458, -0.1896383911371231, -2.7507405281066895, -1.1069074869155884, 0.19441410899162292, 0.010244586504995823, -19.283435821533203, 0.429206907749176, 0.021964453160762787, -1.0320740938186646, -0.8193521499633789, -0.9653361439704895, 0.05665603652596474, -0.6792703090166485, -0.0382496204952929, 3.924221954400554, 9362.0, 30146.0, 35388.0, 9362.0, 8.370248794555664, -0.14855344593524933, -0.1329549103975296, -0.21137623488903046, -9.182275971397758e-05, -0.056290436536073685, 0.998180627822876, -0.08215238898992538, -0.030637741088867188, 1.493408203125, 1.44287109375, 0.0936279296875, 1.494140625, 1.435546875, 10.0, 1.405036211013794, 1.5, 1.405036211013794
39468, -0.19060580432415009, -2.7494096755981445, -1.1076159477233887, 0.19441410899162292, 0.010244586504995823, -19.283435821533203, 0.429206907749176, 0.021964453160762787, -1.0320740938186646, -0.8193863034248352, -0.9653553366661072, 0.05663124471902847, -0.6679331206305775, -0.0053714636371466895, 3.919664483845279, 9362.0, 30146.0, 35388.0, 9362.0, 8.370248794555664, -0.019782014191150665, 0.2133064866065979, -0.21591892838478088, 4.595573409460485e-05, -0.05720234289765358, 0.9980770945549011, -0.08215238898992538, -0.030637741088867188, 1.493408203125, 1.3916015625, 0.0325927734375, 1.494140625, 1.401123046875, 10.0, 1.405036211013794, 1.5, 1.405036211013794
39488, -0.19132892787456512, -2.750349998474121, -1.109654188156128, 0.21195805072784424, 0.011141739785671234, -19.324756622314453, 0.4480000436306, 0.022895438596606255, -1.0336697101593018, -0.8193565011024475, -0.9653661251068115, 0.05665423721075058, -0.6512285426947816, -0.03384672931210275, 3.9142975448738326, 9362.0, 30146.0, 35388.0, 9362.0, 8.370248794555664, -0.06182853877544403, 0.03396686911582947, 0.2165784388780594, -0.0004918330232612789, -0.05867437273263931, 0.9960691332817078, -0.08215238898992538, -0.030637741088867188, 1.493408203125, 1.3916015625, 0.0325927734375, 1.49267578125, 1.401123046875, 10.0, 1.405036211013794, 1.5, 1.405036211013794
39498, -0.19093215465545654, -2.7512550354003906, -1.1081178188323975, 0.21195805072784424, 0.011141739785671234, -19.324756622314453, 0.4480000436306, 0.022895438596606255, -1.0336697101593018, -0.8193621635437012, -0.965340793132782, 0.05664028227329254, -0.6875989134986725, -0.017684392418260586, 3.9212352063911586, 9362.0, 30146.0, 35388.0, 9362.0, 8.370248794555664, -0.06182853877544403, 0.03396686911582947, 0.2165784388780594, 0.0011886602733284235, -0.05812683328986168, 0.9975802302360535, -0.08215238898992538, -0.030637741088867188, 1.493408203125, 1.3916015625, 0.0325927734375, 1.49267578125, 1.401123046875, 10.0, 1.4045737981796265, 1.5, 1.4045737981796265
