timeTick, roll, pitch, yaw, stateX, stateY, stateZ, stateVX, stateVY, stateVZ, otX0, otY0, otZ0, otRoll0, otPitch0, otYaw0, left wing, pitch motor, yaw motor, right wing, voltage, roll rate, pitch rate, yaw rate, A_x, A_y, A_z, current, i_raw, v_raw, airflow_voltage, airflow_speed, pot_Pitch, voltage_nKF, kFFx, state_vel, State_vel, volt_KF_vel
33416, -3.1617939472198486, 4.523058891296387, 4.062137603759766, 0, 0, 0, 0, 0, 0, -0.831158459186554, -0.9318913817405701, 0.05873462185263634, -0.28295356578281655, 0.2918531113861036, 3.5966932649036862, 0, 0, 0, 0, 0, 0, 0, 0, 0, 0, 0, 0, 0, 0, 0, 0, 0, 0, 0, 0, 0, 0
33426, -3.1607155799865723, 4.5233845710754395, 4.062435150146484, -0.000876006786711514, 0.0005254605785012245, 3.293760299682617, -0.04132705554366112, 0.024789541959762573, 0.2046835571527481, -0.8311524391174316, -0.9318976998329163, 0.05876804143190384, -0.2776296712027945, 0.28298844823154923, 3.5943986175624443, 9362.0, 30146.0, 35388.0, 9362.0, 0, 0.11445214599370956, 0.004401721991598606, 0.0651199147105217, 0, 0, 0, 0, 0, 0, 0, 0, 0, 0, 0, 0, 0, 0
33436, -3.1600308418273926, 4.522823810577393, 4.061783790588379, -0.0013297493569552898, 0.000797624234110117, 3.2958052158355713, -0.04942150413990021, 0.029643148183822632, 0.20430327951908112, -0.831145167350769, -0.9319009184837341, 0.058749545365571976, -0.274707134204066, 0.27762471931865207, 3.5988719606864756, 9362.0, 30146.0, 35388.0, 9362.0, 0, 0.0027058348059654236, -0.15617729723453522, -5.319498086464591e-05, 0.006218654569238424, -0.051932819187641144, 0.998664915561676, 0, 0, 0, 1.34765625, 0.0154571533203125, 0, 1.33447265625, 10.0, 1.0, 10.0, 1.4032294750213623
33446, -3.1612932682037354, 4.524649620056152, 4.062586307525635, -0.0018643976654857397, 0.0011182897724211216, 3.2978458404541016, -0.05750812590122223, 0.03449005261063576, 0.20382404327392578, -0.8311406373977661, -0.9318876266479492, 0.05875946208834648, -0.2799196532441242, 0.27633907516661793, 3.598892554616909, 9362.0, 30146.0, 35388.0, 9362.0, 0, -0.09570010751485825, -0.48623478412628174, -0.3085179626941681, 0.007184428628534079, -0.052808016538619995, 0.999212384223938, 0, 0, 0, 1.37841796875, 0.023406982421875, 1.49560546875, 1.32421875, 10.0, 1.0, 10.0, 1.403213620185852
33456, -3.1620914936065674, 4.527764797210693, 4.060225486755371, -0.0024798735976219177, 0.0014873993350192904, 3.2998812198638916, -0.0655871033668518, 0.03933176025748253, 0.20326413214206696, -0.8311560153961182, -0.9318986535072327, 0.05876868963241577, -0.27857582272861225, 0.2841246779493076, 3.592623647431296, 9362.0, 30146.0, 35388.0, 9362.0, 0, 0.13831683993339539, 0.17897823452949524, -0.15197810530662537, 0.005201228894293308, -0.052028726786375046, 0.9970390796661377, 0, 0, 0, 1.41650390625, 0.0577545166015625, 1.49560546875, 1.35791015625, 10.0, 1.0, 10.0, 1.4030336141586304
33466, -3.161468029022217, 4.526636600494385, 4.058380126953125, -0.0031761315185576677, 0.0019049205584451556, 3.301910877227783, -0.07366424798965454, 0.044172823429107666, 0.20264512300491333, -0.8311454653739929, -0.9319290518760681, 0.05875100940465927, -0.2672218023890367, 0.28461295076780857, 3.5986158709988465, 9362.0, 30146.0, 35388.0, 9362.0, 0, 0.13864833116531372, 0.05201634392142296, 0.10303395241498947, 0.00591851444914937, -0.051168546080589294, 0.9991553425788879, 0, 0, 0, 1.382080078125, 0.0256195068359375, 1.494140625, 1.374755859375, 10.0, 1.0, 10.0, 1.4028726816177368
33476, -3.161081075668335, 4.526684761047363, 4.059309482574463, -0.00395317655056715, 0.00237085297703743, 3.303934097290039, -0.08174462616443634, 0.049013901501894, 0.20200170576572418, -0.8311346769332886, -0.931916356086731, 0.05877087265253067, -0.25816587456131784, 0.26789619467075454, 3.603714473128257, 9362.0, 30146.0, 35388.0, 9362.0, 0, 0.13278387486934662, 0.4795786738395691, -0.0813780203461647, 0.0031846610363572836, -0.053339336067438126, 0.9978317618370056, 0, 0, 0, 1.35498046875, 0.01556396484375, 1.494140625, 1.4150390625, 10.0, 1.0, 10.0, 1.4027607440948486
33486, -3.160292387008667, 4.524619102478027, 4.058318138122559, -0.004811027552932501, 0.002885200548917055, 3.3059511184692383, -0.08982569724321365, 0.05385548621416092, 0.2013895958662033, -0.8311648368835449, -0.931868314743042, 0.058765873312950134, -0.2852279214569893, 0.29977933192026285, 3.59415928753604, 9362.0, 30146.0, 35388.0, 9362.0, 0, 0.002950080204755068, -0.111735500395298, -0.17156673967838287, 0.005500293802469969, -0.051081396639347076, 0.99908447265625, 0, 0, 0, 1.354248046875, 0.0154266357421875, 1.49853515625, 1.31103515625, 10.0, 1.0, 10.0, 1.4026538133621216
33496, -3.160900831222534, 4.525486946105957, 4.057679653167725, -0.005749688018113375, 0.0034479587338864803, 3.307961940765381, -0.09790635854005814, 0.05869630351662636, 0.20077335834503174, -0.8311466574668884, -0.931876540184021, 0.05875299870967865, -0.28521620744184945, 0.28863680646861667, 3.60388039065324, 9362.0, 30146.0, 35388.0, 9362.0, 0, 0.019479021430015564, -0.09627821296453476, -0.09178172796964645, 0.006058360915631056, -0.04965135455131531, 0.999289870262146, 0, 0, 0, 1.3359375, 0.01806640625, 1.49853515625, 1.3798828125, 10.0, 1.0, 10.0, 1.4026328325271606
33506, -3.161377191543579, 4.527129650115967, 4.056524753570557, -0.006769189145416021, 0.004059151746332645, 3.309967279434204, -0.10599378496408463, 0.06354239583015442, 0.20028313994407654, -0.8311470150947571, -0.9319006204605103, 0.05876948684453964, -0.27043352642841534, 0.28647856210685063, 3.5987214712560993, 9362.0, 30146.0, 35388.0, 9362.0, 0, -0.042285311967134476, 0.39657333493232727, 0.004656191915273666, 0.005739727057516575, -0.05048650875687599, 1.0004503726959229, 0, 0, 0, 1.3828125, 0.0261077880859375, 1.4970703125, 1.383544921875, 10.0, 1.0, 10.0, 1.40248703956604
33516, -3.162174940109253, 4.52504825592041, 4.056624889373779, -0.007869581691920757, 0.004718816839158535, 3.3119678497314453, -0.11408466845750809, 0.06839078664779663, 0.19981683790683746, -0.831133246421814, -0.9319021105766296, 0.05876566469669342, -0.2730863002409513, 0.27396116727166486, 3.604754467325168, 9362.0, 30146.0, 35388.0, 9362.0, 8.370248794555664, 0.2722746729850769, 0.06088756397366524, -0.20319388806819916, 0.005914618261158466, -0.050376977771520615, 0.996924877166748, 0, 0, 0, 1.39453125, 0.035003662109375, 1.4970703125, 1.373291015625, 10.0, 1.0, 10.0, 1.4023555517196655
33526, -3.160352945327759, 4.524276256561279, 4.054798603057861, -0.009050844237208366, 0.005426938179880381, 3.313962936401367, -0.12216786295175552, 0.07323344796895981, 0.19922323524951935, -0.8311556577682495, -0.9319007992744446, 0.05877663567662239, -0.28118277293576177, 0.29504092318094877, 3.5970812195792607, 9362.0, 30146.0, 35388.0, 9362.0, 8.370248794555664, -0.22547481954097748, 0.29230353236198425, 0.10447634011507034, 0.006290077231824398, -0.05165300518274307, 0.9967071413993835, -0.03168800100684166, -0.06647872924804688, 1.490478515625, 1.36962890625, 0.01910400390625, 1.49267578125, 1.35498046875, 10.0, 1.0, 10.0, 1.4023308753967285
33536, -3.1614863872528076, 4.524497032165527, 4.053798675537109, -0.010312849655747414, 0.0061834510415792465, 3.315951347351074, -0.13023316860198975, 0.07806939631700516, 0.19845730066299438, -0.8311295509338379, -0.9318885803222656, 0.05878179520368576, -0.2744632585588834, 0.2695601964464629, 3.606841356836622, 9362.0, 30146.0, 35388.0, 9362.0, 8.370248794555664, 0.14110733568668365, -0.13950903713703156, -0.2548920214176178, 0.00601967703551054, -0.05093090236186981, 0.9986137747764587, -0.03168800100684166, -0.06647872924804688, 1.490478515625, 1.39599609375, 0.0362701416015625, 1.49267578125, 1.396728515625, 10.0, 1.0, 10.0, 1.4021397829055786
33546, -3.160834312438965, 4.524906158447266, 4.052953720092773, -0.011655520647764206, 0.0069883218966424465, 3.317932367324829, -0.1383008509874344, 0.0829048752784729, 0.197739839553833, -0.8311814069747925, -0.9318768978118896, 0.05875922739505768, -0.2783097597846533, 0.30877503483498003, 3.5944377891415495, 9362.0, 30146.0, 35388.0, 9362.0, 8.370248794555664, -0.30678364634513855, 0.040167227387428284, 0.12452204525470734, 0.005258504766970873, -0.05360887944698334, 0.9984642863273621, -0.03168800100684166, -0.06647872924804688, 1.490478515625, 1.377685546875, 0.023040771484375, 1.496337890625, 1.405517578125, 10.0, 1.0, 10.0, 1.4021018743515015
33556, -3.162642240524292, 4.524196624755859, 4.054479598999023, -0.013078930787742138, 0.007841594517230988, 3.3199069499969482, -0.14638115465641022, 0.08774969726800919, 0.19716903567314148, -0.8311439156532288, -0.9318941235542297, 0.05875863507390022, -0.28118745832252184, 0.28329099664972546, 3.5946745411097494, 9362.0, 30146.0, 35388.0, 9362.0, 8.370248794555664, 0.046129126101732254, 0.16155950725078583, -0.09056191891431808, 0.005597807466983795, -0.05378810316324234, 0.9979492425918579, -0.03168800100684166, -0.06647872924804688, 1.490478515625, 1.382080078125, 0.0256195068359375, 1.496337890625, 1.3857421875, 10.0, 1.0, 10.0, 1.4020733833312988
33566, -3.162933588027954, 4.524717807769775, 4.053609371185303, -0.014583145268261433, 0.00874330848455429, 3.321875810623169, -0.15446177124977112, 0.09259288012981415, 0.19659334421157837, -0.8311488628387451, -0.9319205284118652, 0.05878555774688721, -0.2538738533927301, 0.2800848615220275, 3.6038193273143375, 9362.0, 30146.0, 35388.0, 9362.0, 8.370248794555664, -0.003247198648750782, -0.0512421652674675, 0.28881487250328064, 0.005890407599508762, -0.05296070873737335, 0.9987058043479919, -0.03168800100684166, -0.06647872924804688, 1.490478515625, 1.39599609375, 0.0362701416015625, 1.49853515625, 1.393798828125, 10.0, 1.0, 10.0, 1.402010202407837
33576, -3.163942813873291, 4.527583599090576, 4.053620338439941, -0.016168104484677315, 0.009693434461951256, 3.323838233947754, -0.16252988576889038, 0.09743247926235199, 0.19587931036949158, -0.8311653137207031, -0.9319043159484863, 0.05876268818974495, -0.2795491545945034, 0.2968653642535912, 3.6012835736183146, 9362.0, 30146.0, 35388.0, 9362.0, 8.370248794555664, -0.06458486616611481, -0.17075510323047638, -0.042050570249557495, 0.005808319430798292, -0.05282595381140709, 0.9998679757118225, -0.03168800100684166, -0.06647872924804688, 1.490478515625, 1.37255859375, 0.02044677734375, 1.49853515625, 1.408447265625, 10.0, 1.0, 10.0, 1.4018940925598145
33586, -3.1641173362731934, 4.528251647949219, 4.054370880126953, -0.017833860591053963, 0.01069202646613121, 3.3257946968078613, -0.17062132060527802, 0.10228598117828369, 0.19543561339378357, -0.8311708569526672, -0.9318761229515076, 0.05875391885638237, -0.28705482166656465, 0.2854363061388199, 3.6033090382516493, 9362.0, 30146.0, 35388.0, 9362.0, 8.370248794555664, -0.20075002312660217, 0.2914920449256897, 0.20551858842372894, 0.006979200057685375, -0.05395511910319328, 1.0003529787063599, -0.03168800100684166, -0.06647872924804688, 1.490478515625, 1.405517578125, 0.0454254150390625, 1.499267578125, 1.379150390625, 10.0, 1.0, 10.0, 1.4017413854599
33596, -3.164841890335083, 4.524980068206787, 4.055825233459473, -0.019580556079745293, 0.011739160865545273, 3.327746868133545, -0.17871786653995514, 0.10714074969291687, 0.19499194622039795, -0.8311649560928345, -0.9319177865982056, 0.05874265730381012, -0.27103954654979434, 0.29703989776191975, 3.6005369622872956, 9362.0, 30146.0, 35388.0, 9362.0, 8.370248794555664, 0.2936769425868988, -0.04641299694776535, -0.07142891734838486, 0.006684054620563984, -0.04994618892669678, 0.9970594644546509, -0.03168800100684166, -0.06647872924804688, 1.490478515625, 1.41943359375, 0.0612945556640625, 1.499267578125, 1.341796875, 10.0, 1.0, 10.0, 1.4016908407211304
33606, -3.1625173091888428, 4.523045063018799, 4.054080486297607, -0.02140814997255802, 0.012834799475967884, 3.3296937942504883, -0.1868010312318802, 0.11198674887418747, 0.19437189400196075, -0.8311530351638794, -0.931897759437561, 0.05878281593322754, -0.2708271901695256, 0.28758095347589574, 3.601406610589531, 9362.0, 30146.0, 35388.0, 9362.0, 8.370248794555664, -0.02658402919769287, -0.2518470585346222, 0.048351507633924484, 0.005771045573055744, -0.0517972894012928, 0.9982131719589233, -0.03168800100684166, -0.06647872924804688, 1.490478515625, 1.434814453125, 0.081787109375, 1.49267578125, 1.411376953125, 10.0, 1.0, 10.0, 1.4016034603118896
33616, -3.1620404720306396, 4.525142192840576, 4.053432941436768, -0.023316524922847748, 0.01397889107465744, 3.331634044647217, -0.19487394392490387, 0.11683180928230286, 0.1936957687139511, -0.8311544060707092, -0.9319038987159729, 0.05874548479914665, -0.28496232984183195, 0.29299749417856447, 3.6022946689217927, 9362.0, 30146.0, 35388.0, 9362.0, 8.370248794555664, -0.015034365467727184, -0.05338731408119202, 0.2586979269981384, 0.005897128488868475, -0.05139534920454025, 0.9977275133132935, -0.03168800100684166, -0.06647872924804688, 1.490478515625, 1.39892578125, 0.0390167236328125, 1.49267578125, 1.34619140625, 10.0, 1.0, 10.0, 1.401597261428833
33626, -3.16215181350708, 4.525629043579102, 4.053502559661865, -0.02530563808977604, 0.015171431936323643, 3.3335678577423096, -0.2029486894607544, 0.12167655676603317, 0.19308629631996155, -0.8311600685119629, -0.9318902492523193, 0.058786191046237946, -0.28294209494501127, 0.2728626024075709, 3.6022415899715576, 9362.0, 30146.0, 35388.0, 9362.0, 8.370248794555664, 0.023443929851055145, -0.13453802466392517, 0.08567433059215546, 0.004727676510810852, -0.050562210381031036, 0.9987618923187256, -0.061481352895498276, -0.06647872924804688, 1.490478515625, 1.373291015625, 0.0207366943359375, 1.493408203125, 1.40478515625, 10.0, 1.0, 10.0, 1.4015147686004639
33636, -3.163282871246338, 4.526188850402832, 4.055199146270752, -0.02737548016011715, 0.016412394121289253, 3.3354952335357666, -0.21101975440979004, 0.12651588022708893, 0.19238920509815216, -0.8311594724655151, -0.9319053888320923, 0.0587482787668705, -0.26958628138220814, 0.2968327419556829, 3.601906169412546, 9362.0, 30146.0, 35388.0, 9362.0, 8.370248794555664, 0.0928962305188179, 0.1224878653883934, 0.22324980795383453, 0.004904300440102816, -0.051366183906793594, 0.9999058842658997, -0.061481352895498276, -0.06647872924804688, 1.490478515625, 1.3271484375, 0.022308349609375, 1.493408203125, 1.42529296875, 10.0, 1.0, 10.0, 1.4014811515808105
33646, -3.1636722087860107, 4.526456832885742, 4.056388854980469, -0.02952614426612854, 0.01770181581377983, 3.337416887283325, -0.2191133201122284, 0.13136804103851318, 0.19195184111595154, -0.8311317563056946, -0.9319013953208923, 0.05878261476755142, -0.2668671924544531, 0.27862004444324384, 3.59513000142503, 9362.0, 30146.0, 35388.0, 9362.0, 8.370248794555664, -0.026229560375213623, 0.12603190541267395, 0.23400533199310303, 0.004895972087979317, -0.05184395983815193, 0.9983657598495483, -0.061481352895498276, -0.06647872924804688, 1.490478515625, 1.42822265625, 0.0726470947265625, 1.496337890625, 1.392333984375, 10.0, 1.0, 10.0, 1.4014291763305664
33656, -3.164449453353882, 4.524219989776611, 4.057811737060547, -0.03175770863890648, 0.019039740785956383, 3.3393337726593018, -0.2271997481584549, 0.1362168788909912, 0.19141428172588348, -0.8311529159545898, -0.9319043755531311, 0.05878932774066925, -0.267163732601347, 0.2917041036512842, 3.605553747560935, 9362.0, 30146.0, 35388.0, 9362.0, 8.370248794555664, 0.16761283576488495, -0.1576959788799286, -0.39042818546295166, 0.004860613029450178, -0.054585959762334824, 0.9976372718811035, -0.061481352895498276, -0.06647872924804688, 1.490478515625, 1.363037109375, 0.0169219970703125, 1.496337890625, 1.36376953125, 10.0, 1.0, 10.0, 1.4013148546218872
33666, -3.164222478866577, 4.524166584014893, 4.056401252746582, -0.03407008945941925, 0.020426124334335327, 3.341244697570801, -0.2352762222290039, 0.1410597860813141, 0.19074897468090057, -0.831155002117157, -0.9318897724151611, 0.05877019464969635, -0.27661708412228, 0.2858805214038398, 3.601017294350365, 9362.0, 30146.0, 35388.0, 9362.0, 8.370248794555664, -0.09878659248352051, 0.3502734899520874, 0.10970800369977951, 0.006074434611946344, -0.05397405847907066, 0.9972997307777405, -0.061481352895498276, -0.06647872924804688, 1.490478515625, 1.3798828125, 0.0243377685546875, 1.49267578125, 1.360107421875, 10.0, 1.0, 10.0, 1.4013558626174927
33676, -3.1647181510925293, 4.521966457366943, 4.055123329162598, -0.036463186144828796, 0.02186092734336853, 3.3431484699249268, -0.24334286153316498, 0.1459008902311325, 0.1900114119052887, -0.8311598896980286, -0.9318862557411194, 0.058777615427970886, -0.2850999351395877, 0.2871550752795997, 3.5990603129674197, 9362.0, 30146.0, 35388.0, 9362.0, 8.370248794555664, -0.048686638474464417, -0.10440116375684738, 0.040188804268836975, 0.006495344918221235, -0.05210402235388756, 0.9997787475585938, -0.061481352895498276, -0.06647872924804688, 1.490478515625, 1.39306640625, 0.0337982177734375, 1.49267578125, 1.354248046875, 10.0, 1.0, 10.0, 1.4012256860733032
33686, -3.1646199226379395, 4.52100133895874, 4.054419994354248, -0.03893698751926422, 0.023344164714217186, 3.345045328140259, -0.2514176368713379, 0.15074680745601654, 0.18937471508979797, -0.8311585187911987, -0.9318885803222656, 0.0587645098567009, -0.27710719335900064, 0.2976139532436832, 3.595983586799623, 9362.0, 30146.0, 35388.0, 9362.0, 8.370248794555664, 0.06292913854122162, 0.07896625995635986, -0.03302859514951706, 0.006448674015700817, -0.05143515020608902, 0.9970194101333618, -0.061481352895498276, -0.06647872924804688, 1.490478515625, 1.36962890625, 0.01910400390625, 1.494140625, 1.38134765625, 10.0, 1.0, 10.0, 1.4011906385421753
33696, -3.1640355587005615, 4.5208964347839355, 4.053811073303223, -0.0414915569126606, 0.024875890463590622, 3.3469364643096924, -0.25949642062187195, 0.15559859573841095, 0.18883183598518372, -0.8311492204666138, -0.9318886399269104, 0.05878443270921707, -0.2758869238056267, 0.2921567708615953, 3.5962778751948714, 9362.0, 30146.0, 35388.0, 9362.0, 8.370248794555664, 0.20659096539020538, 0.12512774765491486, -0.18710806965827942, 0.005071593448519707, -0.051676876842975616, 0.9970380663871765, -0.061481352895498276, -0.06647872924804688, 1.490478515625, 1.361572265625, 0.016571044921875, 1.494140625, 1.4208984375, 10.0, 1.0, 10.0, 1.4009661674499512
33706, -3.1630353927612305, 4.521473407745361, 4.053104400634766, -0.044126804918050766, 0.02645607478916645, 3.348820924758911, -0.26755332946777344, 0.16043826937675476, 0.18804506957530975, -0.8311455845832825, -0.9319057464599609, 0.058766260743141174, -0.26539309626996205, 0.2687507970790364, 3.5972162402441428, 9362.0, 30146.0, 35388.0, 9362.0, 8.370248794555664, -0.031180843710899353, 0.0771048292517662, -0.10649712383747101, 0.007135007996112108, -0.051308538764715195, 0.9971379041671753, -0.061481352895498276, -0.06647872924804688, 1.490478515625, 1.39306640625, 0.0337982177734375, 1.4970703125, 1.329345703125, 10.0, 1.0, 10.0, 1.4007585048675537
33716, -3.163181781768799, 4.521450042724609, 4.051185607910156, -0.046842657029628754, 0.02808467112481594, 3.3506977558135986, -0.2756166458129883, 0.16528113186359406, 0.18733957409858704, -0.8311452269554138, -0.9318726062774658, 0.05875883996486664, -0.28645700938056945, 0.2916154120442229, 3.5952448896096367, 9362.0, 30146.0, 35388.0, 9362.0, 8.390083312988281, -0.15246008336544037, -0.1037207543849945, -0.0945267304778099, 0.006345509551465511, -0.05255512893199921, 0.9985081553459167, -0.061481352895498276, -0.06647872924804688, 1.490478515625, 1.36083984375, 0.016387939453125, 1.4970703125, 1.34326171875, 10.0, 1.0, 10.0, 1.4007526636123657
33726, -3.1640522480010986, 4.522968292236328, 4.04945707321167, -0.049639154225587845, 0.029761692509055138, 3.352567672729492, -0.2836824357509613, 0.17012354731559753, 0.1866561323404312, -0.8311410546302795, -0.9319102764129639, 0.05877230316400528, -0.2722969080093576, 0.27514330390010855, 3.601202065570388, 9362.0, 30146.0, 35388.0, 9362.0, 8.390083312988281, 0.043800175189971924, -0.13928554952144623, -0.11207272857427597, 0.006080174818634987, -0.05404358357191086, 0.9982245564460754, -0.0665246993303299, -0.0037593841552734375, 1.49560546875, 1.40185546875, 0.0417938232421875, 1.49853515625, 1.364501953125, 10.0, 1.0, 10.0, 1.4006636142730713
33736, -3.163928508758545, 4.5244245529174805, 4.0482707023620605, -0.05251636356115341, 0.031487174332141876, 3.354431390762329, -0.2917589843273163, 0.1749730259180069, 0.18610334396362305, -0.831153392791748, -0.9318896532058716, 0.058778271079063416, -0.2793203020361568, 0.29496443739819256, 3.598744070471242, 9362.0, 30146.0, 35388.0, 9362.0, 8.390083312988281, 0.21361228823661804, 0.4739694893360138, 0.28537723422050476, 0.00667377095669508, -0.052432384341955185, 0.9973909854888916, -0.0665246993303299, -0.0037593841552734375, 1.49560546875, 1.3974609375, 0.03759765625, 1.49853515625, 1.34765625, 10.0, 1.0, 10.0, 1.4006974697113037
33746, -3.163429021835327, 4.522151470184326, 4.049027919769287, -0.05547429621219635, 0.03326112776994705, 3.3562891483306885, -0.2998277544975281, 0.17981773614883423, 0.1854258030653, -0.8311707973480225, -0.9319019317626953, 0.058769237250089645, -0.27504650768075484, 0.2953200775278617, 3.601060855589839, 9362.0, 30146.0, 35388.0, 9362.0, 8.390083312988281, 0.21361228823661804, 0.4739694893360138, 0.28537723422050476, 0.004961096681654453, -0.05270753800868988, 0.9994682669639587, -0.0665246993303299, -0.0037593841552734375, 1.49560546875, 1.360107421875, 0.0162506103515625, 1.4912109375, 1.409912109375, 10.0, 1.0, 10.0, 1.4007011651992798
33756, -3.162584066390991, 4.522886276245117, 4.049402236938477, -0.05547429621219635, 0.03326112776994705, 3.3562891483306885, -0.2998277544975281, 0.17981773614883423, 0.1854258030653, -0.8311501741409302, -0.9319037795066833, 0.05877315625548363, -0.27431304733009143, 0.28883545583136083, 3.6063940708253095, 9362.0, 30146.0, 35388.0, 9362.0, 8.390083312988281, 0.21361228823661804, 0.4739694893360138, 0.28537723422050476, 0.004961096681654453, -0.05270753800868988, 0.9994682669639587, -0.0665246993303299, -0.0037593841552734375, 1.49560546875, 1.360107421875, 0.0162506103515625, 1.4912109375, 1.409912109375, 10.0, 1.0, 10.0, 1.4005776643753052
33766, -3.161130905151367, 4.52293586730957, 4.048748016357422, -0.05547429621219635, 0.03326112776994705, 3.3562891483306885, -0.2998277544975281, 0.17981773614883423, 0.1854258030653, -0.831149697303772, -0.931892454624176, 0.0587741881608963, -0.2732054740238242, 0.28624041113974386, 3.5959194956501026, 9362.0, 30146.0, 35388.0, 9362.0, 8.390083312988281, 0.21361228823661804, 0.4739694893360138, 0.28537723422050476, 0.004961096681654453, -0.05270753800868988, 0.9994682669639587, -0.0665246993303299, -0.0037593841552734375, 1.49560546875, 1.39306640625, 0.0337982177734375, 1.4912109375, 1.404052734375, 10.0, 1.0, 10.0, 1.4005377292633057
33776, -3.160677194595337, 4.522766590118408, 4.046320915222168, -0.06483262777328491, 0.03887384384870529, 3.361825942993164, -0.3240552544593811, 0.1943599134683609, 0.18363957107067108, -0.8311506509780884, -0.9318928122520447, 0.05876428633928299, -0.27105037284921807, 0.29783413098545, 3.595916445627028, 9362.0, 30146.0, 35388.0, 9362.0, 8.390083312988281, 0.21361228823661804, 0.4739694893360138, 0.28537723422050476, 0.004961096681654453, -0.05270753800868988, 0.9994682669639587, -0.0665246993303299, -0.0037593841552734375, 1.49560546875, 1.38720703125, 0.0291900634765625, 1.4912109375, 1.411376953125, 10.0, 1.0, 10.0, 1.4005441665649414
33786, -3.160163402557373, 4.523645401000977, 4.047336578369141, -0.06483262777328491, 0.03887384384870529, 3.361825942993164, -0.3240552544593811, 0.1943599134683609, 0.18363957107067108, -0.8311767578125, -0.9319150447845459, 0.058783091604709625, -0.2659186614933893, 0.3002726382354979, 3.5968685820610338, 9362.0, 30146.0, 35388.0, 9362.0, 8.390083312988281, -0.24172118306159973, -0.16049867868423462, -0.2940411865711212, 0.004961096681654453, -0.05270753800868988, 0.9994682669639587, -0.0665246993303299, -0.0037593841552734375, 1.49560546875, 1.37548828125, 0.021820068359375, 1.49267578125, 1.411376953125, 10.0, 1.0, 10.0, 1.4006037712097168
33806, -3.1600608825683594, 4.5229644775390625, 4.04653263092041, -0.07491772621870041, 0.044922638684511185, 3.367309331893921, -0.34828031063079834, 0.20888914167881012, 0.181844562292099, -0.831139862537384, -0.9318873286247253, 0.05879523605108261, -0.2694425621118808, 0.2823243394460917, 3.590059715961468, 9362.0, 30146.0, 35388.0, 9362.0, 8.390083312988281, 0.06226232275366783, 0.1725846230983734, 0.13495437800884247, 0.004961096681654453, -0.05270753800868988, 0.9994682669639587, -0.0665246993303299, -0.0037593841552734375, 1.49560546875, 1.3330078125, 0.0191650390625, 1.49560546875, 1.417236328125, 10.0, 1.0, 10.0, 1.4005886316299438
33816, -3.1613776683807373, 4.524683952331543, 4.045401573181152, -0.07491772621870041, 0.044922638684511185, 3.367309331893921, -0.34828031063079834, 0.20888914167881012, 0.181844562292099, -0.8311324715614319, -0.931904137134552, 0.05878705531358719, -0.26981421926828947, 0.27027560268092543, 3.6028167650454463, 9362.0, 30146.0, 35388.0, 9362.0, 8.390083312988281, 0.06226232275366783, 0.1725846230983734, 0.13495437800884247, 0.004961096681654453, -0.05270753800868988, 0.9994682669639587, -0.0665246993303299, -0.0037593841552734375, 1.49560546875, 1.37548828125, 0.021820068359375, 1.49560546875, 1.38720703125, 10.0, 1.0, 10.0, 1.4004815816879272
33826, -3.1619834899902344, 4.525729179382324, 4.04526424407959, -0.08204476535320282, 0.0491972342133522, 3.3709332942962646, -0.36442819237709045, 0.21857301890850067, 0.18061059713363647, -0.8311707377433777, -0.9319132566452026, 0.058773599565029144, -0.27069988703939823, 0.3095319354351602, 3.5933102257472647, 9362.0, 30146.0, 35388.0, 9362.0, 8.390083312988281, 0.06226232275366783, 0.1725846230983734, 0.13495437800884247, 0.004961096681654453, -0.05270753800868988, 0.9994682669639587, -0.0665246993303299, -0.0037593841552734375, 1.49560546875, 1.37548828125, 0.021820068359375, 1.494873046875, 1.38720703125, 10.0, 1.0, 10.0, 1.4004929065704346
33866, -3.161609172821045, 4.521371364593506, 4.042335510253906, -0.09334065765142441, 0.0559721477329731, 3.37631893157959, -0.38862085342407227, 0.23308168351650238, 0.1782732754945755, -0.8311372995376587, -0.9318860173225403, 0.058760326355695724, -0.29140012198387855, 0.2830225852934518, 3.597971691579515, 9362.0, 30146.0, 35388.0, 9362.0, 8.390083312988281, 0.11423952877521515, 0.45220839977264404, 0.0939125195145607, 0.004961096681654453, -0.05270753800868988, 0.9994682669639587, -0.0665246993303299, -0.0037593841552734375, 1.49560546875, 1.390869140625, 0.0319671630859375, 1.490478515625, 1.39599609375, 10.0, 1.0, 10.0, 1.4002708196640015
33886, -3.163421630859375, 4.518098831176758, 4.04469633102417, -0.10536270588636398, 0.0631825253367424, 3.381638526916504, -0.412849485874176, 0.24761509895324707, 0.17645877599716187, -0.8311523795127869, -0.9318989515304565, 0.05877315625548363, -0.2747669984417093, 0.2777402166594243, 3.5982767462351943, 9362.0, 30146.0, 35388.0, 9362.0, 8.390083312988281, 0.006899907719343901, 0.19331707060337067, 0.022932250052690506, 0.004961096681654453, -0.05270753800868988, 0.9994682669639587, -0.0665246993303299, -0.0037593841552734375, 1.49560546875, 1.399658203125, 0.0396575927734375, 1.490478515625, 1.405517578125, 10.0, 1.0, 10.0, 1.400124430656433
33896, -3.1630992889404297, 4.51788854598999, 4.044751167297363, -0.10536270588636398, 0.0631825253367424, 3.381638526916504, -0.412849485874176, 0.24761509895324707, 0.17645877599716187, -0.8311541080474854, -0.9318888783454895, 0.058780282735824585, -0.27979533262389966, 0.2844053152311119, 3.6011256130136684, 9362.0, 30146.0, 35388.0, 9362.0, 8.390083312988281, 0.006899907719343901, 0.19331707060337067, 0.022932250052690506, 0.004961096681654453, -0.05270753800868988, 0.9994682669639587, -0.0665246993303299, -0.0037593841552734375, 1.49560546875, 1.33447265625, 0.0186309814453125, 1.490478515625, 1.408447265625, 10.0, 1.0, 10.0, 1.399947166442871
33916, -3.161189079284668, 4.518073081970215, 4.045819282531738, -0.11811148375272751, 0.07082924991846085, 3.3869080543518066, -0.43705326318740845, 0.2621590197086334, 0.17467324435710907, -0.8311517834663391, -0.9318917989730835, 0.058789946138858795, -0.2783249507107848, 0.29132401264376995, 3.6027310748142596, 9362.0, 30146.0, 35388.0, 9362.0, 8.390083312988281, 0.04310505464673042, 0.06955795735120773, -0.131500706076622, 0.004961096681654453, -0.05270753800868988, 0.9994682669639587, -0.0665246993303299, -0.0037593841552734375, 1.49560546875, 1.39599609375, 0.0362701416015625, 1.500732421875, 1.371826171875, 10.0, 1.0, 10.0, 1.400051474571228
33936, -3.1623055934906006, 4.523133277893066, 4.0451273918151855, -0.12701399624347687, 0.07616938650608063, 3.390390634536743, -0.4532095193862915, 0.27186211943626404, 0.17373578250408173, -0.8311513066291809, -0.9318878650665283, 0.05876685306429863, -0.28508547300127324, 0.2932856660958123, 3.591343077774667, 9362.0, 30146.0, 35388.0, 9362.0, 8.390083312988281, -0.1975696086883545, -0.12832732498645782, 0.017061855643987656, 0.004961096681654453, -0.05270753800868988, 0.9994682669639587, -0.0665246993303299, -0.0037593841552734375, 1.49560546875, 1.40478515625, 0.0446624755859375, 1.500732421875, 1.428955078125, 10.0, 1.0, 10.0, 1.4000005722045898
33946, -3.1620450019836426, 4.522943496704102, 4.043929100036621, -0.12701399624347687, 0.07616938650608063, 3.390390634536743, -0.4532095193862915, 0.27186211943626404, 0.17373578250408173, -0.8311598300933838, -0.9318846464157104, 0.058780357241630554, -0.2880918161490749, 0.30012396699294186, 3.5887474387399174, 9362.0, 30146.0, 35388.0, 9362.0, 8.390083312988281, -0.1975696086883545, -0.12832732498645782, 0.017061855643987656, 0.004961096681654453, -0.05270753800868988, 0.9994682669639587, -0.0665246993303299, -0.0037593841552734375, 1.49560546875, 1.40478515625, 0.0446624755859375, 1.49560546875, 1.428955078125, 10.0, 1.0, 10.0, 1.3999509811401367
33956, -3.162048816680908, 4.524528503417969, 4.042915344238281, -0.12701399624347687, 0.07616938650608063, 3.390390634536743, -0.4532095193862915, 0.27186211943626404, 0.17373578250408173, -0.8311499953269958, -0.9318975210189819, 0.05878720432519913, -0.27648572356016526, 0.28765886402607066, 3.5967200681050775, 9362.0, 30146.0, 35388.0, 9362.0, 8.390083312988281, -0.1975696086883545, -0.12832732498645782, 0.017061855643987656, 0.004961096681654453, -0.05270753800868988, 0.9994682669639587, -0.0665246993303299, -0.0037593841552734375, 1.49560546875, 1.39599609375, 0.0362701416015625, 1.49560546875, 1.428955078125, 10.0, 1.0, 10.0, 1.39976966381073
33996, -3.1599860191345215, 4.5234055519104, 4.038283824920654, -0.14578936994075775, 0.08743211627006531, 3.3973047733306885, -0.4855566620826721, 0.29127225279808044, 0.17191004753112793, -0.8311640620231628, -0.9319062829017639, 0.058784835040569305, -0.269122553727554, 0.2937403635569069, 3.593910093869806, 9362.0, 30146.0, 35388.0, 9362.0, 8.390083312988281, -0.012794728390872478, -0.22920764982700348, -0.1618768870830536, 0.004961096681654453, -0.05270753800868988, 0.9994682669639587, -0.0665246993303299, -0.0037593841552734375, 1.49560546875, 1.38720703125, 0.0291900634765625, 1.4970703125, 1.408447265625, 10.0, 1.0, 10.0, 1.399442434310913
34006, -3.161332845687866, 4.5243449211120605, 4.03732442855835, -0.14578936994075775, 0.08743211627006531, 3.3973047733306885, -0.4855566620826721, 0.29127225279808044, 0.17191004753112793, -0.8311428427696228, -0.9319124221801758, 0.05879109725356102, -0.26052026713179566, 0.2821193367509238, 3.5940342945006405, 9362.0, 30146.0, 35388.0, 9362.0, 8.390083312988281, -0.012794728390872478, -0.22920764982700348, -0.1618768870830536, 0.004961096681654453, -0.05270753800868988, 0.9994682669639587, -0.0665246993303299, -0.0037593841552734375, 1.49560546875, 1.32568359375, 0.0232086181640625, 1.4970703125, 1.4150390625, 10.0, 1.0, 10.0, 1.3992928266525269
34016, -3.161768913269043, 4.523709297180176, 4.037989616394043, -0.14578936994075775, 0.08743211627006531, 3.3973047733306885, -0.4855566620826721, 0.29127225279808044, 0.17191004753112793, -0.8311516046524048, -0.9319121837615967, 0.05877736955881119, -0.25916352904505413, 0.2908773635646753, 3.599468679644302, 9362.0, 30146.0, 35388.0, 9362.0, 8.390083312988281, 0.05738431215286255, -0.011229056864976883, 0.12921112775802612, 0.004961096681654453, -0.05270753800868988, 0.9994682669639587, -0.0665246993303299, -0.0037593841552734375, 1.49560546875, 1.32568359375, 0.0232086181640625, 1.4970703125, 1.376953125, 10.0, 1.0, 10.0, 1.3991459608078003
34046, -3.161203145980835, 4.524538993835449, 4.040575981140137, -0.18175901472568512, 0.10900964587926865, 3.409222364425659, -0.5421593189239502, 0.32523539662361145, 0.1687106192111969, -0.8311519622802734, -0.9318900108337402, 0.058782678097486496, -0.27277060016623483, 0.287328277482942, 3.5979411004271977, 9362.0, 30146.0, 35388.0, 9362.0, 8.390083312988281, -0.011148195713758469, 0.20338210463523865, 0.09008819609880447, 0.004961096681654453, -0.05270753800868988, 0.9994682669639587, -0.0665246993303299, -0.0037593841552734375, 1.49560546875, 1.405517578125, 0.0454254150390625, 1.496337890625, 1.318359375, 10.0, 1.0, 10.0, 1.398819088935852
34056, -3.1612110137939453, 4.525580883026123, 4.039900779724121, -0.18175901472568512, 0.10900964587926865, 3.409222364425659, -0.5421593189239502, 0.32523539662361145, 0.1687106192111969, -0.8311376571655273, -0.9318976402282715, 0.05876694992184639, -0.2685347121109161, 0.26953398976465337, 3.5972770142914827, 9362.0, 30146.0, 35388.0, 9362.0, 8.390083312988281, -0.011148195713758469, 0.20338210463523865, 0.09008819609880447, 0.004961096681654453, -0.05270753800868988, 0.9994682669639587, -0.0665246993303299, -0.0037593841552734375, 1.49560546875, 1.420166015625, 0.0621337890625, 1.496337890625, 1.382080078125, 10.0, 1.0, 10.0, 1.3987592458724976
34066, -3.1612486839294434, 4.526483535766602, 4.040512561798096, -0.18175901472568512, 0.10900964587926865, 3.409222364425659, -0.5421593189239502, 0.32523539662361145, 0.1687106192111969, -0.831159234046936, -0.9318875670433044, 0.058760710060596466, -0.2879979540574735, 0.2972097309967694, 3.6012196496278994, 9362.0, 30146.0, 35388.0, 9362.0, 8.390083312988281, -0.011148195713758469, 0.20338210463523865, 0.09008819609880447, 0.004961096681654453, -0.05270753800868988, 0.9994682669639587, -0.0665246993303299, -0.0037593841552734375, 1.49560546875, 1.402587890625, 0.0425262451171875, 1.496337890625, 1.37548828125, 10.0, 1.0, 10.0, 1.398715853691101
34106, -3.1606991291046143, 4.5263261795043945, 4.038829803466797, -0.2098773717880249, 0.12587735056877136, 3.417590379714966, -0.5825700163841248, 0.3494684398174286, 0.16593927145004272, -0.8311504125595093, -0.9318898916244507, 0.05877913534641266, -0.273089447597606, 0.2875295273505287, 3.5997075608823725, 9362.0, 30146.0, 35388.0, 9362.0, 8.390083312988281, 0.06953946501016617, -0.5401251912117004, -0.24035117030143738, 0.004961096681654453, -0.05270753800868988, 0.9994682669639587, -0.0665246993303299, -0.0037593841552734375, 1.49560546875, 1.423095703125, 0.06591796875, 1.4970703125, 1.399658203125, 10.0, 1.0, 10.0, 1.3984129428863525
34116, -3.1607117652893066, 4.531205654144287, 4.037520408630371, -0.2098773717880249, 0.12587735056877136, 3.417590379714966, -0.5825700163841248, 0.3494684398174286, 0.16593927145004272, -0.8311633467674255, -0.9319159984588623, 0.05878657102584839, -0.2617028642585336, 0.29394992462914615, 3.5958740834345995, 9362.0, 30146.0, 35388.0, 9362.0, 8.390083312988281, 0.06953946501016617, -0.5401251912117004, -0.24035117030143738, 0.004961096681654453, -0.05270753800868988, 0.9994682669639587, -0.0665246993303299, -0.0037593841552734375, 1.49560546875, 1.367431640625, 0.0183258056640625, 1.4970703125, 1.420166015625, 10.0, 1.0, 10.0, 1.3983312845230103
34126, -3.1605961322784424, 4.531527519226074, 4.037695407867432, -0.2098773717880249, 0.12587735056877136, 3.417590379714966, -0.5825700163841248, 0.3494684398174286, 0.16593927145004272, -0.831131637096405, -0.9318969249725342, 0.05876502767205238, -0.2749402130374651, 0.27494550777325344, 3.6011671791868305, 9362.0, 30146.0, 35388.0, 9362.0, 8.390083312988281, 0.06953946501016617, -0.5401251912117004, -0.24035117030143738, 0.004961096681654453, -0.05270753800868988, 0.9994682669639587, -0.0665246993303299, -0.0037593841552734375, 1.49560546875, 1.38720703125, 0.0291900634765625, 1.4970703125, 1.399658203125, 10.0, 1.0, 10.0, 1.398104190826416
34136, -3.1611974239349365, 4.529229640960693, 4.039687633514404, -0.2098773717880249, 0.12587735056877136, 3.417590379714966, -0.5825700163841248, 0.3494684398174286, 0.16593927145004272, -0.8311479687690735, -0.9318934679031372, 0.05878538265824318, -0.2725104161444515, 0.28533033340571023, 3.593859965950008, 9362.0, 30146.0, 35388.0, 9362.0, 8.390083312988281, -0.15324439108371735, 0.1274840235710144, 0.08147885650396347, 0.004961096681654453, -0.05270753800868988, 0.9994682669639587, -0.0665246993303299, -0.0037593841552734375, 1.49560546875, 1.412841796875, 0.0534515380859375, 1.4970703125, 1.38427734375, 10.0, 1.0, 10.0, 1.398104190826416
34176, -3.163294553756714, 4.524160861968994, 4.041718482971191, -0.25263816118240356, 0.1515277773141861, 3.4290757179260254, -0.6391869783401489, 0.383404016494751, 0.1623009890317917, -0.8311366438865662, -0.9319090247154236, 0.05878254398703575, -0.2702386248216852, 0.27803711160387934, 3.592913826649223, 9362.0, 30146.0, 35388.0, 9362.0, 8.390083312988281, -0.038696661591529846, 0.45830634236335754, 0.03186338022351265, 0.004961096681654453, -0.05270753800868988, 0.9994682669639587, -0.0665246993303299, -0.0037593841552734375, 1.49560546875, 1.41796875, 0.05950927734375, 1.494873046875, 1.414306640625, 10.0, 1.0, 10.0, 1.3979406356811523
34196, -3.16261887550354, 4.5202507972717285, 4.0396857261657715, -0.27217787504196167, 0.1632482260465622, 3.433922529220581, -0.6634547710418701, 0.3979605734348297, 0.1608102172613144, -0.8311578035354614, -0.9319256544113159, 0.05880500376224518, -0.2542494642744543, 0.2896964648590483, 3.6007132515621953, 9362.0, 30146.0, 35388.0, 9362.0, 8.390083312988281, -0.038696661591529846, 0.45830634236335754, 0.03186338022351265, 0.007181425113230944, -0.05302971974015236, 0.9998955130577087, -0.0665246993303299, -0.0037593841552734375, 1.49560546875, 1.38134765625, 0.025177001953125, 1.499267578125, 1.4091796875, 10.0, 1.0, 10.0, 1.3977856636047363
34226, -3.161510944366455, 4.517938613891602, 4.039847373962402, -0.2856086194515228, 0.17130450904369354, 3.437128782272339, -0.6796107292175293, 0.40766286849975586, 0.15975888073444366, -0.8311507701873779, -0.931888222694397, 0.05878236144781113, -0.28287923189136405, 0.29335720631200957, 3.593538061837436, 9362.0, 30146.0, 35388.0, 9362.0, 8.370248794555664, -0.08241817355155945, 0.162220299243927, -0.185562402009964, 0.007181425113230944, -0.05302971974015236, 0.9998955130577087, -0.06392869353294373, -0.24567794799804688, 1.475830078125, 1.38134765625, 0.025177001953125, 1.496337890625, 1.3564453125, 10.0, 1.0, 10.0, 1.3977572917938232
34236, -3.1617679595947266, 4.518821716308594, 4.038291931152344, -0.2856086194515228, 0.17130450904369354, 3.437128782272339, -0.6796107292175293, 0.40766286849975586, 0.15975888073444366, -0.8311635851860046, -0.9319014549255371, 0.05878901481628418, -0.2628659236165613, 0.29707767590505796, 3.592566963318457, 9362.0, 30146.0, 35388.0, 9362.0, 8.370248794555664, -0.08241817355155945, 0.162220299243927, -0.185562402009964, 0.007181425113230944, -0.05302971974015236, 0.9998955130577087, -0.06392869353294373, -0.24567794799804688, 1.475830078125, 1.346923828125, 0.015472412109375, 1.496337890625, 1.387939453125, 10.0, 1.0, 10.0, 1.3977147340774536
34246, -3.1614272594451904, 4.520324230194092, 4.036252498626709, -0.2856086194515228, 0.17130450904369354, 3.437128782272339, -0.6796107292175293, 0.40766286849975586, 0.15975888073444366, -0.8311452865600586, -0.9319106340408325, 0.05881201848387718, -0.2544238094648622, 0.282751370817266, 3.5984273511454448, 9362.0, 30146.0, 35388.0, 9362.0, 8.370248794555664, -0.08241817355155945, 0.162220299243927, -0.185562402009964, 0.007181425113230944, -0.05302971974015236, 0.9998955130577087, -0.06392869353294373, -0.24567794799804688, 1.475830078125, 1.341064453125, 0.01654052734375, 1.496337890625, 1.387939453125, 10.0, 1.0, 10.0, 1.3975266218185425
34296, -3.161633253097534, 4.5224385261535645, 4.03202486038208, -0.3278379738330841, 0.19663691520690918, 3.44661545753479, -0.7280175089836121, 0.4367416799068451, 0.15623901784420013, -0.8311545252799988, -0.931911289691925, 0.05878155305981636, -0.2731559556604947, 0.29945760424880064, 3.5941280569689167, 9362.0, 30146.0, 35388.0, 9362.0, 8.370248794555664, -0.28006166219711304, -0.0004954019677825272, 0.039411164820194244, 0.007181425113230944, -0.05302971974015236, 0.9998955130577087, -0.06392869353294373, -0.24567794799804688, 1.475830078125, 1.400390625, 0.04034423828125, 1.49560546875, 1.414306640625, 10.0, 1.0, 10.0, 1.397456169128418
34306, -3.1602344512939453, 4.523726463317871, 4.031132698059082, -0.3500414192676544, 0.20995722711086273, 3.451274871826172, -0.7522149085998535, 0.4512752294540405, 0.1543489396572113, -0.8311771154403687, -0.9318972826004028, 0.05875321477651596, -0.2781992265392386, 0.3093476303432112, 3.595717167634037, 9362.0, 30146.0, 35388.0, 9362.0, 8.370248794555664, -0.28006166219711304, -0.0004954019677825272, 0.039411164820194244, 0.007181425113230944, -0.05302971974015236, 0.9998955130577087, -0.06392869353294373, -0.24567794799804688, 1.475830078125, 1.392333984375, 0.03314208984375, 1.49560546875, 1.414306640625, 10.0, 1.0, 10.0, 1.3974446058273315
34356, -3.163222312927246, 4.520859718322754, 4.030938148498535, -0.388662725687027, 0.23312747478485107, 3.4589314460754395, -0.7926253080368042, 0.4755306839942932, 0.15175753831863403, -0.8311578035354614, -0.9318928122520447, 0.05875539034605026, -0.2769902817446398, 0.2807794788190279, 3.60286854176367, 9362.0, 30146.0, 35388.0, 9362.0, 8.370248794555664, 0.041007596999406815, 0.2662947475910187, 0.20885732769966125, 0.007181425113230944, -0.05302971974015236, 0.9998955130577087, -0.048412565141916275, -0.20087814331054688, 1.4794921875, 1.3564453125, 0.0156707763671875, 1.49560546875, 1.390869140625, 10.0, 1.0, 10.0, 1.3972643613815308
34416, -3.1651527881622314, 4.517104625701904, 4.035484313964844, -0.43767163157463074, 0.26253172755241394, 3.4679157733917236, -0.8409802317619324, 0.5046045184135437, 0.14754632115364075, -0.8311612606048584, -0.9319279193878174, 0.058803707361221313, -0.2535209669677463, 0.2792333460185148, 3.5908014806172486, 9362.0, 30146.0, 35388.0, 9362.0, 8.370248794555664, 0.07984001189470291, 0.15652400255203247, 0.1648203730583191, 0.007181425113230944, -0.05302971974015236, 0.9998955130577087, -0.048412565141916275, -0.20087814331054688, 1.4794921875, 1.408447265625, 0.0485382080078125, 1.499267578125, 1.4150390625, 10.0, 1.0, 10.0, 1.3971872329711914
34426, -3.1647539138793945, 4.51438045501709, 4.033984661102295, -0.43767163157463074, 0.26253172755241394, 3.4679157733917236, -0.8409802317619324, 0.5046045184135437, 0.14754632115364075, -0.831158459186554, -0.9319338798522949, 0.05879102274775505, -0.2593459591573951, 0.2841307575299368, 3.5983265359917964, 9362.0, 30146.0, 35388.0, 9362.0, 8.370248794555664, 0.07984001189470291, 0.15652400255203247, 0.1648203730583191, 0.007181425113230944, -0.05302971974015236, 0.9998955130577087, -0.048412565141916275, -0.20087814331054688, 1.4794921875, 1.3681640625, 0.0185394287109375, 1.499267578125, 1.4443359375, 10.0, 1.0, 10.0, 1.397088646888733
34436, -3.1643803119659424, 4.511947154998779, 4.031483173370361, -0.43767163157463074, 0.26253172755241394, 3.4679157733917236, -0.8409802317619324, 0.5046045184135437, 0.14754632115364075, -0.8311581015586853, -0.9318957328796387, 0.05875646695494652, -0.27469620398497807, 0.2817795293756262, 3.5949694183181844, 9362.0, 30146.0, 35388.0, 9362.0, 8.370248794555664, 0.07984001189470291, 0.15652400255203247, 0.1648203730583191, 0.007181425113230944, -0.05302971974015236, 0.9998955130577087, -0.048412565141916275, -0.20087814331054688, 1.4794921875, 1.39599609375, 0.0362701416015625, 1.499267578125, 1.420166015625, 10.0, 1.0, 10.0, 1.3969417810440063
34476, -3.162851572036743, 4.5110015869140625, 4.029778480529785, -0.4895821213722229, 0.2936818301677704, 3.4766674041748047, -0.8893611431121826, 0.5337361693382263, 0.1443411260843277, -0.831159770488739, -0.9319119453430176, 0.058782871812582016, -0.25818389094475874, 0.2832173415744421, 3.591227665362585, 9362.0, 30146.0, 35388.0, 9362.0, 8.370248794555664, -0.07044156640768051, -0.00865989737212658, -0.0352737121284008, 0.007181425113230944, -0.05302971974015236, 0.9998955130577087, -0.048412565141916275, -0.20087814331054688, 1.4794921875, 1.399658203125, 0.0396575927734375, 1.493408203125, 1.41943359375, 10.0, 1.0, 10.0, 1.397151231765747
34486, -3.1622507572174072, 4.511430740356445, 4.027864933013916, -0.4895821213722229, 0.2936818301677704, 3.4766674041748047, -0.8893611431121826, 0.5337361693382263, 0.1443411260843277, -0.8311364650726318, -0.9318993091583252, 0.05879448726773262, -0.25948809573500403, 0.2690653948986039, 3.595412995075903, 9362.0, 30146.0, 35388.0, 9362.0, 8.370248794555664, -0.07044156640768051, -0.00865989737212658, -0.0352737121284008, 0.007181425113230944, -0.05302971974015236, 0.9998955130577087, -0.048412565141916275, -0.20087814331054688, 1.4794921875, 1.37255859375, 0.02044677734375, 1.493408203125, 1.39013671875, 10.0, 1.0, 10.0, 1.397059679031372
34496, -3.1611440181732178, 4.5107316970825195, 4.028445720672607, -0.4895821213722229, 0.2936818301677704, 3.4766674041748047, -0.8893611431121826, 0.5337361693382263, 0.1443411260843277, -0.8311494588851929, -0.9319075345993042, 0.05881080776453018, -0.25193314181332, 0.28757978094762393, 3.591043649587498, 9362.0, 30146.0, 35388.0, 9362.0, 8.370248794555664, -0.07044156640768051, -0.00865989737212658, -0.0352737121284008, 0.007181425113230944, -0.05302971974015236, 0.9998955130577087, -0.048412565141916275, -0.20087814331054688, 1.4794921875, 1.38134765625, 0.025177001953125, 1.493408203125, 1.43994140625, 10.0, 1.0, 10.0, 1.3969985246658325
34506, -3.1616709232330322, 4.510362148284912, 4.028124809265137, -0.4895821213722229, 0.2936818301677704, 3.4766674041748047, -0.8893611431121826, 0.5337361693382263, 0.1443411260843277, -0.8311607837677002, -0.9318943619728088, 0.0587703138589859, -0.2759121330337767, 0.29420481926760544, 3.6006427357258213, 9362.0, 30146.0, 35388.0, 9362.0, 8.370248794555664, -0.02301587536931038, 0.20220346748828888, 0.06400885432958603, 0.007181425113230944, -0.05302971974015236, 0.9998955130577087, -0.048412565141916275, -0.20087814331054688, 1.4794921875, 1.38134765625, 0.025177001953125, 1.49560546875, 1.43994140625, 10.0, 1.0, 10.0, 1.3969985246658325
34516, -3.161292314529419, 4.509627342224121, 4.0275068283081055, -0.4895821213722229, 0.2936818301677704, 3.4766674041748047, -0.8893611431121826, 0.5337361693382263, 0.1443411260843277, -0.8311458826065063, -0.9319255948066711, 0.058771971613168716, -0.2513491622778431, 0.2747009470220405, 3.6023989617161205, 9362.0, 30146.0, 35388.0, 9362.0, 8.370248794555664, -0.02301587536931038, 0.20220346748828888, 0.06400885432958603, 0.007181425113230944, -0.05302971974015236, 0.9998955130577087, -0.048412565141916275, -0.20087814331054688, 1.4794921875, 1.38134765625, 0.025177001953125, 1.49560546875, 1.346923828125, 10.0, 1.0, 10.0, 1.3971166610717773
34546, -3.159712553024292, 4.508387565612793, 4.023857593536377, -0.5547581911087036, 0.3328004479408264, 3.486785650253296, -0.9465572834014893, 0.5681804418563843, 0.1404309719800949, -0.831157922744751, -0.9319223165512085, 0.058793842792510986, -0.2541434025426138, 0.2891110758791342, 3.602658989773984, 9362.0, 30146.0, 35388.0, 9362.0, 8.370248794555664, 0.037364233285188675, 0.03175235167145729, -0.3548400104045868, 0.007181425113230944, -0.05302971974015236, 0.9998955130577087, -0.03695627301931381, 0.11272048950195312, 1.505126953125, 1.38427734375, 0.027099609375, 1.494140625, 1.424560546875, 10.0, 1.0, 10.0, 1.3971912860870361
34556, -3.159778594970703, 4.509631156921387, 4.022993564605713, -0.5547581911087036, 0.3328004479408264, 3.486785650253296, -0.9465572834014893, 0.5681804418563843, 0.1404309719800949, -0.8311818242073059, -0.9319112300872803, 0.058778781443834305, -0.2703545445631287, 0.2975488584227719, 3.60107003463717, 9362.0, 30146.0, 35388.0, 9362.0, 8.370248794555664, 0.037364233285188675, 0.03175235167145729, -0.3548400104045868, 0.007181425113230944, -0.05302971974015236, 0.9998955130577087, -0.03695627301931381, 0.11272048950195312, 1.505126953125, 1.3447265625, 0.0158538818359375, 1.494140625, 1.393798828125, 10.0, 1.0, 10.0, 1.3972430229187012
34576, -3.159001350402832, 4.5104570388793945, 4.020976543426514, -0.5835175514221191, 0.350064218044281, 3.4909770488739014, -0.9707333445549011, 0.5827373266220093, 0.1389811486005783, -0.8311614990234375, -0.9318796396255493, 0.058762326836586, -0.2822926431837261, 0.2923168905081184, 3.597034724443941, 9362.0, 30146.0, 35388.0, 9362.0, 8.370248794555664, 0.035040147602558136, -0.1427226960659027, -0.16276931762695312, 0.007181425113230944, -0.05302971974015236, 0.9998955130577087, -0.03695627301931381, 0.11272048950195312, 1.505126953125, 1.415771484375, 0.0568695068359375, 1.494140625, 1.396728515625, 10.0, 1.0, 10.0, 1.397145390510559
34586, -3.1588659286499023, 4.510182857513428, 4.021697998046875, -0.5835175514221191, 0.350064218044281, 3.4909770488739014, -0.9707333445549011, 0.5827373266220093, 0.1389811486005783, -0.831152081489563, -0.9319058060646057, 0.058774881064891815, -0.2761253143289847, 0.2844502180475672, 3.6005423785053257, 9362.0, 30146.0, 35388.0, 9362.0, 8.370248794555664, 0.035040147602558136, -0.1427226960659027, -0.16276931762695312, 0.007181425113230944, -0.05302971974015236, 0.9998955130577087, -0.03695627301931381, 0.11272048950195312, 1.505126953125, 1.421630859375, 0.0640716552734375, 1.494140625, 1.389404296875, 10.0, 1.0, 10.0, 1.3970677852630615
34596, -3.158874273300171, 4.5100226402282715, 4.02303409576416, -0.6030933260917664, 0.3618159294128418, 3.493745803833008, -0.986845076084137, 0.5924342274665833, 0.13790595531463623, -0.8311505913734436, -0.9318991303443909, 0.058791548013687134, -0.2596597384728886, 0.28174404560022026, 3.596033275711081, 9362.0, 30146.0, 35388.0, 9362.0, 8.370248794555664, 0.035040147602558136, -0.1427226960659027, -0.16276931762695312, 0.007181425113230944, -0.05302971974015236, 0.9998955130577087, -0.03695627301931381, 0.11272048950195312, 1.505126953125, 1.41943359375, 0.0612945556640625, 1.494140625, 1.408447265625, 10.0, 1.0, 10.0, 1.3970342874526978
34606, -3.157468318939209, 4.511470317840576, 4.022765159606934, -0.6030933260917664, 0.3618159294128418, 3.493745803833008, -0.986845076084137, 0.5924342274665833, 0.13790595531463623, -0.8311256170272827, -0.9318937063217163, 0.05877278745174408, -0.2641139282247953, 0.2849351592892333, 3.6053249365123503, 9362.0, 30146.0, 35388.0, 9362.0, 8.370248794555664, 0.035040147602558136, -0.1427226960659027, -0.16276931762695312, 0.007181425113230944, -0.05302971974015236, 0.9998955130577087, -0.03695627301931381, 0.11272048950195312, 1.505126953125, 1.358642578125, 0.0159912109375, 1.494140625, 1.4091796875, 10.0, 1.0, 10.0, 1.3969223499298096
34616, -3.15669584274292, 4.512248516082764, 4.02060079574585, -0.6229913234710693, 0.37376153469085693, 3.496492624282837, -1.0029484033584595, 0.6021251678466797, 0.13673646748065948, -0.8311453461647034, -0.9318894743919373, 0.05875342711806297, -0.2737953351934761, 0.29072618965813035, 3.593829368655562, 9362.0, 30146.0, 35388.0, 9362.0, 8.370248794555664, -0.01061172503978014, -0.10610787570476532, 0.20989595353603363, 0.007181425113230944, -0.05302971974015236, 0.9998955130577087, -0.03695627301931381, 0.11272048950195312, 1.505126953125, 1.38427734375, 0.027099609375, 1.494140625, 1.423095703125, 10.0, 1.0, 10.0, 1.3969223499298096
34656, -3.1546313762664795, 4.51315450668335, 4.015939235687256, -0.6637533903121948, 0.3982338011264801, 3.501913070678711, -1.0351574420928955, 0.621488094329834, 0.13431592285633087, -0.8311582803726196, -0.9318970441818237, 0.0587746724486351, -0.2702687131689565, 0.28982384545301443, 3.58617447706615, 9362.0, 30146.0, 35388.0, 9362.0, 8.370248794555664, -0.04045888036489487, 0.019359122961759567, -0.3939685821533203, 0.007181425113230944, -0.05302971974015236, 0.9998955130577087, -0.03695627301931381, 0.11272048950195312, 1.505126953125, 1.365234375, 0.0175933837890625, 1.497802734375, 1.35205078125, 10.0, 1.0, 10.0, 1.39690363407135
34666, -3.156738758087158, 4.513819217681885, 4.017508506774902, -0.6741452813148499, 0.4044729173183441, 3.503253936767578, -1.043222427368164, 0.6263335943222046, 0.133864626288414, -0.8311409950256348, -0.9318870306015015, 0.05878825485706329, -0.280790782174926, 0.28367461284125284, 3.600201807345164, 9362.0, 30146.0, 35388.0, 9362.0, 8.370248794555664, -0.04045888036489487, 0.019359122961759567, -0.3939685821533203, 0.007181425113230944, -0.05302971974015236, 0.9998955130577087, -0.03695627301931381, 0.11272048950195312, 1.505126953125, 1.36669921875, 0.01806640625, 1.497802734375, 1.408447265625, 10.0, 1.0, 10.0, 1.3969285488128662
34686, -3.1571004390716553, 4.511706352233887, 4.017807960510254, -0.695171058177948, 0.41709649562835693, 3.5059218406677246, -1.05934739112854, 0.6360213756561279, 0.1328365057706833, -0.831145703792572, -0.9318569898605347, 0.058797020465135574, -0.29005198958367173, 0.2727943247123221, 3.5908593315899906, 9362.0, 30146.0, 35388.0, 9362.0, 8.370248794555664, 0.09711078554391861, -0.13578258454799652, 0.07982823997735977, 0.007181425113230944, -0.05302971974015236, 0.9998955130577087, -0.03695627301931381, 0.11272048950195312, 1.505126953125, 1.327880859375, 0.0218353271484375, 1.497802734375, 1.38720703125, 10.0, 1.0, 10.0, 1.3969285488128662
34706, -3.155747175216675, 4.514325141906738, 4.0180535316467285, -0.7165190577507019, 0.4299137592315674, 3.508566379547119, -1.0754623413085938, 0.6457108855247498, 0.1317487359046936, -0.8311398029327393, -0.9318955540657043, 0.058793894946575165, -0.2657260392845199, 0.2728635613919437, 3.588658440127344, 9362.0, 30146.0, 35388.0, 9362.0, 8.370248794555664, -0.07800102233886719, -0.2105194330215454, 0.002210331382229924, 0.007181425113230944, -0.05302971974015236, 0.9998955130577087, -0.03695627301931381, 0.11272048950195312, 1.505126953125, 1.43115234375, 0.0766143798828125, 1.497802734375, 1.38720703125, 10.0, 1.0, 10.0, 1.396910548210144
34716, -3.154534101486206, 4.5153703689575195, 4.016410827636719, -0.7273139953613281, 0.4363950788974762, 3.509881019592285, -1.0835199356079102, 0.6505540609359741, 0.13120321929454803, -0.831122636795044, -0.9318938255310059, 0.058775343000888824, -0.27086866256561576, 0.2564760768845815, 3.5971530488446275, 9362.0, 30146.0, 35388.0, 9362.0, 8.390083312988281, -0.07800102233886719, -0.2105194330215454, 0.002210331382229924, 0.007181425113230944, -0.05302971974015236, 0.9998955130577087, -0.03695627301931381, 0.11272048950195312, 1.505126953125, 1.43115234375, 0.0766143798828125, 1.497802734375, 1.36962890625, 10.0, 1.0, 10.0, 1.3969099521636963
34726, -3.15478515625, 4.5133819580078125, 4.018128395080566, -0.7273139953613281, 0.4363950788974762, 3.509881019592285, -1.0835199356079102, 0.6505540609359741, 0.13120321929454803, -0.8311447501182556, -0.931907057762146, 0.05881616473197937, -0.2561451800050998, 0.29447770811964347, 3.5942423046205256, 9362.0, 30146.0, 35388.0, 9362.0, 8.390083312988281, -0.07800102233886719, -0.2105194330215454, 0.002210331382229924, 0.007181425113230944, -0.05302971974015236, 0.9998955130577087, -0.047367993742227554, -0.07543754577636719, 1.48974609375, 1.43115234375, 0.0766143798828125, 1.497802734375, 1.36669921875, 10.0, 1.0, 10.0, 1.3967914581298828
34736, -3.1553430557250977, 4.513166427612305, 4.018717288970947, -0.7273139953613281, 0.4363950788974762, 3.509881019592285, -1.0835199356079102, 0.6505540609359741, 0.13120321929454803, -0.8311464786529541, -0.9318844079971313, 0.05878433585166931, -0.275359224091997, 0.29187972342754165, 3.6000419323776045, 9362.0, 30146.0, 35388.0, 9362.0, 8.390083312988281, -0.07800102233886719, -0.2105194330215454, 0.002210331382229924, 0.007181425113230944, -0.05302971974015236, 0.9998955130577087, -0.047367993742227554, -0.07543754577636719, 1.48974609375, 1.357177734375, 0.0157928466796875, 1.497802734375, 1.373291015625, 10.0, 1.0, 10.0, 1.3967173099517822
34756, -3.154780387878418, 4.51147985458374, 4.016879081726074, -0.7712998390197754, 0.4628046452999115, 3.515087604522705, -1.1157780885696411, 0.6699279546737671, 0.1292007863521576, -0.8311458826065063, -0.9318901300430298, 0.05880497768521309, -0.2744232168661551, 0.2933636848114247, 3.598967448670725, 9362.0, 30146.0, 35388.0, 9362.0, 8.390083312988281, 0.17358417809009552, -0.10353446006774902, -0.19719839096069336, 0.007181425113230944, -0.05302971974015236, 0.9998955130577087, -0.047367993742227554, -0.07543754577636719, 1.48974609375, 1.38427734375, 0.027099609375, 1.49560546875, 1.332275390625, 10.0, 1.0, 10.0, 1.3966460227966309
34776, -3.153902769088745, 4.511102199554443, 4.017980098724365, -0.7712998390197754, 0.4628046452999115, 3.515087604522705, -1.1157780885696411, 0.6699279546737671, 0.1292007863521576, -0.8311309814453125, -0.9318703413009644, 0.058795779943466187, -0.2654435480096598, 0.2747022743453442, 3.5944240069260074, 9362.0, 30146.0, 35388.0, 9362.0, 8.390083312988281, 0.00822546985000372, 0.32352790236473083, 0.06917446851730347, 0.007181425113230944, -0.05302971974015236, 0.9998955130577087, -0.047367993742227554, -0.07543754577636719, 1.48974609375, 1.39453125, 0.035003662109375, 1.496337890625, 1.332275390625, 10.0, 1.0, 10.0, 1.3966671228408813
34796, -3.1552889347076416, 4.511364936828613, 4.019872665405273, -0.8165758848190308, 0.4899892807006836, 3.5202155113220215, -1.1480093002319336, 0.689294159412384, 0.12706632912158966, -0.8311394453048706, -0.9318811893463135, 0.05878134444355965, -0.27984614250603324, 0.27557945404760176, 3.601104582432766, 9362.0, 30146.0, 35388.0, 9362.0, 8.390083312988281, 0.00822546985000372, 0.32352790236473083, 0.06917446851730347, 0.007181425113230944, -0.05302971974015236, 0.9998955130577087, -0.047367993742227554, -0.07543754577636719, 1.48974609375, 1.40478515625, 0.0446624755859375, 1.49267578125, 1.386474609375, 10.0, 1.0, 10.0, 1.3966466188430786
34806, -3.155785083770752, 4.514092922210693, 4.0198493003845215, -0.8165758848190308, 0.4899892807006836, 3.5202155113220215, -1.1480093002319336, 0.689294159412384, 0.12706632912158966, -0.8311522603034973, -0.9319002628326416, 0.058782581239938736, -0.2627174005868497, 0.289518548978009, 3.59686129965452, 9362.0, 30146.0, 35388.0, 9362.0, 8.390083312988281, 0.00822546985000372, 0.32352790236473083, 0.06917446851730347, 0.007181425113230944, -0.05302971974015236, 0.9998955130577087, -0.047367993742227554, -0.07543754577636719, 1.48974609375, 1.3564453125, 0.0156707763671875, 1.49267578125, 1.392333984375, 10.0, 1.0, 10.0, 1.3965104818344116
