timeTick, roll, pitch, yaw, stateX, stateY, stateZ, stateVX, stateVY, stateVZ, otX0, otY0, otZ0, otRoll0, otPitch0, otYaw0, left wing, pitch motor, yaw motor, right wing, voltage, roll rate, pitch rate, yaw rate, A_x, A_y, A_z, current, i_raw, v_raw, airflow_voltage, airflow_speed, pot_Pitch, voltage_nKF, kFFx, volt_KF_vel, kP, volt_KF_pos
16586, -1.2112644910812378, -0.24369649589061737, 1.0880136489868164, 0, 0, 0, 0, 0, 0, -0.826281726360321, -0.9554073810577393, 0.05592591315507889, -0.1721563504866827, -0.21899379726465895, -3.397925591462769, 0, 0, 0, 0, 0, 0, 0, 0, 0, 0, 0, 0, 0, 0, 0, 0, 0, 0, 0, 0, 0, 0
16596, -1.2109771966934204, -0.24471163749694824, 1.0885266065597534, 3.573748927010456e-06, 1.9760474970098585e-05, -0.8679845929145813, 0.0006843752926215529, 0.0037781684659421444, -0.11627279222011566, -0.8262812495231628, -0.9554244875907898, 0.05592408403754234, -0.17143924611024478, -0.21565132538657394, -3.4064231335500823, 9362.0, 30146.0, 35388.0, 9362.0, 0, 0.011986391618847847, 0.12678159773349762, 0.11611486971378326, 0.004928315989673138, -0.05412113666534424, 0.9979584813117981, 0, 0, 0, 0, 0, 0, 0, 0, 0, 0, 0
16606, -1.2110687494277954, -0.24363601207733154, 1.0877764225006104, 1.2301330571062863e-05, 6.792272324673831e-05, -0.8691486716270447, 0.001061118091456592, 0.005854287184774876, -0.11653874069452286, -0.8262670636177063, -0.9553532004356384, 0.055931977927684784, -0.1862226415794387, -0.16406357976640606, -3.401886233479869, 9362.0, 30146.0, 35388.0, 9362.0, 0, 0.15560825169086456, -0.04367032274603844, -0.2004006803035736, 0.0036748088896274567, -0.052908383309841156, 0.9995791912078857, 0, 0, 0, 1.32861328125, 0.0214385986328125, 0, 1.23193359375, 10.0, 1.443955898284912, 1.5, 1.443955898284912
16616, -1.2103689908981323, -0.24317985773086548, 1.0855733156204224, 2.4805631255730987e-05, 0.00013684754958376288, -0.8703151941299438, 0.0014397730119526386, 0.007930675521492958, -0.11677006632089615, -0.82621830701828, -0.9553855061531067, 0.05595481023192406, -0.1570103352956209, -0.20075972053388114, -3.4198192272655765, 9362.0, 30146.0, 35388.0, 9362.0, 0, -0.12019950896501541, 0.025435782968997955, 0.0075104390271008015, 0.004083865322172642, -0.05383281782269478, 0.9982286691665649, 0, 0, 0, 1.5, 0.19561767578125, 1.4912109375, 1.15283203125, 10.0, 1.4434396028518677, 1.5, 1.4434396028518677
16626, -1.2108286619186401, -0.24391122162342072, 1.085357427597046, 4.108965367777273e-05, 0.0002265491639263928, -0.8714834451675415, 0.0018171120900660753, 0.010009636171162128, -0.11688517034053802, -0.8262282013893127, -0.955377995967865, 0.05596146360039711, -0.15600967511795108, -0.20204657359781208, -3.416705544691087, 9362.0, 30146.0, 35388.0, 9362.0, 0, -0.1614043116569519, -0.037607837468385696, 0.2917115092277527, 0.0037892316468060017, -0.052848417311906815, 0.997718334197998, 0, 0, 0, 1.428955078125, 0.073577880859375, 1.4912109375, 1.53662109375, 10.0, 1.4426487684249878, 1.5, 1.4426487684249878
16636, -1.2118895053863525, -0.2447884976863861, 1.0875710248947144, 6.114193820394576e-05, 0.0003370246849954128, -0.8726533055305481, 0.0021933510433882475, 0.012085466645658016, -0.11709074676036835, -0.8262220025062561, -0.9553817510604858, 0.05595211312174797, -0.15950937398491993, -0.20264715115027343, -3.4225190686660176, 9362.0, 30146.0, 35388.0, 9362.0, 0, -0.13639649748802185, -0.2724807858467102, -0.049153976142406464, 0.002267660340294242, -0.05439085513353348, 0.9992347359657288, 0, 0, 0, 1.30078125, 0.048004150390625, 1.493408203125, 1.480224609375, 10.0, 1.441765308380127, 1.5, 1.441765308380127
16646, -1.2132831811904907, -0.24250972270965576, 1.0873777866363525, 8.496199734508991e-05, 0.00046825798926874995, -0.8738254308700562, 0.002570576500147581, 0.014161202125251293, -0.11733942478895187, -0.8262321949005127, -0.955379843711853, 0.055976998060941696, -0.15665320249775155, -0.20767457297378655, -3.422794590817053, 9362.0, 30146.0, 35388.0, 9362.0, 0, 0.2262178510427475, -0.14158101379871368, -0.22373740375041962, 0.004174990579485893, -0.057378750294446945, 0.9971495866775513, 0, 0, 0, 1.481689453125, 0.1600799560546875, 1.493408203125, 1.306640625, 10.0, 1.4411004781723022, 1.5, 1.4411004781723022
16656, -1.2118698358535767, -0.2414996474981308, 1.0851593017578125, 0.00011256369180046022, 0.0006202714284881949, -0.8749994039535522, 0.0029497744981199503, 0.01624148339033127, -0.11746060103178024, -0.8262181282043457, -0.9553906917572021, 0.05597499758005142, -0.16714394703730537, -0.20049843108682808, -3.415090438607657, 9362.0, 30146.0, 35388.0, 9362.0, 0, -0.1914934664964676, 0.2949198782444, 0.17361119389533997, 0.005093005485832691, -0.05536428466439247, 0.9973018169403076, 0, 0, 0, 1.17041015625, 0.5762939453125, 1.48974609375, 1.286865234375, 10.0, 1.4401617050170898, 1.5, 1.4401617050170898
16666, -1.2131267786026, -0.24377727508544922, 1.0854655504226685, 0.00014393437595572323, 0.0007930808351375163, -0.8761754631996155, 0.003324448363855481, 0.018320389091968536, -0.11775501817464828, -0.8262374997138977, -0.9553906321525574, 0.05595766752958298, -0.15796640752868238, -0.19982422342101813, -3.4269454657340477, 9362.0, 30146.0, 35388.0, 9362.0, 0, 0.08446653932332993, -0.1940937340259552, 0.01564617268741131, 0.0032389045227319, -0.05534554272890091, 0.9991713166236877, 0, 0, 0, 1.248046875, 0.169647216796875, 1.48974609375, 1.3564453125, 10.0, 1.4403048753738403, 1.5, 1.4403048753738403
16676, -1.2126903533935547, -0.2426370084285736, 1.0847810506820679, 0.00017904461128637195, 0.0009866714244708419, -0.8773542642593384, 0.003697578329592943, 0.02039773017168045, -0.11800755560398102, -0.8262282609939575, -0.9553883075714111, 0.05596719682216644, -0.1626069105189885, -0.2056591852484928, -3.4248854921006453, 9362.0, 30146.0, 35388.0, 9362.0, 0, 0.11932924389839172, 0.01480623334646225, -0.16449670493602753, 0.003074919106438756, -0.055673740804195404, 1.0000501871109009, 0, 0, 0, 1.486083984375, 0.16845703125, 1.49560546875, 1.22021484375, 10.0, 1.4391969442367554, 1.5, 1.4391969442367554
16686, -1.2114063501358032, -0.24238184094429016, 1.0834262371063232, 0.00021790771279484034, 0.0012010596692562103, -0.8785349726676941, 0.004075069911777973, 0.022479915991425514, -0.11813641339540482, -0.8262305855751038, -0.95539391040802, 0.05595230683684349, -0.16588013460567674, -0.20568140784621392, -3.4159675199936888, 9362.0, 30146.0, 35388.0, 9362.0, 8.390083312988281, 0.008882228285074234, 0.3921692669391632, -0.23715953528881073, 0.0043398733250796795, -0.05588383227586746, 0.997965395450592, -0.06699575483798981, -0.03959846496582031, 1.49267578125, 1.39453125, 0.035003662109375, 1.49560546875, 1.2333984375, 10.0, 1.438751459121704, 1.5, 1.438751459121704
16696, -1.2108944654464722, -0.24353253841400146, 1.0815659761428833, 0.0002605376357678324, 0.0014362739166244864, -0.8797165751457214, 0.004450964275747538, 0.024562925100326538, -0.11818929016590118, -0.8262324929237366, -0.9553964138031006, 0.055968672037124634, -0.15909119428908894, -0.20957049686705886, -3.4204480421029646, 9362.0, 30146.0, 35388.0, 9362.0, 8.390083312988281, -0.14573322236537933, -0.054170649498701096, 0.0600096695125103, 0.004059357102960348, -0.056280020624399185, 0.999744176864624, -0.06699575483798981, -0.03959846496582031, 1.49267578125, 1.143310546875, 0.8002777099609375, 1.493408203125, 1.385009765625, 10.0, 1.4391194581985474, 1.5, 1.4391194581985474
16706, -1.2111910581588745, -0.2429640293121338, 1.0816874504089355, 0.0003069220983888954, 0.0016922922804951668, -0.8808994293212891, 0.004825990181416273, 0.0266407523304224, -0.11838223785161972, -0.8262208700180054, -0.9553971886634827, 0.0559503473341465, -0.16226065931805117, -0.20123006149810863, -3.419728494128497, 9362.0, 30146.0, 35388.0, 9362.0, 8.390083312988281, -0.00925872940570116, -0.16255317628383636, 0.06491154432296753, 0.005474959500133991, -0.054873157292604446, 1.0007141828536987, -0.06699575483798981, -0.03959846496582031, 1.49267578125, 1.458251953125, 0.1184234619140625, 1.493408203125, 1.43115234375, 10.0, 1.4382426738739014, 1.5, 1.4382426738739014
16716, -1.211402177810669, -0.24163298308849335, 1.0816630125045776, 0.00035706968628801405, 0.0019690990447998047, -0.882083535194397, 0.005203523673117161, 0.028720617294311523, -0.11843923479318619, -0.8262380361557007, -0.9553934335708618, 0.05598398670554161, -0.1598566078804811, -0.20776902388203666, -3.4252307535543856, 9362.0, 30146.0, 35388.0, 9362.0, 8.390083312988281, -0.34972837567329407, 0.1814996898174286, 0.46623143553733826, 0.0022328754421323538, -0.05387570708990097, 1.0014097690582275, -0.06699575483798981, -0.03959846496582031, 1.49267578125, 1.41943359375, 0.0612945556640625, 1.491943359375, 1.14404296875, 10.0, 1.4386494159698486, 1.5, 1.4386494159698486
16726, -1.2122772932052612, -0.24230551719665527, 1.0841056108474731, 0.0004109898873139173, 0.002266719238832593, -0.8832676410675049, 0.005580513272434473, 0.030803408473730087, -0.11838117241859436, -0.82622891664505, -0.955386757850647, 0.0559670589864254, -0.15393291756023317, -0.1985945862784888, -3.424691477429949, 9362.0, 30146.0, 35388.0, 9362.0, 8.390083312988281, -0.17294175922870636, -0.10614332556724548, -0.23807212710380554, 0.0017157261027023196, -0.05497482791543007, 0.9991942644119263, -0.06699575483798981, -0.03959846496582031, 1.49267578125, 1.453857421875, 0.1110687255859375, 1.491943359375, 0.999755859375, 10.0, 1.438310146331787, 1.5, 1.438310146331787
16736, -1.2121391296386719, -0.24188083410263062, 1.083085298538208, 0.0004686694883275777, 0.002585174050182104, -0.8844509124755859, 0.0059553212486207485, 0.03288760036230087, -0.11827373504638672, -0.8262315392494202, -0.9553858637809753, 0.05597618967294693, -0.1596954915650038, -0.1962371129274061, -3.418025997845399, 9362.0, 30146.0, 35388.0, 9362.0, 8.390083312988281, -0.18916812539100647, -0.0873042494058609, -0.3493691384792328, 0.002469952218234539, -0.05265934392809868, 0.9969832897186279, -0.06699575483798981, -0.03959846496582031, 1.49267578125, 1.58203125, 0.37493896484375, 1.494873046875, 1.35205078125, 10.0, 1.437579870223999, 1.5, 1.437579870223999
16746, -1.2123181819915771, -0.24156352877616882, 1.0816893577575684, 0.0005300986813381314, 0.002924458123743534, -0.8856340646743774, 0.006330555304884911, 0.034969229251146317, -0.11835743486881256, -0.8262392282485962, -0.9553952217102051, 0.05596764385700226, -0.15874689549390403, -0.20485398333735816, -3.41032263867225, 9362.0, 30146.0, 35388.0, 9362.0, 8.390083312988281, 0.14532527327537537, 0.1637662947177887, 0.028191063553094864, 0.00401887996122241, -0.05567888170480728, 0.9969354271888733, -0.06699575483798981, -0.03959846496582031, 1.49267578125, 1.263427734375, 0.1233062744140625, 1.494873046875, 1.442138671875, 10.0, 1.4381905794143677, 1.5, 1.4381905794143677
16756, -1.211281418800354, -0.24288639426231384, 1.0819085836410522, 0.0005952726933173835, 0.003284534439444542, -0.8868191242218018, 0.006704296451061964, 0.037046026438474655, -0.11865676194429398, -0.8262302875518799, -0.9554022550582886, 0.055963609367609024, -0.15915431696522472, -0.20260028998583834, -3.4199355808226826, 9362.0, 30146.0, 35388.0, 9362.0, 8.390083312988281, -0.12713231146335602, -0.48668134212493896, -0.08925864845514297, 0.0036549305077642202, -0.05654756724834442, 0.9970058798789978, -0.06699575483798981, -0.03959846496582031, 1.49267578125, 1.52490234375, 0.247039794921875, 1.491943359375, 1.4384765625, 10.0, 1.4385533332824707, 1.5, 1.4385533332824707
16766, -1.2118014097213745, -0.24038907885551453, 1.0813060998916626, 0.0006641813088208437, 0.0036653783172369003, -0.8880072832107544, 0.007077407091856003, 0.03912275284528732, -0.11897370219230652, -0.8262415528297424, -0.9553908705711365, 0.05596587806940079, -0.15962928987475633, -0.20250835571818016, -3.4154316915079828, 9362.0, 30146.0, 35388.0, 9362.0, 8.390083312988281, -0.07964801043272018, 0.0404270701110363, 0.2848842442035675, 0.004887664690613747, -0.054328639060258865, 0.998980700969696, -0.06699575483798981, -0.03959846496582031, 1.49267578125, 0.9521484375, 4.1992034912109375, 1.491943359375, 1.064208984375, 10.0, 1.4385879039764404, 1.5, 1.4385879039764404
16776, -1.2124322652816772, -0.24079830944538116, 1.0840113162994385, 0.0007368327933363616, 0.004066983237862587, -0.8891984820365906, 0.007452927529811859, 0.04119817540049553, -0.11927012354135513, -0.826237678527832, -0.9553924798965454, 0.05594217777252197, -0.15619538900403504, -0.2020797920258417, -3.424749148019923, 9362.0, 30146.0, 35388.0, 9362.0, 8.390083312988281, -0.3158322870731354, -0.3277321457862854, -0.05343189463019371, 0.005521081387996674, -0.05644229054450989, 0.9981339573860168, -0.06699575483798981, -0.03959846496582031, 1.49267578125, 1.3681640625, 0.0185394287109375, 1.49267578125, 1.281005859375, 10.0, 1.4380284547805786, 1.5, 1.4380284547805786
16786, -1.214012861251831, -0.23809677362442017, 1.0844964981079102, 0.0008132219081744552, 0.004489366430789232, -0.8903917074203491, 0.007824789732694626, 0.043278519064188004, -0.11937376856803894, -0.8262407779693604, -0.9553946852684021, 0.05594906210899353, -0.16206186174217652, -0.2073493964606712, -3.4233331000431924, 9362.0, 30146.0, 35388.0, 9362.0, 8.390083312988281, 0.11500363796949387, 0.1246771290898323, 0.11851077526807785, 0.005978246685117483, -0.0567457340657711, 0.9980138540267944, -0.0640314519405365, -0.03959846496582031, 1.49267578125, 1.556396484375, 0.316192626953125, 1.49267578125, 1.33447265625, 10.0, 1.4375752210617065, 1.5, 1.4375752210617065
16796, -1.2125431299209595, -0.23910748958587646, 1.0861088037490845, 0.0008933310164138675, 0.004932550247758627, -0.8915863633155823, 0.00819702073931694, 0.045358262956142426, -0.1195572018623352, -0.8262453675270081, -0.9553980231285095, 0.05594072863459587, -0.15829844882137614, -0.19650012616955337, -3.4125607839196888, 9362.0, 30146.0, 35388.0, 9362.0, 8.390083312988281, 0.07441741973161697, 0.17193631827831268, -0.19946062564849854, 0.003950758371502161, -0.05590447038412094, 0.9988848567008972, -0.0640314519405365, -0.03959846496582031, 1.49267578125, 1.38427734375, 0.027099609375, 1.4912109375, 1.01806640625, 10.0, 1.4377566576004028, 1.5, 1.4377566576004028
16806, -1.2121318578720093, -0.24023748934268951, 1.084921956062317, 0.000977138290181756, 0.005396540742367506, -0.8927830457687378, 0.008564367890357971, 0.0474398136138916, -0.11977921426296234, -0.8262670636177063, -0.9553734064102173, 0.05593495815992355, -0.1922029340865915, -0.17397624860473115, -3.4118169564504988, 9362.0, 30146.0, 35388.0, 9362.0, 8.390083312988281, -0.09478820860385895, -0.19538263976573944, -0.10494761168956757, 0.0026338614989072084, -0.0563330315053463, 0.9989355206489563, -0.0640314519405365, -0.03959846496582031, 1.49267578125, 1.434814453125, 0.081787109375, 1.4912109375, 0.92724609375, 10.0, 1.4372811317443848, 1.5, 1.4372811317443848
16816, -1.213273525238037, -0.24075321853160858, 1.0848255157470703, 0.001064629410393536, 0.005881344899535179, -0.8939814567565918, 0.008933904580771923, 0.04952096939086914, -0.11990243941545486, -0.8262316584587097, -0.9554036259651184, 0.05596262961626053, -0.16258736102775567, -0.21011673108586137, -3.415842104847157, 9362.0, 30146.0, 35388.0, 9362.0, 8.390083312988281, -0.08968067914247513, -0.16183486580848694, -0.043134044855833054, 0.0010231183841824532, -0.05406584218144417, 0.9983851909637451, -0.0640314519405365, -0.03959846496582031, 1.49267578125, 1.11328125, 1.1085052490234375, 1.49267578125, 1.146240234375, 10.0, 1.437637448310852, 1.5, 1.437637448310852
16826, -1.2142022848129272, -0.239556223154068, 1.085225224494934, 0.0011558259138837457, 0.006386957596987486, -0.8951810598373413, 0.009305409155786037, 0.05160154774785042, -0.12002208083868027, -0.8262315988540649, -0.9553967714309692, 0.055977001786231995, -0.156368736873966, -0.1979571634952606, -3.4208051345848736, 9362.0, 30146.0, 35388.0, 9362.0, 8.390083312988281, -0.24749700725078583, -0.07471833378076553, -0.06091005355119705, 0.002737225964665413, -0.05440167710185051, 0.9983903169631958, -0.0640314519405365, -0.03959846496582031, 1.49267578125, 1.401123046875, 0.041015625, 1.49267578125, 1.543212890625, 10.0, 1.436779499053955, 1.5, 1.436779499053955
16836, -1.215733528137207, -0.23876234889030457, 1.0850037336349487, 0.0012507399078458548, 0.006913375575095415, -0.8963823318481445, 0.009677385911345482, 0.05368206650018692, -0.120236337184906, -0.8262806534767151, -0.955365002155304, 0.05593762546777725, -0.18198549159360314, -0.17511044538628084, -3.4078055962306544, 9362.0, 30146.0, 35388.0, 9362.0, 8.390083312988281, 0.05509719252586365, -0.09286785870790482, -0.23662307858467102, 0.004571501165628433, -0.05262547731399536, 0.9987896680831909, -0.0640314519405365, -0.03959846496582031, 1.49267578125, 1.56005859375, 0.324493408203125, 1.48974609375, 1.3828125, 10.0, 1.4370864629745483, 1.5, 1.4370864629745483
16846, -1.2149744033813477, -0.23727558553218842, 1.0825949907302856, 0.001349363592453301, 0.007460608147084713, -0.8975856900215149, 0.01004735566675663, 0.05576448142528534, -0.12043430656194687, -0.8262336254119873, -0.9553965330123901, 0.055975329130887985, -0.16404677113112295, -0.20423286842617472, -3.422474415972179, 9362.0, 30146.0, 35388.0, 9362.0, 8.390083312988281, -0.01080559752881527, -0.3739909827709198, -0.017431674525141716, 0.005263561848551035, -0.05331413075327873, 1.000176191329956, -0.0640314519405365, -0.03959846496582031, 1.49267578125, 1.382080078125, 0.0256195068359375, 1.48974609375, 1.541015625, 10.0, 1.4372926950454712, 1.5, 1.4372926950454712
16856, -1.214892029762268, -0.234408900141716, 1.081644892692566, 0.0014516814844682813, 0.008028686977922916, -0.8987905979156494, 0.010416317731142044, 0.05785122141242027, -0.12055053561925888, -0.8262789249420166, -0.9553621411323547, 0.05595502257347107, -0.18164019655225935, -0.16884839621508263, -3.4162999614666485, 9362.0, 30146.0, 35388.0, 9362.0, 8.390083312988281, 0.0693935975432396, 0.007123635616153479, -0.23121625185012817, 0.005500584840774536, -0.0561317577958107, 1.0014084577560425, -0.0640314519405365, -0.03959846496582031, 1.49267578125, 1.50439453125, 0.2044219970703125, 1.49267578125, 1.437744140625, 10.0, 1.436971664428711, 1.5, 1.436971664428711
16866, -1.2143609523773193, -0.23420250415802002, 1.080165147781372, 0.0015576789155602455, 0.008617637678980827, -0.8999961614608765, 0.01078320574015379, 0.059938959777355194, -0.12055646628141403, -0.8262325525283813, -0.9553765058517456, 0.05597073584794998, -0.16457536570005307, -0.19977230834760462, -3.4283620976467892, 9362.0, 30146.0, 35388.0, 9362.0, 8.390083312988281, -0.06148989126086235, -0.1700870394706726, 0.06160768121480942, 0.004601726308465004, -0.0555703341960907, 0.9992576837539673, -0.0640314519405365, -0.03959846496582031, 1.49267578125, 1.35498046875, 0.01556396484375, 1.49267578125, 1.5146484375, 10.0, 1.4374054670333862, 1.5, 1.4374054670333862
16876, -1.2146164178848267, -0.23395058512687683, 1.0813307762145996, 0.0016673229401931167, 0.009227477014064789, -0.9012011885643005, 0.01114564947783947, 0.06202879175543785, -0.1204521432518959, -0.8262341618537903, -0.9553818702697754, 0.055978428572416306, -0.15922621878303728, -0.20382343867993313, -3.424691438334748, 9362.0, 30146.0, 35388.0, 9362.0, 8.390083312988281, 0.0641816183924675, 0.39404213428497314, 0.15977191925048828, 0.0037385886535048485, -0.0570044182240963, 0.9972500801086426, -0.0640314519405365, -0.03959846496582031, 1.49267578125, 1.494873046875, 0.185455322265625, 1.49267578125, 1.27001953125, 10.0, 1.4376895427703857, 1.5, 1.4376895427703857
16886, -1.2142976522445679, -0.236982524394989, 1.0819458961486816, 0.0017805868992581964, 0.009858191944658756, -0.9024060368537903, 0.011507104150950909, 0.06411419808864594, -0.12051302939653397, -0.8262434005737305, -0.9553830027580261, 0.05595650523900986, -0.165737151085554, -0.19259205402488533, -3.4191565319276336, 9362.0, 30146.0, 35388.0, 9362.0, 8.390083312988281, 0.06015294790267944, -0.04237329959869385, -0.4303811490535736, 0.003795135300606489, -0.05805867910385132, 0.9981076121330261, -0.07881643623113632, -0.1291980743408203, 1.4853515625, 1.17626953125, 0.534088134765625, 1.49267578125, 1.374755859375, 10.0, 1.4381026029586792, 1.5, 1.4381026029586792
16896, -1.2134500741958618, -0.23623168468475342, 1.0786188840866089, 0.0018974593840539455, 0.010509742423892021, -0.903612494468689, 0.011867351830005646, 0.06619581580162048, -0.12077301740646362, -0.8262695670127869, -0.9553613662719727, 0.05595158785581589, -0.18185254869236958, -0.17868435974361319, -3.4103555157525074, 9362.0, 30146.0, 35388.0, 9362.0, 8.390083312988281, 0.014299268834292889, 0.13708817958831787, -0.05830252170562744, 0.0027596885338425636, -0.05655457451939583, 0.9983780980110168, -0.07881643623113632, -0.1291980743408203, 1.4853515625, 1.48974609375, 0.1755218505859375, 1.48828125, 1.58642578125, 10.0, 1.4384888410568237, 1.5, 1.4384888410568237
16916, -1.2142630815505981, -0.2346903532743454, 1.0810976028442383, 0.0020179611165076494, 0.01118211168795824, -0.9048212766647339, 0.01223309338092804, 0.06827793270349503, -0.1209871768951416, -0.826282262802124, -0.9553563594818115, 0.05593095347285271, -0.18230892697983156, -0.1751049876932882, -3.409039723353696, 9362.0, 30146.0, 35388.0, 9362.0, 8.390083312988281, 0.15613429248332977, -0.13262957334518433, -0.4090418219566345, 0.0035935246851295233, -0.05549156665802002, 1.0003635883331299, -0.07881643623113632, -0.1291980743408203, 1.4853515625, 1.09716796875, 1.302642822265625, 1.48828125, 1.571044921875, 10.0, 1.4384888410568237, 1.5, 1.4384888410568237
16926, -1.2144160270690918, -0.233179971575737, 1.078895092010498, 0.0020179611165076494, 0.01118211168795824, -0.9048212766647339, 0.01223309338092804, 0.06827793270349503, -0.1209871768951416, -0.8262240886688232, -0.9553753137588501, 0.05598841607570648, -0.16286629438966785, -0.20309025517457258, -3.412458001642316, 9362.0, 30146.0, 35388.0, 9362.0, 8.390083312988281, 0.03593704476952553, 0.06995782256126404, -0.20439879596233368, 0.0035935246851295233, -0.05549156665802002, 1.0003635883331299, -0.07881643623113632, -0.1291980743408203, 1.4853515625, 1.3505859375, 0.0153045654296875, 1.48828125, 1.571044921875, 10.0, 1.4384888410568237, 1.5, 1.4384888410568237
16936, -1.2150367498397827, -0.23377655446529388, 1.0776278972625732, 0.0020179611165076494, 0.01118211168795824, -0.9048212766647339, 0.01223309338092804, 0.06827793270349503, -0.1209871768951416, -0.8262386918067932, -0.9553703665733337, 0.05597155541181564, -0.1583832561469262, -0.20029384399714445, -3.4322899576790253, 9362.0, 30146.0, 35388.0, 9362.0, 8.390083312988281, 0.03370319679379463, -0.024727454409003258, -0.18368858098983765, 0.006003650836646557, -0.054265767335891724, 1.0009944438934326, -0.07881643623113632, -0.1291980743408203, 1.4853515625, 1.3505859375, 0.0153045654296875, 1.494140625, 1.571044921875, 10.0, 1.4370838403701782, 1.5, 1.4370838403701782
16946, -1.214678168296814, -0.23334605991840363, 1.0761538743972778, 0.0020179611165076494, 0.01118211168795824, -0.9048212766647339, 0.01223309338092804, 0.06827793270349503, -0.1209871768951416, -0.8262456655502319, -0.9553858041763306, 0.05595162510871887, -0.1616152718293427, -0.20753576121580863, -3.4116812177536473, 9362.0, 30146.0, 35388.0, 9362.0, 8.390083312988281, -0.13504046201705933, 0.19775989651679993, -0.12445497512817383, 0.006003650836646557, -0.054265767335891724, 1.0009944438934326, -0.07881643623113632, -0.1291980743408203, 1.4853515625, 1.3505859375, 0.0153045654296875, 1.494140625, 1.30517578125, 10.0, 1.4370838403701782, 1.5, 1.4370838403701782
16956, -1.21414315700531, -0.2350083291530609, 1.0748114585876465, 0.0020179611165076494, 0.01118211168795824, -0.9048212766647339, 0.01223309338092804, 0.06827793270349503, -0.1209871768951416, -0.8262971043586731, -0.9554063677787781, 0.05593157932162285, -0.16924723912387707, -0.21866591964976578, -3.4109780426017413, 9362.0, 30146.0, 35388.0, 9362.0, 8.390083312988281, -0.1490560919046402, -0.2893871068954468, -0.10572674125432968, 0.006003650836646557, -0.054265767335891724, 1.0009944438934326, -0.07881643623113632, -0.1291980743408203, 1.4853515625, 1.023193359375, 2.494110107421875, 1.494140625, 1.30517578125, 10.0, 1.437300682067871, 1.5, 1.437300682067871
16966, -1.2139557600021362, -0.23482626676559448, 1.0735174417495728, 0.0020179611165076494, 0.01118211168795824, -0.9048212766647339, 0.01223309338092804, 0.06827793270349503, -0.1209871768951416, -0.8262884616851807, -0.9553778767585754, 0.055976077914237976, -0.16237239544578422, -0.20410310269025445, -3.416554626044625, 9362.0, 30146.0, 35388.0, 9362.0, 8.390083312988281, -0.1490560919046402, -0.2893871068954468, -0.10572674125432968, 0.006003650836646557, -0.054265767335891724, 1.0009944438934326, -0.07881643623113632, -0.1291980743408203, 1.4853515625, 1.414306640625, 0.05517578125, 1.494140625, 1.30517578125, 10.0, 1.437300682067871, 1.5, 1.437300682067871
16976, -1.2146236896514893, -0.23285821080207825, 1.0735582113265991, 0.0020179611165076494, 0.01118211168795824, -0.9048212766647339, 0.01223309338092804, 0.06827793270349503, -0.1209871768951416, -0.8262340426445007, -0.9553828239440918, 0.055966734886169434, -0.16497497904794445, -0.19761568192194545, -3.4113696341466095, 9362.0, 30146.0, 35388.0, 9362.0, 8.390083312988281, -0.17928875982761383, -0.11996003985404968, -0.10358570516109467, 0.003206520341336727, -0.05561811849474907, 0.9993760585784912, -0.07881643623113632, -0.1291980743408203, 1.4853515625, 1.077392578125, 1.570770263671875, 1.494140625, 1.30517578125, 10.0, 1.437300682067871, 1.5, 1.437300682067871
16986, -1.2152013778686523, -0.23200350999832153, 1.072933316230774, 0.0031126118265092373, 0.01731099747121334, -0.9145384430885315, 0.015129824168980122, 0.08494660258293152, -0.12195907533168793, -0.8262425065040588, -0.9553912281990051, 0.05595758557319641, -0.15609140300801871, -0.1962728312550439, -3.424880139414464, 9362.0, 30146.0, 35388.0, 9362.0, 8.390083312988281, -0.17928875982761383, -0.11996003985404968, -0.10358570516109467, 0.004899259656667709, -0.055021051317453384, 0.9984549283981323, -0.07881643623113632, -0.1291980743408203, 1.4853515625, 1.077392578125, 1.570770263671875, 1.494140625, 1.547607421875, 10.0, 1.437300682067871, 1.5, 1.437300682067871
16996, -1.2149192094802856, -0.23229216039180756, 1.0732907056808472, 0.0031126118265092373, 0.01731099747121334, -0.9145384430885315, 0.015129824168980122, 0.08494660258293152, -0.12195907533168793, -0.8263278007507324, -0.9553906321525574, 0.05593176186084747, -0.19341142563377312, -0.18645675678135376, -3.394219694197852, 9362.0, 30146.0, 35388.0, 9362.0, 8.390083312988281, -0.057371191680431366, 0.1418457180261612, -0.2074698805809021, 0.004899259656667709, -0.055021051317453384, 0.9984549283981323, -0.07881643623113632, -0.1291980743408203, 1.4853515625, 1.077392578125, 1.570770263671875, 1.494140625, 1.547607421875, 10.0, 1.4357655048370361, 1.5, 1.4357655048370361
17006, -1.2152141332626343, -0.23403790593147278, 1.0723909139633179, 0.0031126118265092373, 0.01731099747121334, -0.9145384430885315, 0.015129824168980122, 0.08494660258293152, -0.12195907533168793, -0.8262455463409424, -0.9553776979446411, 0.05595874786376953, -0.15670832812429866, -0.20980263445571268, -3.4177650674424633, 9362.0, 30146.0, 35388.0, 9362.0, 8.390083312988281, -0.047043897211551666, 0.22572515904903412, -0.17374330759048462, 0.004899259656667709, -0.055021051317453384, 0.9984549283981323, -0.07881643623113632, -0.1291980743408203, 1.4853515625, 1.216552734375, 0.297210693359375, 1.494140625, 1.547607421875, 10.0, 1.4356210231781006, 1.5, 1.4356210231781006
17016, -1.2157350778579712, -0.23447205126285553, 1.070488691329956, 0.0031126118265092373, 0.01731099747121334, -0.9145384430885315, 0.015129824168980122, 0.08494660258293152, -0.12195907533168793, -0.8262790441513062, -0.9554228782653809, 0.05594441294670105, -0.1713929542236791, -0.219301234078074, -3.410825990024219, 9362.0, 30146.0, 35388.0, 9362.0, 8.390083312988281, 0.2265630066394806, -0.08598893135786057, -0.25897151231765747, 0.0035959528759121895, -0.05576593428850174, 0.9969127178192139, -0.07881643623113632, -0.1291980743408203, 1.4853515625, 1.46630859375, 0.132171630859375, 1.494140625, 1.2890625, 10.0, 1.4356210231781006, 1.5, 1.4356210231781006
17026, -1.2142997980117798, -0.23474469780921936, 1.0696221590042114, 0.0031126118265092373, 0.01731099747121334, -0.9145384430885315, 0.015129824168980122, 0.08494660258293152, -0.12195907533168793, -0.8262776136398315, -0.955363929271698, 0.05594224855303764, -0.18320554210594073, -0.1664355254428358, -3.4150489890232723, 9362.0, 30146.0, 35388.0, 9362.0, 8.390083312988281, 0.2265630066394806, -0.08598893135786057, -0.25897151231765747, 0.0053098066709935665, -0.05484237149357796, 0.9972583651542664, -0.07881643623113632, -0.1291980743408203, 1.4853515625, 1.097900390625, 1.2933502197265625, 1.494140625, 1.2890625, 10.0, 1.4356210231781006, 1.5, 1.4356210231781006
17036, -1.2140816450119019, -0.23598496615886688, 1.0680733919143677, 0.0031126118265092373, 0.01731099747121334, -0.9145384430885315, 0.015129824168980122, 0.08494660258293152, -0.12195907533168793, -0.826328694820404, -0.9553797245025635, 0.055893708020448685, -0.19141557762739267, -0.19503408563019775, -3.4020701989609883, 9362.0, 30146.0, 35388.0, 9362.0, 8.390083312988281, 0.2265630066394806, -0.08598893135786057, -0.25897151231765747, 0.0033083632588386536, -0.055177491158246994, 1.0000039339065552, -0.07881643623113632, -0.1291980743408203, 1.4853515625, 1.116943359375, 1.0672607421875, 1.494140625, 1.5849609375, 10.0, 1.4347280263900757, 1.5, 1.4347280263900757
17046, -1.2142518758773804, -0.2366141676902771, 1.0668030977249146, 0.004085056949406862, 0.02278301864862442, -0.9218822717666626, 0.01728961430490017, 0.09744884073734283, -0.12308832257986069, -0.8262319564819336, -0.9553890228271484, 0.055937718600034714, -0.15635758069368455, -0.196697645134293, -3.423988197129981, 9362.0, 30146.0, 35388.0, 9362.0, 8.390083312988281, 0.14099641144275665, -0.10645227879285812, -0.2959119975566864, 0.003767989343032241, -0.055372823029756546, 0.9985670447349548, -0.07881643623113632, -0.1291980743408203, 1.4853515625, 1.116943359375, 1.0672607421875, 1.494140625, 1.5849609375, 10.0, 1.4347280263900757, 1.5, 1.4347280263900757
17056, -1.213096022605896, -0.23653733730316162, 1.064966082572937, 0.004085056949406862, 0.02278301864862442, -0.9218822717666626, 0.01728961430490017, 0.09744884073734283, -0.12308832257986069, -0.8262709379196167, -0.9554123878479004, 0.055947594344615936, -0.17243554979688025, -0.22096852722816607, -3.4077660355744683, 9362.0, 30146.0, 35388.0, 9362.0, 8.390083312988281, 0.014066358096897602, 0.2871546447277069, -0.244842529296875, 0.005070394836366177, -0.05547739565372467, 0.9958375096321106, -0.07881643623113632, -0.1291980743408203, 1.4853515625, 1.116943359375, 1.0672607421875, 1.494873046875, 1.591552734375, 10.0, 1.4347280263900757, 1.5, 1.4347280263900757
17066, -1.2130788564682007, -0.23797863721847534, 1.0636889934539795, 0.004085056949406862, 0.02278301864862442, -0.9218822717666626, 0.01728961430490017, 0.09744884073734283, -0.12308832257986069, -0.8262799382209778, -0.9553671479225159, 0.05594829469919205, -0.18927221776081332, -0.17256127830904688, -3.407594282787637, 9362.0, 30146.0, 35388.0, 9362.0, 8.390083312988281, 0.02514815889298916, -0.2520633339881897, 0.08228160440921783, 0.005070394836366177, -0.05547739565372467, 0.9958375096321106, -0.07881643623113632, -0.1291980743408203, 1.4853515625, 1.116943359375, 1.0672607421875, 1.494873046875, 1.342529296875, 10.0, 1.4347280263900757, 1.5, 1.4347280263900757
17076, -1.2127265930175781, -0.23727288842201233, 1.0644690990447998, 0.004085056949406862, 0.02278301864862442, -0.9218822717666626, 0.01728961430490017, 0.09744884073734283, -0.12308832257986069, -0.8262403607368469, -0.9553986191749573, 0.0559542290866375, -0.16111889296705909, -0.1992114969920351, -3.423063376069275, 9362.0, 30146.0, 35388.0, 9362.0, 8.390083312988281, -0.05649111419916153, 0.041263729333877563, -0.0639248788356781, 0.005070394836366177, -0.05547739565372467, 0.9958375096321106, -0.07881643623113632, -0.1291980743408203, 1.4853515625, 1.275146484375, 0.09429931640625, 1.4912109375, 1.342529296875, 10.0, 1.4351919889450073, 1.5, 1.4351919889450073
17086, -1.2132446765899658, -0.2377495914697647, 1.06393301486969, 0.004085056949406862, 0.02278301864862442, -0.9218822717666626, 0.01728961430490017, 0.09744884073734283, -0.12308832257986069, -0.8263179063796997, -0.955394446849823, 0.055898621678352356, -0.19290683727982022, -0.1805555298498689, -3.432702677055343, 9362.0, 30146.0, 35388.0, 9362.0, 8.390083312988281, 0.0014807236148044467, 0.22093625366687775, 0.00631943391636014, 0.005070394836366177, -0.05547739565372467, 0.9958375096321106, -0.07281549274921417, 0.05000114440917969, 1.5, 1.2978515625, 0.05224609375, 1.4912109375, 1.342529296875, 10.0, 1.4339271783828735, 1.5, 1.4339271783828735
17096, -1.2137547731399536, -0.23770453035831451, 1.0633107423782349, 0.004085056949406862, 0.02278301864862442, -0.9218822717666626, 0.01728961430490017, 0.09744884073734283, -0.12308832257986069, -0.8263213634490967, -0.9553948044776917, 0.05589687079191208, -0.19456208179357967, -0.19531659080925579, -3.39994608635284, 9362.0, 30146.0, 35388.0, 9362.0, 8.390083312988281, 0.06232406944036484, -0.09915156662464142, -0.14060506224632263, 0.005070394836366177, -0.05547739565372467, 0.9958375096321106, -0.07281549274921417, 0.05000114440917969, 1.5, 1.2978515625, 0.05224609375, 1.490478515625, 1.342529296875, 10.0, 1.4333573579788208, 1.5, 1.4333573579788208
17106, -1.2142422199249268, -0.23591847717761993, 1.061672329902649, 0.004085056949406862, 0.02278301864862442, -0.9218822717666626, 0.01728961430490017, 0.09744884073734283, -0.12308832257986069, -0.8262263536453247, -0.9553983807563782, 0.05596040189266205, -0.1614142204480563, -0.19648191790219016, -3.4230206242501464, 9362.0, 30146.0, 35388.0, 9362.0, 8.390083312988281, 0.16072678565979004, -0.06515305489301682, 0.14439265429973602, 0.004461958538740873, -0.05320391431450844, 0.9982064962387085, -0.07281549274921417, 0.05000114440917969, 1.5, 1.04443359375, 2.0972442626953125, 1.490478515625, 1.56591796875, 10.0, 1.4333573579788208, 1.5, 1.4333573579788208
17116, -1.2139149904251099, -0.23441463708877563, 1.061858057975769, 0.004085056949406862, 0.02278301864862442, -0.9218822717666626, 0.01728961430490017, 0.09744884073734283, -0.12308832257986069, -0.826299250125885, -0.955418586730957, 0.055904559791088104, -0.17084777936933757, -0.22039998239495162, -3.4041075356439445, 9362.0, 30146.0, 35388.0, 9362.0, 8.390083312988281, -0.04515477642416954, -0.3934342563152313, 0.16829197108745575, 0.0031231832690536976, -0.05369216576218605, 0.9977695941925049, -0.07281549274921417, 0.05000114440917969, 1.5, 1.04443359375, 2.0972442626953125, 1.493408203125, 1.48388671875, 10.0, 1.4333573579788208, 1.5, 1.4333573579788208
17126, -1.2147482633590698, -0.23095330595970154, 1.0621089935302734, 0.005585433915257454, 0.031245222315192223, -0.9317771196365356, 0.020221691578626633, 0.11410541832447052, -0.12430857867002487, -0.826231837272644, -0.9553887844085693, 0.05595039576292038, -0.16440321735976543, -0.19932153070587333, -3.4158493853221588, 9362.0, 30146.0, 35388.0, 9362.0, 8.390083312988281, 0.20860862731933594, 0.16804921627044678, 0.16369138658046722, 0.0033364638220518827, -0.0543491393327713, 0.9975799918174744, -0.07281549274921417, 0.05000114440917969, 1.5, 1.04443359375, 2.0972442626953125, 1.493408203125, 1.55419921875, 10.0, 1.4333573579788208, 1.5, 1.4333573579788208
17136, -1.214050531387329, -0.23099899291992188, 1.0620182752609253, 0.005585433915257454, 0.031245222315192223, -0.9317771196365356, 0.020221691578626633, 0.11410541832447052, -0.12430857867002487, -0.826242983341217, -0.9553894400596619, 0.05593490973114967, -0.16398169485310374, -0.1966030670484713, -3.4197097010692605, 9362.0, 30146.0, 35388.0, 9362.0, 8.390083312988281, 0.20860862731933594, 0.16804921627044678, 0.16369138658046722, 0.004487512167543173, -0.055533815175294876, 0.9992225766181946, -0.07281549274921417, 0.05000114440917969, 1.5, 1.4033203125, 0.043182373046875, 1.493408203125, 1.55419921875, 10.0, 1.4335224628448486, 1.5, 1.4335224628448486
17146, -1.2130546569824219, -0.23071147501468658, 1.0633078813552856, 0.005997075699269772, 0.03356895595788956, -0.9342679977416992, 0.020939543843269348, 0.11826836317777634, -0.12478064745664597, -0.8262420892715454, -0.9554009437561035, 0.05592704191803932, -0.16436156642891642, -0.19650752585570785, -3.434062067873956, 9362.0, 30146.0, 35388.0, 9362.0, 8.390083312988281, 0.1706555038690567, -0.12630672752857208, -0.23320506513118744, 0.0019112296868115664, -0.05696890130639076, 0.9987813234329224, -0.07281549274921417, 0.05000114440917969, 1.5, 1.4033203125, 0.043182373046875, 1.493408203125, 1.55419921875, 10.0, 1.4335224628448486, 1.5, 1.4335224628448486
17156, -1.2121843099594116, -0.22981461882591248, 1.0610554218292236, 0.005997075699269772, 0.03356895595788956, -0.9342679977416992, 0.020939543843269348, 0.11826836317777634, -0.12478064745664597, -0.8262293934822083, -0.9553952217102051, 0.055970922112464905, -0.16840855626219706, -0.21153210742292572, -3.414390989843563, 9362.0, 30146.0, 35388.0, 9362.0, 8.390083312988281, 0.1706555038690567, -0.12630672752857208, -0.23320506513118744, 0.0028509178664535284, -0.05956752598285675, 0.996299147605896, -0.07281549274921417, 0.05000114440917969, 1.5, 1.4033203125, 0.043182373046875, 1.493408203125, 1.55419921875, 10.0, 1.434213638305664, 1.5, 1.434213638305664
17176, -1.2137864828109741, -0.23230275511741638, 1.0606268644332886, 0.005997075699269772, 0.03356895595788956, -0.9342679977416992, 0.020939543843269348, 0.11826836317777634, -0.12478064745664597, -0.8262332081794739, -0.9554067254066467, 0.05595824494957924, -0.16742498180625168, -0.20645992068992314, -3.4180152906608696, 9362.0, 30146.0, 35388.0, 9362.0, 8.390083312988281, 0.030036931857466698, 0.24036246538162231, -0.13153699040412903, 0.0028509178664535284, -0.05956752598285675, 0.996299147605896, -0.07281549274921417, 0.05000114440917969, 1.5, 0.97412109375, 3.60498046875, 1.493408203125, 1.55419921875, 10.0, 1.4343202114105225, 1.5, 1.4343202114105225
17196, -1.2146822214126587, -0.23180623352527618, 1.0581265687942505, 0.005997075699269772, 0.03356895595788956, -0.9342679977416992, 0.020939543843269348, 0.11826836317777634, -0.12478064745664597, -0.8262838125228882, -0.9554191827774048, 0.055930912494659424, -0.17090769310930845, -0.22074224035623047, -3.4053935600898506, 9362.0, 30146.0, 35388.0, 9362.0, 8.390083312988281, -0.03270093351602554, 0.0867626965045929, 0.004452356602996588, 0.003372338367626071, -0.05449902266263962, 0.994585394859314, -0.09150096774101257, -0.07543754577636719, 1.48974609375, 1.08544921875, 1.4573974609375, 1.49267578125, 1.5205078125, 10.0, 1.4343202114105225, 1.5, 1.4343202114105225
17206, -1.2154189348220825, -0.23157817125320435, 1.0572154521942139, 0.005997075699269772, 0.03356895595788956, -0.9342679977416992, 0.020939543843269348, 0.11826836317777634, -0.12478064745664597, -0.8262460231781006, -0.9553952217102051, 0.055961087346076965, -0.16604142258125085, -0.20597581230853734, -3.423188146052075, 9362.0, 30146.0, 35388.0, 9362.0, 8.390083312988281, -0.03270093351602554, 0.0867626965045929, 0.004452356602996588, 0.004099295940250158, -0.05660288780927658, 0.9993830323219299, -0.09150096774101257, -0.07543754577636719, 1.48974609375, 1.037841796875, 2.215362548828125, 1.49267578125, 1.550537109375, 10.0, 1.4326924085617065, 1.5, 1.4326924085617065
17216, -1.2156504392623901, -0.23113593459129333, 1.0563942193984985, 0.005997075699269772, 0.03356895595788956, -0.9342679977416992, 0.020939543843269348, 0.11826836317777634, -0.12478064745664597, -0.8262869119644165, -0.9554310441017151, 0.05592380091547966, -0.17382257535719345, -0.2134279402287973, -3.4026749014259754, 9362.0, 30146.0, 35388.0, 9362.0, 8.390083312988281, 0.1792822927236557, 0.37608441710472107, -0.16669340431690216, 0.002822656650096178, -0.05557961389422417, 0.999643862247467, -0.09150096774101257, -0.07543754577636719, 1.48974609375, 1.037841796875, 2.215362548828125, 1.493408203125, 1.51904296875, 10.0, 1.4326924085617065, 1.5, 1.4326924085617065
17226, -1.2147495746612549, -0.2332971841096878, 1.054652452468872, 0.0077863032929599285, 0.04369569569826126, -0.9443377256393433, 0.02379533089697361, 0.13490091264247894, -0.12716291844844818, -0.8262461423873901, -0.9553977847099304, 0.055941466242074966, -0.16330050889689135, -0.20652382977490902, -3.420406059967964, 9362.0, 30146.0, 35388.0, 9362.0, 8.390083312988281, -0.15831930935382843, 0.054030198603868484, 0.49825990200042725, 0.002822656650096178, -0.05557961389422417, 0.999643862247467, -0.09150096774101257, -0.07543754577636719, 1.48974609375, 1.037841796875, 2.215362548828125, 1.493408203125, 1.53515625, 10.0, 1.4326924085617065, 1.5, 1.4326924085617065
17236, -1.214961290359497, -0.23427993059158325, 1.0575695037841797, 0.0077863032929599285, 0.04369569569826126, -0.9443377256393433, 0.02379533089697361, 0.13490091264247894, -0.12716291844844818, -0.8263016939163208, -0.9554233551025391, 0.055909182876348495, -0.17369948011031505, -0.21825387599778878, -3.4074833181509523, 9362.0, 30146.0, 35388.0, 9362.0, 8.390083312988281, 0.0431697741150856, 0.17495431005954742, 0.019512265920639038, 0.002822656650096178, -0.05557961389422417, 0.999643862247467, -0.09150096774101257, -0.07543754577636719, 1.48974609375, 1.452392578125, 0.10870361328125, 1.493408203125, 1.414306640625, 10.0, 1.4326924085617065, 1.5, 1.4326924085617065
17246, -1.214434266090393, -0.23656295239925385, 1.0579241514205933, 0.0077863032929599285, 0.04369569569826126, -0.9443377256393433, 0.02379533089697361, 0.13490091264247894, -0.12716291844844818, -0.8262991905212402, -0.9554279446601868, 0.055903684347867966, -0.17605429752093388, -0.21794830645725938, -3.4086336965059867, 9362.0, 30146.0, 35388.0, 9362.0, 8.390083312988281, -0.26547032594680786, 0.05875895544886589, 0.43581005930900574, 0.002822656650096178, -0.05557961389422417, 0.999643862247467, -0.09150096774101257, -0.07543754577636719, 1.48974609375, 1.452392578125, 0.10870361328125, 1.493408203125, 1.414306640625, 10.0, 1.430828332901001, 1.5, 1.430828332901001
17256, -1.2166739702224731, -0.23730845749378204, 1.0604884624481201, 0.0077863032929599285, 0.04369569569826126, -0.9443377256393433, 0.02379533089697361, 0.13490091264247894, -0.12716291844844818, -0.8263281583786011, -0.9554094076156616, 0.05588630214333534, -0.2013216615275902, -0.18154888084720255, -3.399288033955946, 9362.0, 30146.0, 35388.0, 9362.0, 8.390083312988281, 0.2700118124485016, 0.12388943880796432, 0.07283372431993484, 0.002822656650096178, -0.05557961389422417, 0.999643862247467, -0.09150096774101257, -0.07543754577636719, 1.48974609375, 1.452392578125, 0.10870361328125, 1.493408203125, 1.30517578125, 10.0, 1.430828332901001, 1.5, 1.430828332901001
17266, -1.2154324054718018, -0.23808957636356354, 1.0606340169906616, 0.008766883052885532, 0.04925854131579399, -0.9494345784187317, 0.0252399779856205, 0.14323502779006958, -0.12791886925697327, -0.826286256313324, -0.9554266929626465, 0.05590459331870079, -0.17541515773365315, -0.21840626126339657, -3.4073637549256106, 9362.0, 30146.0, 35388.0, 9362.0, 8.390083312988281, -0.010725359432399273, 0.23177430033683777, -0.32592934370040894, 0.0032348043750971556, -0.05533512309193611, 0.9985347986221313, -0.09150096774101257, -0.07543754577636719, 1.48974609375, 1.452392578125, 0.10870361328125, 1.493408203125, 1.49267578125, 10.0, 1.430828332901001, 1.5, 1.430828332901001
17276, -1.2150540351867676, -0.23866382241249084, 1.0586483478546143, 0.008766883052885532, 0.04925854131579399, -0.9494345784187317, 0.0252399779856205, 0.14323502779006958, -0.12791886925697327, -0.8262364864349365, -0.9553976655006409, 0.05594438314437866, -0.1599304157353323, -0.20529163933886707, -3.4147187717526446, 9362.0, 30146.0, 35388.0, 9362.0, 8.390083312988281, -0.021112585440278053, 0.022740844637155533, -0.3344832956790924, 0.004416908137500286, -0.05584201216697693, 1.0012701749801636, -0.09150096774101257, -0.07543754577636719, 1.48974609375, 1.452392578125, 0.10870361328125, 1.493408203125, 1.480224609375, 10.0, 1.430828332901001, 1.5, 1.430828332901001
17296, -1.2162216901779175, -0.23948122560977936, 1.0580581426620483, 0.009279021993279457, 0.052164919674396515, -0.951998770236969, 0.025974877178668976, 0.14740340411663055, -0.12842440605163574, -0.8262947797775269, -0.955439031124115, 0.055911898612976074, -0.17574960641511883, -0.2208082361155448, -3.406301686851701, 9362.0, 30146.0, 35388.0, 9362.0, 8.390083312988281, 0.18829859793186188, -0.15030397474765778, -0.08887583017349243, 0.004416908137500286, -0.05584201216697693, 1.0012701749801636, -0.056070271879434586, -0.05751800537109375, 1.4912109375, 1.16162109375, 0.643707275390625, 1.493408203125, 1.353515625, 10.0, 1.4295984506607056, 1.5, 1.4295984506607056
17306, -1.2150812149047852, -0.23859204351902008, 1.0571166276931763, 0.009279021993279457, 0.052164919674396515, -0.951998770236969, 0.025974877178668976, 0.14740340411663055, -0.12842440605163574, -0.8262484073638916, -0.9553940892219543, 0.05595218762755394, -0.16367825724516458, -0.2046473676363405, -3.413390252074386, 9362.0, 30146.0, 35388.0, 9362.0, 8.390083312988281, 0.004640715196728706, -0.21188145875930786, 0.10330589860677719, 0.004416908137500286, -0.05584201216697693, 1.0012701749801636, -0.056070271879434586, -0.05751800537109375, 1.4912109375, 1.5029296875, 0.201446533203125, 1.493408203125, 1.32861328125, 10.0, 1.4295984506607056, 1.5, 1.4295984506607056
17316, -1.2147315740585327, -0.23717950284481049, 1.0571198463439941, 0.009279021993279457, 0.052164919674396515, -0.951998770236969, 0.025974877178668976, 0.14740340411663055, -0.12842440605163574, -0.8262997269630432, -0.9554239511489868, 0.0559348464012146, -0.17608924125808523, -0.2199162004676225, -3.412142807473215, 9362.0, 30146.0, 35388.0, 9362.0, 8.390083312988281, -0.030526835471391678, -0.12888970971107483, -0.06762180477380753, 0.004416908137500286, -0.05584201216697693, 1.0012701749801636, -0.056070271879434586, -0.05751800537109375, 1.4912109375, 1.5029296875, 0.201446533203125, 1.48974609375, 1.32861328125, 10.0, 1.4295984506607056, 1.5, 1.4295984506607056
17326, -1.2145863771438599, -0.23520483076572418, 1.0567214488983154, 0.009279021993279457, 0.052164919674396515, -0.951998770236969, 0.025974877178668976, 0.14740340411663055, -0.12842440605163574, -0.8262426257133484, -0.9553963541984558, 0.05594644695520401, -0.15712196474735518, -0.19961943010716254, -3.426747756463665, 9362.0, 30146.0, 35388.0, 9362.0, 8.390083312988281, 0.08702743798494339, 0.1759692281484604, -0.04347103834152222, 0.0031459585297852755, -0.05808740481734276, 0.9964439272880554, -0.056070271879434586, -0.05751800537109375, 1.4912109375, 0.976318359375, 3.5489959716796875, 1.48974609375, 1.59521484375, 10.0, 1.4295984506607056, 1.5, 1.4295984506607056
17336, -1.214159607887268, -0.2355368733406067, 1.0563414096832275, 0.01062406413257122, 0.059795916080474854, -0.958430290222168, 0.027823403477668762, 0.1578311175107956, -0.12905709445476532, -0.8262307643890381, -0.9554002285003662, 0.05596769601106644, -0.16245361701635078, -0.19650357988430756, -3.421127559235932, 9362.0, 30146.0, 35388.0, 9362.0, 8.390083312988281, 0.010071126744151115, -0.18691112101078033, -0.16715669631958008, 0.0038491946179419756, -0.05392901971936226, 0.998905599117279, -0.056070271879434586, -0.05751800537109375, 1.4912109375, 0.976318359375, 3.5489959716796875, 1.48974609375, 1.59521484375, 10.0, 1.4295984506607056, 1.5, 1.4295984506607056
17346, -1.2137703895568848, -0.2348913699388504, 1.0553772449493408, 0.01062406413257122, 0.059795916080474854, -0.958430290222168, 0.027823403477668762, 0.1578311175107956, -0.12905709445476532, -0.8262439966201782, -0.9553907513618469, 0.05595030263066292, -0.16305010924007754, -0.20452411179934415, -3.429379675966409, 9362.0, 30146.0, 35388.0, 9362.0, 8.390083312988281, -0.22159354388713837, -0.26916027069091797, 0.023285577073693275, 0.0038491946179419756, -0.05392901971936226, 0.998905599117279, -0.056070271879434586, -0.05751800537109375, 1.4912109375, 1.423828125, 0.066802978515625, 1.48974609375, 1.58935546875, 10.0, 1.4295984506607056, 1.5, 1.4295984506607056
17366, -1.2156985998153687, -0.2315412163734436, 1.055326223373413, 0.01062406413257122, 0.059795916080474854, -0.958430290222168, 0.027823403477668762, 0.1578311175107956, -0.12905709445476532, -0.8262872695922852, -0.9553765654563904, 0.05594082921743393, -0.18824829130737103, -0.1740758730132086, -3.4090303874652697, 9362.0, 30146.0, 35388.0, 9362.0, 8.390083312988281, 0.16985926032066345, -0.08171273022890091, 0.09992491453886032, 0.0030276519246399403, -0.05422010272741318, 0.9989715814590454, -0.056070271879434586, -0.05751800537109375, 1.4912109375, 1.124267578125, 0.9879302978515625, 1.48974609375, 1.58935546875, 10.0, 1.4295984506607056, 1.5, 1.4295984506607056
17376, -1.2156670093536377, -0.23100920021533966, 1.0565316677093506, 0.01062406413257122, 0.059795916080474854, -0.958430290222168, 0.027823403477668762, 0.1578311175107956, -0.12905709445476532, -0.8262903094291687, -0.9554214477539062, 0.05594807118177414, -0.17295335814663124, -0.2135370575369393, -3.4086114865286854, 9362.0, 30146.0, 35388.0, 9362.0, 8.390083312988281, 0.16985926032066345, -0.08171273022890091, 0.09992491453886032, 0.0028555928729474545, -0.05425325408577919, 0.9977944493293762, -0.056070271879434586, -0.05751800537109375, 1.4912109375, 1.3359375, 0.01806640625, 1.48974609375, 1.58935546875, 10.0, 1.4273340702056885, 1.5, 1.4273340702056885
17386, -1.2156237363815308, -0.22892306745052338, 1.0551915168762207, 0.012060589157044888, 0.06794773787260056, -0.9649099707603455, 0.029630988836288452, 0.16824586689472198, -0.13004256784915924, -0.8262333273887634, -0.9553931355476379, 0.05598040670156479, -0.16299555614557418, -0.20683186430622413, -3.4232111779771484, 9362.0, 30146.0, 35388.0, 9362.0, 8.390083312988281, 0.16985926032066345, -0.08171273022890091, 0.09992491453886032, 0.0028555928729474545, -0.05425325408577919, 0.9977944493293762, -0.056070271879434586, -0.05751800537109375, 1.4912109375, 1.3359375, 0.01806640625, 1.48974609375, 1.58935546875, 10.0, 1.4273340702056885, 1.5, 1.4273340702056885
17396, -1.2158787250518799, -0.23062172532081604, 1.055556058883667, 0.012060589157044888, 0.06794773787260056, -0.9649099707603455, 0.029630988836288452, 0.16824586689472198, -0.13004256784915924, -0.8262917399406433, -0.9554242491722107, 0.05592500790953636, -0.17335787553824764, -0.22550899958804393, -3.4002533339927767, 9362.0, 30146.0, 35388.0, 9362.0, 8.390083312988281, 0.10505011677742004, 0.271625280380249, 0.37122511863708496, 0.0028555928729474545, -0.05425325408577919, 0.9977944493293762, -0.056070271879434586, -0.05751800537109375, 1.4912109375, 1.3359375, 0.01806640625, 1.48974609375, 1.47802734375, 10.0, 1.4273340702056885, 1.5, 1.4273340702056885
17406, -1.2157173156738281, -0.23255181312561035, 1.0572314262390137, 0.012060589157044888, 0.06794773787260056, -0.9649099707603455, 0.029630988836288452, 0.16824586689472198, -0.13004256784915924, -0.8262534737586975, -0.9554078578948975, 0.055983927100896835, -0.16292566722185284, -0.21176966606185488, -3.415812882671828, 9362.0, 30146.0, 35388.0, 9362.0, 8.390083312988281, -0.0628260001540184, 0.20549358427524567, -0.1418306976556778, 0.003142931265756488, -0.057521551847457886, 0.9971072673797607, -0.056070271879434586, -0.05751800537109375, 1.4912109375, 1.496337890625, 0.1883087158203125, 1.48974609375, 1.47802734375, 10.0, 1.4273340702056885, 1.5, 1.4273340702056885
17416, -1.2156479358673096, -0.23451311886310577, 1.05545175075531, 0.012060589157044888, 0.06794773787260056, -0.9649099707603455, 0.029630988836288452, 0.16824586689472198, -0.13004256784915924, -0.8262890577316284, -0.9553671479225159, 0.05592465400695801, -0.18935611211328554, -0.17397812308911398, -3.4079754074240904, 9362.0, 30146.0, 35388.0, 9362.0, 8.390083312988281, -0.0419791117310524, -0.1495445817708969, -0.3009316027164459, 0.003142931265756488, -0.057521551847457886, 0.9971072673797607, -0.056070271879434586, -0.05751800537109375, 1.4912109375, 1.496337890625, 0.1883087158203125, 1.491943359375, 1.47802734375, 10.0, 1.4281835556030273, 1.5, 1.4281835556030273
17436, -1.216010332107544, -0.23436762392520905, 1.053614616394043, 0.012060589157044888, 0.06794773787260056, -0.9649099707603455, 0.029630988836288452, 0.16824586689472198, -0.13004256784915924, -0.8262362480163574, -0.9554027318954468, 0.05597037076950073, -0.16188625359537753, -0.19548392249970448, -3.424984384763225, 9362.0, 30146.0, 35388.0, 9362.0, 8.390083312988281, -0.24982810020446777, 0.14075303077697754, -0.10494627803564072, 0.0034733940847218037, -0.05467882379889488, 0.9979333281517029, -0.056070271879434586, -0.05751800537109375, 1.4912109375, 1.34326171875, 0.01605224609375, 1.491943359375, 1.2158203125, 10.0, 1.4281835556030273, 1.5, 1.4281835556030273
17446, -1.217383623123169, -0.2343045026063919, 1.0527122020721436, 0.012060589157044888, 0.06794773787260056, -0.9649099707603455, 0.029630988836288452, 0.16824586689472198, -0.13004256784915924, -0.8262485265731812, -0.9554019570350647, 0.05597377195954323, -0.1674685419541752, -0.2028358679657174, -3.416384838800522, 9362.0, 30146.0, 35388.0, 9362.0, 8.390083312988281, -0.24982810020446777, 0.14075303077697754, -0.10494627803564072, 0.004135608673095703, -0.052186835557222366, 0.9996251463890076, -0.056070271879434586, -0.05751800537109375, 1.4912109375, 1.078125, 1.5602264404296875, 1.491943359375, 1.585693359375, 10.0, 1.4262276887893677, 1.5, 1.4262276887893677
17456, -1.2174242734909058, -0.23378202319145203, 1.0529698133468628, 0.012060589157044888, 0.06794773787260056, -0.9649099707603455, 0.029630988836288452, 0.16824586689472198, -0.13004256784915924, -0.8262338042259216, -0.9554052352905273, 0.05596709996461868, -0.168650447877353, -0.20712948762502492, -3.421668105185376, 9362.0, 30146.0, 35388.0, 9362.0, 8.390083312988281, 0.14453309774398804, 0.28485366702079773, 0.22561950981616974, 0.0036414882633835077, -0.054300837218761444, 0.9987491965293884, -0.056070271879434586, -0.05751800537109375, 1.4912109375, 1.078125, 1.5602264404296875, 1.494873046875, 1.52197265625, 10.0, 1.4262276887893677, 1.5, 1.4262276887893677
17466, -1.2169973850250244, -0.23486511409282684, 1.0546059608459473, 0.014545410871505737, 0.082074373960495, -0.9753810167312622, 0.032503895461559296, 0.18492679297924042, -0.13154467940330505, -0.8263318538665771, -0.9553926587104797, 0.055897556245326996, -0.194379193674847, -0.19252365435764318, -3.4031399398086126, 9362.0, 30146.0, 35388.0, 9362.0, 8.390083312988281, -0.032001182436943054, 0.21306376159191132, 0.041157081723213196, 0.005171841010451317, -0.05458139628171921, 0.9966372847557068, -0.056070271879434586, -0.05751800537109375, 1.4912109375, 1.078125, 1.5602264404296875, 1.494873046875, 1.585693359375, 10.0, 1.4262276887893677, 1.5, 1.4262276887893677
17496, -1.2184810638427734, -0.23194798827171326, 1.0543837547302246, 0.015202722512185574, 0.08581466972827911, -0.9780153036117554, 0.03322789445519447, 0.1891009509563446, -0.13195201754570007, -0.8263299465179443, -0.9554098844528198, 0.055921800434589386, -0.20117799304732303, -0.19141650043516734, -3.4010712812631874, 9362.0, 30146.0, 35388.0, 9362.0, 8.390083312988281, -0.08405841141939163, -0.11017201840877533, -0.3252943754196167, 0.0035418830811977386, -0.057584986090660095, 0.9989280104637146, -0.06654267758131027, -0.23671722412109375, 1.4765625, 1.25830078125, 0.137664794921875, 1.494873046875, 1.53662109375, 10.0, 1.427566409111023, 1.5, 1.427566409111023
17506, -1.2176398038864136, -0.23387163877487183, 1.0529555082321167, 0.015874583274126053, 0.08963853865861893, -0.980654239654541, 0.033957589417696, 0.1932862401008606, -0.13192971050739288, -0.8262978792190552, -0.955432653427124, 0.055907733738422394, -0.17289864872596053, -0.22075330794518777, -3.411238645726736, 9362.0, 30146.0, 35388.0, 9362.0, 8.390083312988281, 0.149289071559906, -0.19517657160758972, -0.04006309062242508, 0.0035418830811977386, -0.057584986090660095, 0.9989280104637146, -0.06654267758131027, -0.23671722412109375, 1.4765625, 1.25830078125, 0.137664794921875, 1.494873046875, 1.53662109375, 10.0, 1.42703115940094, 1.5, 1.42703115940094
17516, -1.2161999940872192, -0.2328300029039383, 1.0525377988815308, 0.015874583274126053, 0.08963853865861893, -0.980654239654541, 0.033957589417696, 0.1932862401008606, -0.13192971050739288, -0.8262463212013245, -0.9554051756858826, 0.05595339089632034, -0.1674532195699551, -0.20956822939245967, -3.4171624507721408, 9362.0, 30146.0, 35388.0, 9362.0, 8.390083312988281, 0.149289071559906, -0.19517657160758972, -0.04006309062242508, 0.004102371633052826, -0.05521787330508232, 0.9995070695877075, -0.06654267758131027, -0.23671722412109375, 1.4765625, 1.452392578125, 0.10870361328125, 1.494873046875, 1.57470703125, 10.0, 1.42703115940094, 1.5, 1.42703115940094
17526, -1.2156555652618408, -0.23172490298748016, 1.051256775856018, 0.01656091772019863, 0.0935460776090622, -0.9832950234413147, 0.034677524119615555, 0.19746702909469604, -0.13215897977352142, -0.826288640499115, -0.9553893208503723, 0.055922381579875946, -0.18388876185169128, -0.1849516324915328, -3.4142783883349193, 9362.0, 30146.0, 35388.0, 9362.0, 8.390083312988281, -0.26999548077583313, -0.05480646342039108, -0.010282059200108051, 0.004102371633052826, -0.05521787330508232, 0.9995070695877075, -0.06654267758131027, -0.23671722412109375, 1.4765625, 1.452392578125, 0.10870361328125, 1.494873046875, 1.389404296875, 10.0, 1.42703115940094, 1.5, 1.42703115940094
17536, -1.217057228088379, -0.23036706447601318, 1.051194429397583, 0.01656091772019863, 0.0935460776090622, -0.9832950234413147, 0.034677524119615555, 0.19746702909469604, -0.13215897977352142, -0.8262481689453125, -0.9554070830345154, 0.05597934126853943, -0.17244311591517095, -0.205694869946484, -3.4238599445947973, 9362.0, 30146.0, 35388.0, 9362.0, 8.390083312988281, -0.08724542707204819, 0.2539268136024475, 0.09255677461624146, 0.004102371633052826, -0.05521787330508232, 0.9995070695877075, -0.06654267758131027, -0.23671722412109375, 1.4765625, 1.452392578125, 0.10870361328125, 1.49267578125, 1.389404296875, 10.0, 1.426836609840393, 1.5, 1.426836609840393
17546, -1.2167025804519653, -0.231802836060524, 1.0507762432098389, 0.01656091772019863, 0.0935460776090622, -0.9832950234413147, 0.034677524119615555, 0.19746702909469604, -0.13215897977352142, -0.8262511491775513, -0.9554047584533691, 0.05593905970454216, -0.16885452691086175, -0.2090271586675101, -3.423435010478848, 9362.0, 30146.0, 35388.0, 9362.0, 8.390083312988281, -0.04413362219929695, 0.12210351228713989, -0.08389259874820709, 0.004102371633052826, -0.05521787330508232, 0.9995070695877075, -0.06654267758131027, -0.23671722412109375, 1.4765625, 1.452392578125, 0.10870361328125, 1.49267578125, 1.494873046875, 10.0, 1.4256013631820679, 1.5, 1.4256013631820679
