timeTick, roll, pitch, yaw, stateX, stateY, stateZ, stateVX, stateVY, stateVZ, otX0, otY0, otZ0, otRoll0, otPitch0, otYaw0, left wing, pitch motor, yaw motor, right wing, voltage, roll rate, pitch rate, yaw rate, A_x, A_y, A_z, current, i_raw, v_raw, airflow_voltage, airflow_speed, pot_Pitch, voltage_nKF, kFFx, volt_KF_vel, kP, volt_KF_pos
12013, -0.28004178404808044, -0.46918758749961853, 0.11250822991132736, 0, 0, 0, 0, 0, 0, -0.8346643447875977, -0.9581722617149353, 0.05675797164440155, 0.04165064161712191, 0.13079738929900486, 4.663988961807072, 0, 0, 0, 0, 0, 0, 0, 0, 0, 0, 0, 0, 0, 0, 0, 0, 0, 0, 0, 0, 0, 0
12023, -0.27935948967933655, -0.46631816029548645, 0.11289014667272568, 8.70332405611407e-06, 5.204094577493379e-06, -0.5825768113136292, 0.0014951654011383653, 0.0008944284054450691, -0.11173901706933975, -0.8346773386001587, -0.9581723809242249, 0.056776221841573715, 0.04709943152723386, 0.12153353322625549, 4.6700509041361284, 9362.0, 30146.0, 35388.0, 9362.0, 0, 0.17380863428115845, -0.08389918506145477, 0.07674156874418259, 0.003717652754858136, -0.05222312733530998, 0.9972974061965942, 0, 0, 0, 0, 0, 0, 0, 0, 0, 0, 0
12033, -0.28014087677001953, -0.4635750949382782, 0.11166191101074219, 2.765753015410155e-05, 1.6548077837796882e-05, -0.5836953520774841, 0.0022956845350563526, 0.0013743761228397489, -0.11197010427713394, -0.8346845507621765, -0.9581699967384338, 0.056775256991386414, 0.04973909635781601, 0.12183739423088014, 4.6691688168651515, 9362.0, 30146.0, 35388.0, 9362.0, 0, 0.04097506403923035, -0.08133120089769363, -0.07485462725162506, 0.005373517982661724, -0.051989879459142685, 0.9995146989822388, 0, 0, 0, 1.53369140625, 0.265960693359375, 0, 1.55126953125, 10.0, 1.4418755769729614, 1.5, 1.4418755769729614
12043, -0.28027427196502686, -0.4631759524345398, 0.11243404448032379, 5.4594886023551226e-05, 3.268717409810051e-05, -0.5848159193992615, 0.00309180561453104, 0.0018534241244196892, -0.11214037984609604, -0.8346765041351318, -0.9581696391105652, 0.05675366520881653, 0.036338257517849665, 0.1035397639880955, 4.657029299565349, 9362.0, 30146.0, 35388.0, 9362.0, 0, -0.0973130464553833, 0.0707893818616867, -0.07178725302219391, 0.005520578008145094, -0.05452568084001541, 0.9991492033004761, 0, 0, 0, 1.08251953125, 1.497955322265625, 1.4970703125, 1.07666015625, 10.0, 1.441781759262085, 1.5, 1.441781759262085
12053, -0.2815897464752197, -0.4645967483520508, 0.1135348528623581, 8.947467722464353e-05, 5.3626103181159124e-05, -0.5859376192092896, 0.0038841457571834326, 0.0023343723732978106, -0.11219627410173416, -0.8346610069274902, -0.9581568837165833, 0.0567857064306736, 0.03793609273739051, 0.11983248150713166, 4.65404324659254, 9362.0, 30146.0, 35388.0, 9362.0, 0, -0.2935883402824402, 0.050544675439596176, 0.07463438808917999, 0.004708584863692522, -0.05467252805829048, 0.9980698823928833, 0, 0, 0, 1.37841796875, 0.023406982421875, 1.4970703125, 1.6640625, 10.0, 1.4422801733016968, 1.5, 1.4422801733016968
12063, -0.28168976306915283, -0.46506500244140625, 0.11410800367593765, 0.00013227187446318567, 7.937415648484603e-05, -0.5870601534843445, 0.0046752807684242725, 0.002815250540152192, -0.11231521517038345, -0.8346801400184631, -0.9581609964370728, 0.0567903034389019, 0.04265606656628253, 0.12196252160563859, 4.653014243478902, 9362.0, 30146.0, 35388.0, 9362.0, 0, 0.13806161284446716, 0.2430560290813446, 0.01557251252233982, 0.00419820100069046, -0.05481722950935364, 0.9987494945526123, 0, 0, 0, 1.220947265625, 0.2765960693359375, 1.49853515625, 1.560791015625, 10.0, 1.4417582750320435, 1.5, 1.4417582750320435
12073, -0.2828180491924286, -0.4627057611942291, 0.11483275890350342, 0.0001829910761443898, 0.0001099414803320542, -0.5881840586662292, 0.005468554329127073, 0.0032982216216623783, -0.11246922612190247, -0.8346800804138184, -0.958176851272583, 0.05676177144050598, 0.03921673394195711, 0.12651346384328122, 4.669631661080718, 9362.0, 30146.0, 35388.0, 9362.0, 0, 0.09145740419626236, -0.3430744409561157, -0.20793385803699493, 0.00273965229280293, -0.052765119820833206, 1.0004264116287231, 0, 0, 0, 1.130126953125, 0.9273529052734375, 1.49853515625, 1.162353515625, 10.0, 1.4413691759109497, 1.5, 1.4413691759109497
12083, -0.28223755955696106, -0.4648059904575348, 0.11455629020929337, 0.0002416512870695442, 0.00014534202637150884, -0.5893089771270752, 0.00626348564401269, 0.0037818981800228357, -0.11251703649759293, -0.8346152305603027, -0.9582070708274841, 0.05682968348264694, 0.007590866140554566, 0.13684849614250538, 4.67992382966992, 9362.0, 30146.0, 35388.0, 9362.0, 0, -0.05592777207493782, 0.18105031549930573, 0.03803284093737602, 0.0033973094541579485, -0.05191562697291374, 0.9997357130050659, 0, 0, 0, 1.43408203125, 0.080810546875, 1.493408203125, 1.681640625, 10.0, 1.4418152570724487, 1.5, 1.4418152570724487
12093, -0.2829318940639496, -0.46311625838279724, 0.11335522681474686, 0.0003082425391767174, 0.00018559020827524364, -0.5904341340065002, 0.007054765708744526, 0.004267733544111252, -0.11251654475927353, -0.8346222639083862, -0.9582071900367737, 0.05681093782186508, 0.022095992204287818, 0.14066926256177226, 4.678847590430644, 9362.0, 30146.0, 35388.0, 9362.0, 0, -0.010031424462795258, -0.2685582935810089, -0.18011078238487244, 0.0021795916836708784, -0.05227509140968323, 0.9992020726203918, 0, 0, 0, 1.13525390625, 0.8764495849609375, 1.493408203125, 1.13818359375, 10.0, 1.4407018423080444, 1.5, 1.4407018423080444
12103, -0.2831364870071411, -0.4633283019065857, 0.11425990611314774, 0.0003827627224382013, 0.00023069065355230123, -0.5915595293045044, 0.007849280722439289, 0.004752336535602808, -0.11256209015846252, -0.8346134424209595, -0.9582114815711975, 0.05682091414928436, 0.021220963270485168, 0.13645038851407776, 4.671714790373959, 9362.0, 30146.0, 35388.0, 9362.0, 0, -0.08012448996305466, -0.03275899216532707, 0.026594344526529312, 0.0037548113614320755, -0.05299520865082741, 0.9995608329772949, 0, 0, 0, 1.728515625, 0.7468719482421875, 1.49853515625, 1.3916015625, 10.0, 1.4398612976074219, 1.5, 1.4398612976074219
12113, -0.28214824199676514, -0.4627804160118103, 0.11406435072422028, 0.0004652115167118609, 0.0002806416596285999, -0.5926856398582458, 0.00864047184586525, 0.005237876903265715, -0.11265989392995834, -0.8346185088157654, -0.9582079648971558, 0.056792180985212326, 0.011632006068940371, 0.13483615807763272, 4.672461713209635, 9362.0, 30146.0, 35388.0, 9362.0, 8.390083312988281, -0.07600370049476624, -0.05542537569999695, -0.014257202856242657, 0.0042036003433167934, -0.05271616950631142, 0.9987518787384033, -0.046794768422842026, -0.10231781005859375, 1.487548828125, 1.163818359375, 0.6264495849609375, 1.49853515625, 1.56884765625, 10.0, 1.440093994140625, 1.5, 1.440093994140625
12123, -0.283107727766037, -0.4613524079322815, 0.113178551197052, 0.0005555755342356861, 0.0003354508080519736, -0.5938125252723694, 0.009432332590222359, 0.0057239537127316, -0.11271996796131134, -0.8346879482269287, -0.9581785202026367, 0.056799255311489105, 0.04974380734264436, 0.1213828359490492, 4.660061201322736, 9362.0, 30146.0, 35388.0, 9362.0, 8.390083312988281, 0.11366104334592819, 0.047813016921281815, 0.0015893017407506704, 0.004267788026481867, -0.05316726863384247, 0.997151255607605, -0.046794768422842026, -0.10231781005859375, 1.487548828125, 1.093505859375, 1.349761962890625, 1.49853515625, 1.704345703125, 10.0, 1.4393720626831055, 1.5, 1.4393720626831055
12133, -0.28264451026916504, -0.4615280330181122, 0.1116398423910141, 0.0006538483430631459, 0.00039510909118689597, -0.5949406623840332, 0.01022223848849535, 0.006207688711583614, -0.11290789395570755, -0.8346359729766846, -0.9582076072692871, 0.05678928270936012, 0.009840868845530483, 0.13488077386932673, 4.665553300024283, 9362.0, 30146.0, 35388.0, 9362.0, 8.390083312988281, 0.15780429542064667, -0.06688708066940308, -0.17845430970191956, 0.0034674403723329306, -0.0517503023147583, 0.9969298243522644, -0.046794768422842026, -0.10231781005859375, 1.487548828125, 1.71533203125, 0.709686279296875, 1.49853515625, 1.564453125, 10.0, 1.439502239227295, 1.5, 1.439502239227295
12143, -0.28303802013397217, -0.46087610721588135, 0.11046192049980164, 0.0007600021781399846, 0.0004596092621795833, -0.5960714221000671, 0.011008539237082005, 0.006692324765026569, -0.11324121057987213, -0.834614098072052, -0.95819491147995, 0.05681171640753746, 0.007720796521284673, 0.13677222436263037, 4.669300156270571, 9362.0, 30146.0, 35388.0, 9362.0, 8.390083312988281, -0.0418359600007534, 0.2348293662071228, 0.18034832179546356, 0.0030615676660090685, -0.05161629617214203, 0.998706579208374, -0.046794768422842026, -0.10231781005859375, 1.487548828125, 1.52490234375, 0.247039794921875, 1.496337890625, 1.654541015625, 10.0, 1.4386883974075317, 1.5, 1.4386883974075317
12153, -0.2827953100204468, -0.46218568086624146, 0.11185375601053238, 0.0008740260964259505, 0.0005289550754241645, -0.5972048044204712, 0.01179625652730465, 0.0071768248453736305, -0.11343764513731003, -0.8346226215362549, -0.9581986665725708, 0.05678877234458923, 0.012434399934476857, 0.14694430670223824, 4.673707389960933, 9362.0, 30146.0, 35388.0, 9362.0, 8.390083312988281, -0.03972877189517021, -0.0021369745954871178, 0.11437181383371353, 0.002434812719002366, -0.0527648851275444, 0.9977093935012817, -0.046794768422842026, -0.10231781005859375, 1.487548828125, 1.584228515625, 0.3801727294921875, 1.496337890625, 1.349853515625, 10.0, 1.4372074604034424, 1.5, 1.4372074604034424
12163, -0.2827818691730499, -0.46233829855918884, 0.113278828561306, 0.0009959246963262558, 0.0006031511002220213, -0.5983397960662842, 0.012583457864820957, 0.007662400137633085, -0.11355724185705185, -0.8346171975135803, -0.9582062363624573, 0.05680832266807556, 0.014409300026085481, 0.14049008382397687, 4.677575501429938, 9362.0, 30146.0, 35388.0, 9362.0, 8.390083312988281, 0.10939683020114899, 0.13081161677837372, -0.014395293779671192, 0.0020940257236361504, -0.053816057741642, 0.9985619783401489, -0.046794768422842026, -0.10231781005859375, 1.487548828125, 1.58056640625, 0.3715972900390625, 1.496337890625, 1.693359375, 10.0, 1.4359132051467896, 1.5, 1.4359132051467896
12173, -0.2835141122341156, -0.4628660976886749, 0.11268837749958038, 0.0011257027508690953, 0.0006821986171416938, -0.5994764566421509, 0.013372142799198627, 0.008147123269736767, -0.1137695387005806, -0.8346384167671204, -0.9582094550132751, 0.056805867701768875, 0.00622715982026318, 0.13853669907814492, 4.678302524451051, 9362.0, 30146.0, 35388.0, 9362.0, 8.390083312988281, 0.03233638405799866, -0.14169681072235107, 0.14361153542995453, 0.0034174269530922174, -0.0536065399646759, 0.99867182970047, -0.046794768422842026, -0.10231781005859375, 1.487548828125, 1.70361328125, 0.6776885986328125, 1.496337890625, 1.718994140625, 10.0, 1.4355204105377197, 1.5, 1.4355204105377197
12183, -0.28409436345100403, -0.46167609095573425, 0.11466708779335022, 0.001263372483663261, 0.00076609558891505, -0.6006147861480713, 0.014161814004182816, 0.008632255718111992, -0.11389262229204178, -0.8346778750419617, -0.9581513404846191, 0.05679196119308472, 0.03337899644283967, 0.11295282046290822, 4.6567357833871155, 9362.0, 30146.0, 35388.0, 9362.0, 8.390083312988281, -0.12344347685575485, -0.00958309881389141, 0.1011626124382019, 0.00570362014696002, -0.05237499997019768, 0.9957453012466431, -0.046794768422842026, -0.10231781005859375, 1.487548828125, 1.178466796875, 0.5187835693359375, 1.499267578125, 1.29931640625, 10.0, 1.4361101388931274, 1.5, 1.4361101388931274
12193, -0.28358349204063416, -0.46311381459236145, 0.11571552604436874, 0.001408937619999051, 0.0008548464975319803, -0.6017550826072693, 0.014951201155781746, 0.00911794789135456, -0.11416082829236984, -0.8346217274665833, -0.9582129120826721, 0.0568125918507576, 0.00992941197412473, 0.13957886675714803, 4.681099360266065, 9362.0, 30146.0, 35388.0, 9362.0, 8.390083312988281, -0.03152673691511154, -0.10042726248502731, -0.15843726694583893, 0.00349052413366735, -0.05241898074746132, 1.0007742643356323, -0.046794768422842026, -0.10231781005859375, 1.487548828125, 1.508056640625, 0.211883544921875, 1.499267578125, 1.60107421875, 10.0, 1.436673641204834, 1.5, 1.436673641204834
12203, -0.28378719091415405, -0.46254006028175354, 0.11540503054857254, 0.0015623882645741105, 0.0009484605398029089, -0.6028978228569031, 0.01573890820145607, 0.009604875929653645, -0.11438295990228653, -0.8346961736679077, -0.9581616520881653, 0.05677150934934616, 0.04532311907252311, 0.11071527012845195, 4.657203598117735, 9362.0, 30146.0, 35388.0, 9362.0, 8.390083312988281, -0.030239930376410484, -0.06299889832735062, 0.2054816633462906, 0.004019212443381548, -0.05437449365854263, 1.0012062788009644, -0.046794768422842026, -0.10231781005859375, 1.487548828125, 1.669189453125, 0.5873260498046875, 1.494873046875, 1.56298828125, 10.0, 1.4366167783737183, 1.5, 1.4366167783737183
12213, -0.2838740646839142, -0.4636557400226593, 0.11689307540655136, 0.001723741996102035, 0.0010469481348991394, -0.6040410399436951, 0.01653185300529003, 0.010092636570334435, -0.11426148563623428, -0.834624707698822, -0.9582105875015259, 0.056803327053785324, 0.015004926983242874, 0.13171018887948094, 4.681230765346362, 9362.0, 30146.0, 35388.0, 9362.0, 8.390083312988281, -0.12245927006006241, 0.1840469092130661, 0.18116804957389832, 0.003479024162515998, -0.05465434119105339, 0.9992820024490356, -0.04082451015710831, -0.05751800537109375, 1.4912109375, 1.486083984375, 0.16845703125, 1.494873046875, 1.6611328125, 10.0, 1.4369029998779297, 1.5, 1.4369029998779297
12223, -0.28437405824661255, -0.4638824760913849, 0.11594501882791519, 0.0018930176738649607, 0.0011503134155645967, -0.6051833629608154, 0.017323266714811325, 0.010580434463918209, -0.11420637369155884, -0.8346855640411377, -0.9581499099731445, 0.05677574872970581, 0.04409207916176947, 0.11617861677805763, 4.654043735534979, 9362.0, 30146.0, 35388.0, 9362.0, 8.390083312988281, 0.15836751461029053, -0.2816939055919647, -0.1717824786901474, 0.005589708685874939, -0.0537758506834507, 0.9994504451751709, -0.04082451015710831, -0.05751800537109375, 1.4912109375, 1.57470703125, 0.3579864501953125, 1.49560546875, 1.43408203125, 10.0, 1.4365315437316895, 1.5, 1.4365315437316895
12233, -0.28331318497657776, -0.46379414200782776, 0.11550337821245193, 0.0020702111069113016, 0.0012585538206622005, -0.6063258647918701, 0.018115410581231117, 0.011067639105021954, -0.1142982691526413, -0.8346121907234192, -0.9582056403160095, 0.05680999904870987, 0.009867627907227746, 0.13939179796921053, 4.67774456884919, 9362.0, 30146.0, 35388.0, 9362.0, 8.390083312988281, -0.09635579586029053, -0.21325244009494781, 0.13430312275886536, 0.005616701208055019, -0.05301261693239212, 0.9997866749763489, -0.04082451015710831, -0.05751800537109375, 1.4912109375, 1.193115234375, 0.424102783203125, 1.49560546875, 1.53662109375, 10.0, 1.4372185468673706, 1.5, 1.4372185468673706
12243, -0.2819879949092865, -0.4628654718399048, 0.11724775284528732, 0.002255328930914402, 0.0013716712128371, -0.6074692010879517, 0.01890815794467926, 0.011555826291441917, -0.11436418443918228, -0.8346195816993713, -0.9581969380378723, 0.056791409850120544, 0.004246963515725513, 0.13361159045226145, 4.6769139189501585, 9362.0, 30146.0, 35388.0, 9362.0, 8.390083312988281, 0.20800992846488953, 0.30135998129844666, 0.3241454064846039, 0.0041312179528176785, -0.052508436143398285, 0.9992473721504211, -0.04082451015710831, -0.05751800537109375, 1.4912109375, 1.37841796875, 0.023406982421875, 1.496337890625, 1.12060546875, 10.0, 1.4376931190490723, 1.5, 1.4376931190490723
12253, -0.28226238489151, -0.4660002887248993, 0.11844367533922195, 0.002448375802487135, 0.0014896626817062497, -0.6086128950119019, 0.019701190292835236, 0.012042497284710407, -0.11437434703111649, -0.834618330001831, -0.9582052826881409, 0.056816600263118744, 0.0115350054270583, 0.1370559060109997, 4.679981024089045, 9362.0, 30146.0, 35388.0, 9362.0, 8.390083312988281, -0.04009462147951126, 0.0020752958953380585, -0.056204017251729965, 0.003173807403072715, -0.05229506641626358, 0.9969848394393921, -0.04082451015710831, -0.05751800537109375, 1.4912109375, 1.717529296875, 0.7158966064453125, 1.496337890625, 1.70947265625, 10.0, 1.4383180141448975, 1.5, 1.4383180141448975
12263, -0.28195247054100037, -0.46802055835723877, 0.11924630403518677, 0.0026493361219763756, 0.001612504362128675, -0.6097577810287476, 0.020490873605012894, 0.012525846250355244, -0.11460059881210327, -0.8346174359321594, -0.9582138061523438, 0.05678599327802658, 0.01280971232604014, 0.13981397295236775, 4.6851576475768715, 9362.0, 30146.0, 35388.0, 9362.0, 8.390083312988281, -0.08835325390100479, 0.03212824463844299, 0.18075406551361084, 0.0038082313258200884, -0.053013965487480164, 0.9994089007377625, -0.04082451015710831, -0.05751800537109375, 1.4912109375, 1.58056640625, 0.3715972900390625, 1.49853515625, 1.58935546875, 10.0, 1.4370043277740479, 1.5, 1.4370043277740479
12273, -0.28145816922187805, -0.46720001101493835, 0.11765184253454208, 0.0028582229278981686, 0.0017401836812496185, -0.6109045743942261, 0.021286463364958763, 0.013010025024414062, -0.11475828289985657, -0.8346227407455444, -0.958197295665741, 0.05679161474108696, 0.014133387245873073, 0.1475151030054178, 4.671110439801951, 9362.0, 30146.0, 35388.0, 9362.0, 8.390083312988281, 0.20573748648166656, -0.06105082854628563, -0.14150981605052948, 0.004399984609335661, -0.05396919324994087, 0.998106837272644, -0.04082451015710831, -0.05751800537109375, 1.4912109375, 1.619384765625, 0.4635009765625, 1.49853515625, 1.174072265625, 10.0, 1.4361846446990967, 1.5, 1.4361846446990967
12283, -0.2806563675403595, -0.467634379863739, 0.11599885672330856, 0.0030750867445021868, 0.0018727045971900225, -0.6120524406433105, 0.022086333483457565, 0.013494144193828106, -0.11481768637895584, -0.8346104621887207, -0.958199143409729, 0.05680077522993088, 0.0077484459927155604, 0.14704241141970442, 4.684150351348977, 9362.0, 30146.0, 35388.0, 9362.0, 8.390083312988281, 0.08686371892690659, -0.035168539732694626, -0.28831493854522705, 0.0035361682530492544, -0.05345045402646065, 0.9971202611923218, -0.04082451015710831, -0.05751800537109375, 1.4912109375, 1.51904296875, 0.2346954345703125, 1.50146484375, 1.70654296875, 10.0, 1.435112476348877, 1.5, 1.435112476348877
12293, -0.28128111362457275, -0.4674428105354309, 0.11607939004898071, 0.003299933858215809, 0.0020100572146475315, -0.6132019758224487, 0.02288312278687954, 0.01397637464106083, -0.11508411914110184, -0.8346254229545593, -0.9582095146179199, 0.05681880563497543, 0.021879558499722163, 0.14135458191037742, 4.672932222857043, 9362.0, 30146.0, 35388.0, 9362.0, 8.390083312988281, -0.22052425146102905, -0.03344663977622986, 0.234916090965271, 0.004096886143088341, -0.05364314094185829, 1.0005309581756592, -0.04082451015710831, -0.05751800537109375, 1.4912109375, 1.109619140625, 1.1508026123046875, 1.50146484375, 1.65380859375, 10.0, 1.4357500076293945, 1.5, 1.4357500076293945
12303, -0.28215184807777405, -0.4695630967617035, 0.11699456721544266, 0.003532758913934231, 0.0021522289607673883, -0.6143534183502197, 0.023681873455643654, 0.014457965269684792, -0.11520162969827652, -0.834614634513855, -0.9581984877586365, 0.05677401274442673, 0.015263014650044409, 0.13271674208186823, 4.667232478543624, 9362.0, 30146.0, 35388.0, 9362.0, 8.390083312988281, -0.03737826272845268, 0.12689588963985443, -0.033952999860048294, 0.004749039188027382, -0.05305839329957962, 1.0006111860275269, -0.04082451015710831, -0.05751800537109375, 1.4912109375, 1.634033203125, 0.499237060546875, 1.499267578125, 1.7109375, 10.0, 1.4363467693328857, 1.5, 1.4363467693328857
12313, -0.2827872633934021, -0.4696434736251831, 0.1188659518957138, 0.003773576347157359, 0.002299225889146328, -0.6155052185058594, 0.024481622502207756, 0.0149414436891675, -0.11515622586011887, -0.8346146941184998, -0.9582010507583618, 0.05681758373975754, 0.0044804628861282465, 0.1485053015541098, 4.668433889954389, 9362.0, 30146.0, 35388.0, 9362.0, 8.390083312988281, -0.015826718881726265, 0.34253451228141785, 0.0807763934135437, 0.0037915133871138096, -0.053181953728199005, 0.9996827840805054, -0.0448259599506855, -0.09335899353027344, 1.48828125, 1.5966796875, 0.409210205078125, 1.499267578125, 1.127197265625, 10.0, 1.4353857040405273, 1.5, 1.4353857040405273
12323, -0.2827850878238678, -0.4723297655582428, 0.11934554576873779, 0.004022408276796341, 0.00245106453076005, -0.6166567206382751, 0.025284748524427414, 0.015426306053996086, -0.11513859778642654, -0.8346262574195862, -0.9582095146179199, 0.056790031492710114, 0.018141896116263496, 0.1388391507090887, 4.666931810900504, 9362.0, 30146.0, 35388.0, 9362.0, 8.390083312988281, 0.035100433975458145, 0.11574249714612961, -0.012447183951735497, 0.0034587127156555653, -0.05204688757658005, 0.9994855523109436, -0.0448259599506855, -0.09335899353027344, 1.48828125, 1.654541015625, 0.5500640869140625, 1.49560546875, 1.408447265625, 10.0, 1.435236930847168, 1.5, 1.435236930847168
12343, -0.2836322486400604, -0.47452256083488464, 0.11893271654844284, 0.004279267508536577, 0.0026077546644955873, -0.6178085803985596, 0.02608710341155529, 0.01591171883046627, -0.11523085832595825, -0.8346729278564453, -0.9581568837165833, 0.05676916614174843, 0.035777099767193746, 0.10402764576733148, 4.655523488769698, 9362.0, 30146.0, 35388.0, 9362.0, 8.390083312988281, 0.23368892073631287, -0.05311568081378937, -0.04945259913802147, 0.0023924249690026045, -0.05333959683775902, 1.0010788440704346, -0.0448259599506855, -0.09335899353027344, 1.48828125, 1.675048828125, 0.6022186279296875, 1.49560546875, 1.63916015625, 10.0, 1.435236930847168, 1.5, 1.435236930847168
12363, -0.282757043838501, -0.47562095522880554, 0.12058504670858383, 0.004817177541553974, 0.0029357101302593946, -0.6201123595237732, 0.027705131098628044, 0.01688407175242901, -0.11507873982191086, -0.8346276879310608, -0.9582112431526184, 0.05677514523267746, 0.01072883871388214, 0.13978071724039864, 4.684566082614859, 9362.0, 30146.0, 35388.0, 9362.0, 8.390083312988281, -0.25913044810295105, 0.3750813901424408, 0.25715360045433044, 0.0023924249690026045, -0.05333959683775902, 1.0010788440704346, -0.0448259599506855, -0.09335899353027344, 1.48828125, 1.055419921875, 1.9101409912109375, 1.490478515625, 1.63916015625, 10.0, 1.4363023042678833, 1.5, 1.4363023042678833
12383, -0.28305867314338684, -0.4771358072757721, 0.12293640524148941, 0.005387490149587393, 0.003283120458945632, -0.6224149465560913, 0.0293242409825325, 0.01785530149936676, -0.11527617275714874, -0.8346206545829773, -0.9581957459449768, 0.056806258857250214, 0.011998723565253815, 0.14052802430768452, 4.670578095991225, 9362.0, 30146.0, 35388.0, 9362.0, 8.390083312988281, 0.00999396201223135, 0.31629008054733276, 0.01716693863272667, 0.0023924249690026045, -0.05333959683775902, 1.0010788440704346, -0.0448259599506855, -0.09335899353027344, 1.48828125, 1.601806640625, 0.42144775390625, 1.490478515625, 1.63916015625, 10.0, 1.4356533288955688, 1.5, 1.4356533288955688
12403, -0.2819584608078003, -0.4769853949546814, 0.11980406939983368, 0.006303863599896431, 0.0038406639359891415, -0.6258730888366699, 0.031767770648002625, 0.01931382715702057, -0.11541859060525894, -0.8346273303031921, -0.9582048654556274, 0.05679280310869217, 0.012518941222777403, 0.13910536598163503, 4.673890050797205, 9362.0, 30146.0, 35388.0, 9362.0, 8.390083312988281, -0.21383728086948395, 0.0419149249792099, -0.009184335358440876, 0.0037916044238954782, -0.0530303418636322, 0.9959548711776733, -0.0448259599506855, -0.09335899353027344, 1.48828125, 1.14404296875, 0.7935333251953125, 1.490478515625, 1.63916015625, 10.0, 1.4371063709259033, 1.5, 1.4371063709259033
12433, -0.2834959924221039, -0.47824496030807495, 0.11735203862190247, 0.007293435279279947, 0.0044418396428227425, -0.6293516755104065, 0.03420620784163475, 0.020764337852597237, -0.11650043725967407, -0.8346140384674072, -0.9582067131996155, 0.056775446981191635, 0.008180121687504056, 0.13802635171145994, 4.6814268109275075, 9362.0, 30146.0, 35388.0, 9362.0, 8.390083312988281, 0.023166965693235397, 0.017604511231184006, -0.37050938606262207, 0.0038549862802028656, -0.054242365062236786, 0.9981666803359985, -0.052610479295253754, -0.05751800537109375, 1.4912109375, 1.636962890625, 0.5064239501953125, 1.49267578125, 1.63916015625, 10.0, 1.4378457069396973, 1.5, 1.4378457069396973
12463, -0.2818284332752228, -0.4749205410480499, 0.11258901655673981, 0.0083563681691885, 0.005086609162390232, -0.6328538656234741, 0.03665638342499733, 0.02221987023949623, -0.11690440028905869, -0.8346245288848877, -0.9581935405731201, 0.056788120418787, 0.010463432687359674, 0.1388586664935758, 4.684919400205428, 9362.0, 30146.0, 35388.0, 9362.0, 8.390083312988281, 0.09224624931812286, 0.12639299035072327, 0.05478956177830696, 0.004648044239729643, -0.052944574505090714, 0.9992198944091797, -0.052610479295253754, -0.05751800537109375, 1.4912109375, 1.373291015625, 0.0207366943359375, 1.497802734375, 1.63916015625, 10.0, 1.4372813701629639, 1.5, 1.4372813701629639
12473, -0.281833291053772, -0.47572392225265503, 0.11227461695671082, 0.008727002888917923, 0.005311226937919855, -0.6340235471725464, 0.03747062385082245, 0.022703638300299644, -0.11702871322631836, -0.8346157073974609, -0.9582031965255737, 0.05680643022060394, 0.011361269169297744, 0.14056760437256344, 4.683318655948587, 9362.0, 30146.0, 35388.0, 9362.0, 8.390083312988281, -0.08997815102338791, 0.09379872679710388, -0.05773787200450897, 0.004648044239729643, -0.052944574505090714, 0.9992198944091797, -0.052610479295253754, -0.05751800537109375, 1.4912109375, 1.15576171875, 0.6913604736328125, 1.497802734375, 1.63916015625, 10.0, 1.4381656646728516, 1.5, 1.4381656646728516
12523, -0.2824764847755432, -0.4786929190158844, 0.11494562029838562, 0.010290838778018951, 0.006258090492337942, -0.6387119293212891, 0.040722768753767014, 0.024638915434479713, -0.11762844026088715, -0.8346402049064636, -0.9582152962684631, 0.0568019337952137, 0.009987392378250609, 0.15132134350258752, 4.680113904234091, 9362.0, 30146.0, 35388.0, 9362.0, 8.390083312988281, -0.030731353908777237, 0.2271721214056015, 0.037094976752996445, 0.003422302193939686, -0.05277854576706886, 0.9990519881248474, -0.052610479295253754, -0.05751800537109375, 1.4912109375, 1.36962890625, 0.01910400390625, 1.496337890625, 1.63916015625, 10.0, 1.4394382238388062, 1.5, 1.4394382238388062
12533, -0.2827666997909546, -0.4769006371498108, 0.11496707051992416, 0.011121651157736778, 0.006760566495358944, -0.6410675048828125, 0.04235895350575447, 0.025608886033296585, -0.11796175688505173, -0.834668755531311, -0.9581649899482727, 0.05674845725297928, 0.050083156373830984, 0.11077755663322364, 4.653457145608603, 9362.0, 30146.0, 35388.0, 9362.0, 8.390083312988281, -0.1910516768693924, 0.010422095656394958, 0.027803221717476845, 0.003422302193939686, -0.05277854576706886, 0.9990519881248474, -0.052610479295253754, -0.05751800537109375, 1.4912109375, 1.2451171875, 0.1796875, 1.496337890625, 1.63916015625, 10.0, 1.4394382238388062, 1.5, 1.4394382238388062
12543, -0.2827269434928894, -0.47788089513778687, 0.11569751799106598, 0.011121651157736778, 0.006760566495358944, -0.6410675048828125, 0.04235895350575447, 0.025608886033296585, -0.11796175688505173, -0.8346272706985474, -0.9582068920135498, 0.056805867701768875, 0.013711183728252987, 0.13481976896457581, 4.678158298354125, 9362.0, 30146.0, 35388.0, 9362.0, 8.390083312988281, -0.05869284272193909, 0.20689654350280762, 0.13304157555103302, 0.003422302193939686, -0.05277854576706886, 0.9990519881248474, -0.052610479295253754, -0.05751800537109375, 1.4912109375, 1.2451171875, 0.1796875, 1.49560546875, 1.63916015625, 10.0, 1.4394382238388062, 1.5, 1.4394382238388062
12603, -0.28225237131118774, -0.4872550070285797, 0.11508636176586151, 0.013810195960104465, 0.008384387008845806, -0.6481735110282898, 0.04726875573396683, 0.028520530089735985, -0.11892307549715042, -0.8346155881881714, -0.9582011699676514, 0.05680283159017563, 0.003435922174468531, 0.1466746001208321, 4.68496386123559, 9362.0, 30146.0, 35388.0, 9362.0, 8.390083312988281, -0.03484020009636879, 0.12537671625614166, -0.17627254128456116, 0.00413173483684659, -0.05343709513545036, 0.9979274272918701, -0.052610479295253754, -0.05751800537109375, 1.4912109375, 1.681640625, 0.619354248046875, 1.493408203125, 1.63916015625, 10.0, 1.4386186599731445, 1.5, 1.4386186599731445
12623, -0.2825488746166229, -0.48568427562713623, 0.1129075437784195, 0.014772120863199234, 0.008964501321315765, -0.6505558490753174, 0.04892367869615555, 0.029490351676940918, -0.11933568865060806, -0.8346406817436218, -0.9582238793373108, 0.05678318440914154, 0.015264749818379645, 0.14722408850408897, 4.674350410788754, 9362.0, 30146.0, 35388.0, 9362.0, 8.390083312988281, -0.4878591299057007, 0.14872512221336365, 0.0034128946717828512, 0.00413173483684659, -0.05343709513545036, 0.9979274272918701, -0.052610479295253754, -0.05751800537109375, 1.4912109375, 1.66552734375, 0.5779266357421875, 1.49560546875, 1.63916015625, 10.0, 1.438412070274353, 1.5, 1.438412070274353
12643, -0.28262606263160706, -0.48328515887260437, 0.11079190671443939, 0.015767227858304977, 0.009563992731273174, -0.6529460549354553, 0.05058721825480461, 0.03045932576060295, -0.11960776150226593, -0.8346268534660339, -0.9582054018974304, 0.056791048496961594, 0.01617981629635199, 0.1373222013230304, 4.680718380429546, 9362.0, 30146.0, 35388.0, 9362.0, 8.390083312988281, 0.03566430136561394, -0.1264917105436325, -0.4612518548965454, 0.004992806818336248, -0.054642461240291595, 1.0000938177108765, -0.052610479295253754, -0.05751800537109375, 1.4912109375, 1.443603515625, 0.0948486328125, 1.493408203125, 1.63916015625, 10.0, 1.439141869544983, 1.5, 1.439141869544983
12673, -0.28280186653137207, -0.4816835820674896, 0.10892839729785919, 0.017322152853012085, 0.01049963477998972, -0.6565337777137756, 0.05307125672698021, 0.031916555017232895, -0.11961939185857773, -0.8346285223960876, -0.9582016468048096, 0.05680372565984726, 0.011586718540763187, 0.13958316584813701, 4.678659701864479, 9362.0, 30146.0, 35388.0, 9362.0, 8.390083312988281, -0.06490844488143921, -0.3044784963130951, 0.2024690806865692, 0.0049584899097681046, -0.05273078382015228, 1.0002021789550781, -0.052610479295253754, -0.05751800537109375, 1.4912109375, 1.41064453125, 0.0509490966796875, 1.493408203125, 1.63916015625, 10.0, 1.4403712749481201, 1.5, 1.4403712749481201
12693, -0.27984973788261414, -0.47886860370635986, 0.10856446623802185, 0.018951406702399254, 0.011478963308036327, -0.6601253151893616, 0.05554354190826416, 0.03337166830897331, -0.11994234472513199, -0.8346290588378906, -0.9581973552703857, 0.056795861572027206, 0.004759118921601426, 0.13263030698112743, 4.673202211153497, 9362.0, 30146.0, 35388.0, 9362.0, 8.390083312988281, 0.20173101127147675, -0.0553584061563015, 0.05971408262848854, 0.0049584899097681046, -0.05273078382015228, 1.0002021789550781, -0.052610479295253754, -0.05751800537109375, 1.4912109375, 1.45458984375, 0.11224365234375, 1.493408203125, 1.63916015625, 10.0, 1.4394170045852661, 1.5, 1.4394170045852661
12703, -0.28003841638565063, -0.4797517657279968, 0.1086411401629448, 0.019510937854647636, 0.011815100908279419, -0.6613251566886902, 0.05636284500360489, 0.03385581448674202, -0.1200304701924324, -0.8346309065818787, -0.9581952691078186, 0.056820400059223175, 0.00794424021230154, 0.1289535060602418, 4.671143152031185, 9362.0, 30146.0, 35388.0, 9362.0, 8.390083312988281, 0.06480789184570312, -0.005949037149548531, -0.08948227763175964, 0.0049584899097681046, -0.05273078382015228, 1.0002021789550781, -0.052610479295253754, -0.05751800537109375, 1.4912109375, 1.29638671875, 0.0542755126953125, 1.493408203125, 1.63916015625, 10.0, 1.4394170045852661, 1.5, 1.4394170045852661
12743, -0.2788896858692169, -0.48119810223579407, 0.10932613909244537, 0.021238727495074272, 0.012852420099079609, -0.6649234890937805, 0.05882307514548302, 0.03529762476682663, -0.11993231624364853, -0.8346204161643982, -0.9582083225250244, 0.05679936707019806, 0.005941453329095593, 0.1445354675896624, 4.681424025394607, 9362.0, 30146.0, 35388.0, 9362.0, 8.390083312988281, -0.09742835909128189, -0.18680177628993988, 0.3255787789821625, 0.003554159076884389, -0.05308299884200096, 0.9988489747047424, -0.052610479295253754, -0.05751800537109375, 1.4912109375, 1.64794921875, 0.533660888671875, 1.4970703125, 1.63916015625, 10.0, 1.4406850337982178, 1.5, 1.4406850337982178
12763, -0.2790464162826538, -0.4768774211406708, 0.10821397602558136, 0.02243158407509327, 0.013567956164479256, -0.667327880859375, 0.060460854321718216, 0.03625638782978058, -0.12042676657438278, -0.8346342444419861, -0.9582033753395081, 0.05680152028799057, 0.004045333190296632, 0.145760567902812, 4.675151735024178, 9362.0, 30146.0, 35388.0, 9362.0, 8.390083312988281, -0.13285143673419952, -0.1682031750679016, 0.14170758426189423, 0.0030502702575176954, -0.0518667995929718, 0.9988232254981995, -0.052610479295253754, -0.05751800537109375, 1.4912109375, 1.64794921875, 0.533660888671875, 1.4970703125, 1.63916015625, 10.0, 1.43988835811615, 1.5, 1.43988835811615
12773, -0.2790009677410126, -0.47686445713043213, 0.10896530747413635, 0.023657215759158134, 0.01430265512317419, -0.6697391867637634, 0.06209998205304146, 0.03721362352371216, -0.12075226753950119, -0.8346342444419861, -0.9581971764564514, 0.05680141597986221, 0.012493643436261158, 0.1442356266305751, 4.678978931965719, 9362.0, 30146.0, 35388.0, 9362.0, 8.390083312988281, -0.13285143673419952, -0.1682031750679016, 0.14170758426189423, 0.00433580856770277, -0.05295036733150482, 0.9982520937919617, -0.052610479295253754, -0.05751800537109375, 1.4912109375, 1.34326171875, 0.01605224609375, 1.4970703125, 1.63916015625, 10.0, 1.4413596391677856, 1.5, 1.4413596391677856
12843, -0.27741745114326477, -0.4749962091445923, 0.10812123864889145, 0.027529772371053696, 0.016621554270386696, -0.6770178079605103, 0.0669870376586914, 0.04008421301841736, -0.12157553434371948, -0.8346219658851624, -0.958200216293335, 0.056839946657419205, 0.02039175614888297, 0.1378444909669554, 4.669465313622578, 9362.0, 30146.0, 35388.0, 9362.0, 8.390083312988281, -0.07987146824598312, 0.037060871720314026, 0.04892592504620552, 0.0037174143362790346, -0.057166971266269684, 0.9991341233253479, -0.052610479295253754, -0.05751800537109375, 1.4912109375, 1.206298828125, 0.3491363525390625, 1.493408203125, 1.63916015625, 10.0, 1.4413069486618042, 1.5, 1.4413069486618042
12863, -0.27714958786964417, -0.4728128910064697, 0.11127723753452301, 0.028885776177048683, 0.01743278279900551, -0.6794494986534119, 0.06861459463834763, 0.041037749499082565, -0.12161622941493988, -0.8346256017684937, -0.9581986665725708, 0.0568074993789196, 0.011935251204135388, 0.1352479205030761, 4.671388140243987, 9362.0, 30146.0, 35388.0, 9362.0, 8.390083312988281, -0.058956414461135864, 0.17354345321655273, 0.1697559356689453, 0.0035127345472574234, -0.054180312901735306, 0.9986856579780579, -0.052610479295253754, -0.05751800537109375, 1.4912109375, 1.497802734375, 0.19122314453125, 1.493408203125, 1.63916015625, 10.0, 1.4413069486618042, 1.5, 1.4413069486618042
12883, -0.27816522121429443, -0.47171103954315186, 0.11015567928552628, 0.030274292454123497, 0.01826305501163006, -0.681883692741394, 0.07023601233959198, 0.04198906943202019, -0.12181544303894043, -0.8346894979476929, -0.9581652879714966, 0.05676939710974693, 0.037982881270161806, 0.1300701582953252, 4.6549884361666996, 9362.0, 30146.0, 35388.0, 9362.0, 8.390083312988281, -0.14351138472557068, 0.02506551332771778, -0.38875970244407654, 0.004582214634865522, -0.054540667682886124, 0.9972633123397827, -0.052610479295253754, -0.05751800537109375, 1.4912109375, 1.3154296875, 0.03118896484375, 1.4970703125, 1.63916015625, 10.0, 1.4416850805282593, 1.5, 1.4416850805282593
12893, -0.277868390083313, -0.472211092710495, 0.10774222761392593, 0.031695153564214706, 0.019112344831228256, -0.6843234300613403, 0.07184942811727524, 0.04293990507721901, -0.12219636887311935, -0.8346293568611145, -0.9581933617591858, 0.05679842084646225, 0.007363637589243488, 0.15942082244887956, 4.672918167210183, 9362.0, 30146.0, 35388.0, 9362.0, 8.390083312988281, 0.08639947324991226, 0.034111686050891876, -0.12828975915908813, 0.004582214634865522, -0.054540667682886124, 0.9972633123397827, -0.052610479295253754, -0.05751800537109375, 1.4912109375, 1.57763671875, 0.3647918701171875, 1.4970703125, 1.63916015625, 10.0, 1.4416176080703735, 1.5, 1.4416176080703735
12903, -0.27836158871650696, -0.4716804623603821, 0.10735227912664413, 0.031695153564214706, 0.019112344831228256, -0.6843234300613403, 0.07184942811727524, 0.04293990507721901, -0.12219636887311935, -0.8346254229545593, -0.9581979513168335, 0.056793518364429474, 0.014745893097302641, 0.13248458183346656, 4.667605622399547, 9362.0, 30146.0, 35388.0, 9362.0, 8.390083312988281, -0.0481865257024765, -0.08221044391393661, 0.35047927498817444, 0.004582214634865522, -0.054540667682886124, 0.9972633123397827, -0.052610479295253754, -0.05751800537109375, 1.4912109375, 1.57763671875, 0.3647918701171875, 1.496337890625, 1.63916015625, 10.0, 1.4416176080703735, 1.5, 1.4416176080703735
12943, -0.27845823764801025, -0.4763784408569336, 0.11286599934101105, 0.035388439893722534, 0.02131899632513523, -0.6904488801956177, 0.07588525116443634, 0.045327894389629364, -0.12282445281744003, -0.8346307873725891, -0.9582112431526184, 0.05682268738746643, 0.016581143621649756, 0.15089927456560304, 4.680820043759114, 9362.0, 30146.0, 35388.0, 9362.0, 8.390083312988281, -0.12301547825336456, -0.1954018473625183, 0.08724486827850342, 0.004679244477301836, -0.053564365953207016, 0.9993680119514465, -0.052610479295253754, -0.05751800537109375, 1.4912109375, 1.57470703125, 0.3579864501953125, 1.502197265625, 1.63916015625, 10.0, 1.4425277709960938, 1.5, 1.4425277709960938
12963, -0.27944260835647583, -0.4733903110027313, 0.11295285820960999, 0.035388439893722534, 0.02131899632513523, -0.6904488801956177, 0.07588525116443634, 0.045327894389629364, -0.12282445281744003, -0.8346274495124817, -0.9582057595252991, 0.056794606149196625, 0.01377038111673115, 0.13042638504413162, 4.685934108604566, 9362.0, 30146.0, 35388.0, 9362.0, 8.390083312988281, -0.03979501128196716, 0.19671781361103058, 0.1301455795764923, 0.004679244477301836, -0.053564365953207016, 0.9993680119514465, -0.052610479295253754, -0.05751800537109375, 1.4912109375, 1.13232421875, 0.9053192138671875, 1.494873046875, 1.63916015625, 10.0, 1.4415160417556763, 1.5, 1.4415160417556763
12983, -0.28049445152282715, -0.477483332157135, 0.11021407693624496, 0.03770160302519798, 0.02270037680864334, -0.6941351890563965, 0.07832333445549011, 0.046765416860580444, -0.12291695922613144, -0.8346348404884338, -0.958186686038971, 0.0568033903837204, 0.01195191641740049, 0.1438173447106692, 4.666525743717513, 9362.0, 30146.0, 35388.0, 9362.0, 8.390083312988281, -0.13394464552402496, 0.26938408613204956, -0.010251352563500404, 0.003128589130938053, -0.05334758013486862, 0.9983314275741577, -0.052610479295253754, -0.05751800537109375, 1.4912109375, 1.437744140625, 0.086029052734375, 1.494873046875, 1.63916015625, 10.0, 1.4419000148773193, 1.5, 1.4419000148773193
12993, -0.2800579071044922, -0.4780658185482025, 0.10855724662542343, 0.03928426653146744, 0.02364528365433216, -0.6965950727462769, 0.07994429767131805, 0.047725386917591095, -0.12314917147159576, -0.8346244692802429, -0.9582124948501587, 0.05679323524236679, 0.00944173799226846, 0.149015166658387, 4.6767681032602075, 9362.0, 30146.0, 35388.0, 9362.0, 8.390083312988281, -0.26764482259750366, -0.01574554480612278, -0.1418961137533188, 0.0047963703982532024, -0.05448639765381813, 0.9994984269142151, -0.052610479295253754, -0.05751800537109375, 1.4912109375, 1.437744140625, 0.086029052734375, 1.494873046875, 1.63916015625, 10.0, 1.4419000148773193, 1.5, 1.4419000148773193
13003, -0.2800945043563843, -0.4783366918563843, 0.10887007415294647, 0.04008778557181358, 0.02412494271993637, -0.6978272199630737, 0.08075981587171555, 0.048206545412540436, -0.12328390032052994, -0.8346912264823914, -0.9581716060638428, 0.05677719786763191, 0.04722166719731078, 0.11370451936969062, 4.668175402238329, 9362.0, 30146.0, 35388.0, 9362.0, 8.390083312988281, 0.029768701642751694, 0.0036259950138628483, -0.22007541358470917, 0.004465723410248756, -0.05227005481719971, 1.0018168687820435, -0.052610479295253754, -0.05751800537109375, 1.4912109375, 1.517578125, 0.231689453125, 1.497802734375, 1.63916015625, 10.0, 1.4427504539489746, 1.5, 1.4427504539489746
13023, -0.27977412939071655, -0.479652464389801, 0.10845879465341568, 0.04171935096383095, 0.025098705664277077, -0.7002909779548645, 0.08239730447530746, 0.04916977137327194, -0.12307564914226532, -0.8346794843673706, -0.9581535458564758, 0.056755561381578445, 0.042177467107953684, 0.11496910907843017, 4.654183385382011, 9362.0, 30146.0, 35388.0, 9362.0, 8.390083312988281, 0.14194561541080475, -0.05520803853869438, -0.05920593440532684, 0.0033150631934404373, -0.05131947249174118, 0.9984819293022156, -0.052610479295253754, -0.05751800537109375, 1.4912109375, 1.25244140625, 0.155426025390625, 1.496337890625, 1.62158203125, 10.0, 1.4425238370895386, 1.5, 1.4425238370895386
13033, -0.28030094504356384, -0.4777677059173584, 0.10648425668478012, 0.04254741966724396, 0.02559281513094902, -0.7015215754508972, 0.08321622759103775, 0.04965194687247276, -0.12303943932056427, -0.834632158279419, -0.9582141041755676, 0.056798577308654785, 0.015475283328051545, 0.1462517550191933, 4.6888912271477885, 9362.0, 30146.0, 35388.0, 9362.0, 8.390083312988281, 0.03862755373120308, 0.0913897231221199, -0.02897673472762108, 0.0028947817627340555, -0.05171447619795799, 0.9993464946746826, -0.052610479295253754, -0.05751800537109375, 1.4912109375, 1.681640625, 0.619354248046875, 1.496337890625, 1.62158203125, 10.0, 1.4425238370895386, 1.5, 1.4425238370895386
13073, -0.28033509850502014, -0.48353633284568787, 0.10728906095027924, 0.04594159871339798, 0.027617326006293297, -0.7064480781555176, 0.08649591356515884, 0.051573075354099274, -0.12318180501461029, -0.8346137404441833, -0.9582054018974304, 0.05677910894155502, 0.011108336827576505, 0.14094779372032917, 4.676976930710016, 9362.0, 30146.0, 35388.0, 9362.0, 8.390083312988281, -0.020356277003884315, -0.10685684531927109, -0.2571185231208801, 0.0032282706815749407, -0.053135424852371216, 0.9994896054267883, -0.052610479295253754, -0.05751800537109375, 1.4912109375, 1.077392578125, 1.570770263671875, 1.5, 1.62158203125, 10.0, 1.439916729927063, 1.5, 1.439916729927063
13083, -0.27896004915237427, -0.4828697443008423, 0.10690359026193619, 0.046810686588287354, 0.028135454282164574, -0.7076805233955383, 0.08732163906097412, 0.05205269157886505, -0.12330835312604904, -0.8346338868141174, -0.95820552110672, 0.05678638070821762, 0.014612653156684568, 0.14205244846527876, 4.675586674486254, 9362.0, 30146.0, 35388.0, 9362.0, 8.390083312988281, 0.16560380160808563, -0.1919286549091339, -0.0315258651971817, 0.0032282706815749407, -0.053135424852371216, 0.9994896054267883, -0.052610479295253754, -0.05751800537109375, 1.4912109375, 1.367431640625, 0.0183258056640625, 1.5, 1.62158203125, 10.0, 1.4406872987747192, 1.5, 1.4406872987747192
13123, -0.2796492278575897, -0.48223674297332764, 0.10509409010410309, 0.04946744814515114, 0.029718611389398575, -0.7113909721374512, 0.0897974818944931, 0.053491394966840744, -0.12394962459802628, -0.8346418142318726, -0.9581957459449768, 0.05681022256612778, 0.018915718644119454, 0.15074289703392196, 4.671871350697792, 9362.0, 30146.0, 35388.0, 9362.0, 8.390083312988281, -0.08488783240318298, -0.06303513050079346, -0.07939718663692474, 0.003918381407856941, -0.053407344967126846, 0.9974954724311829, -0.052610479295253754, -0.05751800537109375, 1.4912109375, 1.41064453125, 0.0509490966796875, 1.49560546875, 1.62158203125, 10.0, 1.4402177333831787, 1.5, 1.4402177333831787
13143, -0.2800121009349823, -0.47831058502197266, 0.10385137051343918, 0.05219845473766327, 0.03134492412209511, -0.7151191830635071, 0.09227007627487183, 0.054930172860622406, -0.12444189190864563, -0.8346366286277771, -0.9582056999206543, 0.056798480451107025, 0.004428974035170851, 0.13210820895105257, 4.671133346664555, 9362.0, 30146.0, 35388.0, 9362.0, 8.390083312988281, -0.14267461001873016, -0.5019547939300537, -0.4223616123199463, 0.003918381407856941, -0.053407344967126846, 0.9974954724311829, -0.052610479295253754, -0.05751800537109375, 1.4912109375, 1.232666015625, 0.22625732421875, 1.49560546875, 1.62158203125, 10.0, 1.4399539232254028, 1.5, 1.4399539232254028
13173, -0.28272247314453125, -0.47674691677093506, 0.10469159483909607, 0.055003441870212555, 0.033014457672834396, -0.7188548445701599, 0.0947251096367836, 0.056373462080955505, -0.12467628717422485, -0.83463054895401, -0.9581977725028992, 0.056780003011226654, 0.016407491385016532, 0.1345696817339217, 4.672343599853921, 9362.0, 30146.0, 35388.0, 9362.0, 8.390083312988281, -0.046272046864032745, -0.050221215933561325, 0.0025606753770262003, 0.005032734014093876, -0.052584484219551086, 0.9976190328598022, -0.052610479295253754, -0.05751800537109375, 1.4912109375, 1.58642578125, 0.3851776123046875, 1.49560546875, 1.62158203125, 10.0, 1.4399539232254028, 1.5, 1.4399539232254028
13183, -0.2824743688106537, -0.4774435758590698, 0.10568753629922867, 0.055003441870212555, 0.033014457672834396, -0.7188548445701599, 0.0947251096367836, 0.056373462080955505, -0.12467628717422485, -0.8346151113510132, -0.9581964612007141, 0.05678687244653702, 0.011413107796290066, 0.13220259275021817, 4.681740213022554, 9362.0, 30146.0, 35388.0, 9362.0, 8.390083312988281, -0.11715683341026306, -0.19728173315525055, 0.08796361833810806, 0.005032734014093876, -0.052584484219551086, 0.9976190328598022, -0.052610479295253754, -0.05751800537109375, 1.4912109375, 1.58642578125, 0.3851776123046875, 1.49853515625, 1.62158203125, 10.0, 1.4399539232254028, 1.5, 1.4399539232254028
13193, -0.282733678817749, -0.47455549240112305, 0.10615895688533783, 0.05691421404480934, 0.034151602536439896, -0.7213508486747742, 0.09635349363088608, 0.05734230577945709, -0.12482144683599472, -0.8346201181411743, -0.9582022428512573, 0.05677848309278488, 0.01478239618366885, 0.14043750212380246, 4.686242637941874, 9362.0, 30146.0, 35388.0, 9362.0, 8.390083312988281, 0.01439561415463686, -0.3042222559452057, -0.2832234799861908, 0.005032734014093876, -0.052584484219551086, 0.9976190328598022, -0.052610479295253754, -0.05751800537109375, 1.4912109375, 1.58642578125, 0.3851776123046875, 1.49853515625, 1.62158203125, 10.0, 1.440179705619812, 1.5, 1.440179705619812
13203, -0.28402915596961975, -0.4734615385532379, 0.10587868094444275, 0.057881832122802734, 0.03472745046019554, -0.7225990295410156, 0.09717012941837311, 0.05782751739025116, -0.12481555342674255, -0.8346221446990967, -0.9582003355026245, 0.05676174908876419, 0.0053639638893120956, 0.13183830965999732, 4.668911118514065, 9362.0, 30146.0, 35388.0, 9362.0, 8.390083312988281, -0.09051603823900223, 0.10556147247552872, 0.38918882608413696, 0.005032734014093876, -0.052584484219551086, 0.9976190328598022, -0.052610479295253754, -0.05751800537109375, 1.4912109375, 1.58642578125, 0.3851776123046875, 1.49853515625, 1.62158203125, 10.0, 1.4405434131622314, 1.5, 1.4405434131622314
13243, -0.282892107963562, -0.473791241645813, 0.10770668089389801, 0.060833387076854706, 0.03648415580391884, -0.7263461947441101, 0.09959814697504044, 0.05928764119744301, -0.12493778765201569, -0.8346255421638489, -0.9581900238990784, 0.05679197236895561, 0.008431720618051615, 0.13298422271674326, 4.676784821210699, 9362.0, 30146.0, 35388.0, 9362.0, 8.390083312988281, -0.28522732853889465, -0.13899321854114532, -0.22664687037467957, 0.0037842632737010717, -0.05228373035788536, 0.9991527199745178, -0.052610479295253754, -0.05751800537109375, 1.4912109375, 1.27001953125, 0.10626220703125, 1.49853515625, 1.62158203125, 10.0, 1.4405773878097534, 1.5, 1.4405773878097534
13273, -0.2852928042411804, -0.47690197825431824, 0.10970062017440796, 0.06488199532032013, 0.03889448568224907, -0.7313557863235474, 0.10283475369215012, 0.061231814324855804, -0.12549971044063568, -0.8346303105354309, -0.9582027196884155, 0.056791435927152634, 0.013318112171394279, 0.1341119011621572, 4.670048101629447, 9362.0, 30146.0, 35388.0, 9362.0, 8.390083312988281, -0.004267075564712286, 0.42838966846466064, 0.04344084858894348, 0.004047388676553965, -0.054308902472257614, 0.9983614087104797, -0.052610479295253754, -0.05751800537109375, 1.4912109375, 1.157958984375, 0.6731719970703125, 1.49853515625, 1.62158203125, 10.0, 1.4408105611801147, 1.5, 1.4408105611801147
13303, -0.28679531812667847, -0.4773082733154297, 0.10855134576559067, 0.06695495545864105, 0.040128909051418304, -0.7338690161705017, 0.10446244478225708, 0.06221062317490578, -0.12577874958515167, -0.8346148133277893, -0.9582046270370483, 0.056787990033626556, 0.013027530424381166, 0.13759685818311596, 4.678223922106401, 9362.0, 30146.0, 35388.0, 9362.0, 8.390083312988281, -0.008427999913692474, 0.025574998930096626, -0.28599831461906433, 0.0034353742375969887, -0.05388333275914192, 0.9995151162147522, -0.052610479295253754, -0.05751800537109375, 1.4912109375, 1.604736328125, 0.428436279296875, 1.494140625, 1.62158203125, 10.0, 1.4408105611801147, 1.5, 1.4408105611801147
13323, -0.2862244248390198, -0.4815373718738556, 0.1081637367606163, 0.0690605416893959, 0.04138292744755745, -0.7363832592964172, 0.10609513521194458, 0.06319043785333633, -0.12579645216464996, -0.8346379399299622, -0.9582119584083557, 0.056784532964229584, 0.015594285616400626, 0.14556295778757544, 4.677739857490617, 9362.0, 30146.0, 35388.0, 9362.0, 8.390083312988281, -0.02422262169420719, 0.5524978637695312, 0.14533019065856934, 0.004119183402508497, -0.05416162312030792, 1.00179123878479, -0.052610479295253754, -0.05751800537109375, 1.4912109375, 1.7021484375, 0.67376708984375, 1.494140625, 1.62158203125, 10.0, 1.4409945011138916, 1.5, 1.4409945011138916
13343, -0.285146564245224, -0.4828681945800781, 0.10747528821229935, 0.07119879126548767, 0.042656585574150085, -0.7388980984687805, 0.1077314242720604, 0.06417448818683624, -0.12562696635723114, -0.8346251845359802, -0.9582096934318542, 0.0568087175488472, 0.009442049648183763, 0.130199489587568, 4.684651030478195, 9362.0, 30146.0, 35388.0, 9362.0, 8.390083312988281, 0.16989801824092865, 0.2258688509464264, -0.056429628282785416, 0.004971266724169254, -0.05260530859231949, 0.9987309575080872, -0.052610479295253754, -0.05751800537109375, 1.4912109375, 1.69482421875, 0.6540374755859375, 1.49560546875, 1.62158203125, 10.0, 1.441846251487732, 1.5, 1.441846251487732
13383, -0.2863515317440033, -0.48281922936439514, 0.10326484590768814, 0.07668845355510712, 0.04592662304639816, -0.7451815009117126, 0.1118575856089592, 0.0666230171918869, -0.1257888525724411, -0.834637463092804, -0.9582042098045349, 0.056781232357025146, 0.010119114212592423, 0.13206098671219024, 4.678225633620096, 9362.0, 30146.0, 35388.0, 9362.0, 8.390083312988281, -0.13629008829593658, -0.3150143325328827, -0.2026599943637848, 0.004920148756355047, -0.054708100855350494, 1.0006623268127441, -0.052610479295253754, -0.05751800537109375, 1.4912109375, 1.19970703125, 0.38543701171875, 1.496337890625, 1.62158203125, 10.0, 1.441400408744812, 1.5, 1.441400408744812
13393, -0.2863611876964569, -0.4807698428630829, 0.10211782157421112, 0.07781116664409637, 0.04659530892968178, -0.7464392185211182, 0.11268541216850281, 0.06711392849683762, -0.12575878202915192, -0.8346310257911682, -0.9582002758979797, 0.056805238127708435, 0.01104962110021879, 0.14047050064550604, 4.671324750115849, 9362.0, 30146.0, 35388.0, 9362.0, 8.390083312988281, -0.06979059427976608, -0.17466270923614502, -0.0029783921781927347, 0.004338519647717476, -0.055345866829156876, 1.000954508781433, -0.052610479295253754, -0.05751800537109375, 1.4912109375, 1.603271484375, 0.4249420166015625, 1.496337890625, 1.35791015625, 10.0, 1.4401358366012573, 1.5, 1.4401358366012573
13423, -0.2838369905948639, -0.47823983430862427, 0.10061906278133392, 0.0812288373708725, 0.048630859702825546, -0.7502102255821228, 0.11515604704618454, 0.06858756393194199, -0.1258755326271057, -0.834691047668457, -0.958164632320404, 0.05677194893360138, 0.04377905254822671, 0.1191506368543287, 4.655456470452554, 9362.0, 30146.0, 35388.0, 9362.0, 8.390083312988281, -0.06029452383518219, -0.08981682360172272, -0.02092878706753254, 0.003629538230597973, -0.05352291837334633, 0.9957899451255798, -0.052610479295253754, -0.05751800537109375, 1.4912109375, 1.6171875, 0.4583282470703125, 1.49853515625, 1.653076171875, 10.0, 1.4405169486999512, 1.5, 1.4405169486999512
13443, -0.28294894099235535, -0.4782075583934784, 0.10047750174999237, 0.08354832231998444, 0.050012342631816864, -0.7527363300323486, 0.1167902871966362, 0.06955984979867935, -0.1267004907131195, -0.834632158279419, -0.9581997990608215, 0.0567864254117012, 0.009249884914473207, 0.13043100866460122, 4.685831288395274, 9362.0, 30146.0, 35388.0, 9362.0, 8.390083312988281, -0.2025335282087326, -0.267474502325058, 0.16761140525341034, 0.004535674583166838, -0.05354807898402214, 0.9966110587120056, -0.052610479295253754, -0.05751800537109375, 1.4912109375, 1.56298828125, 0.3311767578125, 1.49853515625, 1.653076171875, 10.0, 1.439226746559143, 1.5, 1.439226746559143
13453, -0.2830870747566223, -0.4779341220855713, 0.10206655412912369, 0.08472032099962234, 0.05071036517620087, -0.7540048360824585, 0.11760872602462769, 0.07004448771476746, -0.12699481844902039, -0.834631085395813, -0.9581955075263977, 0.056809522211551666, 0.00974850933079027, 0.14550923070058275, 4.6742311478551795, 9362.0, 30146.0, 35388.0, 9362.0, 8.390083312988281, -0.0051137288101017475, 0.18042947351932526, 0.32398903369903564, 0.004535674583166838, -0.05354807898402214, 0.9966110587120056, -0.052610479295253754, -0.05751800537109375, 1.4912109375, 1.56298828125, 0.3311767578125, 1.49853515625, 1.653076171875, 10.0, 1.4398422241210938, 1.5, 1.4398422241210938
13483, -0.283038854598999, -0.48011744022369385, 0.10214221477508545, 0.08708883076906204, 0.052120957523584366, -0.7565478086471558, 0.11924159526824951, 0.07101508229970932, -0.1272992640733719, -0.8346474170684814, -0.9581922888755798, 0.056812822818756104, 0.009961329292334842, 0.14263348633238593, 4.683909980038783, 9362.0, 30146.0, 35388.0, 9362.0, 8.390083312988281, 0.2821171283721924, 0.14207537472248077, -0.08176383376121521, 0.0037293487694114447, -0.053510528057813644, 0.9997261762619019, -0.052610479295253754, -0.05751800537109375, 1.4912109375, 1.622314453125, 0.470672607421875, 1.4970703125, 1.653076171875, 10.0, 1.4398422241210938, 1.5, 1.4398422241210938
13553, -0.2829745411872864, -0.47530898451805115, 0.1014627069234848, 0.09689044952392578, 0.057957835495471954, -0.7667460441589355, 0.12578828632831573, 0.07490771263837814, -0.1276494860649109, -0.8346279263496399, -0.9581923484802246, 0.05675411969423294, 0.012682938763803457, 0.13404667304129703, 4.6835410723454896, 9362.0, 30146.0, 35388.0, 9362.0, 8.390083312988281, 0.021317454054951668, -0.11721214652061462, -0.0985112339258194, 0.0017492673359811306, -0.05361294001340866, 1.001007080078125, -0.052610479295253754, -0.05751800537109375, 1.4912109375, 1.493408203125, 0.1825714111328125, 1.497802734375, 1.653076171875, 10.0, 1.438297986984253, 1.5, 1.438297986984253
13673, -0.2855605185031891, -0.48663797974586487, 0.10056988149881363, 0.11257205158472061, 0.06729766726493835, -0.7821179628372192, 0.13559986650943756, 0.08076436072587967, -0.12867450714111328, -0.834626317024231, -0.9582003951072693, 0.0568150132894516, 0.003059197021194535, 0.14700058409545136, 4.689611149728997, 9362.0, 30146.0, 35388.0, 9362.0, 8.390083312988281, 0.08417844027280807, -0.18213793635368347, -0.1318914145231247, 0.005413229111582041, -0.05172230675816536, 0.9992072582244873, -0.04288175329566002, 0.07688140869140625, 1.502197265625, 1.358642578125, 0.0159912109375, 1.49560546875, 1.653076171875, 10.0, 1.4395616054534912, 1.5, 1.4395616054534912
13693, -0.2870926856994629, -0.48110324144363403, 0.09788088500499725, 0.11530064046382904, 0.06892276555299759, -0.7846919894218445, 0.13726073503494263, 0.08174511045217514, -0.1287633329629898, -0.8346382975578308, -0.9581968188285828, 0.056792691349983215, 0.019477033419769366, 0.15048458321450653, 4.680348368455973, 9362.0, 30146.0, 35388.0, 9362.0, 8.390083312988281, -0.01238222699612379, -0.09298737347126007, -0.19836407899856567, 0.005413229111582041, -0.05172230675816536, 0.9992072582244873, -0.04288175329566002, 0.07688140869140625, 1.502197265625, 1.5, 0.19561767578125, 1.49560546875, 1.653076171875, 10.0, 1.4388357400894165, 1.5, 1.4388357400894165
13723, -0.28634822368621826, -0.48696455359458923, 0.1024278774857521, 0.11806236207485199, 0.07056749612092972, -0.7872703671455383, 0.13890935480594635, 0.08272849023342133, -0.12902915477752686, -0.8346440196037292, -0.9581932425498962, 0.05676931515336037, 0.010195135783056683, 0.15545157456404013, 4.666322675254023, 9362.0, 30146.0, 35388.0, 9362.0, 8.390083312988281, -0.1788375824689865, -0.19944092631340027, 0.14967989921569824, 0.003951643127948046, -0.05456467717885971, 1.0006710290908813, -0.04288175329566002, 0.07688140869140625, 1.502197265625, 1.43115234375, 0.0766143798828125, 1.49560546875, 1.653076171875, 10.0, 1.438270926475525, 1.5, 1.438270926475525
13743, -0.28730738162994385, -0.48534926772117615, 0.10350460559129715, 0.12085707485675812, 0.07223193347454071, -0.7898511290550232, 0.1405649334192276, 0.08371367305517197, -0.12909996509552002, -0.8346859812736511, -0.958159327507019, 0.05673670023679733, 0.043099439592965694, 0.12354596025886622, 4.658568991846271, 9362.0, 30146.0, 35388.0, 9362.0, 8.390083312988281, 0.010364986956119537, 0.0016672491328790784, 0.11211203038692474, 0.00441918196156621, -0.05359315499663353, 1.0001919269561768, -0.04288175329566002, 0.07688140869140625, 1.502197265625, 1.2216796875, 0.27325439453125, 1.49267578125, 1.653076171875, 10.0, 1.439315915107727, 1.5, 1.439315915107727
13753, -0.28798797726631165, -0.4870959222316742, 0.10557051748037338, 0.12368500232696533, 0.07391604036092758, -0.7924342155456543, 0.1422261893749237, 0.08469818532466888, -0.12916333973407745, -0.8346929550170898, -0.9581474661827087, 0.05677492916584015, 0.03790389875939419, 0.12067807150518206, 4.668350444450299, 9362.0, 30146.0, 35388.0, 9362.0, 8.390083312988281, 0.029912596568465233, 0.36980631947517395, 0.17059661448001862, 0.0033436929807066917, -0.054572634398937225, 0.9997100234031677, -0.04288175329566002, 0.07688140869140625, 1.502197265625, 1.2216796875, 0.27325439453125, 1.49267578125, 1.653076171875, 10.0, 1.439315915107727, 1.5, 1.439315915107727
13773, -0.2882128953933716, -0.4879508316516876, 0.10616757720708847, 0.12654614448547363, 0.07561987638473511, -0.7950177192687988, 0.1438889354467392, 0.08568603545427322, -0.12921550869941711, -0.8346846699714661, -0.958151638507843, 0.05675455927848816, 0.04873851523025742, 0.12565828062020046, 4.6630053470396, 9362.0, 30146.0, 35388.0, 9362.0, 8.390083312988281, 0.05522462725639343, 0.37232381105422974, -0.05349334701895714, 0.004109780304133892, -0.05154024437069893, 1.0002171993255615, -0.04288175329566002, 0.07688140869140625, 1.502197265625, 1.097900390625, 1.2933502197265625, 1.490478515625, 1.601806640625, 10.0, 1.4399497509002686, 1.5, 1.4399497509002686
