timeTick, roll, pitch, yaw, stateX, stateY, stateZ, stateVX, stateVY, stateVZ, otX0, otY0, otZ0, otRoll0, otPitch0, otYaw0, left wing, pitch motor, yaw motor, right wing, voltage, roll rate, pitch rate, yaw rate, A_x, A_y, A_z, current, i_raw, v_raw, airflow_voltage, airflow_speed, pot_Pitch, voltage_nKF, kFFx, state_vel, State_vel, volt_KF_vel
18286, -0.8227533102035522, -1.6888185739517212, 1.4446851015090942, 0, 0, 0, 0, 0, 0, -0.8167420029640198, -0.9771434664726257, 0.05665967985987663, -0.18867772367971178, -0.26610215641989043, 2.2210025896343684, 0, 0, 0, 0, 0, 0, 0, 0, 0, 0, 0, 0, 0, 0, 0, 0, 0, 0, 0, 0, 0, 0
18296, -0.8214796185493469, -1.689754843711853, 1.4449151754379272, -0.0002586101181805134, -0.00013425185170490295, -3.699582099914551, -0.004351318348199129, -0.0022572530433535576, -0.44384855031967163, -0.8167473077774048, -0.9771453738212585, 0.05667082592844963, -0.17937288521256717, -0.25990354059737797, 2.213479405637575, 9362.0, 30146.0, 35388.0, 9362.0, 0, 0.0861515998840332, 0.1800011396408081, 0.2503162622451782, 0.002776932204142213, -0.06107214093208313, 0.9965264201164246, 0, 0, 0, 0, 0, 0, 0, 0, 0, 0, 0
18306, -0.8216081261634827, -1.6916086673736572, 1.4473848342895508, -0.0002586101181805134, -0.00013425185170490295, -3.699582099914551, -0.004351318348199129, -0.0022572530433535576, -0.44384855031967163, -0.8167831301689148, -0.9771231412887573, 0.05674552172422409, -0.16480117393324917, -0.25474803977380134, 2.221737409197232, 9362.0, 30146.0, 35388.0, 9362.0, 0, 0.16216573119163513, 0.1305961310863495, 0.13502611219882965, 0.003866815008223057, -0.06199643760919571, 0.9969663023948669, 0, 0, 0, 1.39599609375, 0.0362701416015625, 0, 1.41650390625, 10.0, 1.0, 10.0, 1.3869035243988037
18316, -0.8209870457649231, -1.6930533647537231, 1.4491068124771118, -0.0002886817092075944, -0.00014990825729910284, -3.7084662914276123, 0.0013456005835905671, 0.0006918867584317923, -0.4445762038230896, -0.8167803883552551, -0.9771295785903931, 0.05672255903482437, -0.1696943935035773, -0.2620363865665922, 2.2286840199037434, 9362.0, 30146.0, 35388.0, 9362.0, 0, 0.0863385796546936, -0.06724300980567932, -0.11355899274349213, 0.002886004513129592, -0.06304442882537842, 0.9969162344932556, 0, 0, 0, 1.34326171875, 0.01605224609375, 1.49267578125, 1.382080078125, 10.0, 1.0, 10.0, 1.3870902061462402
18326, -0.8205311894416809, -1.6926162242889404, 1.448382019996643, -0.0002886817092075944, -0.00014990825729910284, -3.7084662914276123, 0.0013456005835905671, 0.0006918867584317923, -0.4445762038230896, -0.8167917132377625, -0.977133572101593, 0.05671244487166405, -0.16729313984817523, -0.2615959356138262, 2.224644880233574, 9362.0, 30146.0, 35388.0, 9362.0, 0, 0.048229753971099854, 0.22834964096546173, -0.4649170935153961, 0.004427023697644472, -0.061490874737501144, 0.9985248446464539, 0, 0, 0, 1.22900390625, 0.2412872314453125, 1.49267578125, 1.297119140625, 10.0, 1.0, 10.0, 1.3870000839233398
18336, -0.8208996653556824, -1.6940425634384155, 1.444806456565857, -0.00020470321760512888, -0.00010658969404175878, -3.7173643112182617, 0.007053373381495476, 0.0036400945391505957, -0.4451896548271179, -0.8167873620986938, -0.9771301746368408, 0.05671454966068268, -0.16820704700560707, -0.2583257068518492, 2.2216888234524985, 9362.0, 30146.0, 35388.0, 9362.0, 0, -0.01162176113575697, -0.3399704396724701, 0.17161588370800018, 0.004131074994802475, -0.059880662709474564, 0.9981734156608582, 0, 0, 0, 1.41064453125, 0.0509490966796875, 1.493408203125, 1.34033203125, 10.0, 1.0, 10.0, 1.3870123624801636
18346, -0.8218708038330078, -1.6931800842285156, 1.4458390474319458, -0.00020470321760512888, -0.00010658969404175878, -3.7173643112182617, 0.007053373381495476, 0.0036400945391505957, -0.4451896548271179, -0.8167558908462524, -0.9771555662155151, 0.05667567998170853, -0.18113838331991283, -0.24882040419609552, 2.2142176635662327, 9362.0, 30146.0, 35388.0, 9362.0, 0, -0.2448272854089737, 0.03406102582812309, -0.1231754720211029, 0.004059014841914177, -0.06061368063092232, 0.9983136653900146, 0, 0, 0, 1.3564453125, 0.0156707763671875, 1.493408203125, 1.402587890625, 10.0, 1.0, 10.0, 1.3864651918411255
18356, -0.823089063167572, -1.6940585374832153, 1.4450706243515015, -6.4728810684755445e-06, -4.266465111868456e-06, -3.7262723445892334, 0.012768985703587532, 0.006593065802007914, -0.44562557339668274, -0.8167922496795654, -0.9771234393119812, 0.056747835129499435, -0.16572936598135968, -0.26178808156231526, 2.229453223920372, 9362.0, 30146.0, 35388.0, 9362.0, 0, 0.035317644476890564, 0.1604406237602234, 0.03203932195901871, 0.0019838744774460793, -0.060378070920705795, 0.9981465339660645, 0, 0, 0, 1.47802734375, 0.1532745361328125, 1.491943359375, 1.50146484375, 10.0, 1.0, 10.0, 1.3859940767288208
18366, -0.8226437568664551, -1.6940826177597046, 1.444565773010254, -6.4728810684755445e-06, -4.266465111868456e-06, -3.7262723445892334, 0.012768985703587532, 0.006593065802007914, -0.44562557339668274, -0.816778302192688, -0.9771314859390259, 0.05670121684670448, -0.1633398007833779, -0.2550807530508621, 2.227507330960769, 9362.0, 30146.0, 35388.0, 9362.0, 0, -0.18690046668052673, 0.17017614841461182, -0.19433631002902985, 0.0035621407441794872, -0.06154770776629448, 0.9981507658958435, 0, 0, 0, 1.421630859375, 0.0640716552734375, 1.491943359375, 1.49267578125, 10.0, 1.0, 10.0, 1.3862323760986328
18376, -0.8231737613677979, -1.6938828229904175, 1.442675232887268, 0.00030609144596382976, 0.000157185917487368, -3.7351887226104736, 0.01848670281469822, 0.00955125316977501, -0.4460420608520508, -0.8167824745178223, -0.977127194404602, 0.05672042816877365, -0.16620669466578056, -0.24981635149481463, 2.227512000246423, 9362.0, 30146.0, 35388.0, 9362.0, 0, 0.015854688361287117, 0.04537169635295868, -0.2468610554933548, 0.002829542150720954, -0.06168942153453827, 0.9967565536499023, 0, 0, 0, 1.424560546875, 0.0678253173828125, 1.493408203125, 1.449462890625, 10.0, 1.0, 10.0, 1.3864675760269165
18386, -0.8232132792472839, -1.6937147378921509, 1.4407122135162354, 0.00030609144596382976, 0.000157185917487368, -3.7351887226104736, 0.01848670281469822, 0.00955125316977501, -0.4460420608520508, -0.8167943954467773, -0.9771388173103333, 0.05672258883714676, -0.16146081570821222, -0.2562113193651214, 2.2259092299814314, 9362.0, 30146.0, 35388.0, 9362.0, 8.17190170288086, -0.08548859506845474, 0.13535729050636292, -0.30624479055404663, 0.0018972004763782024, -0.05841456726193428, 1.0006871223449707, -0.025664640590548515, -0.0037593841552734375, 1.49560546875, 1.47802734375, 0.1532745361328125, 1.493408203125, 1.34912109375, 10.0, 1.0, 10.0, 1.3867971897125244
18396, -0.8237103819847107, -1.6943858861923218, 1.4389220476150513, 0.0007329724030569196, 0.00037778899422846735, -3.744114637374878, 0.024204827845096588, 0.012510759755969048, -0.4464186728000641, -0.8167992830276489, -0.9771292805671692, 0.05672205239534378, -0.16713113538958996, -0.2593713481351756, 2.229382264846847, 9362.0, 30146.0, 35388.0, 9362.0, 8.17190170288086, 0.13791154325008392, 0.1264594942331314, 0.3110831081867218, 0.001665669260546565, -0.0595267154276371, 1.0002379417419434, -0.025664640590548515, -0.0037593841552734375, 1.49560546875, 1.46337890625, 0.1270751953125, 1.49560546875, 1.50439453125, 10.0, 1.0, 10.0, 1.386591911315918
18406, -0.8230950832366943, -1.6943256855010986, 1.4394593238830566, 0.0007329724030569196, 0.00037778899422846735, -3.744114637374878, 0.024204827845096588, 0.012510759755969048, -0.4464186728000641, -0.8167601227760315, -0.9771487712860107, 0.05665969476103783, -0.1811089135156683, -0.261929616911317, 2.2146189699630296, 9362.0, 30146.0, 35388.0, 9362.0, 8.17190170288086, -0.07323407381772995, -0.045089706778526306, -0.10575428605079651, 0.0036157264839857817, -0.06090392917394638, 1.000060796737671, -0.025664640590548515, -0.0037593841552734375, 1.49560546875, 1.37548828125, 0.021820068359375, 1.49560546875, 1.4208984375, 10.0, 1.0, 10.0, 1.3866773843765259
18416, -0.824196457862854, -1.694501280784607, 1.4379509687423706, 0.0012743488186970353, 0.0006576526793651283, -3.7530438899993896, 0.029932910576462746, 0.015475070104002953, -0.44652077555656433, -0.8167992830276489, -0.9771259427070618, 0.05671199411153793, -0.16759199035009242, -0.2596202827529339, 2.2284473650057475, 9362.0, 30146.0, 35388.0, 9362.0, 8.17190170288086, -0.012581748887896538, 0.09495791792869568, 0.2938598394393921, 0.0027452551294118166, -0.05844865366816521, 0.9974238276481628, -0.025664640590548515, -0.0037593841552734375, 1.49560546875, 1.335205078125, 0.018280029296875, 1.49560546875, 1.44287109375, 10.0, 1.0, 10.0, 1.3869343996047974
18426, -0.824023425579071, -1.696357250213623, 1.4389017820358276, 0.0012743488186970353, 0.0006576526793651283, -3.7530438899993896, 0.029932910576462746, 0.015475070104002953, -0.44652077555656433, -0.8167600631713867, -0.977160632610321, 0.05668409541249275, -0.17624207690611102, -0.2505030822268566, 2.2244239092041456, 9362.0, 30146.0, 35388.0, 9362.0, 8.17190170288086, 0.02075405977666378, 0.2425362467765808, 0.003389436984434724, 0.003055793000385165, -0.061206620186567307, 0.997107207775116, -0.025664640590548515, -0.0037593841552734375, 1.49560546875, 1.461181640625, 0.1233062744140625, 1.49560546875, 1.458984375, 10.0, 1.0, 10.0, 1.3872485160827637
18436, -0.8237752318382263, -1.6989389657974243, 1.4383717775344849, 0.001930175581946969, 0.0009967547375708818, -3.7619800567626953, 0.03564963489770889, 0.018434148281812668, -0.4471346139907837, -0.8167831897735596, -0.9771403074264526, 0.05670600384473801, -0.16727697893443122, -0.25715318823498023, 2.2336310485987765, 9362.0, 30146.0, 35388.0, 9362.0, 8.17190170288086, -0.019490759819746017, 0.15911448001861572, 0.12073161453008652, 0.0035045607946813107, -0.06309223175048828, 0.9992313385009766, -0.025664640590548515, -0.0037593841552734375, 1.49560546875, 1.2744140625, 0.0959014892578125, 1.494873046875, 1.472900390625, 10.0, 1.0, 10.0, 1.3875501155853271
18446, -0.8242073059082031, -1.6997065544128418, 1.439316749572754, 0.001930175581946969, 0.0009967547375708818, -3.7619800567626953, 0.03564963489770889, 0.018434148281812668, -0.4471346139907837, -0.816784143447876, -0.9771270155906677, 0.056710097938776016, -0.16981606651565476, -0.25748278395485613, 2.2343068681244573, 9362.0, 30146.0, 35388.0, 9362.0, 8.17190170288086, 0.0710720419883728, 0.08164731413125992, -0.25834742188453674, 0.0029008251149207354, -0.059617336839437485, 0.9983388781547546, -0.025664640590548515, -0.0037593841552734375, 1.49560546875, 1.475830078125, 0.1492767333984375, 1.494873046875, 1.467041015625, 10.0, 1.0, 10.0, 1.3871127367019653
18456, -0.8236515522003174, -1.7004305124282837, 1.4379818439483643, 0.0027005313895642757, 0.0013950602151453495, -3.7709264755249023, 0.041386302560567856, 0.0213965754956007, -0.4475225806236267, -0.8167971968650818, -0.9771392941474915, 0.05670325830578804, -0.16426253132542007, -0.24891060056128822, 2.229964097400858, 9362.0, 30146.0, 35388.0, 9362.0, 8.17190170288086, 0.05885343626141548, -0.36314657330513, -0.02285521663725376, 0.004412027541548014, -0.058705296367406845, 0.998592734336853, -0.025664640590548515, -0.0037593841552734375, 1.49560546875, 1.46044921875, 0.12200927734375, 1.4970703125, 1.45458984375, 10.0, 1.0, 10.0, 1.386493444442749
18466, -0.8230119347572327, -1.698016881942749, 1.4365102052688599, 0.0027005313895642757, 0.0013950602151453495, -3.7709264755249023, 0.041386302560567856, 0.0213965754956007, -0.4475225806236267, -0.8167971968650818, -0.977131724357605, 0.05671783909201622, -0.1646658491497876, -0.2536625632304492, 2.227585497022086, 9362.0, 30146.0, 35388.0, 9362.0, 8.17190170288086, 0.1437201350927353, 0.1932796984910965, -0.018063517287373543, 0.004948641173541546, -0.060548048466444016, 0.9991503953933716, -0.025664640590548515, -0.0037593841552734375, 1.49560546875, 1.47509765625, 0.147857666015625, 1.4970703125, 1.440673828125, 10.0, 1.0, 10.0, 1.386818289756775
18476, -0.8218259811401367, -1.6990994215011597, 1.4362508058547974, 0.003585656639188528, 0.0018526046769693494, -3.7798802852630615, 0.04712449014186859, 0.024357382208108902, -0.4478529691696167, -0.8167895674705505, -0.9771435260772705, 0.056722767651081085, -0.16704069171106123, -0.2521011673603937, 2.227824635375094, 9362.0, 30146.0, 35388.0, 9362.0, 8.17190170288086, 0.02367866411805153, -0.12779437005519867, -0.0073199039325118065, 0.0043021603487432, -0.06364067643880844, 0.9996387958526611, -0.025664640590548515, -0.0037593841552734375, 1.49560546875, 1.39892578125, 0.0390167236328125, 1.496337890625, 1.434814453125, 10.0, 1.0, 10.0, 1.3868775367736816
18486, -0.8215633630752563, -1.6971420049667358, 1.4367676973342896, 0.003585656639188528, 0.0018526046769693494, -3.7798802852630615, 0.04712449014186859, 0.024357382208108902, -0.4478529691696167, -0.8167933821678162, -0.9771221876144409, 0.056718628853559494, -0.16748879455831403, -0.2596035278926081, 2.229733742253528, 9362.0, 30146.0, 35388.0, 9362.0, 8.152067184448242, 0.015968918800354004, 0.38710880279541016, 0.11401870101690292, 0.003425202565267682, -0.06356890499591827, 0.9977961182594299, -0.016129454597830772, -0.06647872924804688, 1.490478515625, 1.376953125, 0.0225982666015625, 1.496337890625, 1.171875, 10.0, 1.0, 10.0, 1.386996865272522
18496, -0.820974588394165, -1.6994277238845825, 1.4383909702301025, 0.004585537128150463, 0.0023693207185715437, -3.78883957862854, 0.05285962298512459, 0.02731293998658657, -0.4481619894504547, -0.8168007135391235, -0.9771317839622498, 0.05671239644289017, -0.16901566224347384, -0.2632912264977847, 2.2347837376378497, 9362.0, 30146.0, 35388.0, 9362.0, 8.152067184448242, -0.08721372485160828, -0.004754150751978159, 0.08092647045850754, 0.0016738142585381866, -0.06202194094657898, 0.9958840608596802, -0.016129454597830772, -0.06647872924804688, 1.490478515625, 1.461181640625, 0.1233062744140625, 1.496337890625, 1.47216796875, 10.0, 1.0, 10.0, 1.3872852325439453
18506, -0.8207733035087585, -1.7002787590026855, 1.440218448638916, 0.004585537128150463, 0.0023693207185715437, -3.78883957862854, 0.05285962298512459, 0.02731293998658657, -0.4481619894504547, -0.8167800903320312, -0.9771250486373901, 0.0567174106836319, -0.17163589237888827, -0.25993473466328965, 2.2245374946289864, 9362.0, 30146.0, 35388.0, 9362.0, 8.152067184448242, -0.0013934280723333359, 0.5524325370788574, -0.012267934158444405, 0.00227347738109529, -0.062459200620651245, 0.9951735138893127, -0.016129454597830772, -0.06647872924804688, 1.490478515625, 1.46337890625, 0.1270751953125, 1.496337890625, 1.489013671875, 10.0, 1.0, 10.0, 1.3870530128479004
18516, -0.8208736181259155, -1.7043405771255493, 1.4410834312438965, 0.005699967499822378, 0.0029450273141264915, -3.797811508178711, 0.05858243256807327, 0.030256832018494606, -0.4490888714790344, -0.816767156124115, -0.9771507382392883, 0.056653235107660294, -0.17412612225478158, -0.25814855642494194, 2.218907084750937, 9362.0, 30146.0, 35388.0, 9362.0, 8.152067184448242, 0.1919138878583908, 0.006337576080113649, -0.20856304466724396, 0.0046483478508889675, -0.062073785811662674, 0.995275616645813, -0.016129454597830772, -0.06647872924804688, 1.490478515625, 1.248046875, 0.169647216796875, 1.49560546875, 1.22900390625, 10.0, 1.0, 10.0, 1.3872113227844238
18526, -0.8199943900108337, -1.7049280405044556, 1.439775824546814, 0.005699967499822378, 0.0029450273141264915, -3.797811508178711, 0.05858243256807327, 0.030256832018494606, -0.4490888714790344, -0.8168032765388489, -0.977143406867981, 0.0566960908472538, -0.16685150696456238, -0.2642336091547861, 2.2303184033465207, 9362.0, 30146.0, 35388.0, 9362.0, 8.152067184448242, 0.0458843894302845, 0.3515435457229614, 0.0937952771782875, 0.0038233499508351088, -0.060594115406274796, 0.9958377480506897, -0.016129454597830772, -0.06647872924804688, 1.490478515625, 1.29931640625, 0.0500640869140625, 1.49560546875, 1.469970703125, 10.0, 1.0, 10.0, 1.3873250484466553
18536, -0.8192602396011353, -1.7070033550262451, 1.4401907920837402, 0.006928970105946064, 0.0035795820876955986, -3.8068037033081055, 0.06431883573532104, 0.033198148012161255, -0.4501115679740906, -0.8167967796325684, -0.9771324396133423, 0.05672669783234596, -0.1645136076682087, -0.24846039548594945, 2.231466890206559, 9362.0, 30146.0, 35388.0, 9362.0, 8.152067184448242, -0.29832544922828674, -0.3334105908870697, 0.02976495400071144, 0.003512472379952669, -0.06021218001842499, 0.9985706210136414, -0.016129454597830772, -0.06647872924804688, 1.490478515625, 1.439208984375, 0.0882415771484375, 1.49560546875, 1.33740234375, 10.0, 1.0, 10.0, 1.3874568939208984
18546, -0.8202294111251831, -1.7066787481307983, 1.4409695863723755, 0.006928970105946064, 0.0035795820876955986, -3.8068037033081055, 0.06431883573532104, 0.033198148012161255, -0.4501115679740906, -0.8168023228645325, -0.9771512746810913, 0.056736499071121216, -0.16031734419210347, -0.2619436941460833, 2.229029796226945, 9362.0, 30146.0, 35388.0, 9362.0, 8.152067184448242, -0.0252720657736063, 0.06383465230464935, -0.06997624784708023, 0.002904655411839485, -0.0619744136929512, 0.998432993888855, -0.016129454597830772, -0.06647872924804688, 1.490478515625, 1.35791015625, 0.015869140625, 1.49560546875, 1.39892578125, 10.0, 1.0, 10.0, 1.3873076438903809
18556, -0.8202008008956909, -1.706529974937439, 1.4393343925476074, 0.008272934705018997, 0.0042730034328997135, -3.8158111572265625, 0.07007884234189987, 0.03614550456404686, -0.45058995485305786, -0.8167985677719116, -0.9771432280540466, 0.056724995374679565, -0.165050036987807, -0.25021180910229646, 2.226087821053911, 9362.0, 30146.0, 35388.0, 9362.0, 8.152067184448242, 0.01752336136996746, 0.017656469717621803, 0.0073838550597429276, 0.0024633165448904037, -0.05960603058338165, 0.9989779591560364, -0.016129454597830772, -0.06647872924804688, 1.490478515625, 1.399658203125, 0.0396575927734375, 1.49560546875, 1.45751953125, 10.0, 1.0, 10.0, 1.3875787258148193
18566, -0.819909393787384, -1.706782579421997, 1.4386942386627197, 0.008272934705018997, 0.0042730034328997135, -3.8158111572265625, 0.07007884234189987, 0.03614550456404686, -0.45058995485305786, -0.8167977929115295, -0.977141261100769, 0.05668233707547188, -0.16929321474142897, -0.2616867086585444, 2.226151967007994, 9362.0, 30146.0, 35388.0, 9362.0, 8.152067184448242, 0.014668846502900124, -0.20911577343940735, 0.12017029523849487, 0.001680533168837428, -0.05938296765089035, 0.9977655410766602, -0.016129454597830772, -0.06647872924804688, 1.490478515625, 1.48681640625, 0.1698150634765625, 1.49560546875, 1.44873046875, 10.0, 1.0, 10.0, 1.387635588645935
18576, -0.8198018074035645, -1.7033047676086426, 1.4387038946151733, 0.009732118807733059, 0.005025406368076801, -3.824827194213867, 0.07583939284086227, 0.03909432515501976, -0.4510301351547241, -0.8167988657951355, -0.9771483540534973, 0.056728217750787735, -0.16249510717029358, -0.2533001716076342, 2.231080474683517, 9362.0, 30146.0, 35388.0, 9362.0, 8.152067184448242, 0.014668846502900124, -0.20911577343940735, 0.12017029523849487, 0.001680533168837428, -0.05938296765089035, 0.9977655410766602, -0.016129454597830772, -0.06647872924804688, 1.490478515625, 1.335205078125, 0.018280029296875, 1.49267578125, 1.431884765625, 10.0, 1.0, 10.0, 1.387635588645935
18596, -0.8198931813240051, -1.7018814086914062, 1.4395313262939453, 0.009732118807733059, 0.005025406368076801, -3.824827194213867, 0.07583939284086227, 0.03909432515501976, -0.4510301351547241, -0.8167911767959595, -0.9771315455436707, 0.05672604218125343, -0.168218308597032, -0.25880784326466255, 2.223232570792774, 9362.0, 30146.0, 35388.0, 9362.0, 8.152067184448242, -0.10223682224750519, -0.3082803189754486, 0.023003220558166504, 0.003209420945495367, -0.06127169355750084, 0.9988433718681335, -0.016129454597830772, -0.06647872924804688, 1.490478515625, 1.34619140625, 0.015594482421875, 1.49267578125, 1.431884765625, 10.0, 1.0, 10.0, 1.3877325057983398
18606, -0.8201808929443359, -1.7013661861419678, 1.4404619932174683, 0.009732118807733059, 0.005025406368076801, -3.824827194213867, 0.07583939284086227, 0.03909432515501976, -0.4510301351547241, -0.8167960047721863, -0.9771320223808289, 0.056721027940511703, -0.17055715060775214, -0.26396250231616136, 2.2257222564092447, 9362.0, 30146.0, 35388.0, 9362.0, 8.152067184448242, -0.015177729539573193, 0.13412171602249146, -0.2551465928554535, 0.003209420945495367, -0.06127169355750084, 0.9988433718681335, -0.016129454597830772, -0.06647872924804688, 1.490478515625, 1.399658203125, 0.0396575927734375, 1.49267578125, 1.431884765625, 10.0, 1.0, 10.0, 1.3877325057983398
18616, -0.820219099521637, -1.7015650272369385, 1.4388686418533325, 0.009732118807733059, 0.005025406368076801, -3.824827194213867, 0.07583939284086227, 0.03909432515501976, -0.4510301351547241, -0.8167952299118042, -0.9771338701248169, 0.05673854425549507, -0.16590949589889356, -0.2525828681661153, 2.2262499536428213, 9362.0, 30146.0, 35388.0, 9362.0, 8.152067184448242, -0.09777941554784775, 0.1805037409067154, 0.03263252228498459, 0.0032712777610868216, -0.059894222766160965, 0.9961513876914978, -0.016129454597830772, -0.06647872924804688, 1.490478515625, 1.357177734375, 0.0157928466796875, 1.49267578125, 1.44287109375, 10.0, 1.0, 10.0, 1.3877325057983398
18626, -0.8198166489601135, -1.7033460140228271, 1.439263105392456, 0.009732118807733059, 0.005025406368076801, -3.824827194213867, 0.07583939284086227, 0.03909432515501976, -0.4510301351547241, -0.8167939186096191, -0.9771289229393005, 0.05671552196145058, -0.16458033109394735, -0.2585907360876263, 2.233178781004251, 9362.0, 30146.0, 35388.0, 9362.0, 8.152067184448242, -0.09777941554784775, 0.1805037409067154, 0.03263252228498459, 0.0031533061992377043, -0.06240096688270569, 0.9948722720146179, -0.016129454597830772, -0.06647872924804688, 1.490478515625, 1.357177734375, 0.0157928466796875, 1.49267578125, 1.311767578125, 10.0, 1.0, 10.0, 1.3877325057983398
18636, -0.8197915554046631, -1.703956961631775, 1.4395079612731934, 0.009732118807733059, 0.005025406368076801, -3.824827194213867, 0.07583939284086227, 0.03909432515501976, -0.4510301351547241, -0.8167933821678162, -0.9771376848220825, 0.056728295981884, -0.16065805133515954, -0.2488034855267358, 2.2307505392107596, 9362.0, 30146.0, 35388.0, 9362.0, 8.152067184448242, 0.17626334726810455, 0.1104709655046463, 0.17736396193504333, 0.0031533061992377043, -0.06240096688270569, 0.9948722720146179, -0.016129454597830772, -0.06647872924804688, 1.490478515625, 1.357177734375, 0.0157928466796875, 1.4970703125, 1.464111328125, 10.0, 1.0, 10.0, 1.3877325057983398
18646, -0.8184493780136108, -1.7047713994979858, 1.439266562461853, 0.014799641445279121, 0.00763629749417305, -3.8519322872161865, 0.09306622296571732, 0.04793135076761246, -0.4527941942214966, -0.8167977929115295, -0.9771397113800049, 0.056741416454315186, -0.1616043278093103, -0.2636753564091805, 2.2261451894604574, 9362.0, 30146.0, 35388.0, 9362.0, 8.152067184448242, 0.17626334726810455, 0.1104709655046463, 0.17736396193504333, 0.0031533061992377043, -0.06240096688270569, 0.9948722720146179, -0.016129454597830772, -0.06647872924804688, 1.490478515625, 1.357177734375, 0.0157928466796875, 1.4970703125, 1.464111328125, 10.0, 1.0, 10.0, 1.3866804838180542
18666, -0.8172097206115723, -1.7021785974502563, 1.4387357234954834, 0.014799641445279121, 0.00763629749417305, -3.8519322872161865, 0.09306622296571732, 0.04793135076761246, -0.4527941942214966, -0.8168092370033264, -0.9771409034729004, 0.05673974007368088, -0.16720892097758483, -0.25697598209964667, 2.226009118821347, 9362.0, 30146.0, 35388.0, 9362.0, 8.152067184448242, 0.025711258873343468, 0.2673417627811432, 0.28887149691581726, 0.0031533061992377043, -0.06240096688270569, 0.9948722720146179, -0.016129454597830772, -0.06647872924804688, 1.490478515625, 1.31689453125, 0.0298919677734375, 1.4970703125, 1.478759765625, 10.0, 1.0, 10.0, 1.3866366147994995
18686, -0.8165367841720581, -1.702067255973816, 1.4376932382583618, 0.014799641445279121, 0.00763629749417305, -3.8519322872161865, 0.09306622296571732, 0.04793135076761246, -0.4527941942214966, -0.8167935609817505, -0.9771270155906677, 0.05672605708241463, -0.16608639777159903, -0.2620167932166453, 2.224299743470128, 9362.0, 30146.0, 35388.0, 9362.0, 8.152067184448242, 0.11705047637224197, 0.2552824914455414, -0.26492559909820557, 0.0033179493620991707, -0.0613601878285408, 0.9998239278793335, -0.016129454597830772, -0.06647872924804688, 1.490478515625, 1.256103515625, 0.144134521484375, 1.4970703125, 1.467041015625, 10.0, 1.0, 10.0, 1.3866662979125977
18696, -0.8155880570411682, -1.7041804790496826, 1.4353535175323486, 0.014799641445279121, 0.00763629749417305, -3.8519322872161865, 0.09306622296571732, 0.04793135076761246, -0.4527941942214966, -0.8168013691902161, -0.9771379232406616, 0.05670863017439842, -0.16295305477268598, -0.26066843953003627, 2.2206157484868836, 9362.0, 30146.0, 35388.0, 9362.0, 8.152067184448242, 0.11705047637224197, 0.2552824914455414, -0.26492559909820557, 0.0027507669292390347, -0.05975737050175667, 1.0009115934371948, -0.016129454597830772, -0.06647872924804688, 1.490478515625, 1.256103515625, 0.144134521484375, 1.4970703125, 1.45166015625, 10.0, 1.0, 10.0, 1.3871628046035767
18716, -0.813943088054657, -1.7062609195709229, 1.435693621635437, 0.0209006667137146, 0.010776830837130547, -3.8791561126708984, 0.11030664294958115, 0.05675115808844566, -0.4543231129646301, -0.8167912364006042, -0.9771304130554199, 0.05672721937298775, -0.17091777264986904, -0.26928642476804043, 2.2244000562568544, 9362.0, 30146.0, 35388.0, 9362.0, 8.152067184448242, 9.275443517253734e-06, 0.18984487652778625, 0.22575940191745758, 0.0027507669292390347, -0.05975737050175667, 1.0009115934371948, -0.016129454597830772, -0.06647872924804688, 1.490478515625, 1.37841796875, 0.023406982421875, 1.4970703125, 1.43408203125, 10.0, 1.0, 10.0, 1.387519121170044
18726, -0.8137940764427185, -1.707821249961853, 1.4343539476394653, 0.0209006667137146, 0.010776830837130547, -3.8791561126708984, 0.11030664294958115, 0.05675115808844566, -0.4543231129646301, -0.8167960047721863, -0.9771141409873962, 0.056743040680885315, -0.1702245078285534, -0.2551385548101166, 2.2209609587387678, 9362.0, 30146.0, 35388.0, 9362.0, 8.152067184448242, 0.02122751995921135, 0.39268431067466736, 0.1844327300786972, 0.0027507669292390347, -0.05975737050175667, 1.0009115934371948, -0.016129454597830772, -0.06647872924804688, 1.490478515625, 1.44873046875, 0.102813720703125, 1.4970703125, 1.36669921875, 10.0, 1.0, 10.0, 1.387519121170044
18736, -0.8143365979194641, -1.7096867561340332, 1.435003399848938, 0.0209006667137146, 0.010776830837130547, -3.8791561126708984, 0.11030664294958115, 0.05675115808844566, -0.4543231129646301, -0.8167966604232788, -0.9771289229393005, 0.0567435622215271, -0.16558944516866825, -0.2560639835452889, 2.222426354985206, 9362.0, 30146.0, 35388.0, 9362.0, 8.152067184448242, 0.00017266813665628433, 0.06813520193099976, -0.007311591878533363, 0.0027507669292390347, -0.05975737050175667, 1.0009115934371948, -0.016129454597830772, -0.06647872924804688, 1.490478515625, 1.3330078125, 0.0191650390625, 1.4970703125, 1.36669921875, 10.0, 1.0, 10.0, 1.387519121170044
18746, -0.8141170740127563, -1.712438941001892, 1.4353406429290771, 0.0209006667137146, 0.010776830837130547, -3.8791561126708984, 0.11030664294958115, 0.05675115808844566, -0.4543231129646301, -0.8167922496795654, -0.9771323204040527, 0.056715548038482666, -0.17159866679240962, -0.2547509357515594, 2.225849896967594, 9362.0, 30146.0, 35388.0, 9362.0, 8.152067184448242, 0.00017266813665628433, 0.06813520193099976, -0.007311591878533363, 0.0030164020135998726, -0.05979842692613602, 0.9971616864204407, -0.016129454597830772, -0.06647872924804688, 1.490478515625, 1.33154296875, 0.0198516845703125, 1.4970703125, 1.4677734375, 10.0, 1.0, 10.0, 1.3880894184112549
18756, -0.8125375509262085, -1.709257960319519, 1.436096429824829, 0.0209006667137146, 0.010776830837130547, -3.8791561126708984, 0.11030664294958115, 0.05675115808844566, -0.4543231129646301, -0.8167592883110046, -0.9771667718887329, 0.05668441206216812, -0.17456807865960433, -0.24702199199361985, 2.2161477778575263, 9362.0, 30146.0, 35388.0, 9362.0, 8.152067184448242, 0.17537929117679596, 0.18817926943302155, -0.05634230002760887, 0.002109173685312271, -0.060351867228746414, 0.9973626732826233, -0.016129454597830772, -0.06647872924804688, 1.490478515625, 1.486083984375, 0.16845703125, 1.4970703125, 1.4677734375, 10.0, 1.0, 10.0, 1.3880894184112549
18766, -0.8111227750778198, -1.710096836090088, 1.434644341468811, 0.02803778648376465, 0.014445755630731583, -3.9064431190490723, 0.12760382890701294, 0.06553995609283447, -0.45555123686790466, -0.8167992830276489, -0.9771295785903931, 0.05675274506211281, -0.16026657728986182, -0.2618836612593043, 2.2234259152635243, 9362.0, 30146.0, 35388.0, 9362.0, 8.152067184448242, 0.17537929117679596, 0.18817926943302155, -0.05634230002760887, 0.002109173685312271, -0.060351867228746414, 0.9973626732826233, -0.016129454597830772, -0.06647872924804688, 1.490478515625, 1.486083984375, 0.16845703125, 1.4970703125, 1.4677734375, 10.0, 1.0, 10.0, 1.3879761695861816
18796, -0.8118512630462646, -1.7070415019989014, 1.4321069717407227, 0.02803778648376465, 0.014445755630731583, -3.9064431190490723, 0.12760382890701294, 0.06553995609283447, -0.45555123686790466, -0.8168064951896667, -0.9771285057067871, 0.05673953890800476, -0.16379985512397705, -0.2533519392479775, 2.230130266880577, 9362.0, 30146.0, 35388.0, 9362.0, 8.152067184448242, -0.006843966897577047, -0.3220263421535492, 0.06526493281126022, 0.0056243035942316055, -0.060298461467027664, 0.9972658157348633, -0.037414826452732086, -0.03959846496582031, 1.49267578125, 1.452392578125, 0.10870361328125, 1.489013671875, 1.4677734375, 10.0, 1.0, 10.0, 1.3887135982513428
18806, -0.8125011920928955, -1.7105337381362915, 1.4331645965576172, 0.03337259218096733, 0.017184045165777206, -3.924689292907715, 0.13913579285144806, 0.07137206196784973, -0.45671388506889343, -0.8167614340782166, -0.9771499037742615, 0.0566902756690979, -0.17668426775793794, -0.2617442577552538, 2.213702994625733, 9362.0, 30146.0, 35388.0, 9362.0, 8.152067184448242, 0.058156296610832214, -0.29639148712158203, -0.19599078595638275, 0.0031518759205937386, -0.062078509479761124, 0.9995712041854858, -0.037414826452732086, -0.03959846496582031, 1.49267578125, 1.452392578125, 0.10870361328125, 1.489013671875, 1.482421875, 10.0, 1.0, 10.0, 1.3887135982513428
18816, -0.8118165731430054, -1.7088111639022827, 1.4319262504577637, 0.03337259218096733, 0.017184045165777206, -3.924689292907715, 0.13913579285144806, 0.07137206196784973, -0.45671388506889343, -0.8167968392372131, -0.9771463871002197, 0.05672408640384674, -0.16234366791332386, -0.2578315894312482, 2.2261860161800002, 9362.0, 30146.0, 35388.0, 9362.0, 8.152067184448242, 0.058156296610832214, -0.29639148712158203, -0.19599078595638275, 0.0028880401514470577, -0.06257554143667221, 0.9976523518562317, -0.037414826452732086, -0.03959846496582031, 1.49267578125, 1.452392578125, 0.10870361328125, 1.493408203125, 1.483154296875, 10.0, 1.0, 10.0, 1.3887135982513428
18836, -0.8114023804664612, -1.7110111713409424, 1.4322073459625244, 0.03621293604373932, 0.018640680238604546, -3.9338290691375732, 0.14490444958209991, 0.07429344952106476, -0.45715978741645813, -0.8168033361434937, -0.9771280884742737, 0.05672726780176163, -0.16106976475639234, -0.25344152016089083, 2.2267759231151105, 9362.0, 30146.0, 35388.0, 9362.0, 8.152067184448242, 0.11560791730880737, 0.10773652791976929, -0.07777860760688782, 0.0029091103933751583, -0.056523315608501434, 0.9978405237197876, -0.037414826452732086, -0.03959846496582031, 1.49267578125, 1.440673828125, 0.090423583984375, 1.493408203125, 1.46630859375, 10.0, 1.0, 10.0, 1.3896594047546387
18846, -0.8120091557502747, -1.7117854356765747, 1.4317609071731567, 0.03621293604373932, 0.018640680238604546, -3.9338290691375732, 0.14490444958209991, 0.07429344952106476, -0.45715978741645813, -0.8167974352836609, -0.977120578289032, 0.05675037205219269, -0.165162740207232, -0.2565853913402236, 2.233800049832906, 9362.0, 30146.0, 35388.0, 9362.0, 8.152067184448242, -0.07031938433647156, -0.07065527141094208, 0.06607590615749359, 0.0029091103933751583, -0.056523315608501434, 0.9978405237197876, -0.037414826452732086, -0.03959846496582031, 1.49267578125, 1.440673828125, 0.090423583984375, 1.493408203125, 1.46630859375, 10.0, 1.0, 10.0, 1.3898974657058716
18856, -0.8125452995300293, -1.710883378982544, 1.431836485862732, 0.03621293604373932, 0.018640680238604546, -3.9338290691375732, 0.14490444958209991, 0.07429344952106476, -0.45715978741645813, -0.8168023228645325, -0.9771389365196228, 0.05672553554177284, -0.16598427003020114, -0.2597678551241529, 2.217785125961788, 9362.0, 30146.0, 35388.0, 9362.0, 8.152067184448242, -0.05870313197374344, 0.20249871909618378, -0.07294593006372452, 0.0029091103933751583, -0.056523315608501434, 0.9978405237197876, -0.037414826452732086, -0.03959846496582031, 1.49267578125, 1.436279296875, 0.0838775634765625, 1.493408203125, 1.46630859375, 10.0, 1.0, 10.0, 1.3898974657058716
18866, -0.8128886818885803, -1.7109119892120361, 1.4307136535644531, 0.03621293604373932, 0.018640680238604546, -3.9338290691375732, 0.14490444958209991, 0.07429344952106476, -0.45715978741645813, -0.8167988061904907, -0.9771429300308228, 0.056721560657024384, -0.16491343820939958, -0.25098658811972996, 2.228679355105637, 9362.0, 30146.0, 35388.0, 9362.0, 8.152067184448242, -0.011036313138902187, 0.40061435103416443, 0.07771219313144684, 0.0029091103933751583, -0.056523315608501434, 0.9978405237197876, -0.037414826452732086, -0.03959846496582031, 1.49267578125, 1.38720703125, 0.0291900634765625, 1.493408203125, 1.44873046875, 10.0, 1.0, 10.0, 1.3898974657058716
18876, -0.8134750723838806, -1.7136107683181763, 1.4314334392547607, 0.03621293604373932, 0.018640680238604546, -3.9338290691375732, 0.14490444958209991, 0.07429344952106476, -0.45715978741645813, -0.8167919516563416, -0.9771273136138916, 0.056711871176958084, -0.15812546343209488, -0.26258012149759224, 2.2273801640116826, 9362.0, 30146.0, 35388.0, 9362.0, 8.152067184448242, -0.03576797619462013, -0.2571401596069336, -0.15943554043769836, 0.002490258077159524, -0.06163683906197548, 0.996985673904419, -0.037414826452732086, -0.03959846496582031, 1.49267578125, 1.38720703125, 0.0291900634765625, 1.49560546875, 1.44873046875, 10.0, 1.0, 10.0, 1.3898974657058716
18896, -0.8144338726997375, -1.711941123008728, 1.4284014701843262, 0.03621293604373932, 0.018640680238604546, -3.9338290691375732, 0.14490444958209991, 0.07429344952106476, -0.45715978741645813, -0.8167722821235657, -0.9771636724472046, 0.05668602138757706, -0.17519589155918908, -0.2598275067923055, 2.2168477819040144, 9362.0, 30146.0, 35388.0, 9362.0, 8.152067184448242, 0.262054443359375, 0.21709489822387695, 0.16880539059638977, 0.003106060205027461, -0.06216854229569435, 0.9970837235450745, -0.037414826452732086, -0.03959846496582031, 1.49267578125, 1.142578125, 0.8070068359375, 1.494873046875, 1.43115234375, 10.0, 1.0, 10.0, 1.3898974657058716
18906, -0.8129130005836487, -1.7137290239334106, 1.4299627542495728, 0.048728879541158676, 0.025051366537809372, -3.970486879348755, 0.1679982841014862, 0.08597701042890549, -0.4593764543533325, -0.8167684078216553, -0.9771479964256287, 0.05666877701878548, -0.1722391559340412, -0.25339866565906277, 2.2151385396857473, 9362.0, 30146.0, 35388.0, 9362.0, 8.152067184448242, 0.058488648384809494, 0.18506862223148346, 0.15680472552776337, 0.003106060205027461, -0.06216854229569435, 0.9970837235450745, -0.037414826452732086, -0.03959846496582031, 1.49267578125, 1.142578125, 0.8070068359375, 1.494873046875, 1.43115234375, 10.0, 1.0, 10.0, 1.3910307884216309
18916, -0.8129295706748962, -1.7158584594726562, 1.4310994148254395, 0.048728879541158676, 0.025051366537809372, -3.970486879348755, 0.1679982841014862, 0.08597701042890549, -0.4593764543533325, -0.8168047666549683, -0.9771358370780945, 0.056740060448646545, -0.17408233125753234, -0.25435656658495986, 2.225313840395614, 9362.0, 30146.0, 35388.0, 9362.0, 8.152067184448242, 0.04100069776177406, 0.23067085444927216, 0.06452580541372299, 0.003106060205027461, -0.06216854229569435, 0.9970837235450745, -0.037414826452732086, -0.03959846496582031, 1.49267578125, 1.279541015625, 0.0847015380859375, 1.494873046875, 1.43115234375, 10.0, 1.0, 10.0, 1.3910396099090576
18926, -0.8128224611282349, -1.71787428855896, 1.4317986965179443, 0.048728879541158676, 0.025051366537809372, -3.970486879348755, 0.1679982841014862, 0.08597701042890549, -0.4593764543533325, -0.8167976140975952, -0.9771226048469543, 0.05673074349761009, -0.17060031977980306, -0.2601647973564809, 2.227309600795947, 9362.0, 30146.0, 35388.0, 9362.0, 8.152067184448242, -0.032710280269384384, -0.3295239806175232, 0.057567380368709564, 0.003411748679354787, -0.0597672276198864, 0.998512864112854, -0.037414826452732086, -0.03959846496582031, 1.49267578125, 1.23486328125, 0.2174835205078125, 1.494873046875, 1.43115234375, 10.0, 1.0, 10.0, 1.3910396099090576
18956, -0.81200110912323, -1.7188156843185425, 1.432969331741333, 0.048728879541158676, 0.025051366537809372, -3.970486879348755, 0.1679982841014862, 0.08597701042890549, -0.4593764543533325, -0.816784143447876, -0.977125346660614, 0.05670800432562828, -0.16687721068338132, -0.256560011222291, 2.2216375857369526, 9362.0, 30146.0, 35388.0, 9362.0, 8.152067184448242, 0.20743876695632935, -0.08708135783672333, -0.07878921926021576, 0.004430158995091915, -0.06181573122739792, 0.9991514086723328, -0.037414826452732086, -0.03959846496582031, 1.49267578125, 1.43408203125, 0.080810546875, 1.49560546875, 1.4853515625, 10.0, 1.0, 10.0, 1.3909053802490234
18966, -0.8109049797058105, -1.7183152437210083, 1.4332938194274902, 0.048728879541158676, 0.025051366537809372, -3.970486879348755, 0.1679982841014862, 0.08597701042890549, -0.4593764543533325, -0.8167840242385864, -0.9771175980567932, 0.0567241832613945, -0.1719219807094713, -0.25674076337691076, 2.2206061945827296, 9362.0, 30146.0, 35388.0, 9362.0, 8.152067184448242, -0.18799331784248352, 0.1585533320903778, 0.22087369859218597, 0.004430158995091915, -0.06181573122739792, 0.9991514086723328, -0.037414826452732086, -0.03959846496582031, 1.49267578125, 1.415771484375, 0.0568695068359375, 1.49560546875, 1.4853515625, 10.0, 1.0, 10.0, 1.3916281461715698
18976, -0.8118436336517334, -1.7190814018249512, 1.4354307651519775, 0.048728879541158676, 0.025051366537809372, -3.970486879348755, 0.1679982841014862, 0.08597701042890549, -0.4593764543533325, -0.8167644739151001, -0.9771369099617004, 0.05667563155293465, -0.17084468201447203, -0.25847883245492653, 2.2158688687954493, 9362.0, 30146.0, 35388.0, 9362.0, 8.152067184448242, -0.16562193632125854, -0.21614950895309448, -0.06409302353858948, 0.004430158995091915, -0.06181573122739792, 0.9991514086723328, -0.037414826452732086, -0.03959846496582031, 1.49267578125, 1.24072265625, 0.1952667236328125, 1.49560546875, 1.4853515625, 10.0, 1.0, 10.0, 1.3918297290802002
18996, -0.8137713074684143, -1.719808578491211, 1.4362798929214478, 0.048728879541158676, 0.025051366537809372, -3.970486879348755, 0.1679982841014862, 0.08597701042890549, -0.4593764543533325, -0.8168126940727234, -0.9771296381950378, 0.056708093732595444, -0.16269822628016647, -0.2553341886601572, 2.2287155130107927, 9362.0, 30146.0, 35388.0, 9362.0, 8.152067184448242, -0.0436454638838768, -0.5514525175094604, 0.022448161616921425, 0.0035846454557031393, -0.05884440988302231, 0.9976574182510376, -0.037414826452732086, -0.03959846496582031, 1.49267578125, 1.475830078125, 0.1492767333984375, 1.49560546875, 1.4853515625, 10.0, 1.0, 10.0, 1.3918297290802002
19006, -0.8138002157211304, -1.7183401584625244, 1.4377703666687012, 0.06697705388069153, 0.0343804806470871, -4.016523361206055, 0.19698357582092285, 0.10060117393732071, -0.4612928032875061, -0.8167877793312073, -0.9771132469177246, 0.05671553686261177, -0.16741309534748572, -0.25649416439213724, 2.226870782353834, 9362.0, 30146.0, 35388.0, 9362.0, 8.152067184448242, -0.0436454638838768, -0.5514525175094604, 0.022448161616921425, 0.00420762412250042, -0.06033385545015335, 0.9973883032798767, -0.037414826452732086, -0.03959846496582031, 1.49267578125, 1.475830078125, 0.1492767333984375, 1.49560546875, 1.472900390625, 10.0, 1.0, 10.0, 1.3918297290802002
19016, -0.8144922256469727, -1.7196751832962036, 1.4377105236053467, 0.06697705388069153, 0.0343804806470871, -4.016523361206055, 0.19698357582092285, 0.10060117393732071, -0.4612928032875061, -0.8167876601219177, -0.9771412014961243, 0.05671965703368187, -0.16594459404911568, -0.26292513171196674, 2.2232513754815395, 9362.0, 30146.0, 35388.0, 9362.0, 8.152067184448242, 0.10432180017232895, -0.1925729215145111, 0.30784863233566284, 0.00420762412250042, -0.06033385545015335, 0.9973883032798767, -0.037414826452732086, -0.03959846496582031, 1.49267578125, 1.475830078125, 0.1492767333984375, 1.493408203125, 1.420166015625, 10.0, 1.0, 10.0, 1.3918297290802002
19026, -0.8136768341064453, -1.7182719707489014, 1.4390655755996704, 0.06697705388069153, 0.0343804806470871, -4.016523361206055, 0.19698357582092285, 0.10060117393732071, -0.4612928032875061, -0.8167911171913147, -0.9771391749382019, 0.056700460612773895, -0.17019459536160322, -0.26195401652435635, 2.228768268879992, 9362.0, 30146.0, 35388.0, 9362.0, 8.152067184448242, -0.17861998081207275, -0.1436585634946823, -0.3886522054672241, 0.00420762412250042, -0.06033385545015335, 0.9973883032798767, -0.037414826452732086, -0.03959846496582031, 1.49267578125, 1.25244140625, 0.155426025390625, 1.493408203125, 1.420166015625, 10.0, 1.0, 10.0, 1.3929039239883423
19046, -0.8136629462242126, -1.7191073894500732, 1.436731219291687, 0.07508844137191772, 0.038521621376276016, -4.03499698638916, 0.20858633518218994, 0.10645700991153717, -0.46230876445770264, -0.8167966604232788, -0.9771246314048767, 0.056725796312093735, -0.16435370414675685, -0.2614388993955572, 2.2252213911150194, 9362.0, 30146.0, 35388.0, 9362.0, 8.152067184448242, -0.1905619204044342, -0.3007337152957916, 0.14498718082904816, 0.003895040135830641, -0.06231342628598213, 0.9987038373947144, -0.037414826452732086, -0.03959846496582031, 1.49267578125, 1.25244140625, 0.155426025390625, 1.493408203125, 1.420166015625, 10.0, 1.0, 10.0, 1.3927236795425415
19076, -0.8154757022857666, -1.7173312902450562, 1.4360629320144653, 0.07931826263666153, 0.040680110454559326, -4.044244766235352, 0.21439585089683533, 0.10939042270183563, -0.46250391006469727, -0.8167973756790161, -0.9771133661270142, 0.0567210391163826, -0.16312826382794937, -0.25727873011092584, 2.2182516397794156, 9362.0, 30146.0, 35388.0, 9362.0, 8.152067184448242, 0.14207063615322113, 0.36266058683395386, 0.12049118429422379, 0.001885628211311996, -0.06294547021389008, 0.9990981817245483, -0.037414826452732086, -0.03959846496582031, 1.49267578125, 1.367431640625, 0.0183258056640625, 1.493408203125, 1.48095703125, 10.0, 1.0, 10.0, 1.3920849561691284
19096, -0.8151098489761353, -1.7177826166152954, 1.4355748891830444, 0.07931826263666153, 0.040680110454559326, -4.044244766235352, 0.21439585089683533, 0.10939042270183563, -0.46250391006469727, -0.8167921900749207, -0.9771242141723633, 0.056716110557317734, -0.17087416211691764, -0.25966342075844295, 2.22774857939516, 9362.0, 30146.0, 35388.0, 9362.0, 8.152067184448242, -0.10989169776439667, 0.2802569568157196, 0.15373753011226654, 0.001885628211311996, -0.06294547021389008, 0.9990981817245483, -0.03216711804270744, -0.06647872924804688, 1.490478515625, 1.367431640625, 0.0183258056640625, 1.496337890625, 1.48095703125, 10.0, 1.0, 10.0, 1.3919097185134888
19106, -0.8158951997756958, -1.7202229499816895, 1.435664176940918, 0.07931826263666153, 0.040680110454559326, -4.044244766235352, 0.21439585089683533, 0.10939042270183563, -0.46250391006469727, -0.8168030381202698, -0.9771156311035156, 0.05672648549079895, -0.16877085887041485, -0.25530486687577536, 2.232906400093749, 9362.0, 30146.0, 35388.0, 9362.0, 8.152067184448242, -0.10989169776439667, 0.2802569568157196, 0.15373753011226654, 0.0021481062285602093, -0.06082118675112724, 0.9974998831748962, -0.03216711804270744, -0.06647872924804688, 1.490478515625, 1.390869140625, 0.0319671630859375, 1.496337890625, 1.48095703125, 10.0, 1.0, 10.0, 1.3919156789779663
19116, -0.8158527612686157, -1.720770239830017, 1.4343661069869995, 0.07931826263666153, 0.040680110454559326, -4.044244766235352, 0.21439585089683533, 0.10939042270183563, -0.46250391006469727, -0.8167974352836609, -0.9771297574043274, 0.05672851577401161, -0.166261954812907, -0.2608062119335841, 2.2272004625760187, 9362.0, 30146.0, 35388.0, 9362.0, 8.152067184448242, -0.021431459113955498, 0.20879100263118744, -0.10823658108711243, 0.0031316911336034536, -0.06180521100759506, 0.9995117783546448, -0.03216711804270744, -0.06647872924804688, 1.490478515625, 1.22607421875, 0.2537689208984375, 1.496337890625, 1.48095703125, 10.0, 1.0, 10.0, 1.3919156789779663
19126, -0.8149856328964233, -1.7224828004837036, 1.4330250024795532, 0.09270430356264114, 0.04750785231590271, -4.072012901306152, 0.23180608451366425, 0.11819829791784286, -0.4633186459541321, -0.8167922496795654, -0.977127730846405, 0.05670924112200737, -0.1676214227417496, -0.2596084821481952, 2.2277631895731145, 9362.0, 30146.0, 35388.0, 9362.0, 8.152067184448242, -0.021431459113955498, 0.20879100263118744, -0.10823658108711243, 0.00367012363858521, -0.06260085850954056, 0.99764484167099, -0.03216711804270744, -0.06647872924804688, 1.490478515625, 1.22607421875, 0.2537689208984375, 1.496337890625, 1.51025390625, 10.0, 1.0, 10.0, 1.3925153017044067
19136, -0.8155658841133118, -1.7239693403244019, 1.431794285774231, 0.09270430356264114, 0.04750785231590271, -4.072012901306152, 0.23180608451366425, 0.11819829791784286, -0.4633186459541321, -0.8167622685432434, -0.9771541953086853, 0.0566539466381073, -0.17797066777337153, -0.25791155731175763, 2.2207328808725717, 9362.0, 30146.0, 35388.0, 9362.0, 8.152067184448242, 0.05907820165157318, -0.39552709460258484, 0.08849478513002396, 0.00367012363858521, -0.06260085850954056, 0.99764484167099, -0.03216711804270744, -0.06647872924804688, 1.490478515625, 1.22607421875, 0.2537689208984375, 1.491943359375, 1.41064453125, 10.0, 1.0, 10.0, 1.3925153017044067
19146, -0.8151434063911438, -1.7211227416992188, 1.4318863153457642, 0.09270430356264114, 0.04750785231590271, -4.072012901306152, 0.23180608451366425, 0.11819829791784286, -0.4633186459541321, -0.8167999982833862, -0.9771063923835754, 0.05668843910098076, -0.16656675351152644, -0.2591988549987434, 2.2289104229679038, 9362.0, 30146.0, 35388.0, 9362.0, 8.152067184448242, -0.23281607031822205, -0.0062891519628465176, -0.1662248820066452, 0.00367012363858521, -0.06260085850954056, 0.99764484167099, -0.03216711804270744, -0.06647872924804688, 1.490478515625, 1.36669921875, 0.01806640625, 1.491943359375, 1.41064453125, 10.0, 1.0, 10.0, 1.3928816318511963
19166, -0.8155758380889893, -1.721817135810852, 1.4328545331954956, 0.09270430356264114, 0.04750785231590271, -4.072012901306152, 0.23180608451366425, 0.11819829791784286, -0.4633186459541321, -0.8167926669120789, -0.9771301746368408, 0.05673253908753395, -0.1661255750669865, -0.2622732264396461, 2.2220450097460662, 9362.0, 30146.0, 35388.0, 9362.0, 8.152067184448242, -0.09099236130714417, 0.19013886153697968, -0.08179830759763718, 0.003708816831931472, -0.060363370925188065, 0.9972321391105652, -0.03216711804270744, -0.06647872924804688, 1.490478515625, 1.27587890625, 0.092620849609375, 1.491943359375, 1.411376953125, 10.0, 1.0, 10.0, 1.3928223848342896
19176, -0.8155966997146606, -1.722306251525879, 1.4328776597976685, 0.09270430356264114, 0.04750785231590271, -4.072012901306152, 0.23180608451366425, 0.11819829791784286, -0.4633186459541321, -0.816798210144043, -0.9771249890327454, 0.056721173226833344, -0.1591565339269628, -0.25278332068864984, 2.220751040650818, 9362.0, 30146.0, 35388.0, 9362.0, 8.152067184448242, 0.0006416825344786048, 0.22050723433494568, 0.0708421915769577, 0.003708816831931472, -0.060363370925188065, 0.9972321391105652, -0.03216711804270744, -0.06647872924804688, 1.490478515625, 1.35205078125, 0.015380859375, 1.491943359375, 1.496337890625, 10.0, 1.0, 10.0, 1.3926910161972046
19186, -0.8153035044670105, -1.7233304977416992, 1.4334487915039062, 0.09270430356264114, 0.04750785231590271, -4.072012901306152, 0.23180608451366425, 0.11819829791784286, -0.4633186459541321, -0.8167783617973328, -0.9771249294281006, 0.05669734627008438, -0.16707476113469752, -0.264643608962416, 2.220960224300496, 9362.0, 30146.0, 35388.0, 9362.0, 8.152067184448242, 0.04746762663125992, 0.1640162616968155, -0.1510097086429596, 0.0019605050329118967, -0.061382416635751724, 0.9999629855155945, -0.03216711804270744, -0.06647872924804688, 1.490478515625, 1.282470703125, 0.0786590576171875, 1.491943359375, 1.496337890625, 10.0, 1.0, 10.0, 1.3926910161972046
19196, -0.8156951069831848, -1.723985195159912, 1.4323621988296509, 0.09270430356264114, 0.04750785231590271, -4.072012901306152, 0.23180608451366425, 0.11819829791784286, -0.4633186459541321, -0.8167961239814758, -0.9771234393119812, 0.05670331418514252, -0.16735217812030437, -0.2509371621781611, 2.2223441414836476, 9362.0, 30146.0, 35388.0, 9362.0, 8.152067184448242, 0.05243548005819321, -0.29482749104499817, -0.21652288734912872, 0.0017909134039655328, -0.0629347711801529, 0.9983458518981934, -0.03216711804270744, -0.06647872924804688, 1.490478515625, 1.282470703125, 0.0786590576171875, 1.491943359375, 1.470703125, 10.0, 1.0, 10.0, 1.3926910161972046
19206, -0.8155751824378967, -1.7233004570007324, 1.4311960935592651, 0.11217878758907318, 0.057433079928159714, -4.109155178070068, 0.25506672263145447, 0.12993699312210083, -0.46494877338409424, -0.8168004155158997, -0.977131724357605, 0.056748516857624054, -0.15725444969940994, -0.2506643719320323, 2.2310667145577763, 9362.0, 30146.0, 35388.0, 9362.0, 8.152067184448242, -0.09391938894987106, 0.12713921070098877, -0.1827138215303421, 0.0017909134039655328, -0.0629347711801529, 0.9983458518981934, -0.03216711804270744, -0.06647872924804688, 1.490478515625, 1.282470703125, 0.0786590576171875, 1.491943359375, 1.404052734375, 10.0, 1.0, 10.0, 1.3926910161972046
19216, -0.8156808018684387, -1.724368929862976, 1.4290703535079956, 0.11217878758907318, 0.057433079928159714, -4.109155178070068, 0.25506672263145447, 0.12993699312210083, -0.46494877338409424, -0.8167956471443176, -0.9771261215209961, 0.05670776218175888, -0.16290927017798235, -0.25274473453976043, 2.228837437152644, 9362.0, 30146.0, 35388.0, 9362.0, 8.152067184448242, -0.09391938894987106, 0.12713921070098877, -0.1827138215303421, 0.0031156372278928757, -0.06155301257967949, 0.9981669783592224, -0.03216711804270744, -0.06647872924804688, 1.490478515625, 1.27001953125, 0.10626220703125, 1.491943359375, 1.404052734375, 10.0, 1.0, 10.0, 1.3930141925811768
19236, -0.8146709203720093, -1.7195056676864624, 1.4268800020217896, 0.11217878758907318, 0.057433079928159714, -4.109155178070068, 0.25506672263145447, 0.12993699312210083, -0.46494877338409424, -0.816796064376831, -0.9771202802658081, 0.05670023709535599, -0.16488138313631623, -0.258955490031866, 2.2270616548432245, 9362.0, 30146.0, 35388.0, 9362.0, 8.152067184448242, 0.024566836655139923, 0.13567112386226654, -0.0980352982878685, 0.0031156372278928757, -0.06155301257967949, 0.9981669783592224, -0.03216711804270744, -0.06647872924804688, 1.490478515625, 1.34326171875, 0.01605224609375, 1.491943359375, 1.404052734375, 10.0, 1.0, 10.0, 1.3932206630706787
19246, -0.8150326609611511, -1.7213300466537476, 1.4259681701660156, 0.1226143091917038, 0.06274795532226562, -4.127769470214844, 0.26670581102371216, 0.1358044594526291, -0.4657890498638153, -0.8167999386787415, -0.977117657661438, 0.056716397404670715, -0.16977007299664737, -0.258518317678579, 2.2228661117301685, 9362.0, 30146.0, 35388.0, 9362.0, 8.152067184448242, 0.14749079942703247, 0.024651162326335907, 0.02089829556643963, 0.0023304615169763565, -0.061183225363492966, 0.9986830353736877, -0.03216711804270744, -0.06647872924804688, 1.490478515625, 1.34326171875, 0.01605224609375, 1.491943359375, 1.484619140625, 10.0, 1.0, 10.0, 1.3932206630706787
19266, -0.8141733407974243, -1.7175798416137695, 1.4258171319961548, 0.1226143091917038, 0.06274795532226562, -4.127769470214844, 0.26670581102371216, 0.1358044594526291, -0.4657890498638153, -0.8167999982833862, -0.9771347045898438, 0.05671123042702675, -0.16265921529067315, -0.2559136866661049, 2.2306605945364235, 9362.0, 30146.0, 35388.0, 9362.0, 8.152067184448242, 0.21076296269893646, 0.094840869307518, -0.013348621316254139, 0.0027917970437556505, -0.06062384694814682, 0.9994571805000305, -0.03216711804270744, -0.06647872924804688, 1.490478515625, 1.341064453125, 0.01654052734375, 1.491943359375, 1.484619140625, 10.0, 1.0, 10.0, 1.393817663192749
19276, -0.8131319880485535, -1.7180254459381104, 1.4247792959213257, 0.1226143091917038, 0.06274795532226562, -4.127769470214844, 0.26670581102371216, 0.1358044594526291, -0.4657890498638153, -0.8168149590492249, -0.977129340171814, 0.05671553686261177, -0.16683119556267673, -0.253141643257635, 2.222820150930229, 9362.0, 30146.0, 35388.0, 9362.0, 8.152067184448242, 0.14837893843650818, 0.09756550937891006, -0.1585807204246521, 0.0027917970437556505, -0.06062384694814682, 0.9994571805000305, -0.03216711804270744, -0.06647872924804688, 1.490478515625, 1.29931640625, 0.0500640869140625, 1.491943359375, 1.50146484375, 10.0, 1.0, 10.0, 1.393817663192749
19286, -0.8128951787948608, -1.7190947532653809, 1.4236253499984741, 0.13351507484912872, 0.06829745322465897, -4.146410942077637, 0.2783258557319641, 0.1416679322719574, -0.4664016664028168, -0.8167967796325684, -0.9771184921264648, 0.05671287328004837, -0.16595615262057686, -0.2562830152975266, 2.2320223501670013, 9362.0, 30146.0, 35388.0, 9362.0, 8.152067184448242, 0.3103727102279663, 0.26219430565834045, 0.4062517285346985, 0.002651623683050275, -0.0591837614774704, 0.9969247579574585, -0.03216711804270744, -0.06647872924804688, 1.490478515625, 1.29931640625, 0.0500640869140625, 1.491943359375, 1.50439453125, 10.0, 1.0, 10.0, 1.393817663192749
19296, -0.8115924596786499, -1.7209173440933228, 1.4257348775863647, 0.13351507484912872, 0.06829745322465897, -4.146410942077637, 0.2783258557319641, 0.1416679322719574, -0.4664016664028168, -0.8167986869812012, -0.9771192669868469, 0.05669146776199341, -0.16611329612688544, -0.2554145203089888, 2.2186453663726016, 9362.0, 30146.0, 35388.0, 9362.0, 8.152067184448242, 0.11029128730297089, 0.00151618174277246, -0.25460565090179443, 0.002651623683050275, -0.0591837614774704, 0.9969247579574585, -0.03216711804270744, -0.06647872924804688, 1.490478515625, 1.3916015625, 0.0325927734375, 1.491943359375, 1.493408203125, 10.0, 1.0, 10.0, 1.393817663192749
19306, -0.8111166954040527, -1.722015142440796, 1.424921989440918, 0.13913947343826294, 0.07115998864173889, -4.155747890472412, 0.28411588072776794, 0.1445860117673874, -0.4672631621360779, -0.8167954087257385, -0.9771389961242676, 0.05672810226678848, -0.1590578399520157, -0.25615878333769615, 2.2298876541648376, 9362.0, 30146.0, 35388.0, 9362.0, 8.152067184448242, 0.011251607909798622, 0.07197735458612442, 0.1745726317167282, 0.002651623683050275, -0.0591837614774704, 0.9969247579574585, -0.03216711804270744, -0.06647872924804688, 1.490478515625, 1.3916015625, 0.0325927734375, 1.491943359375, 1.493408203125, 10.0, 1.0, 10.0, 1.393817663192749
19316, -0.8111148476600647, -1.7226853370666504, 1.426481008529663, 0.13913947343826294, 0.07115998864173889, -4.155747890472412, 0.28411588072776794, 0.1445860117673874, -0.4672631621360779, -0.8167657852172852, -0.9771445989608765, 0.05667708441615105, -0.17611297517073862, -0.2622213687520798, 2.213886854808492, 9362.0, 30146.0, 35388.0, 9362.0, 8.152067184448242, 0.14017854630947113, 0.38578930497169495, -0.14637906849384308, 0.00523900194093585, -0.059043001383543015, 0.9954938888549805, -0.03216711804270744, -0.06647872924804688, 1.490478515625, 1.27001953125, 0.10626220703125, 1.491943359375, 1.496337890625, 10.0, 1.0, 10.0, 1.393817663192749
19326, -0.8105222582817078, -1.7245513200759888, 1.4257789850234985, 0.13913947343826294, 0.07115998864173889, -4.155747890472412, 0.28411588072776794, 0.1445860117673874, -0.4672631621360779, -0.816805899143219, -0.9771061539649963, 0.05670832842588425, -0.16544733736668213, -0.2586707964225923, 2.2228591406086826, 9362.0, 30146.0, 35388.0, 9362.0, 8.152067184448242, 0.155429869890213, -0.08379947394132614, -0.05846354737877846, 0.00523900194093585, -0.059043001383543015, 0.9954938888549805, -0.03216711804270744, -0.06647872924804688, 1.490478515625, 1.27001953125, 0.10626220703125, 1.491943359375, 1.351318359375, 10.0, 1.0, 10.0, 1.393817663192749
19336, -0.8101317882537842, -1.7239073514938354, 1.425606608390808, 0.13913947343826294, 0.07115998864173889, -4.155747890472412, 0.28411588072776794, 0.1445860117673874, -0.4672631621360779, -0.8168039917945862, -0.9771276116371155, 0.05669252201914787, -0.16633137931186995, -0.25641113343274924, 2.222830540519925, 9362.0, 30146.0, 35388.0, 9362.0, 8.152067184448242, -0.24071986973285675, -0.12664911150932312, -0.2877839207649231, 0.00523900194093585, -0.059043001383543015, 0.9954938888549805, -0.03216711804270744, -0.06647872924804688, 1.490478515625, 1.30810546875, 0.0388031005859375, 1.491943359375, 1.351318359375, 10.0, 1.0, 10.0, 1.393605351448059
19346, -0.8107731342315674, -1.7235194444656372, 1.42331862449646, 0.13913947343826294, 0.07115998864173889, -4.155747890472412, 0.28411588072776794, 0.1445860117673874, -0.4672631621360779, -0.8167924880981445, -0.97712641954422, 0.056714244186878204, -0.16083873309977634, -0.25612150226481845, 2.221093038796938, 9362.0, 30146.0, 35388.0, 9362.0, 8.152067184448242, -0.24071986973285675, -0.12664911150932312, -0.2877839207649231, 0.00523900194093585, -0.059043001383543015, 0.9954938888549805, -0.03216711804270744, -0.06647872924804688, 1.490478515625, 1.458251953125, 0.1184234619140625, 1.491943359375, 1.370361328125, 10.0, 1.0, 10.0, 1.393605351448059
19356, -0.809020459651947, -1.7229688167572021, 1.4217239618301392, 0.13913947343826294, 0.07115998864173889, -4.155747890472412, 0.28411588072776794, 0.1445860117673874, -0.4672631621360779, -0.8167587518692017, -0.977130115032196, 0.05667567998170853, -0.17320382872560694, -0.2576377430453931, 2.2232035685083935, 9362.0, 30146.0, 35388.0, 9362.0, 8.152067184448242, -0.27134251594543457, 0.07913456857204437, 0.26829367876052856, 0.0015447287587448955, -0.06241913512349129, 0.9998747110366821, -0.03216711804270744, -0.06647872924804688, 1.490478515625, 1.15869140625, 0.6672515869140625, 1.491943359375, 1.370361328125, 10.0, 1.0, 10.0, 1.393605351448059
19366, -0.809980034828186, -1.7240095138549805, 1.422785997390747, 0.1567094773054123, 0.08009762316942215, -4.183834552764893, 0.3015534281730652, 0.15333057940006256, -0.4691063165664673, -0.8168031573295593, -0.9771190285682678, 0.056707125157117844, -0.17204941273631347, -0.2538547727028799, 2.22525453153859, 9362.0, 30146.0, 35388.0, 9362.0, 8.152067184448242, -0.16681820154190063, 0.20737475156784058, -0.1469753533601761, 0.0024781241081655025, -0.06150645390152931, 0.999322772026062, -0.03216711804270744, -0.06647872924804688, 1.490478515625, 1.15869140625, 0.6672515869140625, 1.491943359375, 1.516845703125, 10.0, 1.0, 10.0, 1.393605351448059
