timeTick, roll, pitch, yaw, stateX, stateY, stateZ, stateVX, stateVY, stateVZ, otX0, otY0, otZ0, otRoll0, otPitch0, otYaw0, left wing, pitch motor, yaw motor, right wing, voltage, roll rate, pitch rate, yaw rate, A_x, A_y, A_z, current, i_raw, v_raw, airflow_voltage, airflow_speed, pot_Pitch
54931, 0.0011815177276730537, 0.0011469571618363261, 0.0010837408481165767, 0, 0, 0, 0, 0, 0, -0.8615792393684387, -1.049486756324768, 0.0542365126311779, 0.4789426878861431, -0.287746915158948, 4.048639174957046, 0, 0, 0, 0, 0, 0, 0, 0, 0, 0, 0, 0, 0, 0, 0, 0, 0
54941, 0.0017434650799259543, -0.0002469955070409924, 6.1000362620688975e-05, -1.0599022992607843e-08, -1.091878853998196e-08, 5.235552089288831e-05, -2.0067889181518694e-06, -2.1525377178477356e-06, 0.005120931193232536, -0.861585795879364, -1.0495117902755737, 0.05422976613044739, 0.4820345789273891, -0.29595754741151836, 4.071133126056249, 9362.0, 30146.0, 35388.0, 9362.0, 0, -0.02552608959376812, 0.11423458158969879, -0.11348342895507812, -0.07391425222158432, -0.008043377660214901, 1.025791049003601, 0, 0, 0, 0, 0, 0
54951, 0.002297616796568036, -0.00029930981690995395, -0.001193798379972577, -2.849897740020424e-08, -4.774679496222234e-08, 0.00011595763498917222, -1.571005668665748e-06, -5.2370478442753665e-06, 0.007599886506795883, -0.8615885972976685, -1.0495010614395142, 0.0542377308011055, 0.48324963777969376, -0.29135594010372756, 4.072134398555184, 9362.0, 30146.0, 35388.0, 9362.0, 0, 0.1089564636349678, 0.14191462099552155, 0.06414584815502167, -0.07494720071554184, -0.008760185912251472, 1.0256859064102173, 0, 0, 0, 1.48388671875, 0.1642303466796875, 0
54961, 0.0017771945567801595, 0.0005622757016681135, -0.0030146120116114616, -4.158185618052812e-08, -1.202877228934085e-07, 0.0002044467255473137, -1.0832660564119578e-06, -9.24846335692564e-06, 0.010098325088620186, -0.8615848422050476, -1.0495091676712036, 0.05425518378615379, 0.4884452127658032, -0.2943593383602092, 4.073574797789657, 9362.0, 30146.0, 35388.0, 9362.0, 0, 0.00537664582952857, -0.09453947097063065, -0.23005960881710052, -0.07658690959215164, -0.010859115980565548, 1.0260432958602905, 0, 0, 0, 1.47216796875, 0.142547607421875, 1.50146484375
54971, 0.0024758491199463606, -0.0029705874621868134, -0.0031030939426273108, -5.735633834547116e-08, -2.2838916891032568e-07, 0.0003184158122166991, -1.9114856968371896e-06, -1.2403505024849437e-05, 0.012695888057351112, -0.8615850210189819, -1.0495163202285767, 0.05423843860626221, 0.48025164124138386, -0.29792378066974834, 4.077654583337854, 9362.0, 30146.0, 35388.0, 9362.0, 0, -0.004358361475169659, -0.19380907714366913, -0.26340726017951965, -0.07447107136249542, -0.012576553039252758, 1.027226448059082, 0, 0, 0, 1.50146484375, 0.1985626220703125, 1.50146484375
54981, 0.0028119017370045185, -0.002831309800967574, -0.004556961357593536, -5.036647721112786e-08, -3.7418365650410124e-07, 0.00045839615631848574, 3.303016683275928e-06, -1.6770800357335247e-05, 0.015300584957003593, -0.8615972995758057, -1.049509882926941, 0.05423639342188835, 0.4797421727205252, -0.29581037859119874, 4.0791156908158595, 9362.0, 30146.0, 35388.0, 9362.0, 0, 0.19644063711166382, -0.06695379316806793, -0.01152876392006874, -0.07477805763483047, -0.010325118899345398, 1.0270313024520874, 0, 0, 0, 1.48681640625, 0.1698150634765625, 1.497802734375
54991, 0.0035057778004556894, -0.002326914807781577, -0.004492201842367649, 7.554191938652366e-09, -5.666154265782097e-07, 0.0006246371776796877, 8.257816261902917e-06, -2.1747604478150606e-05, 0.01794801652431488, -0.8615934252738953, -1.0495033264160156, 0.05423649400472641, 0.48060931328472156, -0.29482697136415936, 4.0753366880466215, 9362.0, 30146.0, 35388.0, 9362.0, 0, 0.0026055010966956615, -0.18518191576004028, -0.21598751842975616, -0.07457827776670456, -0.008570967242121696, 1.0270068645477295, 0, 0, 0, 1.4296875, 0.07464599609375, 1.497802734375
55001, 0.003919275477528572, -0.002054049400612712, -0.005910125095397234, 1.1059734816853961e-07, -8.149296490955749e-07, 0.0008175866678357124, 1.233783314091852e-05, -2.7934776881011203e-05, 0.02064228057861328, -0.8615917563438416, -1.0494990348815918, 0.05422917753458023, 0.48396862992088585, -0.3038778743509454, 4.07372807991214, 9362.0, 30146.0, 35388.0, 9362.0, 0, -0.04970056191086769, 0.1741241067647934, 0.15257704257965088, -0.07604917883872986, -0.008769326843321323, 1.027053952217102, 0, 0, 0, 1.490478515625, 0.1768646240234375, 1.500732421875
55011, 0.004444680642336607, -0.0012035182444378734, -0.006109580863267183, 2.5202342612828943e-07, -1.1287223742328933e-06, 0.0010370324598625302, 1.5908693967503496e-05, -3.484766784822568e-05, 0.02324727363884449, -0.8616088628768921, -1.0495145320892334, 0.054268211126327515, 0.4906852968608514, -0.2864161718196385, 4.0796129158426115, 9362.0, 30146.0, 35388.0, 9362.0, 0, -0.025437263771891594, -0.2541640102863312, -0.38336482644081116, -0.07469184696674347, -0.009630437940359116, 1.027511477470398, 0, 0, 0, 1.4765625, 0.1505584716796875, 1.500732421875
55021, 0.0046697864308953285, 0.001786216744221747, -0.0075476402416825294, 4.216907143472781e-07, -1.5162894442255492e-06, 0.0012829003389924765, 1.7884784028865397e-05, -4.2676329030655324e-05, 0.02592669054865837, -0.8615893721580505, -1.0494951009750366, 0.0542403906583786, 0.48816883463131344, -0.29407533355973214, 4.076235597629691, 9362.0, 30146.0, 35388.0, 9362.0, 0, -0.10293460637331009, -0.23871394991874695, -0.1330605298280716, -0.07685516029596329, -0.011298592202365398, 1.0273702144622803, 0, 0, 0, 1.461181640625, 0.1233062744140625, 1.4970703125
55031, 0.004864766262471676, 0.003806348191574216, -0.009243858978152275, 5.848181672263308e-07, -1.984134996746434e-06, 0.0015557499136775732, 1.4644687325926498e-05, -5.090193008072674e-05, 0.028643615543842316, -0.8615914583206177, -1.049509048461914, 0.05425463616847992, 0.4796699924061108, -0.29358693535664315, 4.072577664644594, 9362.0, 30146.0, 35388.0, 9362.0, 8.350414276123047, 0.23291461169719696, -0.24260278046131134, -0.2020886391401291, -0.07558149099349976, -0.010222054086625576, 1.0262383222579956, 0, 0, 0, 1.4296875, 0.07464599609375, 1.4970703125
55041, 0.006155037321150303, 0.006358655635267496, -0.011720031499862671, 6.9781276579306e-07, -2.5358942821185337e-06, 0.0018551275134086609, 7.838587407604791e-06, -5.950790728093125e-05, 0.031232288107275963, -0.8615919947624207, -1.0494998693466187, 0.05425180867314339, 0.48090688988085223, -0.29633996817136676, 4.080735517719466, 9362.0, 30146.0, 35388.0, 9362.0, 8.350414276123047, 0.10883475840091705, -0.08284329622983932, -0.03463580831885338, -0.07265964895486832, -0.009823768399655819, 1.0280632972717285, -0.09217642992734909, -0.10231781005859375, 1.487548828125, 1.4736328125, 0.1452178955078125, 1.4970703125
55051, 0.006527010817080736, 0.005845373496413231, -0.011521528474986553, 7.202778533610399e-07, -3.1850811410549795e-06, 0.002180733485147357, -3.321735903227818e-06, -7.034675218164921e-05, 0.0338892936706543, -0.8615912795066833, -1.0495015382766724, 0.05423663184046745, 0.48352161179316844, -0.29707658547738447, 4.070633704969293, 9362.0, 30146.0, 35388.0, 9362.0, 8.350414276123047, 0.11346803605556488, -0.006258596666157246, 0.03759085014462471, -0.0732266902923584, -0.009321563877165318, 1.0297150611877441, -0.09217642992734909, -0.10231781005859375, 1.487548828125, 1.4501953125, 0.1050872802734375, 1.4970703125
55061, 0.006543125957250595, 0.007629068102687597, -0.013680770061910152, 6.355423920467729e-07, -3.946051037928555e-06, 0.002533987397328019, -1.3715194654650986e-05, -8.184763282770291e-05, 0.03676190227270126, -0.8616013526916504, -1.0495140552520752, 0.05425650626420975, 0.4832201467792859, -0.30073810500681475, 4.071687485097194, 9362.0, 30146.0, 35388.0, 9362.0, 8.350414276123047, 0.03872518241405487, 0.28165867924690247, 0.002261883346363902, -0.07498575747013092, -0.011270667426288128, 1.0288243293762207, -0.09217642992734909, -0.10231781005859375, 1.487548828125, 1.430419921875, 0.0756378173828125, 1.500732421875
55071, 0.006994925439357758, 0.0053757792338728905, -0.013835233636200428, 4.311399663947668e-07, -4.8221772885881364e-06, 0.0029160662088543177, -2.705161750782281e-05, -9.340040560346097e-05, 0.03965424373745918, -0.8615865707397461, -1.049507737159729, 0.054249636828899384, 0.47920493475953746, -0.2952928651299942, 4.070403517156778, 9362.0, 30146.0, 35388.0, 9362.0, 8.350414276123047, -0.0017564615700393915, -0.10699252784252167, -0.08466818183660507, -0.0753275454044342, -0.009313307702541351, 1.0262112617492676, -0.09217642992734909, -0.10231781005859375, 1.487548828125, 1.36962890625, 0.01910400390625, 1.500732421875
55081, 0.007251461036503315, 0.006079977843910456, -0.013701868243515491, 1.1331576388329268e-07, -5.817707460664678e-06, 0.003326164558529854, -3.6546513001667336e-05, -0.00010571775055723265, 0.04236582666635513, -0.8615994453430176, -1.0495116710662842, 0.054252076894044876, 0.48091554433935146, -0.2971197783457171, 4.073141066847593, 9362.0, 30146.0, 35388.0, 9362.0, 8.350414276123047, 0.006823802832514048, -0.03108437918126583, 0.004474350716918707, -0.0766465812921524, -0.009115186519920826, 1.0275346040725708, -0.09217642992734909, -0.10231781005859375, 1.487548828125, 1.434814453125, 0.081787109375, 1.5
55091, 0.007375309709459543, 0.0077289254404604435, -0.012095058336853981, -3.055870649859571e-07, -6.938587830518372e-06, 0.0037627581041306257, -4.730813452624716e-05, -0.00011846420238725841, 0.04495328664779663, -0.861589252948761, -1.0495100021362305, 0.05425485596060753, 0.47855415067692897, -0.29799816328414863, 4.069642680712062, 9362.0, 30146.0, 35388.0, 9362.0, 8.350414276123047, -0.13660627603530884, 0.20734764635562897, 0.21147790551185608, -0.07545710355043411, -0.012173127382993698, 1.030674934387207, -0.09217642992734909, -0.10231781005859375, 1.487548828125, 1.445068359375, 0.0970306396484375, 1.5
55101, 0.006155024748295546, 0.0058755334466695786, -0.012121322564780712, -8.468284704576945e-07, -8.188243555196095e-06, 0.00422697002068162, -6.084520282456651e-05, -0.0001314044784521684, 0.04788946360349655, -0.8616034984588623, -1.0495117902755737, 0.05424763262271881, 0.47943260101461044, -0.29414522914183294, 4.068273171811138, 9362.0, 30146.0, 35388.0, 9362.0, 8.350414276123047, 0.037699297070503235, -0.03849402070045471, 0.22695475816726685, -0.07684236764907837, -0.011384734883904457, 1.0289783477783203, -0.09217642992734909, -0.10231781005859375, 1.487548828125, 1.450927734375, 0.1063690185546875, 1.494140625
55111, 0.007130092475563288, 0.0049539427272975445, -0.011014497838914394, -1.507107526776963e-06, -9.556557415635325e-06, 0.004720647819340229, -7.11628672434017e-05, -0.00014230886881705374, 0.05084649845957756, -0.86159348487854, -1.049509882926941, 0.05425742641091347, 0.48067774529501744, -0.2932862763860271, 4.072110597363175, 9362.0, 30146.0, 35388.0, 9362.0, 8.350414276123047, -0.022644929587841034, -0.13339686393737793, -0.02203189954161644, -0.07645241916179657, -0.01084177102893591, 1.0274213552474976, -0.09217642992734909, -0.10231781005859375, 1.487548828125, 1.461181640625, 0.1233062744140625, 1.494140625
55121, 0.007043860852718353, 0.0059539698995649815, -0.010507060214877129, -2.262350108139799e-06, -1.1042392543458845e-05, 0.0052428958006203175, -7.993360486580059e-05, -0.00015485406038351357, 0.053603485226631165, -0.8615951538085938, -1.049500823020935, 0.054240744560956955, 0.4796727819616578, -0.2993606615297324, 4.077609971136008, 9362.0, 30146.0, 35388.0, 9362.0, 8.350414276123047, 0.11129885166883469, -0.030653024092316628, -0.1648842841386795, -0.07459183782339096, -0.010136596858501434, 1.0260555744171143, -0.09217642992734909, -0.10231781005859375, 1.487548828125, 1.443603515625, 0.0948486328125, 1.496337890625
55131, 0.007200867403298616, 0.006434377282857895, -0.011121829971671104, -3.114020046268706e-06, -1.2652823897951748e-05, 0.005791935604065657, -9.042231977218762e-05, -0.0001672391954343766, 0.05620484799146652, -0.8615890145301819, -1.0495136976242065, 0.05424744635820389, 0.4824323234552519, -0.29398024281701396, 4.073358359454937, 9362.0, 30146.0, 35388.0, 9362.0, 8.350414276123047, -0.05051548033952713, -0.181672140955925, 0.23836085200309753, -0.07451023161411285, -0.01031581498682499, 1.0261255502700806, -0.09217642992734909, -0.10231781005859375, 1.487548828125, 1.484619140625, 0.1656646728515625, 1.496337890625
55141, 0.007024794816970825, 0.008007142692804337, -0.009758713655173779, -4.0747927414486185e-06, -1.4388477211468853e-05, 0.0063669257797300816, -0.00010180292156292126, -0.0001798836892703548, 0.0587935596704483, -0.8615986108779907, -1.0495034456253052, 0.054246686398983, 0.4850013023350439, -0.2997468138867134, 4.0707623976122, 9362.0, 30146.0, 35388.0, 9362.0, 8.350414276123047, 0.011760598048567772, -0.15123966336250305, -0.16312377154827118, -0.07524633407592773, -0.009107761085033417, 1.027266025543213, -0.09891611337661743, -0.01271820068359375, 1.494873046875, 1.45751953125, 0.117095947265625, 1.497802734375
55151, 0.0068959640339016914, 0.008919963613152504, -0.010526728816330433, -5.163183686818229e-06, -1.6249021427938715e-05, 0.006967763416469097, -0.00011591651127673686, -0.00019221931870561093, 0.061374399811029434, -0.8615862131118774, -1.0495123863220215, 0.05423684045672417, 0.4833146108754283, -0.30198750808492036, 4.072341216798412, 9362.0, 30146.0, 35388.0, 9362.0, 8.350414276123047, 0.1290396898984909, -0.2879706621170044, 0.15665952861309052, -0.07384393364191055, -0.010130731388926506, 1.0263004302978516, -0.09891611337661743, -0.01271820068359375, 1.494873046875, 1.367431640625, 0.0183258056640625, 1.497802734375
55161, 0.006761536933481693, 0.009525883942842484, -0.009821494109928608, -6.400796792149777e-06, -1.823183811211493e-05, 0.00759483128786087, -0.00013163412222638726, -0.00020433813915587962, 0.06403955817222595, -0.8616158962249756, -1.0495151281356812, 0.0542575977742672, 0.48631711865679755, -0.28998552082799733, 4.078153181781593, 9362.0, 30146.0, 35388.0, 9362.0, 8.350414276123047, 0.04395624250173569, 0.13949017226696014, -0.1394926905632019, -0.07270019501447678, -0.010244380682706833, 1.026133418083191, -0.09891611337661743, -0.01271820068359375, 1.494873046875, 1.45458984375, 0.11224365234375, 1.4970703125
55171, 0.007409738376736641, 0.00930461473762989, -0.009324070997536182, -7.800865205354057e-06, -2.0334628061391413e-05, 0.008248263970017433, -0.0001483694650232792, -0.00021624949295073748, 0.06664743274450302, -0.8615931272506714, -1.0495043992996216, 0.05423780530691147, 0.48317239660678013, -0.30220775719496373, 4.072630214541699, 9362.0, 30146.0, 35388.0, 9362.0, 8.350414276123047, 0.0966034084558487, 0.0842549055814743, -0.22074198722839355, -0.07432898133993149, -0.011395145207643509, 1.027182698249817, -0.09891611337661743, -0.01271820068359375, 1.494873046875, 1.484619140625, 0.1656646728515625, 1.4970703125
55181, 0.006937072146683931, 0.007907048799097538, -0.010370860807597637, -9.366352969664149e-06, -2.2562237063539214e-05, 0.008927838876843452, -0.00016466453962493688, -0.00022925047960598022, 0.06926794350147247, -0.8616054058074951, -1.04951012134552, 0.05424594134092331, 0.47955128014120924, -0.29927033562236716, 4.069730812315127, 9362.0, 30146.0, 35388.0, 9362.0, 8.350414276123047, -0.14592139422893524, -0.3226197063922882, -0.29638415575027466, -0.0769754946231842, -0.009795908816158772, 1.0248382091522217, -0.09891611337661743, -0.01271820068359375, 1.494873046875, 1.399658203125, 0.0396575927734375, 1.494140625
55191, 0.006137828342616558, 0.008162285201251507, -0.013155831955373287, -1.108246488001896e-05, -2.4915665562730283e-05, 0.009633304551243782, -0.00017856989870779216, -0.00024139872402884066, 0.07182569056749344, -0.8615953326225281, -1.049507975578308, 0.05423906072974205, 0.48616840389296473, -0.30155120429358817, 4.0743105517682725, 9362.0, 30146.0, 35388.0, 9362.0, 8.350414276123047, -0.0012294779298827052, -0.31150537729263306, -0.07473701983690262, -0.07605550438165665, -0.007311444263905287, 1.0282081365585327, -0.09891611337661743, -0.01271820068359375, 1.494873046875, 1.453857421875, 0.1110687255859375, 1.494140625
55201, 0.005748009774833918, 0.011802338995039463, -0.01519747544080019, -1.293987315875711e-05, -2.7383550332160667e-05, 0.010364345274865627, -0.0001930745638674125, -0.00025216047652065754, 0.07438289374113083, -0.8615849018096924, -1.0495085716247559, 0.054241206496953964, 0.4778236398066997, -0.30178655292377243, 4.0726171329222725, 9362.0, 30146.0, 35388.0, 9362.0, 8.350414276123047, -0.16741760075092316, -0.06467539072036743, 0.10560117661952972, -0.07578824460506439, -0.008799618110060692, 1.029642105102539, -0.09891611337661743, -0.01271820068359375, 1.494873046875, 1.447998046875, 0.1016693115234375, 1.499267578125
55211, 0.0060139987617731094, 0.010547926649451256, -0.01700441539287567, -1.4974702935433015e-05, -2.995581235154532e-05, 0.011122898198664188, -0.0002138273703167215, -0.0002623049367684871, 0.07732810825109482, -0.8615903854370117, -1.049505352973938, 0.054235853254795074, 0.48117393605550857, -0.299187231033784, 4.066723516404998, 9362.0, 30146.0, 35388.0, 9362.0, 8.350414276123047, 0.1601230353116989, 0.20810121297836304, 0.06353726238012314, -0.07508733868598938, -0.009385019540786743, 1.0247907638549805, -0.09891611337661743, -0.01271820068359375, 1.494873046875, 1.43701171875, 0.085052490234375, 1.499267578125
55221, 0.0075830561108887196, 0.009104384109377861, -0.014701387844979763, -1.7205682524945587e-05, -3.263168400735594e-05, 0.011909167282283306, -0.0002323028165847063, -0.0002729410189203918, 0.07992614805698395, -0.8615917563438416, -1.04951012134552, 0.054251208901405334, 0.4798985670392877, -0.30305178128543275, 4.07289744385675, 9362.0, 30146.0, 35388.0, 9362.0, 8.350414276123047, -0.1798214614391327, -0.20042982697486877, -0.11394014209508896, -0.07498446106910706, -0.008156013675034046, 1.025754690170288, -0.09891611337661743, -0.01271820068359375, 1.494873046875, 1.46630859375, 0.132171630859375, 1.49853515625
55231, 0.006894089747220278, 0.008131831884384155, -0.015564082190394402, -1.960862755367998e-05, -3.542762351571582e-05, 0.012720756232738495, -0.0002482446434441954, -0.0002862167893908918, 0.08239208161830902, -0.8615956902503967, -1.0494986772537231, 0.05424146354198456, 0.4777716464479828, -0.3018137706834807, 4.073012936912066, 9362.0, 30146.0, 35388.0, 9362.0, 8.350414276123047, 0.06399685144424438, 0.1356627494096756, -0.10628081858158112, -0.07715025544166565, -0.009273959323763847, 1.0245941877365112, -0.09891611337661743, -0.01271820068359375, 1.494873046875, 1.49853515625, 0.1927032470703125, 1.49853515625
55241, 0.005927706137299538, 0.009096045978367329, -0.014931921847164631, -2.216244683950208e-05, -3.835026654996909e-05, 0.013556944206357002, -0.0002625603519845754, -0.00029827075195498765, 0.08484592288732529, -0.8615958094596863, -1.0495024919509888, 0.05426573008298874, 0.4792039284906961, -0.3008815448650637, 4.070438654424111, 9362.0, 30146.0, 35388.0, 9362.0, 8.350414276123047, 0.19424237310886383, 0.2022874653339386, 0.08242283761501312, -0.07771986722946167, -0.009682761505246162, 1.0251272916793823, -0.08038412034511566, -0.1739978790283203, 1.481689453125, 1.3798828125, 0.0243377685546875, 1.496337890625
55251, 0.007211641408503056, 0.008326089940965176, -0.01492671761661768, -2.4867860702215694e-05, -4.138495569350198e-05, 0.014417537488043308, -0.00027848975150845945, -0.00030872123898006976, 0.08727315068244934, -0.8615940809249878, -1.0495041608810425, 0.05425678938627243, 0.47756494675955097, -0.2945460661469781, 4.074954360907315, 9362.0, 30146.0, 35388.0, 9362.0, 8.350414276123047, -0.16716411709785461, 0.10580947250127792, -0.09711194783449173, -0.07561905682086945, -0.008939486928284168, 1.0287058353424072, -0.08038412034511566, -0.1739978790283203, 1.481689453125, 1.46630859375, 0.132171630859375, 1.496337890625
55261, 0.005637302994728088, 0.007870606146752834, -0.015925750136375427, -2.7725996915251017e-05, -4.4535569031722844e-05, 0.015303641557693481, -0.0002931164053734392, -0.000321327883284539, 0.0899481549859047, -0.8615944981575012, -1.0494962930679321, 0.05425681173801422, 0.48507741498234735, -0.2974099732199704, 4.072622646406695, 9362.0, 30146.0, 35388.0, 9362.0, 8.350414276123047, -0.17338605225086212, 0.14446993172168732, 0.11143223941326141, -0.07675373554229736, -0.008406837470829487, 1.0272608995437622, -0.08038412034511566, -0.1739978790283203, 1.481689453125, 1.374755859375, 0.021392822265625, 1.4970703125
55271, 0.005511101800948381, 0.0055063809268176556, -0.015502961352467537, -3.0726459954166785e-05, -4.7798454033909366e-05, 0.01621699146926403, -0.0003068615624215454, -0.00033124303445219994, 0.09272222965955734, -0.8615775108337402, -1.049501895904541, 0.05423744022846222, 0.47654152221438045, -0.29104426282171403, 4.070069752985009, 9362.0, 30146.0, 35388.0, 9362.0, 8.350414276123047, -0.09525644034147263, -0.10260435938835144, 0.1623012274503708, -0.07648853957653046, -0.009767300449311733, 1.0255475044250488, -0.08038412034511566, -0.1739978790283203, 1.481689453125, 1.3857421875, 0.0280914306640625, 1.4970703125
55281, 0.0051400987431406975, 0.005057986360043287, -0.013195822946727276, -3.384348383406177e-05, -5.115930616739206e-05, 0.01715727336704731, -0.0003165222005918622, -0.00034091106499545276, 0.09533440321683884, -0.8615925908088684, -1.0494978427886963, 0.054257720708847046, 0.48634127995984, -0.29027952110322985, 4.076599401806128, 9362.0, 30146.0, 35388.0, 9362.0, 8.350414276123047, -0.19726261496543884, -0.019854454323649406, 0.29355186223983765, -0.07706179469823837, -0.011261654086411, 1.0241812467575073, -0.08038412034511566, -0.1739978790283203, 1.481689453125, 1.478759765625, 0.1546478271484375, 1.5
55291, 0.004160520154982805, 0.0021037328988313675, -0.012289661914110184, -3.7053065170766786e-05, -5.4613476095255464e-05, 0.018122490495443344, -0.00032527153962291777, -0.0003498824080452323, 0.09770940244197845, -0.8615860939025879, -1.0494989156723022, 0.05426885560154915, 0.47918253876573424, -0.3006722176591268, 4.070909966603378, 9362.0, 30146.0, 35388.0, 9362.0, 8.350414276123047, 0.02983058989048004, -0.06592676043510437, 0.034687042236328125, -0.07602117210626602, -0.010729671455919743, 1.0261808633804321, -0.08038412034511566, -0.1739978790283203, 1.481689453125, 1.436279296875, 0.0838775634765625, 1.5
55301, 0.004328609444200993, 0.003220844315364957, -0.01302499882876873, -4.032425204059109e-05, -5.8148809330305085e-05, 0.01911190338432789, -0.0003290136228315532, -0.0003571912238840014, 0.10017358511686325, -0.8615743517875671, -1.049502968788147, 0.0542643703520298, 0.4794901475260984, -0.297804622468675, 4.069871307203307, 9362.0, 30146.0, 35388.0, 9362.0, 8.350414276123047, 0.14936241507530212, 0.07454906404018402, -0.0373380221426487, -0.07519219070672989, -0.008243555203080177, 1.0275934934616089, -0.08038412034511566, -0.1739978790283203, 1.481689453125, 1.4267578125, 0.070709228515625, 1.496337890625
55311, 0.0046957568265497684, 0.003094425657764077, -0.012992320582270622, -4.364272172097117e-05, -6.1758779338561e-05, 0.020127005875110626, -0.00033467437606304884, -0.00036482029827311635, 0.10284730046987534, -0.8615788817405701, -1.0495045185089111, 0.054260361939668655, 0.4787280112528883, -0.29247650497529776, 4.068221129014467, 9362.0, 30146.0, 35388.0, 9362.0, 8.350414276123047, -0.13355141878128052, -0.34093135595321655, 0.0625796914100647, -0.07521173357963562, -0.006728427950292826, 1.0261023044586182, -0.08038412034511566, -0.1739978790283203, 1.481689453125, 1.468505859375, 0.13604736328125, 1.496337890625
55321, 0.0034237822983413935, 0.005064005497843027, -0.013175017200410366, -4.701668513007462e-05, -6.544827192556113e-05, 0.021168822422623634, -0.00034021027386188507, -0.0003730184689629823, 0.1055164560675621, -0.8615789413452148, -1.0495060682296753, 0.05426059290766716, 0.483060129882321, -0.2946137733554224, 4.071176487237232, 9362.0, 30146.0, 35388.0, 9362.0, 8.350414276123047, 0.0034631481394171715, -0.22607284784317017, -0.23723727464675903, -0.07727815210819244, -0.010623996146023273, 1.0273281335830688, -0.08038412034511566, -0.1739978790283203, 1.481689453125, 1.343994140625, 0.015899658203125, 1.494873046875
55331, 0.0033599555026739836, 0.007511902134865522, -0.014724409207701683, -5.046328078606166e-05, -6.92085232003592e-05, 0.022236822172999382, -0.00034921872429549694, -0.00037902884650975466, 0.10808403789997101, -0.8615930676460266, -1.0494937896728516, 0.05426894500851631, 0.47969343859939095, -0.29330135815339986, 4.07014176423699, 9362.0, 30146.0, 35388.0, 9362.0, 8.350414276123047, -0.08885184675455093, 0.26258766651153564, 0.25412657856941223, -0.07571414858102798, -0.011429335922002792, 1.0265231132507324, -0.08038412034511566, -0.1739978790283203, 1.481689453125, 1.51904296875, 0.2346954345703125, 1.494873046875
55341, 0.0031977701000869274, 0.005563539918512106, -0.014509143307805061, -5.402155147748999e-05, -7.30283500161022e-05, 0.023331142961978912, -0.00036234379513189197, -0.0003849288623314351, 0.11078071594238281, -0.8615822792053223, -1.049505352973938, 0.054261256009340286, 0.4816572005817911, -0.29767105430670426, 4.068526223293643, 9362.0, 30146.0, 35388.0, 9362.0, 8.350414276123047, 0.07397503405809402, 0.09791363775730133, -0.10298293828964233, -0.07652319222688675, -0.009876241907477379, 1.024761438369751, -0.08654765039682388, -0.11127853393554688, 1.48681640625, 1.48828125, 0.172576904296875, 1.493408203125
55351, 0.003792752977460623, 0.0026556875091046095, -0.013589851558208466, -5.769385097664781e-05, -7.690570782870054e-05, 0.024451572448015213, -0.0003719879896380007, -0.0003905687772203237, 0.11330557614564896, -0.8615933060646057, -1.0495021343231201, 0.0542655885219574, 0.480282089221646, -0.2948915626754456, 4.075430262802599, 9362.0, 30146.0, 35388.0, 9362.0, 8.350414276123047, 0.19051630795001984, -0.27661553025245667, -0.2595624327659607, -0.07510878890752792, -0.008278156630694866, 1.0264045000076294, -0.08654765039682388, -0.11127853393554688, 1.48681640625, 1.4501953125, 0.1050872802734375, 1.493408203125
55361, 0.005363835487514734, 0.0033534301910549402, -0.014749465510249138, -6.143705832073465e-05, -8.084469300229102e-05, 0.025597214698791504, -0.0003766839799936861, -0.00039729702984914184, 0.11582323163747787, -0.8616006374359131, -1.0495121479034424, 0.05429631844162941, 0.4882251039169236, -0.28658370304714254, 4.0715278694266805, 9362.0, 30146.0, 35388.0, 9362.0, 8.350414276123047, -0.33677777647972107, -0.13721439242362976, 0.33768633008003235, -0.0760602205991745, -0.009546520188450813, 1.0291715860366821, -0.08654765039682388, -0.11127853393554688, 1.48681640625, 1.46630859375, 0.132171630859375, 1.48828125
55371, 0.004599526524543762, 0.004855851177126169, -0.013439027592539787, -6.523342744912952e-05, -8.486487058689818e-05, 0.026769286021590233, -0.00038266234332695603, -0.00040670164162293077, 0.11859159171581268, -0.8615809679031372, -1.0495072603225708, 0.054260239005088806, 0.48285064012138135, -0.29764560547900487, 4.072699899849311, 9362.0, 30146.0, 35388.0, 9362.0, 8.350414276123047, -0.02793741226196289, -0.39216500520706177, -0.12132468074560165, -0.0740586593747139, -0.009531961753964424, 1.0267432928085327, -0.08654765039682388, -0.11127853393554688, 1.48681640625, 1.4970703125, 0.18975830078125, 1.48828125
55381, 0.004512292332947254, 0.008052689023315907, -0.012169361114501953, -6.910280353622511e-05, -8.897235966287553e-05, 0.027969006448984146, -0.000391366018448025, -0.00041479233186692, 0.12135308235883713, -0.8615763783454895, -1.0495049953460693, 0.05426532402634621, 0.4842877005184288, -0.29587280979680486, 4.070283077536749, 9362.0, 30146.0, 35388.0, 9362.0, 8.350414276123047, -0.31925180554389954, -0.31516164541244507, 0.0524124838411808, -0.07364019751548767, -0.009691412560641766, 1.0260692834854126, -0.08654765039682388, -0.11127853393554688, 1.48681640625, 1.405517578125, 0.0454254150390625, 1.494873046875
55391, 0.0035075449850410223, 0.011127972975373268, -0.013914782553911209, -7.308721251320094e-05, -9.315990610048175e-05, 0.029195357114076614, -0.00040565343806520104, -0.00042267178650945425, 0.12391762435436249, -0.8615943789482117, -1.0494979619979858, 0.05426817387342453, 0.4846634722337869, -0.29516234059977364, 4.077486093431294, 9362.0, 30146.0, 35388.0, 9362.0, 8.350414276123047, -0.12967459857463837, -0.22963321208953857, -0.044875990599393845, -0.07437821477651596, -0.009422685950994492, 1.0234607458114624, -0.08654765039682388, -0.11127853393554688, 1.48681640625, 1.4267578125, 0.070709228515625, 1.494873046875
55401, 0.0024868652690201998, 0.013091926462948322, -0.014088043011724949, -7.72413841332309e-05, -9.741737449076027e-05, 0.030446723103523254, -0.0004252649378031492, -0.0004287783522158861, 0.12635615468025208, -0.8616052865982056, -1.049508810043335, 0.05428411811590195, 0.4852322955719775, -0.28447641432177306, 4.079539686920999, 9362.0, 30146.0, 35388.0, 9362.0, 8.350414276123047, -0.2315891534090042, 0.17678910493850708, 0.17985238134860992, -0.07674422860145569, -0.00873691588640213, 1.0266976356506348, -0.08654765039682388, -0.11127853393554688, 1.48681640625, 1.4619140625, 0.1246185302734375, 1.493408203125
55411, 0.0020935656502842903, 0.012296561151742935, -0.014706965535879135, -8.160892321029678e-05, -0.00010172695328947157, 0.031722549349069595, -0.00044820827315561473, -0.00043312006164342165, 0.12880979478359222, -0.8615772724151611, -1.0494989156723022, 0.05428082123398781, 0.47609777481477145, -0.30240999575678984, 4.078119073399008, 9362.0, 30146.0, 35388.0, 9362.0, 8.350414276123047, 0.18974569439888, -0.01120587158948183, 0.07200982421636581, -0.07750914990901947, -0.008427170105278492, 1.0282907485961914, -0.08654765039682388, -0.11127853393554688, 1.48681640625, 1.430419921875, 0.0756378173828125, 1.493408203125
55421, 0.0021412738133221865, 0.011757845990359783, -0.013808310963213444, -8.61992230056785e-05, -0.00010607654985506088, 0.03302434831857681, -0.0004698254051618278, -0.0004368018126115203, 0.13155074417591095, -0.8615814447402954, -1.0495003461837769, 0.054267752915620804, 0.48119136077582514, -0.2985622464128994, 4.071916537644276, 9362.0, 30146.0, 35388.0, 9362.0, 8.350414276123047, -0.3505661189556122, 0.17121422290802002, -0.033310845494270325, -0.0741003006696701, -0.008951093070209026, 1.0288342237472534, -0.08654765039682388, -0.11127853393554688, 1.48681640625, 1.39599609375, 0.0362701416015625, 1.4970703125
55441, 0.0016728959744796157, 0.010083355940878391, -0.013132904656231403, -9.10010130610317e-05, -0.0001104633993236348, 0.03435385972261429, -0.0004905176465399563, -0.0004404999199323356, 0.1343519538640976, -0.8615669012069702, -1.0495001077651978, 0.05427577719092369, 0.4854297986831416, -0.29688145490064244, 4.071691624206073, 9362.0, 30146.0, 35388.0, 9362.0, 8.350414276123047, -0.16572074592113495, 0.08757969737052917, 0.00020311427942942828, -0.07500369846820831, -0.00813394133001566, 1.025986671447754, -0.08654765039682388, -0.11127853393554688, 1.48681640625, 1.365966796875, 0.017791748046875, 1.4970703125
55461, 0.0011584371095523238, 0.0056626563891768456, -0.01103681419044733, -9.10010130610317e-05, -0.0001104633993236348, 0.03435385972261429, -0.0004905176465399563, -0.0004404999199323356, 0.1343519538640976, -0.8615931868553162, -1.049500823020935, 0.05427124723792076, 0.4836390618185561, -0.29988358869019294, 4.0707641038718885, 9362.0, 30146.0, 35388.0, 9362.0, 8.350414276123047, -0.23466795682907104, 0.21416075527668, 0.09235928952693939, -0.07612751424312592, -0.010130577720701694, 1.0249580144882202, -0.08654765039682388, -0.11127853393554688, 1.48681640625, 1.365966796875, 0.017791748046875, 1.49853515625
55491, -0.000926701701246202, 0.0066574951633811, -0.011144706048071384, -0.00012323555711191148, -0.00013720476999878883, 0.042883023619651794, -0.0005673692212440073, -0.0004495648026932031, 0.1497890055179596, -0.8615781664848328, -1.0494897365570068, 0.05427559092640877, 0.4810632023439635, -0.29774863196365686, 4.079397108716551, 9362.0, 30146.0, 35388.0, 9362.0, 8.350414276123047, 0.09040002524852753, 0.16564325988292694, -0.18215709924697876, -0.07646210491657257, -0.01031777448952198, 1.0273617506027222, -0.08654765039682388, -0.11127853393554688, 1.48681640625, 1.401123046875, 0.041015625, 1.49853515625
55501, -0.00019203510601073503, 0.0047537218779325485, -0.011744575574994087, -0.00012323555711191148, -0.00013720476999878883, 0.042883023619651794, -0.0005673692212440073, -0.0004495648026932031, 0.1497890055179596, -0.8615850210189819, -1.049500584602356, 0.054281700402498245, 0.4789757660907529, -0.29584926360320196, 4.074714484783527, 9362.0, 30146.0, 35388.0, 9362.0, 8.350414276123047, 0.10486576706171036, 0.33786535263061523, -0.249841570854187, -0.07416346669197083, -0.008708399720489979, 1.0291774272918701, -0.08654765039682388, -0.11127853393554688, 1.48681640625, 1.386474609375, 0.028656005859375, 1.49853515625
55511, 0.00043371081119403243, 0.0023919460363686085, -0.013236061669886112, -0.00012323555711191148, -0.00013720476999878883, 0.042883023619651794, -0.0005673692212440073, -0.0004495648026932031, 0.1497890055179596, -0.8615900874137878, -1.0494987964630127, 0.05428197607398033, 0.4824057730374999, -0.2922100238040741, 4.075532745894587, 9362.0, 30146.0, 35388.0, 9362.0, 8.350414276123047, -0.03147381544113159, -0.20435036718845367, -0.17750436067581177, -0.07429429143667221, -0.007844007574021816, 1.0294718742370605, -0.08654765039682388, -0.11127853393554688, 1.48681640625, 1.3798828125, 0.0243377685546875, 1.49853515625
55521, 0.001259069424122572, 0.0012399950064718723, -0.014134763740003109, -0.00014069284952711314, -0.00015065062325447798, 0.04749742150306702, -0.0005913952481932938, -0.00044846185483038425, 0.15803106129169464, -0.8615955114364624, -1.0495021343231201, 0.054269786924123764, 0.47912052102621044, -0.2983086207889869, 4.0728151197596505, 9362.0, 30146.0, 35388.0, 9362.0, 8.350414276123047, -0.05761244520545006, 0.09528607875108719, -0.07992512732744217, -0.07458720356225967, -0.008684617467224598, 1.0277886390686035, -0.08654765039682388, -0.11127853393554688, 1.48681640625, 1.3798828125, 0.0243377685546875, 1.49853515625
55561, 0.002462368458509445, -5.313196652423358e-06, -0.01974298059940338, -0.00014069284952711314, -0.00015065062325447798, 0.04749742150306702, -0.0005913952481932938, -0.00044846185483038425, 0.15803106129169464, -0.8615887761116028, -1.0495060682296753, 0.05430447682738304, 0.4838280042793468, -0.2850659930470556, 4.076289108497142, 9362.0, 30146.0, 35388.0, 9362.0, 8.350414276123047, -0.12239883840084076, -0.18554462492465973, 0.026989400386810303, -0.07451443374156952, -0.009319153614342213, 1.0298312902450562, -0.06289725005626678, -0.13815879821777344, 1.484619140625, 1.388671875, 0.03033447265625, 1.49267578125
55581, 0.0041047497652471066, -0.0015486193588003516, -0.020327620208263397, -0.0001764010521583259, -0.0001780675956979394, 0.057472214102745056, -0.0005987059557810426, -0.00046950255637057126, 0.17462320625782013, -0.861584484577179, -1.0494956970214844, 0.054274555295705795, 0.4820010998078373, -0.2988460159165811, 4.07199496185729, 9362.0, 30146.0, 35388.0, 9362.0, 8.350414276123047, 0.04906589165329933, 0.13563986122608185, -0.011635511182248592, -0.07706066220998764, -0.00847771018743515, 1.0277729034423828, -0.06289725005626678, -0.13815879821777344, 1.484619140625, 1.388671875, 0.03033447265625, 1.49267578125
55591, 0.004806728567928076, -0.0037310647312551737, -0.02083010785281658, -0.00018237449694424868, -0.00018279874348081648, 0.05923209711909294, -0.0005958795081824064, -0.0004767605569213629, 0.1773536056280136, -0.8615850210189819, -1.0495033264160156, 0.05428513139486313, 0.4793427509510078, -0.2984908242523261, 4.0744424908509735, 9362.0, 30146.0, 35388.0, 9362.0, 8.350414276123047, -0.07497262209653854, 0.06803788989782333, 0.1266893595457077, -0.07531260699033737, -0.009749582037329674, 1.0274899005889893, -0.06289725005626678, -0.13815879821777344, 1.484619140625, 1.388671875, 0.03033447265625, 1.49267578125
55611, 0.003224113956093788, -0.0034213420003652573, -0.01926261931657791, -0.00018237449694424868, -0.00018279874348081648, 0.05923209711909294, -0.0005958795081824064, -0.0004767605569213629, 0.1773536056280136, -0.861572265625, -1.04949951171875, 0.05428783595561981, 0.48225213102747766, -0.3016275320701993, 4.0749562034509745, 9362.0, 30146.0, 35388.0, 9362.0, 8.350414276123047, -0.062417592853307724, -0.26366034150123596, 0.14499905705451965, -0.07500986009836197, -0.011417650617659092, 1.0269339084625244, -0.06289725005626678, -0.13815879821777344, 1.484619140625, 1.3916015625, 0.0325927734375, 1.49267578125
55631, 0.0035018695052713156, -0.0011896997457370162, -0.02067982777953148, -0.00020570303604472429, -0.00020241746096871793, 0.06654352694749832, -0.0005738486652262509, -0.0005025403806939721, 0.18801875412464142, -0.8615877628326416, -1.0494968891143799, 0.054265715181827545, 0.4793322169876954, -0.2928980170854345, 4.074381993160767, 9362.0, 30146.0, 35388.0, 9362.0, 8.350414276123047, 0.11844462901353836, -0.005055861547589302, -0.06160731986165047, -0.0765269473195076, -0.011862926185131073, 1.025362253189087, -0.06289725005626678, -0.13815879821777344, 1.484619140625, 1.3916015625, 0.0325927734375, 1.493408203125
55651, 0.00556858628988266, -0.0019939972553402185, -0.022137951105833054, -0.00021713075693696737, -0.00021260304492898285, 0.07035516202449799, -0.0005682115443050861, -0.0005171651137061417, 0.19311635196208954, -0.8615820407867432, -1.049501657485962, 0.05428151413798332, 0.4795993767464578, -0.2963461907131375, 4.076817809133932, 9362.0, 30146.0, 35388.0, 9362.0, 8.350414276123047, -0.033590711653232574, 0.0011915798531845212, -0.04247773438692093, -0.0748545452952385, -0.010191204957664013, 1.0276668071746826, -0.08495645970106125, -0.09335899353027344, 1.48828125, 1.42236328125, 0.0649566650390625, 1.493408203125
55681, 0.0058679478242993355, -0.004703196696937084, -0.022681904956698418, -0.00022279535187408328, -0.00021782369003631175, 0.07229987531900406, -0.0005646580248139799, -0.000526950869243592, 0.19582602381706238, -0.8615841269493103, -1.0495020151138306, 0.05428202822804451, 0.48593256976984267, -0.3011847357515194, 4.071971436936658, 9362.0, 30146.0, 35388.0, 9362.0, 8.350414276123047, 0.08655903488397598, 0.013648884370923042, -0.20239682495594025, -0.07604219764471054, -0.010331531055271626, 1.0300878286361694, -0.08495645970106125, -0.09335899353027344, 1.48828125, 1.42529296875, 0.0688018798828125, 1.494873046875
55691, 0.006838212721049786, -0.0057450332678854465, -0.02427477017045021, -0.00022279535187408328, -0.00021782369003631175, 0.07229987531900406, -0.0005646580248139799, -0.000526950869243592, 0.19582602381706238, -0.8615708947181702, -1.0495048761367798, 0.05428530275821686, 0.48243296933537944, -0.29680391759285385, 4.068657794634036, 9362.0, 30146.0, 35388.0, 9362.0, 8.350414276123047, 0.10621640831232071, 0.03225979581475258, -0.07280399650335312, -0.07386547327041626, -0.009349124506115913, 1.026502013206482, -0.08495645970106125, -0.09335899353027344, 1.48828125, 1.42529296875, 0.0688018798828125, 1.494873046875
55701, 0.00708768330514431, -0.005853305570781231, -0.026098722591996193, -0.00022279535187408328, -0.00021782369003631175, 0.07229987531900406, -0.0005646580248139799, -0.000526950869243592, 0.19582602381706238, -0.8615722060203552, -1.0495058298110962, 0.05428430810570717, 0.4869424384847869, -0.2945931864429099, 4.077893781012967, 9362.0, 30146.0, 35388.0, 9362.0, 8.350414276123047, -0.028760317713022232, 0.42297792434692383, 0.05647817626595497, -0.07446497678756714, -0.00912753026932478, 1.0282524824142456, -0.08495645970106125, -0.09335899353027344, 1.48828125, 1.42529296875, 0.0688018798828125, 1.493408203125
55711, 0.005878236144781113, -0.007847894914448261, -0.025433078408241272, -0.00022279535187408328, -0.00021782369003631175, 0.07229987531900406, -0.0005646580248139799, -0.000526950869243592, 0.19582602381706238, -0.8615773916244507, -1.0495052337646484, 0.05426902323961258, 0.4777609935996561, -0.3004336791384219, 4.0743640356691815, 9362.0, 30146.0, 35388.0, 9362.0, 8.350414276123047, -0.02344508282840252, 0.07189364731311798, -0.07085471600294113, -0.0765310674905777, -0.009465303272008896, 1.0251275300979614, -0.08495645970106125, -0.09335899353027344, 1.48828125, 1.399658203125, 0.0396575927734375, 1.493408203125
55721, 0.006071860436350107, -0.010327991098165512, -0.02549928054213524, -0.00022279535187408328, -0.00021782369003631175, 0.07229987531900406, -0.0005646580248139799, -0.000526950869243592, 0.19582602381706238, -0.8615798354148865, -1.0495094060897827, 0.05426078662276268, 0.48175257607256056, -0.2968464222156513, 4.071755420779443, 9362.0, 30146.0, 35388.0, 9362.0, 8.350414276123047, -0.1576322764158249, -0.31136447191238403, -0.2153061181306839, -0.07474160939455032, -0.008794885128736496, 1.0249518156051636, -0.08495645970106125, -0.09335899353027344, 1.48828125, 1.387939453125, 0.0297393798828125, 1.493408203125
55731, 0.005524790845811367, -0.009577719494700432, -0.026200367137789726, -0.0002602040767669678, -0.000257195410085842, 0.08669354021549225, -0.0004897020407952368, -0.0006006952608004212, 0.21493637561798096, -0.8615754842758179, -1.049494981765747, 0.054277416318655014, 0.4835486505018603, -0.2968263972509533, 4.070755424799126, 9362.0, 30146.0, 35388.0, 9362.0, 8.350414276123047, 0.17466749250888824, -0.18779920041561127, -0.15807971358299255, -0.07474160939455032, -0.008794885128736496, 1.0249518156051636, -0.08495645970106125, -0.09335899353027344, 1.48828125, 1.387939453125, 0.0297393798828125, 1.493408203125
55741, 0.006442101206630468, -0.007550716865807772, -0.028042210265994072, -0.0002602040767669678, -0.000257195410085842, 0.08669354021549225, -0.0004897020407952368, -0.0006006952608004212, 0.21493637561798096, -0.8615763783454895, -1.0495063066482544, 0.05425340309739113, 0.48485850852696016, -0.2923490694568045, 4.075502924612832, 9362.0, 30146.0, 35388.0, 9362.0, 8.350414276123047, -0.010217969305813313, 0.34057533740997314, 0.14140598475933075, -0.07733535021543503, -0.007598607335239649, 1.0270774364471436, -0.08495645970106125, -0.09335899353027344, 1.48828125, 1.326416015625, 0.022705078125, 1.493408203125
55751, 0.006043592933565378, -0.007050408981740475, -0.02855709008872509, -0.000269680458586663, -0.00026941203395836055, 0.09104306250810623, -0.0004597255028784275, -0.0006217638729140162, 0.22012336552143097, -0.8615926504135132, -1.0495069026947021, 0.05428314208984375, 0.4848873497250869, -0.30088693318919013, 4.0731908843567215, 9362.0, 30146.0, 35388.0, 9362.0, 8.350414276123047, 0.07363151013851166, 0.29869577288627625, -0.2468910962343216, -0.07774430513381958, -0.007878732867538929, 1.0270267724990845, -0.08495645970106125, -0.09335899353027344, 1.48828125, 1.326416015625, 0.022705078125, 1.493408203125
55761, 0.006180444732308388, -0.010776187293231487, -0.029352836310863495, -0.00027421576669439673, -0.00027568283258005977, 0.09325750172138214, -0.00044716295087710023, -0.0006324027199298143, 0.22276520729064941, -0.8615915179252625, -1.0495009422302246, 0.054273657500743866, 0.48090167884469326, -0.2994032930193953, 4.0670460899523295, 9362.0, 30146.0, 35388.0, 9362.0, 8.350414276123047, 0.021727176383137703, 0.002518588909879327, 0.3046879470348358, -0.07663338631391525, -0.008428368717432022, 1.0285930633544922, -0.08495645970106125, -0.09335899353027344, 1.48828125, 1.326416015625, 0.022705078125, 1.493408203125
55771, 0.0059031290002167225, -0.010430611670017242, -0.029278000816702843, -0.00027859260444529355, -0.00028206128627061844, 0.09549885243177414, -0.0004282188892830163, -0.0006432767841033638, 0.2255059778690338, -0.8615824580192566, -1.0495022535324097, 0.054273661226034164, 0.47990516492693946, -0.29877851044318504, 4.071577199747333, 9362.0, 30146.0, 35388.0, 9362.0, 8.350414276123047, 0.2440870851278305, -0.32621175050735474, -0.0992310494184494, -0.07477641105651855, -0.009673057124018669, 1.0271791219711304, -0.08495645970106125, -0.09335899353027344, 1.48828125, 1.326416015625, 0.022705078125, 1.493408203125
55781, 0.006991087459027767, -0.009350202046334743, -0.02941298671066761, -0.0002827830030582845, -0.00028854605625383556, 0.09776772558689117, -0.0004099142679478973, -0.0006537303561344743, 0.2282692939043045, -0.8615813255310059, -1.0494996309280396, 0.054253824055194855, 0.4839609469943895, -0.29693967150558365, 4.077615025503132, 9362.0, 30146.0, 35388.0, 9362.0, 8.350414276123047, 0.054463718086481094, -0.12167157977819443, -0.08673743903636932, -0.07552295178174973, -0.008850877173244953, 1.0268486738204956, -0.08495645970106125, -0.09335899353027344, 1.48828125, 1.3359375, 0.01806640625, 1.493408203125
55791, 0.0075469552539289, -0.007286104839295149, -0.029402712360024452, -0.0002867999719455838, -0.00029514485504478216, 0.10006358474493027, -0.0003935764543712139, -0.0006660553626716137, 0.2309025675058365, -0.8615819811820984, -1.049505352973938, 0.05426187068223953, 0.47733094673508136, -0.2972998639310731, 4.073451416905349, 9362.0, 30146.0, 35388.0, 9362.0, 8.350414276123047, -0.1823640614748001, -0.029102405533194542, -0.1611487716436386, -0.07740993052721024, -0.010134079493582249, 1.0300015211105347, -0.08495645970106125, -0.09335899353027344, 1.48828125, 1.3359375, 0.01806640625, 1.493408203125
55801, 0.006378874648362398, -0.0067724790424108505, -0.032091788947582245, -0.00029067156719975173, -0.0003018719144165516, 0.10238687694072723, -0.00038077158387750387, -0.0006793020875193179, 0.23375633358955383, -0.8615793585777283, -1.0495080947875977, 0.054288581013679504, 0.4829356868342938, -0.2996133754049879, 4.069862040895159, 9362.0, 30146.0, 35388.0, 9362.0, 8.350414276123047, -0.010653949342668056, 0.2530354857444763, -0.17173951864242554, -0.07356419414281845, -0.008130841888487339, 1.0281462669372559, -0.08495645970106125, -0.09335899353027344, 1.48828125, 1.3359375, 0.01806640625, 1.4970703125
55811, 0.006673743482679129, -0.008321902714669704, -0.03272991627454758, -0.00029067156719975173, -0.0003018719144165516, 0.10238687694072723, -0.00038077158387750387, -0.0006793020875193179, 0.23375633358955383, -0.8615742921829224, -1.0495091676712036, 0.054265573620796204, 0.4825178431445212, -0.299391874630885, 4.077845883994026, 9362.0, 30146.0, 35388.0, 9362.0, 8.350414276123047, -0.012090389616787434, -0.15766407549381256, 0.21002069115638733, -0.0725686326622963, -0.009689169004559517, 1.0267891883850098, -0.08495645970106125, -0.09335899353027344, 1.48828125, 1.41796875, 0.05950927734375, 1.4970703125
55821, 0.0064377994276583195, -0.008155287243425846, -0.032591093331575394, -0.00029803410870954394, -0.0003156855527777225, 0.1071186438202858, -0.00035414655576460063, -0.0007022976060397923, 0.23927651345729828, -0.8615857362747192, -1.0495009422302246, 0.05425474792718887, 0.4765957535787569, -0.298224174171537, 4.073200943129104, 9362.0, 30146.0, 35388.0, 9362.0, 8.350414276123047, 0.16439491510391235, -0.041103992611169815, -0.09791463613510132, -0.0733117163181305, -0.010814903303980827, 1.0282577276229858, -0.08495645970106125, -0.09335899353027344, 1.48828125, 1.41796875, 0.05950927734375, 1.4970703125
55831, 0.008668358437716961, -0.0099171819165349, -0.03102114424109459, -0.00030150386737659574, -0.00032276520505547523, 0.10952494293451309, -0.00033972127130255103, -0.0007137374486774206, 0.24198375642299652, -0.861592173576355, -1.0495012998580933, 0.0542556568980217, 0.48078881732264145, -0.2883281168962242, 4.0707661161022894, 9362.0, 30146.0, 35388.0, 9362.0, 8.350414276123047, -0.008170769549906254, 0.14016766846179962, -0.5549760460853577, -0.0733117163181305, -0.010814903303980827, 1.0282577276229858, -0.08495645970106125, -0.09335899353027344, 1.48828125, 1.484619140625, 0.1656646728515625, 1.4970703125
55841, 0.008975495584309101, -0.009989041835069656, -0.03346063569188118, -0.00030150386737659574, -0.00032276520505547523, 0.10952494293451309, -0.00033972127130255103, -0.0007137374486774206, 0.24198375642299652, -0.8615893721580505, -1.049500584602356, 0.05427882447838783, 0.47872846193362784, -0.2899705513584081, 4.071707148891701, 9362.0, 30146.0, 35388.0, 9362.0, 8.350414276123047, 0.08628144860267639, -0.2000543624162674, -0.04513939470052719, -0.07480452954769135, -0.008333154022693634, 1.0252721309661865, -0.08495645970106125, -0.09335899353027344, 1.48828125, 1.386474609375, 0.028656005859375, 1.4970703125
55851, 0.008551031351089478, -0.009217667393386364, -0.03439376503229141, -0.00030794888152740896, -0.0003373479994479567, 0.114418625831604, -0.00030476998654194176, -0.0007447757525369525, 0.24726498126983643, -0.8615884780883789, -1.049499750137329, 0.0542626716196537, 0.47688625861799144, -0.2951626910517575, 4.073111332903238, 9362.0, 30146.0, 35388.0, 9362.0, 8.350414276123047, -0.07507901638746262, 0.050797320902347565, -0.03609122335910797, -0.07371505349874496, -0.010029966942965984, 1.0271676778793335, -0.08495645970106125, -0.09335899353027344, 1.48828125, 1.386474609375, 0.028656005859375, 1.4970703125
55861, 0.008178474381566048, -0.011423677206039429, -0.033209286630153656, -0.0003109156677965075, -0.00034487093216739595, 0.11690405756235123, -0.0002884869754780084, -0.0007597912917844951, 0.24982191622257233, -0.8616071939468384, -1.0494909286499023, 0.05424568057060242, 0.4778123102479425, -0.29183441957638934, 4.073814681825537, 9362.0, 30146.0, 35388.0, 9362.0, 8.350414276123047, -0.024584511294960976, 0.1180540919303894, -0.05291678383946419, -0.07142742723226547, -0.009836588986217976, 1.029402494430542, -0.08495645970106125, -0.09335899353027344, 1.48828125, 1.386474609375, 0.028656005859375, 1.500732421875
55871, 0.007968236692249775, -0.012219692580401897, -0.03165239840745926, -0.0003109156677965075, -0.00034487093216739595, 0.11690405756235123, -0.0002884869754780084, -0.0007597912917844951, 0.24982191622257233, -0.8615878224372864, -1.0494821071624756, 0.054249536246061325, 0.4768594251059828, -0.2884036057255628, 4.0685941420561464, 9362.0, 30146.0, 35388.0, 9362.0, 8.350414276123047, -0.07005787640810013, 0.05536190792918205, 0.01480600330978632, -0.07330461591482162, -0.009924307465553284, 1.0273377895355225, -0.08495645970106125, -0.09335899353027344, 1.48828125, 1.386474609375, 0.028656005859375, 1.500732421875
55881, 0.007960138842463493, -0.014914345927536488, -0.029312679544091225, -0.0003162758075632155, -0.00036035312223248184, 0.12195666134357452, -0.0002466879668645561, -0.0007882417994551361, 0.25544989109039307, -0.8615862131118774, -1.0494862794876099, 0.05426403135061264, 0.4739804163685058, -0.29246526102465964, 4.071622181898824, 9362.0, 30146.0, 35388.0, 9362.0, 8.350414276123047, -0.02334420010447502, -0.24502457678318024, -0.04764600843191147, -0.07453960180282593, -0.008959774859249592, 1.0268049240112305, -0.08495645970106125, -0.09335899353027344, 1.48828125, 1.4208984375, 0.063079833984375, 1.500732421875
55891, 0.006782956887036562, -0.012098360806703568, -0.028954098001122475, -0.0003162758075632155, -0.00036035312223248184, 0.12195666134357452, -0.0002466879668645561, -0.0007882417994551361, 0.25544989109039307, -0.8615946769714355, -1.0494951009750366, 0.054262321442365646, 0.47445476658445945, -0.29175626229488216, 4.0769406267970405, 9362.0, 30146.0, 35388.0, 9362.0, 8.350414276123047, 0.02241675555706024, 0.0038114048074930906, 0.09305965155363083, -0.07552887499332428, -0.010311996564269066, 1.0277146100997925, -0.08495645970106125, -0.09335899353027344, 1.48828125, 1.37109375, 0.0197906494140625, 1.500732421875
55901, 0.0069133564829826355, -0.010816527530550957, -0.028388045728206635, -0.0003162758075632155, -0.00036035312223248184, 0.12195666134357452, -0.0002466879668645561, -0.0007882417994551361, 0.25544989109039307, -0.8615981936454773, -1.0494861602783203, 0.0542650930583477, 0.4744451664549239, -0.29264912987909497, 4.074450063746552, 9362.0, 30146.0, 35388.0, 9362.0, 8.350414276123047, 0.18464615941047668, -0.025400789454579353, 0.15559148788452148, -0.0759553387761116, -0.009069202467799187, 1.027518630027771, -0.08495645970106125, -0.09335899353027344, 1.48828125, 1.3564453125, 0.0156707763671875, 1.500732421875
55911, 0.007972830906510353, -0.010388461872935295, -0.028019675984978676, -0.0003226100525353104, -0.00038458954077214, 0.12973962724208832, -0.0001803800550987944, -0.0008263690979219973, 0.2634935677051544, -0.8616043329238892, -1.0494916439056396, 0.05429386720061302, 0.4814913277392901, -0.27606725200718074, 4.080338514651352, 9362.0, 30146.0, 35388.0, 9362.0, 8.350414276123047, 0.008950615301728249, 0.012312452308833599, -0.055467139929533005, -0.07660097628831863, -0.00930010061711073, 1.026473879814148, -0.08495645970106125, -0.09335899353027344, 1.48828125, 1.3564453125, 0.0156707763671875, 1.500732421875
55921, 0.006535911466926336, -0.010110368020832539, -0.028940007090568542, -0.00032432255102321506, -0.0003929233644157648, 0.13238777220249176, -0.0001621343253646046, -0.000840330496430397, 0.266134649515152, -0.8615853190422058, -1.0494849681854248, 0.054259009659290314, 0.47962531378440487, -0.2860373395425597, 4.069901930785767, 9362.0, 30146.0, 35388.0, 9362.0, 8.350414276123047, -0.1312551647424698, 0.07313337922096252, 0.19461719691753387, -0.07491518557071686, -0.007268412970006466, 1.026526689529419, -0.08495645970106125, -0.09335899353027344, 1.48828125, 1.3564453125, 0.0156707763671875, 1.4970703125
55941, 0.006599485874176025, -0.01405959203839302, -0.0277060866355896, -0.0003258550423197448, -0.0004013841680716723, 0.13506226241588593, -0.00014428194845095277, -0.0008518067770637572, 0.26876282691955566, -0.8615843057632446, -1.0494959354400635, 0.05429220199584961, 0.4781265856767481, -0.29909018154214095, 4.077238982916095, 9362.0, 30146.0, 35388.0, 9362.0, 8.350414276123047, -0.008119793608784676, -0.12188959121704102, 0.08926346898078918, -0.07784856855869293, -0.010694892145693302, 1.0283955335617065, -0.07079984992742538, -0.021678924560546875, 1.494140625, 1.3564453125, 0.0156707763671875, 1.4970703125
55951, 0.005798917263746262, -0.015775419771671295, -0.02607845701277256, -0.00032830145210027695, -0.000418638315750286, 0.1404910832643509, -9.838041296461597e-05, -0.0008740659686736763, 0.27419793605804443, -0.8615812063217163, -1.0494928359985352, 0.05427826941013336, 0.48093960878058645, -0.3001067619782418, 4.077079822371206, 9362.0, 30146.0, 35388.0, 9362.0, 8.350414276123047, -0.07386759668588638, -0.02843039110302925, 0.016471905633807182, -0.07622351497411728, -0.009043226018548012, 1.027888298034668, -0.07079984992742538, -0.021678924560546875, 1.494140625, 1.3564453125, 0.0156707763671875, 1.4970703125
55991, 0.0072198715060949326, -0.014610979706048965, -0.030355196446180344, -0.00033005053410306573, -0.00045442362898029387, 0.1516745686531067, 1.1549835107871331e-05, -0.0009161610505543649, 0.28483936190605164, -0.8615738749504089, -1.0494993925094604, 0.05426424369215965, 0.49147697866695345, -0.299826200727523, 4.079543118577756, 9362.0, 30146.0, 35388.0, 9362.0, 8.350414276123047, -0.10038235038518906, 0.10667631030082703, 0.23283348977565765, -0.07574205100536346, -0.008314847946166992, 1.0278986692428589, -0.07079984992742538, -0.021678924560546875, 1.494140625, 1.398193359375, 0.03826904296875, 1.49853515625
56001, 0.006705733481794596, -0.014466309919953346, -0.0306282639503479, -0.0003298065275885165, -0.00046364881563931704, 0.15453656017780304, 3.724619818967767e-05, -0.0009288548026233912, 0.2875591814517975, -0.8615699410438538, -1.0494927167892456, 0.05426257848739624, 0.4881368181784976, -0.3035309597495939, 4.070493495655323, 9362.0, 30146.0, 35388.0, 9362.0, 8.350414276123047, 0.11294015496969223, -0.011435682885348797, -0.013310108333826065, -0.0746585801243782, -0.007973454892635345, 1.0263783931732178, -0.07079984992742538, -0.021678924560546875, 1.494140625, 1.398193359375, 0.03826904296875, 1.49853515625
56011, 0.007841560058295727, -0.015596190467476845, -0.030225206166505814, -0.0003293068439234048, -0.0004729964130092412, 0.157425656914711, 6.274420593399554e-05, -0.0009407193283550441, 0.2902619540691376, -0.8615772724151611, -1.0494937896728516, 0.05427367985248566, 0.4851124398537701, -0.3078349629511479, 4.074949391097344, 9362.0, 30146.0, 35388.0, 9362.0, 8.350414276123047, -0.013841407373547554, 0.11791346967220306, -0.24813485145568848, -0.07491152733564377, -0.008805975317955017, 1.0262134075164795, -0.07079984992742538, -0.021678924560546875, 1.494140625, 1.435546875, 0.0829315185546875, 1.49853515625
56021, 0.008815634995698929, -0.015497751533985138, -0.03268076851963997, -0.0003293068439234048, -0.0004729964130092412, 0.157425656914711, 6.274420593399554e-05, -0.0009407193283550441, 0.2902619540691376, -0.8615676164627075, -1.0495061874389648, 0.05427667498588562, 0.4862567706171384, -0.30521564555019154, 4.076054638571779, 9362.0, 30146.0, 35388.0, 9362.0, 8.350414276123047, 0.02790069207549095, -0.15960875153541565, 0.16803798079490662, -0.07556459307670593, -0.009676594287157059, 1.0274335145950317, -0.07079984992742538, -0.021678924560546875, 1.494140625, 1.40478515625, 0.0446624755859375, 1.49853515625
56041, 0.009398825466632843, -0.014774658717215061, -0.031767264008522034, -0.0003293068439234048, -0.0004729964130092412, 0.157425656914711, 6.274420593399554e-05, -0.0009407193283550441, 0.2902619540691376, -0.8615800142288208, -1.0495009422302246, 0.05426699295639992, 0.48717362472946096, -0.30401866670112554, 4.072900477679158, 9362.0, 30146.0, 35388.0, 9362.0, 8.350414276123047, -0.009998394176363945, -0.35322025418281555, -0.1316143423318863, -0.07538621872663498, -0.007785412948578596, 1.0280499458312988, -0.07079984992742538, -0.021678924560546875, 1.494140625, 1.40478515625, 0.0446624755859375, 1.49853515625
56061, 0.007986195385456085, -0.009085281752049923, -0.03354473412036896, -0.0003228521964047104, -0.0005219292943365872, 0.1722656935453415, 0.00018974048725795, -0.001018941286019981, 0.3035004436969757, -0.861580491065979, -1.049489974975586, 0.05427810922265053, 0.4845630669466221, -0.29491170514356213, 4.075537026843728, 9362.0, 30146.0, 35388.0, 9362.0, 8.350414276123047, -0.1990746110677719, 0.29447683691978455, 0.002920381259173155, -0.07715966552495956, -0.007707932032644749, 1.0267179012298584, -0.07079984992742538, -0.021678924560546875, 1.494140625, 1.39306640625, 0.0337982177734375, 1.49853515625
56071, 0.007401737850159407, -0.0119737284258008, -0.03286924958229065, -0.0003228521964047104, -0.0005219292943365872, 0.1722656935453415, 0.00018974048725795, -0.001018941286019981, 0.3035004436969757, -0.8615909218788147, -1.049491286277771, 0.05428534373641014, 0.4817154378361627, -0.29130936723996115, 4.070055371970399, 9362.0, 30146.0, 35388.0, 9362.0, 8.350414276123047, 0.07484517991542816, -0.18643996119499207, 0.02408156543970108, -0.07478679716587067, -0.007418992463499308, 1.0255070924758911, -0.07079984992742538, -0.021678924560546875, 1.494140625, 1.464111328125, 0.1283111572265625, 1.49853515625
56081, 0.008298385888338089, -0.01287000346928835, -0.03324303776025772, -0.0003228521964047104, -0.0005219292943365872, 0.1722656935453415, 0.00018974048725795, -0.001018941286019981, 0.3035004436969757, -0.8615982532501221, -1.049491286277771, 0.0542900413274765, 0.48063066893526685, -0.2936890246189421, 4.073877672338685, 9362.0, 30146.0, 35388.0, 9362.0, 8.350414276123047, -0.30439621210098267, -0.023727063089609146, 0.13099515438079834, -0.07739148288965225, -0.00917567778378725, 1.0257351398468018, -0.07079984992742538, -0.021678924560546875, 1.494140625, 1.338134765625, 0.01727294921875, 1.49853515625
