timeTick, roll, pitch, yaw, stateX, stateY, stateZ, stateVX, stateVY, stateVZ, otX0, otY0, otZ0, otRoll0, otPitch0, otYaw0, left wing, pitch motor, yaw motor, right wing, voltage, roll rate, pitch rate, yaw rate, A_x, A_y, A_z, current, i_raw, v_raw, airflow_voltage, airflow_speed, pot_Pitch
66010, 2.911405086517334, -6.647191524505615, -2.8830411434173584, 0, 0, 0, 0, 0, 0, -0.8612193465232849, -1.0591667890548706, 0.05362662300467491, -0.4416090082467576, -0.7088568326991265, -1.6041101355732326, 0, 0, 0, 0, 0, 0, 0, 0, 0, 0, 0, 0, 0, 0, 0, 0, 0
66020, 2.911827325820923, -6.646649360656738, -2.8819403648376465, -0.004542768932878971, 0.0022757304832339287, -67.9540023803711, -0.21610142290592194, 0.10825947672128677, -2.0958664417266846, -0.8612326383590698, -1.059165120124817, 0.053615741431713104, -0.4508487149593182, -0.7085089363595785, -1.6032778620543904, 9362.0, 30146.0, 35388.0, 9362.0, 0, -0.0600128248333931, 0.07431387901306152, 0.18824395537376404, -0.08411747217178345, -0.02811070904135704, 0.9969042539596558, 0, 0, 0, 0, 0, 0
66030, 2.910460948944092, -6.648106098175049, -2.881007194519043, -0.00664854422211647, 0.003330661915242672, -67.97496795654297, -0.20505355298519135, 0.10272703319787979, -2.0968990325927734, -0.8612364530563354, -1.0591720342636108, 0.05363074690103531, -0.4511414226950907, -0.7088542109953551, -1.6019477361271446, 9362.0, 30146.0, 35388.0, 9362.0, 0, -0.003709798911586404, 0.46588125824928284, 0.22045962512493134, -0.08437015116214752, -0.02848091907799244, 0.9973000884056091, 0, 0, 0, 1.509521484375, 0.2148895263671875, 0
66040, 2.9101977348327637, -6.650440216064453, -2.8782355785369873, -0.008643881417810917, 0.004330284893512726, -67.99594116210938, -0.1940138190984726, 0.0971977561712265, -2.0979957580566406, -0.8612262606620789, -1.059165120124817, 0.05366754159331322, -0.4482141294037359, -0.709261994270463, -1.6022554723414182, 9362.0, 30146.0, 35388.0, 9362.0, 0, 0.17635467648506165, 0.18943925201892853, 0.09505584090948105, -0.08151217550039291, -0.027224361896514893, 0.9960560202598572, 0, 0, 0, 1.341064453125, 0.01654052734375, 1.493408203125
66050, 2.9116156101226807, -6.651662349700928, -2.878676652908325, -0.010528786107897758, 0.005274615716189146, -68.01692962646484, -0.18296676874160767, 0.09166896343231201, -2.099053144454956, -0.8612276911735535, -1.0591717958450317, 0.05364139378070831, -0.44952904377310093, -0.710722448435888, -1.6006342983016408, 9362.0, 30146.0, 35388.0, 9362.0, 0, -0.06863155961036682, 0.41080936789512634, -0.06175345927476883, -0.07902248203754425, -0.029997289180755615, 0.9978071451187134, 0, 0, 0, 1.222412109375, 0.269989013671875, 1.493408203125
66060, 2.9121077060699463, -6.652788162231445, -2.8783388137817383, -0.012303240597248077, 0.006163683719933033, -68.03792572021484, -0.17192420363426208, 0.08614452183246613, -2.1001851558685303, -0.8612197637557983, -1.0591672658920288, 0.053599901497364044, -0.4491524873544278, -0.7149939839515582, -1.6002100746687689, 9362.0, 30146.0, 35388.0, 9362.0, 0, 0.17357251048088074, -0.04657710716128349, -0.027259526774287224, -0.07871846854686737, -0.030599281191825867, 0.9956269264221191, 0, 0, 0, 1.023193359375, 2.494110107421875, 1.494873046875
66070, 2.912226438522339, -6.651943206787109, -2.877617120742798, -0.013967222534120083, 0.006997475866228342, -68.05892944335938, -0.16087225079536438, 0.08061395585536957, -2.101252555847168, -0.8612299561500549, -1.0591672658920288, 0.053632721304893494, -0.44838903599842694, -0.6966133852262715, -1.6016766568846004, 9362.0, 30146.0, 35388.0, 9362.0, 0, -0.13634754717350006, -0.4015134274959564, -0.02801992930471897, -0.08056390285491943, -0.029210755601525307, 0.9967731237411499, 0, 0, 0, 1.156494140625, 0.685272216796875, 1.494873046875
66080, 2.912397861480713, -6.650626182556152, -2.8779358863830566, -0.015520747750997543, 0.0077759940177202225, -68.07994842529297, -0.14983274042606354, 0.07508977502584457, -2.1024458408355713, -0.8612276315689087, -1.05917489528656, 0.05367930233478546, -0.4451733025982258, -0.709364470793588, -1.5990158964536219, 9362.0, 30146.0, 35388.0, 9362.0, 0, 0.04561738297343254, -0.09881381690502167, -0.0562831275165081, -0.0821896493434906, -0.02771851420402527, 0.998039960861206, 0, 0, 0, 1.144775390625, 0.786865234375, 1.4970703125
66090, 2.912663459777832, -6.650582790374756, -2.8790507316589355, -0.01696380414068699, 0.00849923025816679, -68.1009750366211, -0.1387786716222763, 0.06955739855766296, -2.103498697280884, -0.861217737197876, -1.0591645240783691, 0.0536189079284668, -0.4453635419964193, -0.7075502297228411, -1.596290085493405, 9362.0, 30146.0, 35388.0, 9362.0, 0, -0.17548654973506927, 0.16347438097000122, -0.007028911728411913, -0.08270817250013351, -0.026220981031656265, 0.9972510933876038, 0, 0, 0, 1.604736328125, 0.428436279296875, 1.4970703125
66100, 2.91335129737854, -6.650123119354248, -2.8780791759490967, -0.018296310678124428, 0.009167131036520004, -68.12201690673828, -0.12772288918495178, 0.06402257084846497, -2.104515314102173, -0.8612688779830933, -1.059191107749939, 0.05368543788790703, -0.45557515163481854, -0.7209956725828306, -1.5996012722807404, 9362.0, 30146.0, 35388.0, 9362.0, 0, 0.11684537678956985, -0.22675499320030212, -0.09822488576173782, -0.080414779484272, -0.025825288146734238, 0.9966292381286621, 0, 0, 0, 1.282470703125, 0.0786590576171875, 1.48828125
66110, 2.91451358795166, -6.651668071746826, -2.877063035964966, -0.019518306478857994, 0.009779702872037888, -68.14306640625, -0.1166762188076973, 0.05849204584956169, -2.105612277984619, -0.861255943775177, -1.0591989755630493, 0.05362260714173317, -0.45358626252246537, -0.7157566989613144, -1.6001399791306414, 9362.0, 30146.0, 35388.0, 9362.0, 8.290909767150879, 0.05500097572803497, 0.3479953110218048, 0.31948980689048767, -0.08237210661172867, -0.025295063853263855, 0.9966670274734497, -0.10170801728963852, -0.05751800537109375, 1.4912109375, 1.579833984375, 0.369873046875, 1.48828125
66120, 2.9159085750579834, -6.654191970825195, -2.8762998580932617, -0.020629839971661568, 0.010336965322494507, -68.16413116455078, -0.10563047975301743, 0.052960675209760666, -2.106710910797119, -0.8612545132637024, -1.0591809749603271, 0.05367651209235191, -0.4557529747711001, -0.7144805583616005, -1.6025826785227413, 9362.0, 30146.0, 35388.0, 9362.0, 8.290909767150879, 0.23538069427013397, 0.1876928061246872, -0.12172133475542068, -0.08239881694316864, -0.029195699840784073, 0.9967948794364929, -0.10170801728963852, -0.05751800537109375, 1.4912109375, 1.3154296875, 0.03118896484375, 1.496337890625
66130, 2.9172167778015137, -6.655231952667236, -2.8765149116516113, -0.02163093537092209, 0.010838921181857586, -68.1852035522461, -0.09458880126476288, 0.04743063449859619, -2.107867956161499, -0.8612496852874756, -1.0591826438903809, 0.05365832895040512, -0.45926052971293707, -0.7118133169220471, -1.6062598998312831, 9362.0, 30146.0, 35388.0, 9362.0, 8.290909767150879, 0.04637126252055168, -0.044838208705186844, 0.1556675285100937, -0.08227283507585526, -0.02815314382314682, 0.9952126741409302, -0.10170801728963852, -0.05751800537109375, 1.4912109375, 1.44873046875, 0.102813720703125, 1.496337890625
66140, 2.9174692630767822, -6.658685207366943, -2.8744425773620605, -0.022521575912833214, 0.011285554617643356, -68.20629119873047, -0.0835392028093338, 0.04189608618617058, -2.108992099761963, -0.8612536191940308, -1.059190273284912, 0.05365243926644325, -0.4565767052922457, -0.7081346936328146, -1.6030308065728196, 9362.0, 30146.0, 35388.0, 9362.0, 8.290909767150879, 0.11767130345106125, 0.5507218837738037, -0.004904149100184441, -0.08038196712732315, -0.029097046703100204, 0.9948071241378784, -0.10170801728963852, -0.05751800537109375, 1.4912109375, 1.4443359375, 0.0959930419921875, 1.49560546875
66150, 2.9177486896514893, -6.662116050720215, -2.8755569458007812, -0.023301810026168823, 0.011676880531013012, -68.22738647460938, -0.07250751554965973, 0.036369483917951584, -2.1102898120880127, -0.8612571358680725, -1.0591926574707031, 0.05365447327494621, -0.4601421313998092, -0.7136664052426056, -1.6092491688671147, 9362.0, 30146.0, 35388.0, 9362.0, 8.290909767150879, 0.2078845500946045, 0.23204131424427032, 0.028932679444551468, -0.08265044540166855, -0.02964869700372219, 0.9947235584259033, -0.10170801728963852, -0.05751800537109375, 1.4912109375, 1.58056640625, 0.3715972900390625, 1.49560546875
66160, 2.9186627864837646, -6.664289474487305, -2.875077962875366, -0.023971688002347946, 0.012012934312224388, -68.24849700927734, -0.06146816536784172, 0.030840974301099777, -2.1115713119506836, -0.8613015413284302, -1.0592293739318848, 0.05365952104330063, -0.4472329501260466, -0.7079495584371216, -1.5645685372576077, 9362.0, 30146.0, 35388.0, 9362.0, 8.290909767150879, 0.0052480557933449745, 0.27397486567497253, 0.04613662511110306, -0.0819951742887497, -0.029841938987374306, 0.9954825043678284, -0.10170801728963852, -0.05751800537109375, 1.4912109375, 1.1162109375, 1.075439453125, 1.48974609375
66170, 2.9187703132629395, -6.665576934814453, -2.875767707824707, -0.02453114278614521, 0.012293697334825993, -68.26962280273438, -0.05042271316051483, 0.025311633944511414, -2.1128504276275635, -0.861285388469696, -1.0591974258422852, 0.053666260093450546, -0.45129020103861267, -0.7277263776067855, -1.5612898857533253, 9362.0, 30146.0, 35388.0, 9362.0, 8.290909767150879, 0.012335587292909622, 0.2921486794948578, 0.03536107763648033, -0.08002489805221558, -0.030694816261529922, 0.9963833093643188, -0.10170801728963852, -0.05751800537109375, 1.4912109375, 1.5703125, 0.34783935546875, 1.48974609375
66180, 2.9183154106140137, -6.665467739105225, -2.875706911087036, -0.0249800942838192, 0.012519142590463161, -68.29075622558594, -0.03936760500073433, 0.019777372479438782, -2.1140763759613037, -0.8612880706787109, -1.0592031478881836, 0.053696971386671066, -0.45282218176610933, -0.7238386859273476, -1.5650527711773428, 9362.0, 30146.0, 35388.0, 9362.0, 8.290909767150879, 0.019357994198799133, -0.1783229410648346, 0.24652931094169617, -0.08141902834177017, -0.028998753055930138, 0.99702388048172, -0.10170801728963852, -0.05751800537109375, 1.4912109375, 1.566650390625, 0.3395233154296875, 1.494140625
66190, 2.919006586074829, -6.66688871383667, -2.8758533000946045, -0.025318391621112823, 0.012689197435975075, -68.31190490722656, -0.028291722759604454, 0.014233553782105446, -2.115139961242676, -0.8612889647483826, -1.059211015701294, 0.05367854982614517, -0.46113564427420506, -0.7165657830223893, -1.5666666343700024, 9362.0, 30146.0, 35388.0, 9362.0, 8.290909767150879, 0.04656318202614784, 0.15689805150032043, -0.12562969326972961, -0.08210141211748123, -0.028378507122397423, 0.9975865483283997, -0.10170801728963852, -0.05751800537109375, 1.4912109375, 1.450927734375, 0.1063690185546875, 1.494140625
66200, 2.918818235397339, -6.667123794555664, -2.8756139278411865, -0.025545930489897728, 0.012803818099200726, -68.33306121826172, -0.01721610315144062, 0.008690482936799526, -2.116203784942627, -0.8612733483314514, -1.0592087507247925, 0.05364150181412697, -0.45352645793617236, -0.7327058880074446, -1.5608303291515429, 9362.0, 30146.0, 35388.0, 9362.0, 8.290909767150879, 0.1755843460559845, 0.05738600343465805, 0.055217333137989044, -0.0820673480629921, -0.028572047129273415, 0.9969107508659363, -0.10170801728963852, -0.05751800537109375, 1.4912109375, 1.13525390625, 0.8764495849609375, 1.4912109375
66210, 2.9189677238464355, -6.667054653167725, -2.8748741149902344, -0.025662686675786972, 0.012862994335591793, -68.3542251586914, -0.006135229486972094, 0.0031447834335267544, -2.117243528366089, -0.8612930774688721, -1.0592066049575806, 0.053687967360019684, -0.4566501817868671, -0.7294408219017896, -1.5652719848417025, 9362.0, 30146.0, 35388.0, 9362.0, 8.290909767150879, -0.018243014812469482, -0.1462721824645996, 0.12861354649066925, -0.08228538930416107, -0.027302362024784088, 0.9973666071891785, -0.0898841917514801, -0.11127853393554688, 1.48681640625, 1.499267578125, 0.1941070556640625, 1.4912109375
66220, 2.920320749282837, -6.669215202331543, -2.8728437423706055, -0.025668637827038765, 0.012866717763245106, -68.37540435791016, 0.004945078399032354, -0.00239998078905046, -2.1182920932769775, -0.8612829446792603, -1.0592180490493774, 0.053664736449718475, -0.45559656828148404, -0.7219054870772084, -1.5599347397947028, 9362.0, 30146.0, 35388.0, 9362.0, 8.290909767150879, 0.04785503074526787, -0.024842478334903717, -0.05130256712436676, -0.08047454804182053, -0.027325212955474854, 0.9978565573692322, -0.0898841917514801, -0.11127853393554688, 1.48681640625, 0.873779296875, 6.885955810546875, 1.49267578125
66230, 2.919198751449585, -6.667454719543457, -2.87508225440979, -0.025563780218362808, 0.012814990244805813, -68.39659118652344, 0.01602649688720703, -0.007945151999592781, -2.119331121444702, -0.8612753748893738, -1.0592058897018433, 0.0536818690598011, -0.4565812201884613, -0.7231096867599831, -1.5670551747016754, 9362.0, 30146.0, 35388.0, 9362.0, 8.290909767150879, -0.007971497252583504, -0.14833909273147583, -0.011312845163047314, -0.08153906464576721, -0.02820707857608795, 0.9986748099327087, -0.0898841917514801, -0.11127853393554688, 1.48681640625, 1.63916015625, 0.51190185546875, 1.49267578125
66240, 2.9191386699676514, -6.667934894561768, -2.8750083446502686, -0.025348056107759476, 0.012707782909274101, -68.41778564453125, 0.027118323370814323, -0.01349673792719841, -2.1203086376190186, -0.8613130450248718, -1.0592315196990967, 0.05370098724961281, -0.4429521081703251, -0.7063512999700947, -1.5654850131699345, 9362.0, 30146.0, 35388.0, 9362.0, 8.290909767150879, 0.04821743816137314, 0.011207392439246178, -0.0574810653924942, -0.08091168850660324, -0.029585326090455055, 0.998051106929779, -0.0898841917514801, -0.11127853393554688, 1.48681640625, 1.535888671875, 0.2707366943359375, 1.496337890625
66250, 2.9188902378082275, -6.668968200683594, -2.875535249710083, -0.0250213872641325, 0.012545047327876091, -68.43899536132812, 0.038215577602386475, -0.01905043050646782, -2.121213436126709, -0.8612892627716064, -1.0592052936553955, 0.053667519241571426, -0.45532682543019365, -0.7337333793002756, -1.5564483795471904, 9362.0, 30146.0, 35388.0, 9362.0, 8.290909767150879, -0.14328157901763916, 0.043331656605005264, -0.052260927855968475, -0.08016644418239594, -0.02803163044154644, 0.9971738457679749, -0.0898841917514801, -0.11127853393554688, 1.48681640625, 1.52490234375, 0.247039794921875, 1.496337890625
66260, 2.918607234954834, -6.670000076293945, -2.877387523651123, -0.024583835154771805, 0.012326821684837341, -68.46021270751953, 0.04929496347904205, -0.024594813585281372, -2.122281789779663, -0.861282467842102, -1.0592073202133179, 0.05369515344500542, -0.4550052016444902, -0.7218511439473616, -1.5582542432802884, 9362.0, 30146.0, 35388.0, 9362.0, 8.290909767150879, -0.15222510695457458, 0.1640525609254837, -0.33202633261680603, -0.08303166925907135, -0.029118182137608528, 0.9979332685470581, -0.0898841917514801, -0.11127853393554688, 1.48681640625, 1.2509765625, 0.1600799560546875, 1.490478515625
66270, 2.918572425842285, -6.669907569885254, -2.8777105808258057, -0.024035442620515823, 0.01205313391983509, -68.48143768310547, 0.060383498668670654, -0.030143041163682938, -2.123283624649048, -0.8612942695617676, -1.0592039823532104, 0.053671326488256454, -0.45109479524883184, -0.7280152780103037, -1.5524210774310807, 9362.0, 30146.0, 35388.0, 9362.0, 8.290909767150879, 0.07375941425561905, -0.29134508967399597, -0.06121782213449478, -0.08004020899534225, -0.02988896146416664, 0.9969255924224854, -0.0898841917514801, -0.11127853393554688, 1.48681640625, 1.16015625, 0.6554412841796875, 1.490478515625
66280, 2.919640302658081, -6.6682000160217285, -2.878648281097412, -0.02337617240846157, 0.011723972856998444, -68.50267791748047, 0.07147040963172913, -0.035689231008291245, -2.1243155002593994, -0.8612971901893616, -1.0592013597488403, 0.053686488419771194, -0.4570669702278976, -0.7232355961505164, -1.562662324743884, 9362.0, 30146.0, 35388.0, 9362.0, 8.290909767150879, -0.1948058307170868, -0.45385104417800903, -0.1378893107175827, -0.08313825726509094, -0.031082822009921074, 0.995021641254425, -0.0898841917514801, -0.11127853393554688, 1.48681640625, 1.17041015625, 0.5762939453125, 1.48974609375
66290, 2.9188380241394043, -6.669166088104248, -2.8780980110168457, -0.022606104612350464, 0.011339385062456131, -68.52392578125, 0.08254300057888031, -0.04122847318649292, -2.1254703998565674, -0.8612984418869019, -1.0592119693756104, 0.05365026742219925, -0.4544698943543317, -0.7268341418064779, -1.5602641497668304, 9362.0, 30146.0, 35388.0, 9362.0, 8.290909767150879, 0.19645828008651733, 0.2793876528739929, -0.13333415985107422, -0.08275945484638214, -0.0301967840641737, 0.9967069625854492, -0.0898841917514801, -0.11127853393554688, 1.48681640625, 1.494873046875, 0.185455322265625, 1.48974609375
66300, 2.9195289611816406, -6.670149326324463, -2.877310037612915, -0.021725382655858994, 0.010899423621594906, -68.5451889038086, 0.09360143542289734, -0.046763692051172256, -2.126722812652588, -0.8612751364707947, -1.059199333190918, 0.05370998755097389, -0.45244073275122987, -0.718112335451309, -1.566179672724662, 9362.0, 30146.0, 35388.0, 9362.0, 8.290909767150879, -0.12073793262243271, 0.1740378439426422, -0.13180212676525116, -0.08304402232170105, -0.029791641980409622, 0.9988207221031189, -0.0898841917514801, -0.11127853393554688, 1.48681640625, 1.565185546875, 0.336090087890625, 1.49267578125
66310, 2.9193928241729736, -6.670743942260742, -2.8766863346099854, -0.020733943209052086, 0.010404055006802082, -68.56645965576172, 0.1046864241361618, -0.052309878170490265, -2.1277589797973633, -0.8612931370735168, -1.0592113733291626, 0.05365380644798279, -0.45705368011775505, -0.7327952412450998, -1.5562375726526423, 9362.0, 30146.0, 35388.0, 9362.0, 8.290909767150879, 0.19852574169635773, -0.05755964666604996, -0.023742027580738068, -0.08128061890602112, -0.02792428433895111, 0.9957895874977112, -0.18949101865291595, -0.07543754577636719, 1.48974609375, 1.478759765625, 0.1546478271484375, 1.49267578125
66320, 2.9218924045562744, -6.667481422424316, -2.8769466876983643, -0.019631613045930862, 0.009853202849626541, -68.5877456665039, 0.1157795861363411, -0.05786045268177986, -2.1287384033203125, -0.861280620098114, -1.0591974258422852, 0.0536889024078846, -0.4534883563069242, -0.7246065889472959, -1.5641665417133466, 9362.0, 30146.0, 35388.0, 9362.0, 8.290909767150879, 0.15188655257225037, -0.1893739104270935, 0.2877154052257538, -0.08170821517705917, -0.028635695576667786, 0.9978116154670715, -0.18949101865291595, -0.07543754577636719, 1.48974609375, 0.958740234375, 4.014251708984375, 1.494873046875
66330, 2.9222233295440674, -6.666021823883057, -2.8771755695343018, -0.018418464809656143, 0.009246906265616417, -68.60903930664062, 0.12685008347034454, -0.06339903920888901, -2.129925012588501, -0.8612989783287048, -1.0592048168182373, 0.053663596510887146, -0.4554149393111158, -0.7283598153671846, -1.5524511114065207, 9362.0, 30146.0, 35388.0, 9362.0, 8.290909767150879, 0.058827489614486694, -0.2676458954811096, -0.17877647280693054, -0.08312388509511948, -0.03110431879758835, 0.9957826137542725, -0.18949101865291595, -0.07543754577636719, 1.48974609375, 1.342529296875, 0.0161895751953125, 1.494873046875
66340, 2.9223060607910156, -6.664917945861816, -2.8767149448394775, -0.01709456741809845, 0.008585166186094284, -68.63034057617188, 0.13792943954467773, -0.06894897669553757, -2.1309831142425537, -0.8612879514694214, -1.0592048168182373, 0.05367480218410492, -0.45725315033296327, -0.7238798940128675, -1.5626628471880557, 9362.0, 30146.0, 35388.0, 9362.0, 8.290909767150879, -0.05606015399098396, 0.020420191809535027, 0.28271836042404175, -0.08200062066316605, -0.02761819213628769, 0.9956098198890686, -0.18949101865291595, -0.07543754577636719, 1.48974609375, 1.137451171875, 0.8552398681640625, 1.48974609375
66350, 2.923734426498413, -6.665314674377441, -2.8763480186462402, -0.015659963712096214, 0.007867962121963501, -68.65165710449219, 0.14899148046970367, -0.07449181377887726, -2.1321709156036377, -0.8612903952598572, -1.0591992139816284, 0.05363805964589119, -0.44828293098070543, -0.727207117735901, -1.5638650989256517, 9362.0, 30146.0, 35388.0, 9362.0, 8.290909767150879, 0.1809363067150116, -0.03129008412361145, -0.17946121096611023, -0.08208591490983963, -0.029055176302790642, 0.9974217414855957, -0.18949101865291595, -0.07543754577636719, 1.48974609375, 1.58349609375, 0.3784332275390625, 1.48974609375
66360, 2.9233953952789307, -6.6650214195251465, -2.878021001815796, -0.01411474496126175, 0.007095328066498041, -68.67298126220703, 0.16005222499370575, -0.08003492653369904, -2.1333537101745605, -0.8612859845161438, -1.0592013597488403, 0.05368322879076004, -0.45416470744483994, -0.7232993661074829, -1.5580171182765457, 9362.0, 30146.0, 35388.0, 9362.0, 8.290909767150879, -0.14313091337680817, 0.15554571151733398, -0.07863492518663406, -0.08185558766126633, -0.029602311551570892, 0.9979221224784851, -0.18949101865291595, -0.07543754577636719, 1.48974609375, 1.55419921875, 0.311279296875, 1.49267578125
66370, 2.9227957725524902, -6.667304039001465, -2.878829002380371, -0.012458804063498974, 0.006267194636166096, -68.69432067871094, 0.1711358278989792, -0.0855921059846878, -2.1343395709991455, -0.8612748980522156, -1.0592067241668701, 0.05366510897874832, -0.4580002348857958, -0.7271055004523532, -1.5558922467556113, 9362.0, 30146.0, 35388.0, 9362.0, 8.290909767150879, -0.1645870804786682, 0.3340493440628052, -0.07170814275741577, -0.08063876628875732, -0.03027510829269886, 0.9965686202049255, -0.18949101865291595, -0.07543754577636719, 1.48974609375, 1.464111328125, 0.1283111572265625, 1.49267578125
66380, 2.9229187965393066, -6.6700592041015625, -2.880126476287842, -0.010692094452679157, 0.005383523181080818, -68.71566772460938, 0.18220603466033936, -0.09114237874746323, -2.1354384422302246, -0.8612781763076782, -1.059200644493103, 0.05366111546754837, -0.45334510975143255, -0.7191764162813286, -1.5735259572436395, 9362.0, 30146.0, 35388.0, 9362.0, 8.290909767150879, 0.10056174546480179, 0.16320091485977173, -0.06465408951044083, -0.08221424371004105, -0.028124595060944557, 0.9951354265213013, -0.18949101865291595, -0.07543754577636719, 1.48974609375, 1.572509765625, 0.3528594970703125, 1.48974609375
66390, 2.9231395721435547, -6.669721603393555, -2.882314443588257, -0.00881468877196312, 0.004444364458322525, -68.73703002929688, 0.19327491521835327, -0.09668952226638794, -2.136582612991333, -0.8612849712371826, -1.0592093467712402, 0.05368880182504654, -0.46118014126746343, -0.7217777940753649, -1.5619268292067456, 9362.0, 30146.0, 35388.0, 9362.0, 8.290909767150879, -0.07470209896564484, 0.3251051902770996, 0.07260004431009293, -0.08231790363788605, -0.028154317289590836, 0.9976097941398621, -0.18949101865291595, -0.07543754577636719, 1.48974609375, 1.51611328125, 0.2286224365234375, 1.48974609375
66400, 2.9231648445129395, -6.66928243637085, -2.880739450454712, -0.006826600059866905, 0.00344974547624588, -68.7583999633789, 0.20434249937534332, -0.10223464667797089, -2.1377766132354736, -0.8612802624702454, -1.059195637702942, 0.053644660860300064, -0.4543149296480806, -0.7236948685337836, -1.5546176190057974, 9362.0, 30146.0, 35388.0, 9362.0, 8.290909767150879, 0.012659924104809761, 0.1826731264591217, 0.16205894947052002, -0.0807008296251297, -0.027474014088511467, 0.9987875819206238, -0.18949101865291595, -0.07543754577636719, 1.48974609375, 1.58203125, 0.37493896484375, 1.49267578125
66410, 2.9230616092681885, -6.671323776245117, -2.8799352645874023, -0.0047276923432946205, 0.002399597316980362, -68.77978515625, 0.2154393345117569, -0.10779470950365067, -2.138711452484131, -0.8612887859344482, -1.059203028678894, 0.05368298292160034, -0.45428930728458405, -0.7295640796252201, -1.5608008246286504, 9362.0, 30146.0, 35388.0, 9362.0, 8.290909767150879, -0.054173875600099564, 0.3697698712348938, 0.13457579910755157, -0.08055589348077774, -0.026389317587018013, 0.9968060255050659, -0.11345645785331726, -0.08439826965332031, 1.489013671875, 0.90966796875, 5.5386810302734375, 1.49267578125
66420, 2.9231481552124023, -6.6738362312316895, -2.8785197734832764, -0.002517836866900325, 0.0012938589788973331, -68.80117797851562, 0.22653186321258545, -0.11335278302431107, -2.1396777629852295, -0.8612755537033081, -1.0591986179351807, 0.053647175431251526, -0.45492757207561124, -0.7240611095389227, -1.5635169838348137, 9362.0, 30146.0, 35388.0, 9362.0, 8.290909767150879, 0.032617028802633286, 0.028873739764094353, -0.012072754092514515, -0.08000586181879044, -0.028098367154598236, 0.9936609864234924, -0.11345645785331726, -0.08439826965332031, 1.489013671875, 1.489013671875, 0.174041748046875, 1.491943359375
66430, 2.922696590423584, -6.671541690826416, -2.8781628608703613, -0.00019720359705388546, 0.00013262347783893347, -68.82257843017578, 0.23759491741657257, -0.11889404058456421, -2.1409332752227783, -0.8612830638885498, -1.0592048168182373, 0.05367659032344818, -0.45832793046308323, -0.7208298310368377, -1.5588422287330872, 9362.0, 30146.0, 35388.0, 9362.0, 8.290909767150879, 0.09798828512430191, -0.43420228362083435, 0.32510918378829956, -0.0809241235256195, -0.02912755124270916, 0.9978539943695068, -0.11345645785331726, -0.08439826965332031, 1.489013671875, 1.528564453125, 0.2548828125, 1.491943359375
66440, 2.9239470958709717, -6.670011520385742, -2.8766958713531494, 0.002234061248600483, -0.0010840145405381918, -68.843994140625, 0.24865823984146118, -0.1244335025548935, -2.142226219177246, -0.8612791299819946, -1.0592002868652344, 0.05365431681275368, -0.4556021612544035, -0.7261471900729077, -1.5695277257402611, 9362.0, 30146.0, 35388.0, 9362.0, 8.290909767150879, 0.06369379162788391, -0.09578623622655869, 0.08771399408578873, -0.08252318948507309, -0.028492355719208717, 0.9976513385772705, -0.11345645785331726, -0.08439826965332031, 1.489013671875, 1.549072265625, 0.2998809814453125, 1.49267578125
66450, 2.9236724376678467, -6.671708583831787, -2.875037670135498, 0.004776115529239178, -0.0023561296984553337, -68.86542510986328, 0.2597528100013733, -0.12998931109905243, -2.1432111263275146, -0.861276388168335, -1.0592070817947388, 0.0536399744451046, -0.4585440970447404, -0.7269365730272739, -1.5632019917086215, 9362.0, 30146.0, 35388.0, 9362.0, 8.290909767150879, -0.07466328889131546, -0.012859196402132511, 0.12806059420108795, -0.08303820341825485, -0.029430624097585678, 0.9985713958740234, -0.11345645785331726, -0.08439826965332031, 1.489013671875, 1.3623046875, 0.0167999267578125, 1.49267578125
66460, 2.9238600730895996, -6.6720685958862305, -2.8749725818634033, 0.007429106160998344, -0.003683812916278839, -68.8868637084961, 0.27084535360336304, -0.13554702699184418, -2.1441915035247803, -0.8612737059593201, -1.059203863143921, 0.05368751287460327, -0.4565310921729063, -0.7194338386397021, -1.5554811612370472, 9362.0, 30146.0, 35388.0, 9362.0, 8.290909767150879, 0.07222911715507507, 0.3251485526561737, 0.3908369541168213, -0.08196686208248138, -0.029027286916971207, 0.9961643815040588, -0.11345645785331726, -0.08439826965332031, 1.489013671875, 1.1484375, 0.754119873046875, 1.490478515625
66470, 2.9233710765838623, -6.674678325653076, -2.8714709281921387, 0.010193011723458767, -0.005067057441920042, -68.90830993652344, 0.2819356918334961, -0.14110183715820312, -2.145217180252075, -0.8612752556800842, -1.0592000484466553, 0.053655922412872314, -0.4572198725914704, -0.7287557797549198, -1.5660348489613594, 9362.0, 30146.0, 35388.0, 9362.0, 8.290909767150879, 0.1110253632068634, 0.35204172134399414, 0.08254359662532806, -0.08345254510641098, -0.028758946806192398, 0.9967553019523621, -0.11345645785331726, -0.08439826965332031, 1.489013671875, 1.505859375, 0.2073974609375, 1.490478515625
66480, 2.923417091369629, -6.676027297973633, -2.8701093196868896, 0.013067738153040409, -0.0065058087930083275, -68.92977142333984, 0.29300981760025024, -0.14664773643016815, -2.146392822265625, -0.8612722754478455, -1.0591981410980225, 0.0536624975502491, -0.455355757970665, -0.724424271305594, -1.5629569581435543, 9362.0, 30146.0, 35388.0, 9362.0, 8.290909767150879, -0.14848415553569794, 0.30070531368255615, 0.4005366265773773, -0.08124922215938568, -0.02921065129339695, 0.9968341588973999, -0.11345645785331726, -0.08439826965332031, 1.489013671875, 1.564453125, 0.3344879150390625, 1.494873046875
66490, 2.9235782623291016, -6.67593240737915, -2.8694558143615723, 0.013067738153040409, -0.0065058087930083275, -68.92977142333984, 0.29300981760025024, -0.14664773643016815, -2.146392822265625, -0.8612812757492065, -1.0592023134231567, 0.053665779531002045, -0.4546537736760341, -0.7268482130811833, -1.5627879579201498, 9362.0, 30146.0, 35388.0, 9362.0, 8.290909767150879, -0.2458876520395279, -0.21858534216880798, 0.01862257346510887, -0.08124922215938568, -0.02921065129339695, 0.9968341588973999, -0.11345645785331726, -0.08439826965332031, 1.489013671875, 1.564453125, 0.3344879150390625, 1.494873046875
66500, 2.923905372619629, -6.675146579742432, -2.8689820766448975, 0.013067738153040409, -0.0065058087930083275, -68.92977142333984, 0.29300981760025024, -0.14664773643016815, -2.146392822265625, -0.8612744808197021, -1.0591939687728882, 0.053677286952733994, -0.4518023940051253, -0.7293426527182021, -1.5583804610112064, 9362.0, 30146.0, 35388.0, 9362.0, 8.290909767150879, 0.22327309846878052, -0.19931523501873016, -0.16732275485992432, -0.08124922215938568, -0.02921065129339695, 0.9968341588973999, -0.11345645785331726, -0.08439826965332031, 1.489013671875, 1.564453125, 0.3344879150390625, 1.494873046875
66510, 2.923950672149658, -6.676342964172363, -2.8687498569488525, 0.013067738153040409, -0.0065058087930083275, -68.92977142333984, 0.29300981760025024, -0.14664773643016815, -2.146392822265625, -0.8612680435180664, -1.0592117309570312, 0.05366990342736244, -0.4527046474793891, -0.7283181623252517, -1.5648020712611885, 9362.0, 30146.0, 35388.0, 9362.0, 8.290909767150879, 0.22327309846878052, -0.19931523501873016, -0.16732275485992432, -0.08156576752662659, -0.029691649600863457, 0.9943894743919373, -0.11345645785331726, -0.08439826965332031, 1.489013671875, 1.564453125, 0.3344879150390625, 1.494873046875
66520, 2.9236807823181152, -6.676012992858887, -2.8688600063323975, 0.013067738153040409, -0.0065058087930083275, -68.92977142333984, 0.29300981760025024, -0.14664773643016815, -2.146392822265625, -0.8612759113311768, -1.0592052936553955, 0.05366929620504379, -0.45680269246890887, -0.72887289926976, -1.5684318475599492, 9362.0, 30146.0, 35388.0, 9362.0, 8.290909767150879, -0.12372943758964539, -0.04153155907988548, -0.09492261707782745, -0.08028588443994522, -0.030011305585503578, 0.9983499646186829, -0.11345645785331726, -0.08439826965332031, 1.489013671875, 1.564453125, 0.3344879150390625, 1.494873046875
66530, 2.9242937564849854, -6.674857139587402, -2.8700389862060547, 0.02910349890589714, -0.014531485736370087, -69.0372314453125, 0.3484027087688446, -0.17437025904655457, -2.1523547172546387, -0.8612760901451111, -1.0592032670974731, 0.05366871878504753, -0.4546972475396422, -0.7190594992078161, -1.5636610483330249, 9362.0, 30146.0, 35388.0, 9362.0, 8.290909767150879, -0.0419030487537384, 0.23714390397071838, 0.07633720338344574, -0.08029092103242874, -0.028463367372751236, 0.9978770613670349, -0.11345645785331726, -0.08439826965332031, 1.489013671875, 1.564453125, 0.3344879150390625, 1.494873046875
66540, 2.924821376800537, -6.676645755767822, -2.868929147720337, 0.02910349890589714, -0.014531485736370087, -69.0372314453125, 0.3484027087688446, -0.17437025904655457, -2.1523547172546387, -0.8612664937973022, -1.0591930150985718, 0.05367537960410118, -0.4521940681033111, -0.7207150108195322, -1.5663902065745892, 9362.0, 30146.0, 35388.0, 9362.0, 8.290909767150879, -0.05821123346686363, -0.11074890941381454, 0.12708383798599243, -0.08080960810184479, -0.029573610052466393, 0.9989401698112488, -0.11345645785331726, -0.08439826965332031, 1.489013671875, 1.564453125, 0.3344879150390625, 1.494873046875
66550, 2.9249069690704346, -6.6787824630737305, -2.869793653488159, 0.02910349890589714, -0.014531485736370087, -69.0372314453125, 0.3484027087688446, -0.17437025904655457, -2.1523547172546387, -0.8612821698188782, -1.0592037439346313, 0.05366413667798042, -0.45508734236462023, -0.724543130564939, -1.5623995448696557, 9362.0, 30146.0, 35388.0, 9362.0, 8.290909767150879, -0.011155527085065842, 0.03799082338809967, -0.33694037795066833, -0.08170267194509506, -0.02728739194571972, 0.9979152083396912, -0.11345645785331726, -0.08439826965332031, 1.489013671875, 1.564453125, 0.3344879150390625, 1.494873046875
66560, 2.9261858463287354, -6.681553840637207, -2.8701279163360596, 0.02910349890589714, -0.014531485736370087, -69.0372314453125, 0.3484027087688446, -0.17437025904655457, -2.1523547172546387, -0.861286997795105, -1.0591998100280762, 0.05367374047636986, -0.4541710842579685, -0.7268403516188187, -1.5658897393292561, 9362.0, 30146.0, 35388.0, 9362.0, 8.290909767150879, 0.13856610655784607, 0.18196606636047363, 0.25207287073135376, -0.07978452742099762, -0.027861297130584717, 0.9975307583808899, -0.11345645785331726, -0.08439826965332031, 1.489013671875, 1.564453125, 0.3344879150390625, 1.494873046875
66570, 2.927309036254883, -6.679703235626221, -2.8698649406433105, 0.02910349890589714, -0.014531485736370087, -69.0372314453125, 0.3484027087688446, -0.17437025904655457, -2.1523547172546387, -0.8612772822380066, -1.0591962337493896, 0.05366915464401245, -0.4552730242859495, -0.7325478338194955, -1.5606144698946076, 9362.0, 30146.0, 35388.0, 9362.0, 8.290909767150879, 0.13856610655784607, 0.18196606636047363, 0.25207287073135376, -0.08044208586215973, -0.0285190399736166, 0.9949177503585815, -0.11345645785331726, -0.08439826965332031, 1.489013671875, 1.564453125, 0.3344879150390625, 1.494873046875
66590, 2.9261252880096436, -6.675737380981445, -2.8716063499450684, 0.05200625956058502, -0.025994084775447845, -69.16655731201172, 0.4149921238422394, -0.20770315825939178, -2.1586713790893555, -0.8612775206565857, -1.0591952800750732, 0.053686078637838364, -0.45443549352975193, -0.7253106590265475, -1.5639659805490054, 9362.0, 30146.0, 35388.0, 9362.0, 8.290909767150879, 0.1091819703578949, -0.2424461990594864, -0.12570954859256744, -0.0809408500790596, -0.028697697445750237, 0.9961017966270447, -0.11345645785331726, -0.08439826965332031, 1.489013671875, 1.564453125, 0.3344879150390625, 1.494873046875
66620, 2.926588296890259, -6.673558712005615, -2.8735530376434326, 0.05200625956058502, -0.025994084775447845, -69.16655731201172, 0.4149921238422394, -0.20770315825939178, -2.1586713790893555, -0.8612794280052185, -1.0592025518417358, 0.053681630641222, -0.4543507075000077, -0.7218546315174592, -1.56020629615476, 9362.0, 30146.0, 35388.0, 9362.0, 8.290909767150879, -0.040702834725379944, -0.05918871611356735, -0.10423830896615982, -0.07944230735301971, -0.027411604300141335, 0.9960203766822815, -0.08580826222896576, 0.014162063598632812, 1.4970703125, 1.564453125, 0.3344879150390625, 1.494873046875
66630, 2.926088333129883, -6.672438621520996, -2.8730950355529785, 0.05200625956058502, -0.025994084775447845, -69.16655731201172, 0.4149921238422394, -0.20770315825939178, -2.1586713790893555, -0.8612762093544006, -1.059186577796936, 0.053690675646066666, -0.45297635401177366, -0.7272361825447717, -1.5585395877220505, 9362.0, 30146.0, 35388.0, 9362.0, 8.290909767150879, 0.044928740710020065, 0.16855689883232117, 0.16003474593162537, -0.08016733825206757, -0.030446743592619896, 0.9967783689498901, -0.08580826222896576, 0.014162063598632812, 1.4970703125, 1.564453125, 0.3344879150390625, 1.494873046875
66640, 2.9257113933563232, -6.675636291503906, -2.8716390132904053, 0.05200625956058502, -0.025994084775447845, -69.16655731201172, 0.4149921238422394, -0.20770315825939178, -2.1586713790893555, -0.8612646460533142, -1.0592018365859985, 0.05368787795305252, -0.4570839570677193, -0.7230287204216097, -1.5596067204655564, 9362.0, 30146.0, 35388.0, 9362.0, 8.290909767150879, -0.03948964923620224, 0.05305558815598488, 0.28004154562950134, -0.0820460170507431, -0.02766890451312065, 0.99809730052948, -0.08580826222896576, 0.014162063598632812, 1.4970703125, 1.564453125, 0.3344879150390625, 1.494873046875
66660, 2.92610239982605, -6.677680015563965, -2.869086742401123, 0.05200625956058502, -0.025994084775447845, -69.16655731201172, 0.4149921238422394, -0.20770315825939178, -2.1586713790893555, -0.8612926602363586, -1.0591906309127808, 0.053679194301366806, -0.4612181253477433, -0.7195019609943927, -1.5602917705806456, 9362.0, 30146.0, 35388.0, 9362.0, 8.290909767150879, 0.13973180949687958, 0.16121628880500793, 0.1846788376569748, -0.08148396015167236, -0.02921614795923233, 0.997584342956543, -0.08580826222896576, 0.014162063598632812, 1.4970703125, 1.564453125, 0.3344879150390625, 1.490478515625
66670, 2.92602801322937, -6.679537296295166, -2.868647813796997, 0.05200625956058502, -0.025994084775447845, -69.16655731201172, 0.4149921238422394, -0.20770315825939178, -2.1586713790893555, -0.8612806797027588, -1.0591915845870972, 0.05368652939796448, -0.45741653635715485, -0.7193562222123546, -1.5638749843429534, 9362.0, 30146.0, 35388.0, 9362.0, 8.290909767150879, -0.035886555910110474, 0.11564942449331284, 0.07345693558454514, -0.08148396015167236, -0.02921614795923233, 0.997584342956543, -0.08580826222896576, 0.014162063598632812, 1.4970703125, 1.099365234375, 1.27490234375, 1.490478515625
66680, 2.9258904457092285, -6.6794610023498535, -2.8662633895874023, 0.05200625956058502, -0.025994084775447845, -69.16655731201172, 0.4149921238422394, -0.20770315825939178, -2.1586713790893555, -0.8612667918205261, -1.059202790260315, 0.053688596934080124, -0.4529662341536561, -0.7208833812420892, -1.5596381563004162, 9362.0, 30146.0, 35388.0, 9362.0, 8.290909767150879, 0.10427626222372055, -0.39600303769111633, -0.14448009431362152, -0.08315761387348175, -0.02809200994670391, 0.9957588315010071, -0.08580826222896576, 0.014162063598632812, 1.4970703125, 1.099365234375, 1.27490234375, 1.490478515625
66690, 2.925668716430664, -6.67788028717041, -2.865431785583496, 0.05200625956058502, -0.025994084775447845, -69.16655731201172, 0.4149921238422394, -0.20770315825939178, -2.1586713790893555, -0.8612778782844543, -1.0592044591903687, 0.053692806512117386, -0.45409704973556037, -0.7290447144479515, -1.558607330862272, 9362.0, 30146.0, 35388.0, 9362.0, 8.290909767150879, 0.10427626222372055, -0.39600303769111633, -0.14448009431362152, -0.08166982978582382, -0.029117245227098465, 0.9966568946838379, -0.08580826222896576, 0.014162063598632812, 1.4970703125, 1.099365234375, 1.27490234375, 1.490478515625
66720, 2.9253246784210205, -6.681407451629639, -2.864772319793701, 0.10978574305772781, -0.054916564375162125, -69.42640686035156, 0.5480335354804993, -0.2743395268917084, -2.1721513271331787, -0.8612809777259827, -1.0592041015625, 0.053684432059526443, -0.45525439776932086, -0.7271119271467228, -1.5497518594264996, 9362.0, 30146.0, 35388.0, 9362.0, 8.290909767150879, -0.0778704509139061, -0.025314340367913246, 0.023808464407920837, -0.08223079890012741, -0.02751779928803444, 0.9946372509002686, -0.08580826222896576, 0.014162063598632812, 1.4970703125, 1.099365234375, 1.27490234375, 1.49267578125
66730, 2.92488956451416, -6.683183670043945, -2.8643484115600586, 0.10978574305772781, -0.054916564375162125, -69.42640686035156, 0.5480335354804993, -0.2743395268917084, -2.1721513271331787, -0.8612700700759888, -1.0592029094696045, 0.05368517339229584, -0.45454807896783855, -0.7304199457969673, -1.5599512277153926, 9362.0, 30146.0, 35388.0, 9362.0, 8.290909767150879, -0.15472492575645447, 0.19868798553943634, 0.2066662460565567, -0.08223079890012741, -0.02751779928803444, 0.9946372509002686, -0.08580826222896576, 0.014162063598632812, 1.4970703125, 1.099365234375, 1.27490234375, 1.49267578125
66740, 2.924631357192993, -6.682947635650635, -2.863945245742798, 0.10978574305772781, -0.054916564375162125, -69.42640686035156, 0.5480335354804993, -0.2743395268917084, -2.1721513271331787, -0.8612626791000366, -1.059199333190918, 0.0536850281059742, -0.4548459248917707, -0.7229908182553402, -1.567557284214585, 9362.0, 30146.0, 35388.0, 9362.0, 8.290909767150879, -0.15472492575645447, 0.19868798553943634, 0.2066662460565567, -0.08057500422000885, -0.027255907654762268, 0.9966779947280884, -0.08580826222896576, 0.014162063598632812, 1.4970703125, 1.099365234375, 1.27490234375, 1.49267578125
66750, 2.9243788719177246, -6.685245037078857, -2.863112688064575, 0.10978574305772781, -0.054916564375162125, -69.42640686035156, 0.5480335354804993, -0.2743395268917084, -2.1721513271331787, -0.8612756133079529, -1.0591999292373657, 0.05369047820568085, -0.4541539675175077, -0.7230456734246218, -1.5584136627889946, 9362.0, 30146.0, 35388.0, 9362.0, 8.290909767150879, -0.025462547317147255, 0.4692157208919525, 0.1153937354683876, -0.08231143653392792, -0.026942964643239975, 0.9943767189979553, -0.08580826222896576, 0.014162063598632812, 1.4970703125, 1.099365234375, 1.27490234375, 1.49267578125
66770, 2.925915241241455, -6.688065052032471, -2.8611881732940674, 0.14466561377048492, -0.07237637042999268, -69.55693054199219, 0.6146048903465271, -0.3076336085796356, -2.1790266036987305, -0.8612695336341858, -1.059202790260315, 0.05369812995195389, -0.453025096606395, -0.7187532108535208, -1.5571011433268525, 9362.0, 30146.0, 35388.0, 9362.0, 8.290909767150879, 0.08192790299654007, 0.10008693486452103, 0.2756732404232025, -0.08186055719852448, -0.029024653136730194, 0.9946144819259644, -0.08580826222896576, 0.014162063598632812, 1.4970703125, 1.099365234375, 1.27490234375, 1.49267578125
66780, 2.9266037940979004, -6.692185878753662, -2.8599298000335693, 0.14466561377048492, -0.07237637042999268, -69.55693054199219, 0.6146048903465271, -0.3076336085796356, -2.1790266036987305, -0.861276388168335, -1.0591994524002075, 0.053693946450948715, -0.4520897057588168, -0.7269819729772848, -1.5604064287097534, 9362.0, 30146.0, 35388.0, 9362.0, 8.290909767150879, 0.07937490940093994, 0.3909602463245392, -0.08536777645349503, -0.08186055719852448, -0.029024653136730194, 0.9946144819259644, -0.08580826222896576, 0.014162063598632812, 1.4970703125, 1.099365234375, 1.27490234375, 1.49267578125
66790, 2.925905704498291, -6.69351863861084, -2.860059976577759, 0.14466561377048492, -0.07237637042999268, -69.55693054199219, 0.6146048903465271, -0.3076336085796356, -2.1790266036987305, -0.8612793684005737, -1.059200644493103, 0.0536910817027092, -0.4538108282180211, -0.72748066741093, -1.5651872256164854, 9362.0, 30146.0, 35388.0, 9362.0, 8.290909767150879, 0.07937490940093994, 0.3909602463245392, -0.08536777645349503, -0.08090928196907043, -0.028008785098791122, 0.996056854724884, -0.08580826222896576, 0.014162063598632812, 1.4970703125, 1.099365234375, 1.27490234375, 1.49267578125
66800, 2.9252941608428955, -6.6936564445495605, -2.858097791671753, 0.14466561377048492, -0.07237637042999268, -69.55693054199219, 0.6146048903465271, -0.3076336085796356, -2.1790266036987305, -0.8612645268440247, -1.0592023134231567, 0.053678520023822784, -0.45688306953746316, -0.7270667232000676, -1.558011441775852, 9362.0, 30146.0, 35388.0, 9362.0, 8.290909767150879, 0.11214541643857956, 0.1885509341955185, 0.08110666275024414, -0.08123978227376938, -0.028342600911855698, 0.9961704015731812, -0.08580826222896576, 0.014162063598632812, 1.4970703125, 1.099365234375, 1.27490234375, 1.49267578125
66830, 2.92484974861145, -6.690330505371094, -2.8593289852142334, 0.14466561377048492, -0.07237637042999268, -69.55693054199219, 0.6146048903465271, -0.3076336085796356, -2.1790266036987305, -0.8612730503082275, -1.0592057704925537, 0.05367868021130562, -0.4599496293795404, -0.7175349808418616, -1.5504786489564104, 9362.0, 30146.0, 35388.0, 9362.0, 8.290909767150879, 0.23780077695846558, -0.15427468717098236, -0.11548252403736115, -0.08067627996206284, -0.028725242242217064, 0.9960452318191528, -0.08580826222896576, 0.014162063598632812, 1.4970703125, 1.099365234375, 1.27490234375, 1.496337890625
66840, 2.9258017539978027, -6.689746379852295, -2.859365463256836, 0.14466561377048492, -0.07237637042999268, -69.55693054199219, 0.6146048903465271, -0.3076336085796356, -2.1790266036987305, -0.8612787127494812, -1.0592046976089478, 0.0536901094019413, -0.4557163818996694, -0.7295831005769173, -1.5639117881225728, 9362.0, 30146.0, 35388.0, 9362.0, 8.290909767150879, 0.12127531319856644, -0.026791313663125038, 0.15326306223869324, -0.08067627996206284, -0.028725242242217064, 0.9960452318191528, -0.08580826222896576, 0.014162063598632812, 1.4970703125, 1.0546875, 1.9222412109375, 1.496337890625
66850, 2.924880266189575, -6.689719200134277, -2.8587989807128906, 0.19879750907421112, -0.09946770966053009, -69.73601531982422, 0.705716609954834, -0.35313794016838074, -2.1884493827819824, -0.8612653613090515, -1.0591949224472046, 0.053668711334466934, -0.45788199246091976, -0.7222048065765989, -1.5620621367551257, 9362.0, 30146.0, 35388.0, 9362.0, 8.290909767150879, -0.07635851204395294, -0.2183917909860611, -0.12745270133018494, -0.0820586085319519, -0.026144061237573624, 0.9982950687408447, -0.08580826222896576, 0.014162063598632812, 1.4970703125, 1.0546875, 1.9222412109375, 1.496337890625
66860, 2.9260823726654053, -6.694842338562012, -2.858630895614624, 0.19879750907421112, -0.09946770966053009, -69.73601531982422, 0.705716609954834, -0.35313794016838074, -2.1884493827819824, -0.8612753748893738, -1.0592005252838135, 0.05367828905582428, -0.45495588384210245, -0.7236662686351565, -1.5628154562447085, 9362.0, 30146.0, 35388.0, 9362.0, 8.290909767150879, 0.09910327941179276, 0.5401687026023865, -0.08324353396892548, -0.08308541774749756, -0.026524832472205162, 0.9959136843681335, -0.08580826222896576, 0.014162063598632812, 1.4970703125, 1.0546875, 1.9222412109375, 1.496337890625
66870, 2.9253010749816895, -6.697788715362549, -2.8581767082214355, 0.19879750907421112, -0.09946770966053009, -69.73601531982422, 0.705716609954834, -0.35313794016838074, -2.1884493827819824, -0.8612795472145081, -1.0592010021209717, 0.05368875712156296, -0.4537974288090411, -0.7263817716977314, -1.5614133216324853, 9362.0, 30146.0, 35388.0, 9362.0, 8.290909767150879, 0.2184533178806305, 0.3916466534137726, -0.003945877775549889, -0.08200286328792572, -0.02830132469534874, 0.9991828203201294, -0.08580826222896576, 0.014162063598632812, 1.4970703125, 1.0546875, 1.9222412109375, 1.496337890625
66880, 2.92745041847229, -6.701389312744141, -2.8582265377044678, 0.19879750907421112, -0.09946770966053009, -69.73601531982422, 0.705716609954834, -0.35313794016838074, -2.1884493827819824, -0.8612731695175171, -1.0592049360275269, 0.05368935689330101, -0.4553843963097343, -0.7253057980817061, -1.5613494850202614, 9362.0, 30146.0, 35388.0, 9362.0, 8.290909767150879, 0.14878833293914795, 0.014635888859629631, -0.2632545232772827, -0.08098404854536057, -0.029916876927018166, 0.9982020854949951, -0.08580826222896576, 0.014162063598632812, 1.4970703125, 1.0546875, 1.9222412109375, 1.496337890625
66890, 2.9272522926330566, -6.7020416259765625, -2.857677459716797, 0.19879750907421112, -0.09946770966053009, -69.73601531982422, 0.705716609954834, -0.35313794016838074, -2.1884493827819824, -0.8612854480743408, -1.0591949224472046, 0.05368213728070259, -0.45156369566987586, -0.7301565277566908, -1.5546140637354395, 9362.0, 30146.0, 35388.0, 9362.0, 8.290909767150879, -0.00625841086730361, -0.08123167604207993, -0.03374001756310463, -0.08088892698287964, -0.028580404818058014, 0.9963488578796387, -0.08580826222896576, 0.014162063598632812, 1.4970703125, 1.0546875, 1.9222412109375, 1.496337890625
66900, 2.927156448364258, -6.702948570251465, -2.8591082096099854, 0.19879750907421112, -0.09946770966053009, -69.73601531982422, 0.705716609954834, -0.35313794016838074, -2.1884493827819824, -0.8612861037254333, -1.059199333190918, 0.05368749797344208, -0.45442165697693354, -0.7253645171209371, -1.5604756301699827, 9362.0, 30146.0, 35388.0, 9362.0, 8.290909767150879, -0.10819161683320999, -0.036031123250722885, -0.047541212290525436, -0.0794564038515091, -0.02846386656165123, 0.9952120780944824, -0.08580826222896576, 0.014162063598632812, 1.4970703125, 1.317626953125, 0.0291900634765625, 1.496337890625
66910, 2.927401304244995, -6.704348564147949, -2.85603404045105, 0.19879750907421112, -0.09946770966053009, -69.73601531982422, 0.705716609954834, -0.35313794016838074, -2.1884493827819824, -0.8612856268882751, -1.0591949224472046, 0.053700607270002365, -0.45627292137181463, -0.7212653849104242, -1.5629827736303796, 9362.0, 30146.0, 35388.0, 9362.0, 8.290909767150879, -0.10819161683320999, -0.036031123250722885, -0.047541212290525436, -0.08125001192092896, -0.029602110385894775, 0.9971725344657898, -0.08580826222896576, 0.014162063598632812, 1.4970703125, 1.32275390625, 0.0251312255859375, 1.496337890625
66940, 2.9257307052612305, -6.704403400421143, -2.857050657272339, 0.2588167190551758, -0.12949714064598083, -69.91141510009766, 0.7947785258293152, -0.39759188890457153, -2.196924924850464, -0.86127769947052, -1.0592023134231567, 0.053681161254644394, -0.45315103034927934, -0.732375635715016, -1.5553565145315096, 9362.0, 30146.0, 35388.0, 9362.0, 8.290909767150879, -0.08315391838550568, -0.2052653729915619, -0.27632761001586914, -0.08262207359075546, -0.027232863008975983, 0.9956076741218567, -0.08580826222896576, 0.014162063598632812, 1.4970703125, 1.32275390625, 0.0251312255859375, 1.493408203125
66950, 2.924825429916382, -6.704161167144775, -2.8557653427124023, 0.2588167190551758, -0.12949714064598083, -69.91141510009766, 0.7947785258293152, -0.39759188890457153, -2.196924924850464, -0.8612781763076782, -1.0592039823532104, 0.0536867193877697, -0.45366511461987, -0.7283498083309894, -1.5644702680021407, 9362.0, 30146.0, 35388.0, 9362.0, 8.290909767150879, 0.07393423467874527, 0.017296209931373596, 0.07849832624197006, -0.08087705820798874, -0.02804356999695301, 0.9984429478645325, -0.08580826222896576, 0.014162063598632812, 1.4970703125, 1.32275390625, 0.0251312255859375, 1.493408203125
66960, 2.92484188079834, -6.704322814941406, -2.855623960494995, 0.2588167190551758, -0.12949714064598083, -69.91141510009766, 0.7947785258293152, -0.39759188890457153, -2.196924924850464, -0.8612880706787109, -1.0591919422149658, 0.053691498935222626, -0.4553711270889181, -0.7244219070477413, -1.562961992682126, 9362.0, 30146.0, 35388.0, 9362.0, 8.290909767150879, -0.27137434482574463, -0.14242154359817505, -0.058535072952508926, -0.08087705820798874, -0.02804356999695301, 0.9984429478645325, -0.08580826222896576, 0.014162063598632812, 1.4970703125, 1.02099609375, 2.53790283203125, 1.493408203125
66970, 2.923837900161743, -6.705317974090576, -2.854743480682373, 0.2588167190551758, -0.12949714064598083, -69.91141510009766, 0.7947785258293152, -0.39759188890457153, -2.196924924850464, -0.8612819314002991, -1.0592119693756104, 0.05368822067975998, -0.45041511413855073, -0.723565061711497, -1.5610553392643196, 9362.0, 30146.0, 35388.0, 9362.0, 8.290909767150879, -0.21111634373664856, 0.13433147966861725, -0.14124180376529694, -0.0798240527510643, -0.027869174256920815, 0.9968485236167908, -0.08580826222896576, 0.014162063598632812, 1.4970703125, 1.02099609375, 2.53790283203125, 1.493408203125
66980, 2.9250965118408203, -6.70487117767334, -2.8551344871520996, 0.2588167190551758, -0.12949714064598083, -69.91141510009766, 0.7947785258293152, -0.39759188890457153, -2.196924924850464, -0.8612683415412903, -1.0591999292373657, 0.05368474870920181, -0.45511406668635557, -0.7215973136822242, -1.561704158304656, 9362.0, 30146.0, 35388.0, 9362.0, 8.290909767150879, 0.30004453659057617, 0.09909427911043167, 0.30565744638442993, -0.08087238669395447, -0.026289066299796104, 0.9978637099266052, -0.08580826222896576, 0.014162063598632812, 1.4970703125, 1.02099609375, 2.53790283203125, 1.493408203125
67000, 2.925048351287842, -6.706290245056152, -2.854891061782837, 0.2588167190551758, -0.12949714064598083, -69.91141510009766, 0.7947785258293152, -0.39759188890457153, -2.196924924850464, -0.8612840175628662, -1.0591890811920166, 0.05367535352706909, -0.45661165750163035, -0.7256053945003771, -1.563821680022712, 9362.0, 30146.0, 35388.0, 9362.0, 8.290909767150879, -0.07420898973941803, 0.06996917724609375, 0.1701211780309677, -0.0823531523346901, -0.02781604789197445, 0.9962174892425537, -0.08580826222896576, 0.014162063598632812, 1.4970703125, 1.02099609375, 2.53790283203125, 1.494873046875
67020, 2.9260027408599854, -6.704195499420166, -2.854145050048828, 0.3259652256965637, -0.16308215260505676, -70.08751678466797, 0.883949875831604, -0.44203558564186096, -2.2053446769714355, -0.8612794280052185, -1.059201955795288, 0.05368160828948021, -0.4528612054076361, -0.727994133970185, -1.5510565946404458, 9362.0, 30146.0, 35388.0, 9362.0, 8.290909767150879, -0.02822067216038704, 0.07939743250608444, -0.018416794016957283, -0.08222199231386185, -0.02895466983318329, 0.9944873452186584, -0.08393870294094086, -0.06647872924804688, 1.490478515625, 1.02099609375, 2.53790283203125, 1.494873046875
67030, 2.9257683753967285, -6.705361843109131, -2.8532679080963135, 0.3259652256965637, -0.16308215260505676, -70.08751678466797, 0.883949875831604, -0.44203558564186096, -2.2053446769714355, -0.8612743616104126, -1.0591872930526733, 0.05368097871541977, -0.458672575021437, -0.7241864582689743, -1.5634257745812383, 9362.0, 30146.0, 35388.0, 9362.0, 8.290909767150879, -0.03822747990489006, 0.28400492668151855, -0.25741955637931824, -0.07996351271867752, -0.029582522809505463, 0.9967551827430725, -0.08393870294094086, -0.06647872924804688, 1.490478515625, 1.02099609375, 2.53790283203125, 1.494873046875
67040, 2.9258344173431396, -6.70723819732666, -2.853384256362915, 0.3259652256965637, -0.16308215260505676, -70.08751678466797, 0.883949875831604, -0.44203558564186096, -2.2053446769714355, -0.8612763285636902, -1.0592082738876343, 0.053679030388593674, -0.4590079819489064, -0.7298528231338537, -1.562644388954839, 9362.0, 30146.0, 35388.0, 9362.0, 8.290909767150879, 0.11832143366336823, 0.17170082032680511, 0.09879893064498901, -0.08163642883300781, -0.02919566072523594, 0.9979944229125977, -0.08393870294094086, -0.06647872924804688, 1.490478515625, 1.16162109375, 0.643707275390625, 1.494873046875
67050, 2.9251902103424072, -6.710728168487549, -2.8512678146362305, 0.3259652256965637, -0.16308215260505676, -70.08751678466797, 0.883949875831604, -0.44203558564186096, -2.2053446769714355, -0.8612743616104126, -1.0591944456100464, 0.053682584315538406, -0.4562776357949935, -0.7311180848746801, -1.5501911913683961, 9362.0, 30146.0, 35388.0, 9362.0, 8.290909767150879, -0.049867648631334305, 0.5905434489250183, 0.42506763339042664, -0.08028674125671387, -0.026485508307814598, 0.9970954656600952, -0.08393870294094086, -0.06647872924804688, 1.490478515625, 1.16162109375, 0.643707275390625, 1.494873046875
67060, 2.925015449523926, -6.7117919921875, -2.84946608543396, 0.37155452370643616, -0.18587757647037506, -70.19792938232422, 0.9396361708641052, -0.46978849172592163, -2.211055040359497, -0.861284077167511, -1.0591919422149658, 0.0536486990749836, -0.4558389997450995, -0.733213963359276, -1.564725350227851, 9362.0, 30146.0, 35388.0, 9362.0, 8.290909767150879, -0.028982575982809067, 0.08238551020622253, -0.1307414323091507, -0.08028674125671387, -0.026485508307814598, 0.9970954656600952, -0.08393870294094086, -0.06647872924804688, 1.490478515625, 1.16162109375, 0.643707275390625, 1.494873046875
67070, 2.9261105060577393, -6.711235523223877, -2.850497007369995, 0.37155452370643616, -0.18587757647037506, -70.19792938232422, 0.9396361708641052, -0.46978849172592163, -2.211055040359497, -0.8612657189369202, -1.0591872930526733, 0.053659792989492416, -0.45715426166363216, -0.7330756721698037, -1.5616745947856787, 9362.0, 30146.0, 35388.0, 9362.0, 8.290909767150879, 0.21746444702148438, -0.15543584525585175, -0.11836733669042587, -0.08304915577173233, -0.02835657447576523, 0.9960454702377319, -0.08393870294094086, -0.06647872924804688, 1.490478515625, 1.16162109375, 0.643707275390625, 1.494873046875
67080, 2.925689935684204, -6.710173606872559, -2.8499672412872314, 0.37155452370643616, -0.18587757647037506, -70.19792938232422, 0.9396361708641052, -0.46978849172592163, -2.211055040359497, -0.861267626285553, -1.0591899156570435, 0.053669773042201996, -0.45845430533359766, -0.7367593489412059, -1.5545245122584535, 9362.0, 30146.0, 35388.0, 9362.0, 8.290909767150879, -0.05116279795765877, -0.08683762699365616, 0.043679799884557724, -0.08343829959630966, -0.02894948422908783, 0.9958135485649109, -0.08393870294094086, -0.06647872924804688, 1.490478515625, 1.16162109375, 0.643707275390625, 1.494873046875
67090, 2.925440788269043, -6.708005905151367, -2.8499701023101807, 0.37155452370643616, -0.18587757647037506, -70.19792938232422, 0.9396361708641052, -0.46978849172592163, -2.211055040359497, -0.8612699508666992, -1.0591906309127808, 0.05366756021976471, -0.4580800083484561, -0.729372510619072, -1.5615255654718154, 9362.0, 30146.0, 35388.0, 9362.0, 8.290909767150879, 0.16839969158172607, -0.22597910463809967, -0.03956856206059456, -0.08229035884141922, -0.027654698118567467, 0.9968904852867126, -0.08393870294094086, -0.06647872924804688, 1.490478515625, 1.16162109375, 0.643707275390625, 1.494873046875
67100, 2.9254846572875977, -6.71106481552124, -2.8480255603790283, 0.37155452370643616, -0.18587757647037506, -70.19792938232422, 0.9396361708641052, -0.46978849172592163, -2.211055040359497, -0.8612761497497559, -1.0591942071914673, 0.05367239564657211, -0.4580450471363338, -0.7310684583112845, -1.553189695020653, 9362.0, 30146.0, 35388.0, 9362.0, 8.290909767150879, -0.17973341047763824, 0.14012902975082397, 0.07546297460794449, -0.08254624903202057, -0.024319250136613846, 0.9945582747459412, -0.08393870294094086, -0.06647872924804688, 1.490478515625, 1.0693359375, 1.6899566650390625, 1.494873046875
67120, 2.926046848297119, -6.712418079376221, -2.8457202911376953, 0.41992998123168945, -0.21006090939044952, -70.30862426757812, 0.9953665733337402, -0.4975398778915405, -2.216743230819702, -0.8612566590309143, -1.059181809425354, 0.05366213247179985, -0.4597767683574749, -0.7385963930149444, -1.5511495075201243, 9362.0, 30146.0, 35388.0, 9362.0, 8.290909767150879, 0.12776954472064972, 0.19476771354675293, 0.23586919903755188, -0.07984676957130432, -0.029533356428146362, 0.9991903305053711, -0.08200037479400635, -0.03959846496582031, 1.49267578125, 1.0693359375, 1.6899566650390625, 1.49560546875
67130, 2.9257092475891113, -6.713338851928711, -2.8445472717285156, 0.41992998123168945, -0.21006090939044952, -70.30862426757812, 0.9953665733337402, -0.4975398778915405, -2.216743230819702, -0.8612645268440247, -1.0591816902160645, 0.053655918687582016, -0.46665843060623563, -0.7333401314649279, -1.5593489329611907, 9362.0, 30146.0, 35388.0, 9362.0, 8.290909767150879, 0.09932876378297806, 0.13412493467330933, 0.023328358307480812, -0.07984676957130432, -0.029533356428146362, 0.9991903305053711, -0.08200037479400635, -0.03959846496582031, 1.49267578125, 1.0693359375, 1.6899566650390625, 1.49560546875
