timeTick, roll, pitch, yaw, stateX, stateY, stateZ, stateVX, stateVY, stateVZ, otX0, otY0, otZ0, otRoll0, otPitch0, otYaw0, left wing, pitch motor, yaw motor, right wing, voltage, roll rate, pitch rate, yaw rate, A_x, A_y, A_z, current, i_raw, v_raw, airflow_voltage, airflow_speed, pot_Pitch
46172, -0.6808480024337769, -4.147988796234131, -1.6262928247451782, 0, 0, 0, 0, 0, 0, -0.8540692329406738, -1.0449116230010986, 0.05315778777003288, -0.3854543003081559, -1.308250467158416, -2.268437133906575, 0, 0, 0, 0, 0, 0, 0, 0, 0, 0, 0, 0, 0, 0, 0, 0, 0
46182, -0.6799646019935608, -4.145020008087158, -1.6279919147491455, -0.0024583616759628057, -0.00033319112844765186, -39.88630676269531, -0.11582285910844803, -0.01569954864680767, -1.786758303642273, -0.8540728688240051, -1.0449059009552002, 0.05315171927213669, -0.3832830132180076, -1.311358593039813, -2.2663181568426087, 9362.0, 30146.0, 35388.0, 9362.0, 0, -0.03884182497859001, -0.1389542669057846, 0.06542777270078659, -0.09395462274551392, -0.026668904349207878, 0.9939385652542114, 0, 0, 0, 0, 0, 0
46192, -0.6812012195587158, -4.1452507972717285, -1.6262385845184326, -0.003581179305911064, -0.0004854011058341712, -39.904178619384766, -0.10874073207378387, -0.014742237515747547, -1.7875481843948364, -0.8540747165679932, -1.0449094772338867, 0.0531587228178978, -0.3824864210084561, -1.2989548064319365, -2.269628699287289, 9362.0, 30146.0, 35388.0, 9362.0, 0, -0.10793891549110413, 0.2542858123779297, 0.06998884677886963, -0.09170868247747421, -0.025463847443461418, 0.9965633749961853, 0, 0, 0, 1.435546875, 0.0829315185546875, 0
46202, -0.6818221211433411, -4.145851135253906, -1.627265214920044, -0.004633148200809956, -0.0006280230008997023, -39.92205810546875, -0.10165301710367203, -0.013782266527414322, -1.7882683277130127, -0.8540729880332947, -1.044905185699463, 0.053149838000535965, -0.37933851358226706, -1.3098855476987978, -2.264117062798979, 9362.0, 30146.0, 35388.0, 9362.0, 0, 0.013599063269793987, -0.06950466334819794, -0.12090849131345749, -0.09070611745119095, -0.025513067841529846, 0.9969825744628906, 0, 0, 0, 1.4443359375, 0.0959930419921875, 1.489013671875
46212, -0.6832171082496643, -4.145576000213623, -1.6251018047332764, -0.005614179186522961, -0.000761033094022423, -39.939945220947266, -0.09455317258834839, -0.012819485738873482, -1.7888352870941162, -0.8540521860122681, -1.044901728630066, 0.053116653114557266, -0.3861926731736382, -1.3114773210012913, -2.264995654799245, 9362.0, 30146.0, 35388.0, 9362.0, 0, -0.0459049791097641, 0.16406479477882385, 0.25886672735214233, -0.09155643731355667, -0.027570610865950584, 0.9954003095626831, 0, 0, 0, 1.411376953125, 0.05181884765625, 1.489013671875
46222, -0.6829440593719482, -4.146082878112793, -1.6243116855621338, -0.006524224765598774, -0.0008844035910442472, -39.95783615112305, -0.08745591342449188, -0.011854507960379124, -1.789432168006897, -0.8540573120117188, -1.0449084043502808, 0.05312325432896614, -0.39231537583519854, -1.314997860767562, -2.268157041763875, 9362.0, 30146.0, 35388.0, 9362.0, 0, -0.26794707775115967, -0.010115443728864193, -0.484142929315567, -0.0912206619977951, -0.025351742282509804, 0.9945152401924133, 0, 0, 0, 1.39599609375, 0.0362701416015625, 1.4912109375
46232, -0.6846287250518799, -4.146000385284424, -1.6254727840423584, -0.0073633696883916855, -0.0009981365874409676, -39.97573471069336, -0.08037307113409042, -0.010892253369092941, -1.7902393341064453, -0.854070246219635, -1.0449025630950928, 0.05316799134016037, -0.3857585652131864, -1.3080304145946684, -2.270461895091831, 9362.0, 30146.0, 35388.0, 9362.0, 0, -0.05274776369333267, 0.19356535375118256, -0.12454696744680405, -0.09025046229362488, -0.024871623143553734, 0.9967573285102844, 0, 0, 0, 1.408447265625, 0.0485382080078125, 1.4912109375
46242, -0.6847580671310425, -4.146367073059082, -1.6262863874435425, -0.008131626062095165, -0.0011022251565009356, -39.9936408996582, -0.07327812165021896, -0.009925559163093567, -1.7908791303634644, -0.8540604114532471, -1.044900894165039, 0.05313486233353615, -0.38143799978593873, -1.3066532163563238, -2.2621091596637197, 9362.0, 30146.0, 35388.0, 9362.0, 0, 0.03458770737051964, -0.28714901208877563, 0.18529628217220306, -0.09117811173200607, -0.02638985402882099, 0.9956285357475281, 0, 0, 0, 1.4150390625, 0.05596923828125, 1.4912109375
46252, -0.6843314170837402, -4.1456990242004395, -1.625609040260315, -0.008828945457935333, -0.0011966484598815441, -40.01155471801758, -0.06618575006723404, -0.008959013037383556, -1.7915630340576172, -0.8540741205215454, -1.0449035167694092, 0.05314944311976433, -0.3826409748024264, -1.3036578105763112, -2.2615578612118323, 9362.0, 30146.0, 35388.0, 9362.0, 0, -0.07165176421403885, -0.056929171085357666, 0.16130325198173523, -0.09004350751638412, -0.02533673122525215, 0.9966968894004822, 0, 0, 0, 1.380615234375, 0.024749755859375, 1.4912109375
46262, -0.6846287250518799, -4.145768165588379, -1.6238652467727661, -0.009455330669879913, -0.0012814071960747242, -40.02947235107422, -0.05909140780568123, -0.007992517203092575, -1.7922031879425049, -0.8540520668029785, -1.0449045896530151, 0.05311710387468338, -0.39045219403568765, -1.310075125397617, -2.2562507137754606, 9362.0, 30146.0, 35388.0, 9362.0, 0, -0.2149236649274826, -0.3874785006046295, -0.011744862422347069, -0.09020764380693436, -0.02615106850862503, 0.9946648478507996, 0, 0, 0, 1.39599609375, 0.0362701416015625, 1.48828125
46272, -0.6853062510490417, -4.143682479858398, -1.6249464750289917, -0.010010777972638607, -0.0013564981054514647, -40.04739761352539, -0.05199796333909035, -0.007025803904980421, -1.792858362197876, -0.8540524244308472, -1.0449062585830688, 0.05311009660363197, -0.3927748486437652, -1.3100462137620639, -2.261872418394775, 9362.0, 30146.0, 35388.0, 9362.0, 8.251240730285645, 0.11907872557640076, 0.1624496430158615, -0.28006651997566223, -0.09012521058320999, -0.024567056447267532, 0.9941096901893616, 0, 0, 0, 1.39599609375, 0.0362701416015625, 1.48828125
46282, -0.6852734088897705, -4.144452095031738, -1.6263278722763062, -0.010495360940694809, -0.001421923516318202, -40.065330505371094, -0.04491863399744034, -0.00605944637209177, -1.7936588525772095, -0.8540636897087097, -1.0449055433273315, 0.05316182225942612, -0.3786589195988174, -1.3090230350598517, -2.264283205835314, 9362.0, 30146.0, 35388.0, 9362.0, 8.251240730285645, -0.07407323271036148, -0.07377936691045761, -0.19112731516361237, -0.09058613330125809, -0.02442767098546028, 0.992546021938324, -0.10401957482099533, -0.19191741943359375, 1.480224609375, 1.44873046875, 0.102813720703125, 1.494140625
46292, -0.6865262985229492, -4.144897937774658, -1.6270513534545898, -0.010909199714660645, -0.0014776942552998662, -40.08327102661133, -0.03784901648759842, -0.005094786640256643, -1.7946115732192993, -0.8540564775466919, -1.0449094772338867, 0.05311127379536629, -0.3864481027286214, -1.3201229292764083, -2.2539508000881963, 9362.0, 30146.0, 35388.0, 9362.0, 8.251240730285645, 0.058921996504068375, 0.333829790353775, 0.13268737494945526, -0.08921456336975098, -0.028236322104930878, 0.9945080876350403, -0.10401957482099533, -0.19191741943359375, 1.480224609375, 1.4208984375, 0.063079833984375, 1.494140625
46302, -0.6867292523384094, -4.147031784057617, -1.6270378828048706, -0.011252323165535927, -0.0015238062478601933, -40.10122299194336, -0.030775630846619606, -0.004127600230276585, -1.795522928237915, -0.8540491461753845, -1.0449026823043823, 0.05311814695596695, -0.39215831778392124, -1.3115233386982368, -2.265180017627356, 9362.0, 30146.0, 35388.0, 9362.0, 8.251240730285645, -0.05809639394283295, 0.11373834311962128, -0.21248579025268555, -0.09060060977935791, -0.0262908935546875, 0.9978302717208862, -0.10401957482099533, -0.19191741943359375, 1.480224609375, 1.411376953125, 0.05181884765625, 1.493408203125
46312, -0.6870058178901672, -4.147497177124023, -1.6272825002670288, -0.011524570174515247, -0.0015602281782776117, -40.11918258666992, -0.02367376536130905, -0.0031568079721182585, -1.7960940599441528, -0.854033350944519, -1.0449142456054688, 0.05310273543000221, -0.39647575455757067, -1.3083159421784103, -2.2718892488175784, 9362.0, 30146.0, 35388.0, 9362.0, 8.251240730285645, -0.12076862156391144, 0.12427718937397003, -0.18396450579166412, -0.09396445751190186, -0.027328884229063988, 0.9963618516921997, -0.10401957482099533, -0.19191741943359375, 1.480224609375, 1.40625, 0.04620361328125, 1.493408203125
46322, -0.6870884895324707, -4.149660110473633, -1.6276514530181885, -0.011725774966180325, -0.0015869373455643654, -40.13714599609375, -0.01656724140048027, -0.002185085089877248, -1.7966119050979614, -0.8540516495704651, -1.044906497001648, 0.05312420427799225, -0.3912148982087352, -1.3104351426425183, -2.2664826367020687, 9362.0, 30146.0, 35388.0, 9362.0, 8.251240730285645, 0.1795983910560608, 0.2765290141105652, -0.24078534543514252, -0.09469344466924667, -0.025370968505740166, 0.9944591522216797, -0.10401957482099533, -0.19191741943359375, 1.480224609375, 1.357177734375, 0.0157928466796875, 1.493408203125
46332, -0.6863847374916077, -4.149966239929199, -1.6275241374969482, -0.011855979450047016, -0.0016039407346397638, -40.15511703491211, -0.009473550133407116, -0.0012155742151662707, -1.797357201576233, -0.8540496826171875, -1.0449132919311523, 0.053121671080589294, -0.3875563314621251, -1.308425180447756, -2.264836674978881, 9362.0, 30146.0, 35388.0, 9362.0, 8.251240730285645, -0.014507214538753033, 0.007515707518905401, -0.04444612190127373, -0.09274744987487793, -0.025701701641082764, 0.9964110851287842, -0.10401957482099533, -0.19191741943359375, 1.480224609375, 1.440673828125, 0.090423583984375, 1.493408203125
46342, -0.68549644947052, -4.149905681610107, -1.6291025876998901, -0.011915241368114948, -0.0016112546436488628, -40.173095703125, -0.002378804376348853, -0.00024739213404245675, -1.7980948686599731, -0.8540563583374023, -1.0448966026306152, 0.0531231053173542, -0.38882844030064584, -1.3080778890611384, -2.258639705634085, 9362.0, 30146.0, 35388.0, 9362.0, 8.251240730285645, 0.3766932785511017, 0.2770286500453949, -0.059807129204273224, -0.09115050733089447, -0.026448002085089684, 0.995943546295166, -0.10401957482099533, -0.19191741943359375, 1.480224609375, 1.411376953125, 0.05181884765625, 1.49267578125
46352, -0.6849192380905151, -4.151301383972168, -1.6284929513931274, -0.011903485283255577, -0.0016088855918496847, -40.191078186035156, 0.0047299922443926334, 0.0007212948403321207, -1.7986373901367188, -0.8540526628494263, -1.0449020862579346, 0.05311599373817444, -0.3868470687972522, -1.3103575009122608, -2.2545806994585518, 9362.0, 30146.0, 35388.0, 9362.0, 8.251240730285645, -0.19794106483459473, 0.29775235056877136, 0.15613579750061035, -0.09014534950256348, -0.02861778624355793, 0.9937878847122192, -0.10401957482099533, -0.19191741943359375, 1.480224609375, 1.40185546875, 0.0417938232421875, 1.49267578125
46362, -0.6851037740707397, -4.153209209442139, -1.62848699092865, -0.011820734478533268, -0.0015968488296493888, -40.209068298339844, 0.011820142157375813, 0.0016860674368217587, -1.7994685173034668, -0.8540377616882324, -1.0448884963989258, 0.053147148340940475, -0.3947455829663277, -1.3207633612109362, -2.2738443918382423, 9362.0, 30146.0, 35388.0, 9362.0, 8.251240730285645, 0.15830522775650024, 0.003862665733322501, -0.011122860945761204, -0.08852764964103699, -0.02506149932742119, 0.9938640594482422, -0.10401957482099533, -0.19191741943359375, 1.480224609375, 1.41357421875, 0.0542449951171875, 1.5
46372, -0.683761715888977, -4.155679225921631, -1.6277655363082886, -0.011667071841657162, -0.0015751640312373638, -40.22706604003906, 0.018912335857748985, 0.002651001326739788, -1.8003158569335938, -0.8540250062942505, -1.0448917150497437, 0.053129877895116806, -0.40194033401919654, -1.3268816438115607, -2.2608568977179604, 9362.0, 30146.0, 35388.0, 9362.0, 8.251240730285645, 0.018524417653679848, 0.0002859022351913154, -0.11643767356872559, -0.0906195268034935, -0.025498371571302414, 0.9950841069221497, -0.10401957482099533, -0.19191741943359375, 1.480224609375, 1.3916015625, 0.0325927734375, 1.5
46382, -0.6840690970420837, -4.155502796173096, -1.6274166107177734, -0.011442475020885468, -0.001543842488899827, -40.24507522583008, 0.0260070338845253, 0.003613345790654421, -1.8011854887008667, -0.8540135025978088, -1.0448940992355347, 0.053113508969545364, -0.40379195525443784, -1.3250803564484386, -2.2780108767295983, 9362.0, 30146.0, 35388.0, 9362.0, 8.251240730285645, -0.043989989906549454, 0.005993161350488663, 0.16678167879581451, -0.09066299349069595, -0.025771364569664, 0.9977715015411377, -0.0971173495054245, 0.023120880126953125, 1.497802734375, 1.39599609375, 0.0362701416015625, 1.497802734375
46392, -0.6839190721511841, -4.156454086303711, -1.6267340183258057, -0.011146819218993187, -0.0015028793131932616, -40.26308822631836, 0.03312408924102783, 0.004579378757625818, -1.801745057106018, -0.8540390133857727, -1.0448886156082153, 0.053122084587812424, -0.3980559659383863, -1.3196142335326044, -2.260502670041181, 9362.0, 30146.0, 35388.0, 9362.0, 8.251240730285645, 0.06261815130710602, -0.6944751143455505, -0.17858292162418365, -0.0900198221206665, -0.024118799716234207, 0.9983030557632446, -0.0971173495054245, 0.023120880126953125, 1.497802734375, 1.393798828125, 0.0344085693359375, 1.497802734375
46402, -0.6830701231956482, -4.154215335845947, -1.628030776977539, -0.010779951699078083, -0.0014522522687911987, -40.28110885620117, 0.040249504148960114, 0.005545858759433031, -1.8022122383117676, -0.8540099859237671, -1.0448977947235107, 0.05312170833349228, -0.40622157617090815, -1.324572185782472, -2.2704500374631063, 9362.0, 30146.0, 35388.0, 9362.0, 8.251240730285645, -0.000767247227486223, 0.2409813106060028, 0.07354134321212769, -0.09143152087926865, -0.024834169074892998, 0.9956523180007935, -0.0971173495054245, 0.023120880126953125, 1.497802734375, 1.4091796875, 0.04937744140625, 1.493408203125
46412, -0.6839693188667297, -4.153966426849365, -1.6277838945388794, -0.010341890156269073, -0.0013919735793024302, -40.29913330078125, 0.04736284539103508, 0.006509917322546244, -1.8027918338775635, -0.8540406227111816, -1.0448870658874512, 0.05313478037714958, -0.40332097342508716, -1.3245711098661275, -2.258023115400963, 9362.0, 30146.0, 35388.0, 9362.0, 8.251240730285645, 0.16186407208442688, 0.16927458345890045, -0.4050652086734772, -0.08884461969137192, -0.024021396413445473, 0.9969437718391418, -0.0971173495054245, 0.023120880126953125, 1.497802734375, 1.434814453125, 0.081787109375, 1.493408203125
46422, -0.6826616525650024, -4.156496524810791, -1.6291048526763916, -0.009832721203565598, -0.0013220497639849782, -40.31716537475586, 0.054470863193273544, 0.007474690675735474, -1.8034390211105347, -0.8540177941322327, -1.0448989868164062, 0.05313713476061821, -0.40729196891399383, -1.3211069863408795, -2.2747374865762873, 9362.0, 30146.0, 35388.0, 9362.0, 8.251240730285645, -0.03887754678726196, 0.08862414956092834, 0.18780387938022614, -0.08826801180839539, -0.025672517716884613, 0.9979301691055298, -0.0971173495054245, 0.023120880126953125, 1.497802734375, 1.42529296875, 0.0688018798828125, 1.493408203125
46432, -0.6821037530899048, -4.157121658325195, -1.6287401914596558, -0.009252394549548626, -0.0012424831511452794, -40.335201263427734, 0.06159437820315361, 0.008438674733042717, -1.8039332628250122, -0.8540393710136414, -1.0448864698410034, 0.053151652216911316, -0.39639951377384475, -1.31650366421826, -2.264929574572809, 9362.0, 30146.0, 35388.0, 9362.0, 8.251240730285645, 0.01044567208737135, 0.3080080449581146, -0.051403313875198364, -0.0897187665104866, -0.025201741605997086, 0.9962022304534912, -0.0971173495054245, 0.023120880126953125, 1.497802734375, 1.36962890625, 0.01910400390625, 1.493408203125
46442, -0.681682288646698, -4.1568827629089355, -1.6282424926757812, -0.008600857108831406, -0.0011532852659001946, -40.35324478149414, 0.06871318817138672, 0.009400966577231884, -1.8045053482055664, -0.8540429472923279, -1.0448896884918213, 0.05312301591038704, -0.4011965767702898, -1.3215540471683767, -2.261416414606394, 9362.0, 30146.0, 35388.0, 9362.0, 8.251240730285645, -0.12343043833971024, -0.2966415584087372, -0.060149893164634705, -0.09106951206922531, -0.025655152276158333, 0.9951752424240112, -0.0971173495054245, 0.023120880126953125, 1.497802734375, 1.411376953125, 0.05181884765625, 1.491943359375
46452, -0.6821271777153015, -4.156235694885254, -1.6284841299057007, -0.007878180593252182, -0.001054474152624607, -40.37129211425781, 0.07582204043865204, 0.010361230932176113, -1.8052080869674683, -0.854050874710083, -1.0448880195617676, 0.053186096251010895, -0.3939146270308746, -1.318171317288943, -2.2563890483026565, 9362.0, 30146.0, 35388.0, 9362.0, 8.251240730285645, 0.08484413474798203, -0.2391832321882248, 0.14748865365982056, -0.09150775521993637, -0.02619248256087303, 0.995160698890686, -0.0971173495054245, 0.023120880126953125, 1.497802734375, 1.401123046875, 0.041015625, 1.491943359375
46462, -0.681156575679779, -4.157060146331787, -1.6285344362258911, -0.007084437180310488, -0.0009460587170906365, -40.389347076416016, 0.08292663097381592, 0.011321843601763248, -1.805954933166504, -0.8540293574333191, -1.0448944568634033, 0.05312902852892876, -0.39877599104540473, -1.3235900166082502, -2.2592258386249338, 9362.0, 30146.0, 35388.0, 9362.0, 8.251240730285645, 0.062113113701343536, 0.15917181968688965, -0.024563932791352272, -0.09042312204837799, -0.027512874454259872, 0.9949352741241455, -0.0971173495054245, 0.023120880126953125, 1.497802734375, 1.421630859375, 0.0640716552734375, 1.49267578125
46472, -0.6816983222961426, -4.156642913818359, -1.6302735805511475, -0.006219634786248207, -0.0008280447800643742, -40.40740966796875, 0.09003389626741409, 0.012280724942684174, -1.8066835403442383, -0.8540393710136414, -1.0448880195617676, 0.05312848836183548, -0.3995451340374286, -1.3239311562675766, -2.254960659990185, 9362.0, 30146.0, 35388.0, 9362.0, 8.251240730285645, -0.03586163744330406, 0.24070468544960022, 0.1868978589773178, -0.09067583084106445, -0.024960080161690712, 0.9956129789352417, -0.0971173495054245, 0.023120880126953125, 1.497802734375, 1.41650390625, 0.0577545166015625, 1.49267578125
46482, -0.6816102862358093, -4.159193992614746, -1.6300686597824097, -0.005283748731017113, -0.000700436532497406, -40.425479888916016, 0.09714322537183762, 0.013240951113402843, -1.8073744773864746, -0.8540350198745728, -1.0448843240737915, 0.05311354994773865, -0.3959984792533146, -1.3279528561438951, -2.264140347223009, 9362.0, 30146.0, 35388.0, 9362.0, 8.251240730285645, 0.02764163911342621, 0.20571596920490265, 0.3785366415977478, -0.08994610607624054, -0.023552892729640007, 0.9935561418533325, -0.09120389074087143, -0.08439826965332031, 1.489013671875, 1.392333984375, 0.03314208984375, 1.49267578125
46492, -0.6827337741851807, -4.159713268280029, -1.629037857055664, -0.0042767878621816635, -0.0005632326356135309, -40.44355773925781, 0.10424888879060745, 0.014199942350387573, -1.808174967765808, -0.8540347218513489, -1.044898271560669, 0.05313054472208023, -0.4022778919269992, -1.3244075991473494, -2.268663361128623, 9362.0, 30146.0, 35388.0, 9362.0, 8.251240730285645, -0.06640344858169556, 0.2915950119495392, 0.1637602150440216, -0.08931948989629745, -0.023956723511219025, 0.9944233894348145, -0.09120389074087143, -0.08439826965332031, 1.489013671875, 1.34765625, 0.0154571533203125, 1.49267578125
46502, -0.6820946335792542, -4.1626482009887695, -1.6264206171035767, -0.003198780119419098, -0.00041643064469099045, -40.46164321899414, 0.11135260760784149, 0.015160784125328064, -1.8090147972106934, -0.8540455102920532, -1.044887661933899, 0.05316617712378502, -0.3881812864316536, -1.3247928924056964, -2.259190662925002, 9362.0, 30146.0, 35388.0, 9362.0, 8.251240730285645, -0.11969507485628128, -0.14936481416225433, 0.11658678203821182, -0.09296226501464844, -0.02510041743516922, 0.9936326146125793, -0.09120389074087143, -0.08439826965332031, 1.489013671875, 1.447998046875, 0.1016693115234375, 1.487548828125
46512, -0.6821521520614624, -4.162214279174805, -1.6253774166107178, -0.002049719449132681, -0.0002600260195322335, -40.479736328125, 0.11845953017473221, 0.016120271757245064, -1.8098784685134888, -0.8540548086166382, -1.0448912382125854, 0.05314148962497711, -0.392673008769385, -1.3170738861695384, -2.2527838642150826, 9362.0, 30146.0, 35388.0, 9362.0, 8.251240730285645, 0.13754551112651825, 0.01094482559710741, -0.1658240556716919, -0.09072215110063553, -0.025815902277827263, 0.9967325329780579, -0.09120389074087143, -0.08439826965332031, 1.489013671875, 1.368896484375, 0.01885986328125, 1.487548828125
46522, -0.6807944774627686, -4.164168834686279, -1.6251838207244873, -0.0008295411244034767, -9.401819261256605e-05, -40.49783706665039, 0.12557612359523773, 0.017081324011087418, -1.8105992078781128, -0.8540432453155518, -1.0448898077011108, 0.05317503958940506, -0.391848835110281, -1.3226900960291914, -2.2563506538531453, 9362.0, 30146.0, 35388.0, 9362.0, 8.251240730285645, -0.0753251388669014, -0.20731253921985626, 0.27382558584213257, -0.08975256234407425, -0.024246899411082268, 0.9950137734413147, -0.09120389074087143, -0.08439826965332031, 1.489013671875, 1.396728515625, 0.0370025634765625, 1.48974609375
46532, -0.6811663508415222, -4.163137435913086, -1.6261637210845947, 0.0004618423990905285, 8.15913372207433e-05, -40.51594543457031, 0.1327006071805954, 0.018040454015135765, -1.8112573623657227, -0.8540252447128296, -1.0448964834213257, 0.0531335175037384, -0.39888603913149323, -1.324669067636222, -2.2605926132375607, 9362.0, 30146.0, 35388.0, 9362.0, 8.251240730285645, 0.10064951330423355, 0.11198022216558456, 0.08853363990783691, -0.09045842289924622, -0.024783002212643623, 0.9957299828529358, -0.09120389074087143, -0.08439826965332031, 1.489013671875, 1.367431640625, 0.0183258056640625, 1.48974609375
46542, -0.6814716458320618, -4.163437843322754, -1.62526273727417, 0.0018244419479742646, 0.00026679225265979767, -40.534061431884766, 0.13981932401657104, 0.018999844789505005, -1.8119713068008423, -0.8540458083152771, -1.04489266872406, 0.05312064290046692, -0.3947225396478281, -1.3275732151371074, -2.2598460052826486, 9362.0, 30146.0, 35388.0, 9362.0, 8.251240730285645, 0.02129592001438141, -0.24053949117660522, -0.05885493755340576, -0.08983922749757767, -0.026246318593621254, 0.9962255358695984, -0.09120389074087143, -0.08439826965332031, 1.489013671875, 1.405517578125, 0.0454254150390625, 1.494140625
46552, -0.6825031638145447, -4.162345886230469, -1.6252268552780151, 0.0032582320272922516, 0.00046159024350345135, -40.55218505859375, 0.14693866670131683, 0.01995975524187088, -1.8126821517944336, -0.854034960269928, -1.044883370399475, 0.053131043910980225, -0.40029556482028683, -1.329456735785726, -2.2646042815433183, 9362.0, 30146.0, 35388.0, 9362.0, 8.251240730285645, 0.01128301490098238, -0.01734474115073681, -0.44397369027137756, -0.09081249684095383, -0.02582654170691967, 0.9979693293571472, -0.09120389074087143, -0.08439826965332031, 1.489013671875, 1.4619140625, 0.1246185302734375, 1.494140625
46562, -0.6823034286499023, -4.163165092468262, -1.625514030456543, 0.004763284232467413, 0.0006660068756900728, -40.5703125, 0.15407177805900574, 0.020923541858792305, -1.8131815195083618, -0.8540720343589783, -1.0448564291000366, 0.053153350949287415, -0.3881982615452707, -1.32079672989002, -2.299132764624541, 9362.0, 30146.0, 35388.0, 9362.0, 8.251240730285645, -0.03350871801376343, -0.00800643302500248, -0.10416336357593536, -0.09209366142749786, -0.02544070966541767, 0.9951696991920471, -0.09120389074087143, -0.08439826965332031, 1.489013671875, 1.45458984375, 0.11224365234375, 1.496337890625
46582, -0.6819449067115784, -4.163201808929443, -1.6253783702850342, 0.007987162098288536, 0.0011037064250558615, -40.606590270996094, 0.1683063954114914, 0.022844281047582626, -1.814632773399353, -0.8540241718292236, -1.0448923110961914, 0.05312708765268326, -0.39476324594852086, -1.3233866094791438, -2.2537095276950265, 9362.0, 30146.0, 35388.0, 9362.0, 8.251240730285645, -0.07526691257953644, 0.3921089470386505, -0.14446356892585754, -0.09419523179531097, -0.02664603479206562, 0.9941972494125366, -0.09120389074087143, -0.08439826965332031, 1.489013671875, 1.43701171875, 0.085052490234375, 1.496337890625
46592, -0.6826509237289429, -4.165932655334473, -1.625321388244629, 0.00970575399696827, 0.0013369437074288726, -40.62474060058594, 0.17541198432445526, 0.023803193122148514, -1.815527319908142, -0.8540389537811279, -1.0448898077011108, 0.053106389939785004, -0.3962675575198215, -1.329280339743491, -2.2597476960499407, 9362.0, 30146.0, 35388.0, 9362.0, 8.251240730285645, -0.01992003433406353, -0.18925930559635162, -0.21801887452602386, -0.09170932322740555, -0.026624472811818123, 0.995983362197876, -0.09120389074087143, -0.08439826965332031, 1.489013671875, 1.43701171875, 0.085052490234375, 1.496337890625
46602, -0.6834206581115723, -4.164525985717773, -1.6269207000732422, 0.011495484970510006, 0.0015797836240381002, -40.64289855957031, 0.18253427743911743, 0.024764595553278923, -1.8162583112716675, -0.8540530204772949, -1.0448857545852661, 0.053160689771175385, -0.3940352940561325, -1.320420867362884, -2.258143750088171, 9362.0, 30146.0, 35388.0, 9362.0, 8.251240730285645, -0.0964917540550232, -0.08309765160083771, 0.34791862964630127, -0.09047617018222809, -0.026292772963643074, 0.9963138699531555, -0.09120389074087143, -0.08439826965332031, 1.489013671875, 1.39013671875, 0.0314483642578125, 1.496337890625
46612, -0.6838463544845581, -4.164808750152588, -1.6263785362243652, 0.01335645467042923, 0.0018322472460567951, -40.66106414794922, 0.1896597295999527, 0.025728197768330574, -1.816913366317749, -0.8540599942207336, -1.0448877811431885, 0.0531611293554306, -0.3903418659060171, -1.32542906931576, -2.2596150061036244, 9362.0, 30146.0, 35388.0, 9362.0, 8.251240730285645, 0.0943516418337822, 0.26417234539985657, 0.04730810225009918, -0.09331852942705154, -0.026815105229616165, 0.9966192841529846, -0.09120389074087143, -0.08439826965332031, 1.489013671875, 1.39013671875, 0.0314483642578125, 1.496337890625
46622, -0.6849881410598755, -4.16653299331665, -1.6258649826049805, 0.01335645467042923, 0.0018322472460567951, -40.66106414794922, 0.1896597295999527, 0.025728197768330574, -1.816913366317749, -0.8540391325950623, -1.0448881387710571, 0.05311967805027962, -0.39759670172512906, -1.3257883784014268, -2.2554626563813986, 9362.0, 30146.0, 35388.0, 9362.0, 8.251240730285645, -0.015785982832312584, 0.2634635269641876, 0.03282611072063446, -0.09255720674991608, -0.025500468909740448, 0.9949333071708679, -0.09120389074087143, -0.08439826965332031, 1.489013671875, 1.368896484375, 0.01885986328125, 1.496337890625
46632, -0.6849962472915649, -4.169334888458252, -1.6244441270828247, 0.017292212694883347, 0.002366111846640706, -40.69741439819336, 0.2039138376712799, 0.027658894658088684, -1.8182339668273926, -0.8540461659431458, -1.0448970794677734, 0.05316970497369766, -0.38814239061973244, -1.3219034736306412, -2.2625496641972527, 9362.0, 30146.0, 35388.0, 9362.0, 8.251240730285645, -0.05115783214569092, 0.05939357355237007, 0.3222928047180176, -0.09114064276218414, -0.027144035324454308, 0.9947052001953125, -0.09120389074087143, -0.08439826965332031, 1.489013671875, 1.373291015625, 0.0207366943359375, 1.496337890625
46642, -0.6858313679695129, -4.1706037521362305, -1.6227315664291382, 0.019366953521966934, 0.0026475233025848866, -40.715599060058594, 0.2110341191291809, 0.028623590245842934, -1.8190724849700928, -0.8540437817573547, -1.0448921918869019, 0.05316052585840225, -0.39526374188356994, -1.3240036168881772, -2.2601027015952337, 9362.0, 30146.0, 35388.0, 9362.0, 8.251240730285645, -0.05447488650679588, 0.03055010363459587, 0.19567237794399261, -0.09006151556968689, -0.025325872004032135, 0.9970566630363464, -0.09120389074087143, -0.08439826965332031, 1.489013671875, 1.373291015625, 0.0207366943359375, 1.494140625
46652, -0.6852977871894836, -4.169358730316162, -1.6214988231658936, 0.019366953521966934, 0.0026475233025848866, -40.715599060058594, 0.2110341191291809, 0.028623590245842934, -1.8190724849700928, -0.8540483117103577, -1.0448942184448242, 0.05316713824868202, -0.3930835868901504, -1.314913811890392, -2.2682804055430106, 9362.0, 30146.0, 35388.0, 9362.0, 8.251240730285645, -0.20227229595184326, -0.216044619679451, 0.28142890334129333, -0.08915374428033829, -0.024708189070224762, 0.9944322109222412, -0.09120389074087143, -0.08439826965332031, 1.489013671875, 1.42236328125, 0.0649566650390625, 1.494140625
46692, -0.6849937438964844, -4.168753147125244, -1.6247466802597046, 0.030809754505753517, 0.004199598915874958, -40.806636810302734, 0.24667902290821075, 0.03345966711640358, -1.8225947618484497, -0.8540483713150024, -1.0448905229568481, 0.053149838000535965, -0.3971668632866314, -1.3132879010306908, -2.2666470584243967, 9362.0, 30146.0, 35388.0, 9362.0, 8.251240730285645, 0.1383901983499527, 0.020875951275229454, -0.006146261468529701, -0.09220392256975174, -0.024554762989282608, 0.9958605766296387, -0.09120389074087143, -0.08439826965332031, 1.489013671875, 1.359375, 0.0160980224609375, 1.494140625
46712, -0.683449923992157, -4.165459632873535, -1.6250758171081543, 0.03588605299592018, 0.004888123832643032, -40.843101501464844, 0.26094236969947815, 0.035391274839639664, -1.823889136314392, -0.8540546894073486, -1.0448908805847168, 0.05314972996711731, -0.3953435807733446, -1.3189460921380487, -2.2567300274846223, 9362.0, 30146.0, 35388.0, 9362.0, 8.251240730285645, 0.019089162349700928, -0.3841536343097687, 0.03061833418905735, -0.0916728675365448, -0.026220375671982765, 0.9950807690620422, -0.09120389074087143, -0.08439826965332031, 1.489013671875, 1.343994140625, 0.015899658203125, 1.494873046875
46722, -0.6838545203208923, -4.165238857269287, -1.6256511211395264, 0.03588605299592018, 0.004888123832643032, -40.843101501464844, 0.26094236969947815, 0.035391274839639664, -1.823889136314392, -0.8540582656860352, -1.0449026823043823, 0.053136300295591354, -0.39540804077403874, -1.3152414927770053, -2.253818715635576, 9362.0, 30146.0, 35388.0, 9362.0, 8.251240730285645, 0.10184353590011597, -0.1058843731880188, -0.0025441418401896954, -0.09134373068809509, -0.024841420352458954, 0.9975212216377258, -0.09120389074087143, -0.08439826965332031, 1.489013671875, 1.377685546875, 0.023040771484375, 1.494873046875
46732, -0.6828388571739197, -4.161116600036621, -1.6265032291412354, 0.03588605299592018, 0.004888123832643032, -40.843101501464844, 0.26094236969947815, 0.035391274839639664, -1.823889136314392, -0.8540555238723755, -1.0448983907699585, 0.05314941704273224, -0.3930705647948249, -1.323329105784353, -2.25714281729215, 9362.0, 30146.0, 35388.0, 9362.0, 8.251240730285645, -0.056026700884103775, 0.31921952962875366, -0.08071347326040268, -0.09003949165344238, -0.026983240619301796, 0.9972836375236511, -0.09120389074087143, -0.08439826965332031, 1.489013671875, 1.377685546875, 0.023040771484375, 1.494873046875
46752, -0.6834656000137329, -4.16309118270874, -1.62693452835083, 0.04689367860555649, 0.006380856968462467, -40.91611099243164, 0.2894436717033386, 0.03924591466784477, -1.8264459371566772, -0.8540475964546204, -1.04487943649292, 0.053156591951847076, -0.3905524713461701, -1.3209022931181948, -2.261363743964446, 9362.0, 30146.0, 35388.0, 9362.0, 8.251240730285645, -0.23999053239822388, 0.20851397514343262, -0.00933719240128994, -0.09105124324560165, -0.023137446492910385, 0.995008647441864, -0.09120389074087143, -0.08439826965332031, 1.489013671875, 1.417236328125, 0.058624267578125, 1.494873046875
46762, -0.6832470893859863, -4.165826797485352, -1.6255260705947876, 0.04982370138168335, 0.0067781307734549046, -40.93437957763672, 0.29656079411506653, 0.040208980441093445, -1.8271814584732056, -0.8540332317352295, -1.0448917150497437, 0.05313507840037346, -0.4017247328277475, -1.3251848425816775, -2.2647980538125405, 9362.0, 30146.0, 35388.0, 9362.0, 8.251240730285645, 0.07202115654945374, 0.353702574968338, 0.3818742334842682, -0.09096444398164749, -0.024565987288951874, 0.9950961470603943, -0.09120389074087143, -0.08439826965332031, 1.489013671875, 1.417236328125, 0.058624267578125, 1.494873046875
46782, -0.6833568215370178, -4.167141437530518, -1.6231160163879395, 0.052824899554252625, 0.0071850307285785675, -40.95265579223633, 0.30367857217788696, 0.04117122292518616, -1.8279707431793213, -0.8540313839912415, -1.0448920726776123, 0.05313723534345627, -0.4021486425337145, -1.3216732367192492, -2.2600113447760735, 9362.0, 30146.0, 35388.0, 9362.0, 8.251240730285645, -0.08367075026035309, 0.08854231983423233, -0.09852460771799088, -0.09126503020524979, -0.025111723691225052, 0.994868278503418, -0.10702554136514664, -0.13815879821777344, 1.484619140625, 1.4033203125, 0.043182373046875, 1.494873046875
46792, -0.6843486428260803, -4.167694568634033, -1.6237685680389404, 0.059040963649749756, 0.00802768487483263, -40.98923110961914, 0.31792813539505005, 0.04309525340795517, -1.8294663429260254, -0.8540217876434326, -1.04489004611969, 0.053121551871299744, -0.39675867244138635, -1.3238569033761394, -2.262351821470995, 9362.0, 30146.0, 35388.0, 9362.0, 8.251240730285645, -0.19771482050418854, 0.25995540618896484, 0.15881042182445526, -0.09139466285705566, -0.02576315589249134, 0.9951420426368713, -0.10702554136514664, -0.13815879821777344, 1.484619140625, 1.4033203125, 0.043182373046875, 1.494873046875
46812, -0.6847639679908752, -4.16814661026001, -1.6265417337417603, 0.06554198265075684, 0.008908872492611408, -41.02583694458008, 0.3321751356124878, 0.0450228750705719, -1.8310526609420776, -0.8540355563163757, -1.0448874235153198, 0.05312301963567734, -0.4008505330468047, -1.32003586573029, -2.2670310882735825, 9362.0, 30146.0, 35388.0, 9362.0, 8.251240730285645, 0.2522243857383728, 0.548469603061676, -0.08692960441112518, -0.08981961756944656, -0.023817390203475952, 0.9936527609825134, -0.10702554136514664, -0.13815879821777344, 1.484619140625, 1.380615234375, 0.024749755859375, 1.494873046875
46832, -0.682615339756012, -4.17226505279541, -1.6274546384811401, 0.07232788950204849, 0.009828587993979454, -41.06247329711914, 0.34642133116722107, 0.04694737493991852, -1.8326715230941772, -0.8540283441543579, -1.0448930263519287, 0.053123556077480316, -0.4015688932741192, -1.3173929097496568, -2.262315046463737, 9362.0, 30146.0, 35388.0, 9362.0, 8.251240730285645, -0.034166861325502396, 0.11145960539579391, -0.0764736607670784, -0.09109526127576828, -0.025452563539147377, 0.9961449503898621, -0.10702554136514664, -0.13815879821777344, 1.484619140625, 1.440673828125, 0.090423583984375, 1.494873046875
46842, -0.6823927164077759, -4.173749923706055, -1.6289129257202148, 0.07582779973745346, 0.010302871465682983, -41.08080291748047, 0.3535611629486084, 0.047909073531627655, -1.833311676979065, -0.8540335297584534, -1.0448856353759766, 0.05313452333211899, -0.4019805643217417, -1.318092115261976, -2.2609028789478227, 9362.0, 30146.0, 35388.0, 9362.0, 8.251240730285645, -0.049782611429691315, -0.6484377384185791, 0.06356461346149445, -0.09394825249910355, -0.027592556551098824, 0.9958755970001221, -0.10702554136514664, -0.13815879821777344, 1.484619140625, 1.440673828125, 0.090423583984375, 1.493408203125
46852, -0.6832575798034668, -4.168327808380127, -1.6278529167175293, 0.07939910888671875, 0.010786767117679119, -41.09914016723633, 0.36070138216018677, 0.04887014999985695, -1.8339804410934448, -0.8540366888046265, -1.044882893562317, 0.053140681236982346, -0.401447151402704, -1.3183861674538093, -2.26639275303921, 9362.0, 30146.0, 35388.0, 9362.0, 8.251240730285645, 0.13372474908828735, -0.13786296546459198, -0.11096539348363876, -0.09218980371952057, -0.026586206629872322, 0.995823085308075, -0.10702554136514664, -0.13815879821777344, 1.484619140625, 1.440673828125, 0.090423583984375, 1.493408203125
46862, -0.6826993823051453, -4.167696475982666, -1.6282072067260742, 0.08304177224636078, 0.011280281469225883, -41.11748504638672, 0.36783114075660706, 0.0498327799141407, -1.8346651792526245, -0.854036271572113, -1.0448846817016602, 0.05314039811491966, -0.3971479519842757, -1.3221313498941925, -2.268037562941751, 9362.0, 30146.0, 35388.0, 9362.0, 8.251240730285645, 0.014744135551154613, -0.28717824816703796, -0.1302550584077835, -0.0908186137676239, -0.026242278516292572, 0.996651291847229, -0.10702554136514664, -0.13815879821777344, 1.484619140625, 1.440673828125, 0.090423583984375, 1.48974609375
46882, -0.683538019657135, -4.165733814239502, -1.628594160079956, 0.09054110199213028, 0.012296202592551708, -41.15419006347656, 0.3820945620536804, 0.05175961181521416, -1.8359169960021973, -0.8540345430374146, -1.044880986213684, 0.0531177744269371, -0.40658987211221126, -1.321628195309188, -2.250709746506014, 9362.0, 30146.0, 35388.0, 9362.0, 8.251240730285645, -0.16268882155418396, -0.11781523376703262, -0.10637655109167099, -0.0901462733745575, -0.02434350736439228, 0.9957243800163269, -0.10702554136514664, -0.13815879821777344, 1.484619140625, 1.354248046875, 0.0154266357421875, 1.49560546875
46892, -0.6844567656517029, -4.164852142333984, -1.6289722919464111, 0.0943976491689682, 0.012818611226975918, -41.17255401611328, 0.3892149031162262, 0.052722036838531494, -1.8366703987121582, -0.8540326952934265, -1.044880986213684, 0.053129635751247406, -0.40448602560526997, -1.3274400053855402, -2.262197385958866, 9362.0, 30146.0, 35388.0, 9362.0, 8.251240730285645, -0.14662547409534454, 0.2142752707004547, -0.3547913134098053, -0.08946414291858673, -0.022293854504823685, 0.9963274598121643, -0.10702554136514664, -0.13815879821777344, 1.484619140625, 1.354248046875, 0.0154266357421875, 1.49560546875
46902, -0.6844314932823181, -4.163880825042725, -1.6318986415863037, 0.0983254536986351, 0.013350659981369972, -41.190921783447266, 0.39634642004966736, 0.053687434643507004, -1.8372522592544556, -0.8540310263633728, -1.044884443283081, 0.05312680825591087, -0.40464289054117064, -1.3143505136907265, -2.257004103894845, 9362.0, 30146.0, 35388.0, 9362.0, 8.251240730285645, 0.11766024678945541, -0.24003826081752777, 0.08809930831193924, -0.08983349055051804, -0.023813165724277496, 0.9956228733062744, -0.10702554136514664, -0.13815879821777344, 1.484619140625, 1.41796875, 0.05950927734375, 1.49560546875
46912, -0.6827694177627563, -4.162353992462158, -1.6325955390930176, 0.0983254536986351, 0.013350659981369972, -41.190921783447266, 0.39634642004966736, 0.053687434643507004, -1.8372522592544556, -0.8540745973587036, -1.0448929071426392, 0.05315522104501724, -0.4045450172653932, -1.326207091382372, -2.2631994216462736, 9362.0, 30146.0, 35388.0, 9362.0, 8.251240730285645, -0.02147046849131584, 0.1123545914888382, -0.20023226737976074, -0.0914258137345314, -0.027754204347729683, 0.9978275299072266, -0.10702554136514664, -0.13815879821777344, 1.484619140625, 1.41796875, 0.05950927734375, 1.49560546875
46932, -0.6830353140830994, -4.161604404449463, -1.634506344795227, 0.11095456779003143, 0.015061283484101295, -41.24790573120117, 0.41844141483306885, 0.056675221771001816, -1.8390768766403198, -0.8540522456169128, -1.0448979139328003, 0.05313732102513313, -0.41834884460789834, -1.3380484809589746, -2.268266525564267, 9362.0, 30146.0, 35388.0, 9362.0, 8.251240730285645, -0.05999885872006416, 0.0450298897922039, -0.2620713710784912, -0.09086453914642334, -0.02428504265844822, 0.9939940571784973, -0.10702554136514664, -0.13815879821777344, 1.484619140625, 1.41796875, 0.05950927734375, 1.49560546875
46942, -0.6830976009368896, -4.160646915435791, -1.637120008468628, 0.11095456779003143, 0.015061283484101295, -41.24790573120117, 0.41844141483306885, 0.056675221771001816, -1.8390768766403198, -0.8540576696395874, -1.044899821281433, 0.05314473435282707, -0.4120340338360489, -1.3312463237270435, -2.2649309504976562, 9362.0, 30146.0, 35388.0, 9362.0, 8.251240730285645, -0.048390328884124756, -0.24669456481933594, 0.23061317205429077, -0.09189433604478836, -0.023975254967808723, 0.9953557252883911, -0.10702554136514664, -0.13815879821777344, 1.484619140625, 1.415771484375, 0.0568695068359375, 1.49560546875
46982, -0.6838778257369995, -4.159896373748779, -1.636691927909851, 0.12870852649211884, 0.017465775832533836, -41.323368072509766, 0.44761982560157776, 0.06062072142958641, -1.8418588638305664, -0.8540634512901306, -1.0448957681655884, 0.053133346140384674, -0.4084743976897703, -1.3386078617816963, -2.2670972617539404, 9362.0, 30146.0, 35388.0, 9362.0, 8.251240730285645, 0.09041105955839157, 0.24287207424640656, 0.07137022912502289, -0.09045591205358505, -0.02646801993250847, 0.994990885257721, -0.10702554136514664, -0.13815879821777344, 1.484619140625, 1.348388671875, 0.0154571533203125, 1.489013671875
46992, -0.6834559440612793, -4.158914566040039, -1.6379129886627197, 0.13367536664009094, 0.018138419836759567, -41.343631744384766, 0.4554423987865448, 0.061678048223257065, -1.842651605606079, -0.8540557026863098, -1.0449013710021973, 0.05314435809850693, -0.4066136266837978, -1.3336123532128283, -2.270155166199019, 9362.0, 30146.0, 35388.0, 9362.0, 8.251240730285645, 0.11686258763074875, 0.27582353353500366, 0.0035270045045763254, -0.09145199507474899, -0.02496904321014881, 0.995049774646759, -0.10702554136514664, -0.13815879821777344, 1.484619140625, 1.348388671875, 0.0154571533203125, 1.489013671875
47002, -0.683026909828186, -4.160213947296143, -1.638517141342163, 0.13367536664009094, 0.018138419836759567, -41.343631744384766, 0.4554423987865448, 0.061678048223257065, -1.842651605606079, -0.8540551066398621, -1.0448942184448242, 0.05312734842300415, -0.40393999773490813, -1.3382256733921452, -2.267363233683106, 9362.0, 30146.0, 35388.0, 9362.0, 8.251240730285645, 0.16819825768470764, 0.03889694809913635, -0.020554520189762115, -0.09137468039989471, -0.025288548320531845, 0.992818295955658, -0.10702554136514664, -0.13815879821777344, 1.484619140625, 1.4091796875, 0.04937744140625, 1.489013671875
47032, -0.6821576952934265, -4.1628193855285645, -1.63909113407135, 0.15246149897575378, 0.020682405680418015, -41.41740417480469, 0.4838515818119049, 0.06551672518253326, -1.8461323976516724, -0.8540607690811157, -1.0449053049087524, 0.05314124375581741, -0.41076865696466625, -1.3402271906831231, -2.266757312484974, 9362.0, 30146.0, 35388.0, 9362.0, 8.251240730285645, -0.10804393887519836, 0.11725728958845139, -0.18822763860225677, -0.08879163861274719, -0.023576324805617332, 0.9955090284347534, -0.10702554136514664, -0.13815879821777344, 1.484619140625, 1.3623046875, 0.0167999267578125, 1.491943359375
47042, -0.6830755472183228, -4.162405014038086, -1.6404376029968262, 0.15733560919761658, 0.021342376247048378, -41.43586730957031, 0.4909694194793701, 0.06647757440805435, -1.8468246459960938, -0.8540720343589783, -1.0449061393737793, 0.05316698178648949, -0.40122738349802894, -1.3333012316180657, -2.26181361392996, 9362.0, 30146.0, 35388.0, 9362.0, 8.251240730285645, -0.07920727133750916, -0.09986007213592529, -0.07420986145734787, -0.0898420512676239, -0.025724096223711967, 0.9957051873207092, -0.10702554136514664, -0.13815879821777344, 1.484619140625, 1.3623046875, 0.0167999267578125, 1.491943359375
47062, -0.6844848394393921, -4.162513256072998, -1.643214464187622, 0.16729746758937836, 0.022691132500767708, -41.472816467285156, 0.5052129626274109, 0.0683983862400055, -1.8481512069702148, -0.8540696501731873, -1.044899821281433, 0.053135134279727936, -0.40942131167290596, -1.3352319425444534, -2.2671394158259983, 9362.0, 30146.0, 35388.0, 9362.0, 8.251240730285645, 0.04645576328039169, 0.28712084889411926, 0.14003829658031464, -0.0891348123550415, -0.02785736322402954, 0.996354341506958, -0.10702554136514664, -0.13815879821777344, 1.484619140625, 1.3623046875, 0.0167999267578125, 1.491943359375
47072, -0.684058427810669, -4.164925575256348, -1.6410446166992188, 0.16729746758937836, 0.022691132500767708, -41.472816467285156, 0.5052129626274109, 0.0683983862400055, -1.8481512069702148, -0.8540766835212708, -1.0449010133743286, 0.05315612256526947, -0.4007417864091664, -1.322394809480926, -2.268087854729395, 9362.0, 30146.0, 35388.0, 9362.0, 8.251240730285645, 0.04645576328039169, 0.28712084889411926, 0.14003829658031464, -0.0891348123550415, -0.02785736322402954, 0.996354341506958, -0.10702554136514664, -0.13815879821777344, 1.484619140625, 1.3740234375, 0.0210723876953125, 1.491943359375
47092, -0.6838504672050476, -4.169663906097412, -1.640328049659729, 0.1827744096517563, 0.024786369875073433, -41.528289794921875, 0.5265835523605347, 0.07128550112247467, -1.8501231670379639, -0.8540733456611633, -1.0449045896530151, 0.05317579209804535, -0.4046376463440158, -1.3301017495221004, -2.260604593238898, 9362.0, 30146.0, 35388.0, 9362.0, 8.251240730285645, 0.14332684874534607, 0.20522598922252655, -0.10654343664646149, -0.0916043370962143, -0.026036210358142853, 0.9935506582260132, -0.10702554136514664, -0.13815879821777344, 1.484619140625, 1.3740234375, 0.0210723876953125, 1.49267578125
47102, -0.682691216468811, -4.1707024574279785, -1.6420403718948364, 0.18807590007781982, 0.025504037737846375, -41.54679489135742, 0.5337138772010803, 0.07224787026643753, -1.850791335105896, -0.8540855050086975, -1.044904112815857, 0.053167760372161865, -0.3993331393603515, -1.3269081706122279, -2.260572924395273, 9362.0, 30146.0, 35388.0, 9362.0, 8.251240730285645, 0.051167864352464676, 0.15020513534545898, -0.24611198902130127, -0.09229154139757156, -0.022865938022732735, 0.9956984519958496, -0.10702554136514664, -0.13815879821777344, 1.484619140625, 1.3740234375, 0.0210723876953125, 1.49267578125
47122, -0.6820307374000549, -4.169107437133789, -1.6456812620162964, 0.19889262318611145, 0.026968196034431458, -41.58382797241211, 0.5479638576507568, 0.07416710257530212, -1.8523859977722168, -0.85406094789505, -1.0449023246765137, 0.05313468351960182, -0.4072913235353678, -1.3380350404870285, -2.2654546158008055, 9362.0, 30146.0, 35388.0, 9362.0, 8.251240730285645, 0.048852816224098206, 0.2533406615257263, 0.0770733505487442, -0.09044365584850311, -0.025539197027683258, 0.9962973594665527, -0.10702554136514664, -0.13815879821777344, 1.484619140625, 1.383544921875, 0.026611328125, 1.49267578125
47172, -0.6836198568344116, -4.172821044921875, -1.6391016244888306, 0.22718274593353271, 0.030796397477388382, -41.67653274536133, 0.5836387872695923, 0.07896251231431961, -1.8558073043823242, -0.8541049957275391, -1.044874906539917, 0.053180038928985596, -0.4088639838113306, -1.3412714778676502, -2.2975731479963413, 9362.0, 30146.0, 35388.0, 9362.0, 8.251240730285645, 0.006070743780583143, 0.17233090102672577, 0.42985278367996216, -0.09275218844413757, -0.027287717908620834, 0.9932520389556885, -0.10702554136514664, -0.13815879821777344, 1.484619140625, 1.39892578125, 0.0390167236328125, 1.491943359375
47182, -0.6833686828613281, -4.176244258880615, -1.6397485733032227, 0.22718274593353271, 0.030796397477388382, -41.67653274536133, 0.5836387872695923, 0.07896251231431961, -1.8558073043823242, -0.8540662527084351, -1.0449130535125732, 0.05314125865697861, -0.40869648222846233, -1.3377926795956228, -2.2610520900048603, 9362.0, 30146.0, 35388.0, 9362.0, 8.251240730285645, -0.2443895787000656, -0.36546042561531067, 0.015574824064970016, -0.09275218844413757, -0.027287717908620834, 0.9932520389556885, -0.10702554136514664, -0.13815879821777344, 1.484619140625, 1.412841796875, 0.0534515380859375, 1.48974609375
47222, -0.6828846335411072, -4.173708915710449, -1.6375956535339355, 0.2572561502456665, 0.03486466780304909, -41.7694206237793, 0.6193055510520935, 0.08377102017402649, -1.8596444129943848, -0.8540154695510864, -1.0448968410491943, 0.053106870502233505, -0.40810621109889417, -1.3201666889132184, -2.2762071276289557, 9362.0, 30146.0, 35388.0, 9362.0, 8.251240730285645, -0.23723171651363373, 0.31666234135627747, 0.2049141228199005, -0.0912691131234169, -0.023835934698581696, 0.9939967393875122, -0.10702554136514664, -0.13815879821777344, 1.484619140625, 1.412109375, 0.0526123046875, 1.493408203125
47232, -0.6824049949645996, -4.1767096519470215, -1.635902762413025, 0.2572561502456665, 0.03486466780304909, -41.7694206237793, 0.6193055510520935, 0.08377102017402649, -1.8596444129943848, -0.854021430015564, -1.044898509979248, 0.05315804108977318, -0.4007993967760963, -1.3207669699509381, -2.2786396082905576, 9362.0, 30146.0, 35388.0, 9362.0, 8.251240730285645, 0.08183570951223373, -0.06941937655210495, 0.045996882021427155, -0.0912691131234169, -0.023835934698581696, 0.9939967393875122, -0.10702554136514664, -0.13815879821777344, 1.484619140625, 1.4208984375, 0.063079833984375, 1.493408203125
47292, -0.6834192276000977, -4.177220344543457, -1.6344313621520996, 0.30235621333122253, 0.040963828563690186, -41.899784088134766, 0.6692678332328796, 0.09048794955015182, -1.8649977445602417, -0.8540191650390625, -1.0448992252349854, 0.053123362362384796, -0.4065725389167857, -1.3256794777236394, -2.2746047267529614, 9362.0, 30146.0, 35388.0, 9362.0, 8.251240730285645, 0.09214197099208832, -0.13013918697834015, -0.1540960818529129, -0.09073740988969803, -0.024255013093352318, 0.9969800114631653, -0.10702554136514664, -0.13815879821777344, 1.484619140625, 1.4208984375, 0.063079833984375, 1.49560546875
47312, -0.683979332447052, -4.175854682922363, -1.6374573707580566, 0.315884530544281, 0.04279281944036484, -41.93709945678711, 0.6835693717002869, 0.09241199493408203, -1.8662205934524536, -0.8540358543395996, -1.0448882579803467, 0.053116317838430405, -0.40213830848742577, -1.327769041158433, -2.25740542783343, 9362.0, 30146.0, 35388.0, 9362.0, 8.251240730285645, -0.24157892167568207, 0.017160708084702492, 0.526930570602417, -0.08977128565311432, -0.02510705403983593, 0.9950082302093506, -0.10702554136514664, -0.13815879821777344, 1.484619140625, 1.402587890625, 0.0425262451171875, 1.494873046875
47322, -0.6855170726776123, -4.175662994384766, -1.6342025995254517, 0.32275593280792236, 0.043721750378608704, -41.95576477050781, 0.6907139420509338, 0.09337414801120758, -1.8668700456619263, -0.8540213704109192, -1.0448906421661377, 0.053110115230083466, -0.40224860211790003, -1.329078292741741, -2.277341612176226, 9362.0, 30146.0, 35388.0, 9362.0, 8.251240730285645, 0.04514523968100548, 0.3237394690513611, -0.27294889092445374, -0.0897601768374443, -0.025903210043907166, 0.9937118887901306, -0.10702554136514664, -0.13815879821777344, 1.484619140625, 1.38427734375, 0.027099609375, 1.494873046875
47342, -0.6841104030609131, -4.176560401916504, -1.6388306617736816, 0.33671295642852783, 0.045608486980199814, -41.99311828613281, 0.7049832344055176, 0.09529989957809448, -1.868457555770874, -0.8540490865707397, -1.0448869466781616, 0.053175147622823715, -0.39227004759461825, -1.320096397049923, -2.2635211667050537, 9362.0, 30146.0, 35388.0, 9362.0, 8.251240730285645, 0.11426960676908493, 0.019762679934501648, 0.12036671489477158, -0.09232408553361893, -0.027628527954220772, 0.9964082837104797, -0.10702554136514664, -0.13815879821777344, 1.484619140625, 1.354248046875, 0.0154266357421875, 1.494873046875
47352, -0.684134840965271, -4.17695426940918, -1.6395652294158936, 0.34379851818084717, 0.04656631126999855, -42.01180648803711, 0.7121269106864929, 0.09626425802707672, -1.869150996208191, -0.8540390133857727, -1.0448986291885376, 0.053160250186920166, -0.395084081094085, -1.323123908520472, -2.271952091007501, 9362.0, 30146.0, 35388.0, 9362.0, 8.251240730285645, 0.10792676359415054, -0.38481560349464417, -0.09933023899793625, -0.09135735034942627, -0.025675036013126373, 0.9955752491950989, -0.10702554136514664, -0.13815879821777344, 1.484619140625, 1.354248046875, 0.0154266357421875, 1.494873046875
47362, -0.6836913228034973, -4.175351142883301, -1.639699101448059, 0.3509555757045746, 0.04753377288579941, -42.03050231933594, 0.7192816734313965, 0.09722799062728882, -1.8696889877319336, -0.854056715965271, -1.0448888540267944, 0.05315763130784035, -0.3912404530333776, -1.3139331501668892, -2.2606906522262253, 9362.0, 30146.0, 35388.0, 9362.0, 8.251240730285645, -0.15694363415241241, 0.08475411683320999, 0.1410902589559555, -0.09140349179506302, -0.025055591017007828, 0.9951041340827942, -0.10702554136514664, -0.13815879821777344, 1.484619140625, 1.35205078125, 0.015380859375, 1.494873046875
47402, -0.6830103993415833, -4.176141738891602, -1.6408025026321411, 0.3802979588508606, 0.05149982124567032, -42.1053466796875, 0.7478370666503906, 0.10107496380805969, -1.8726379871368408, -0.8540359139442444, -1.0448927879333496, 0.05313415080308914, -0.3957917048547809, -1.329804214804284, -2.2727192151632605, 9362.0, 30146.0, 35388.0, 9362.0, 8.251240730285645, -0.0474526509642601, 0.02111705206334591, 0.017480013892054558, -0.09028095006942749, -0.025063658133149147, 0.9942997694015503, -0.08611111342906952, -0.11127853393554688, 1.48681640625, 1.35791015625, 0.015869140625, 1.494873046875
47412, -0.683358371257782, -4.1762590408325195, -1.6399565935134888, 0.38781195878982544, 0.05251536890864372, -42.12407684326172, 0.7549649477005005, 0.10203450918197632, -1.8734976053237915, -0.8540606498718262, -1.0448881387710571, 0.05316678807139397, -0.39320740846641156, -1.3146427493784927, -2.262925256023006, 9362.0, 30146.0, 35388.0, 9362.0, 8.251240730285645, -0.17543603479862213, 0.02933424338698387, -0.011839217506349087, -0.09068486094474792, -0.021949194371700287, 0.9943280220031738, -0.08611111342906952, -0.11127853393554688, 1.48681640625, 1.35791015625, 0.015869140625, 1.494873046875
47432, -0.6823588013648987, -4.179152965545654, -1.63681960105896, 0.4030539095401764, 0.05457523837685585, -42.161563873291016, 0.7692288160324097, 0.10395284742116928, -1.8751791715621948, -0.8540408611297607, -1.0448881387710571, 0.053133897483348846, -0.3986629522092317, -1.3241260061359412, -2.2611260081071065, 9362.0, 30146.0, 35388.0, 9362.0, 8.251240730285645, 0.038103993982076645, 0.18158018589019775, -0.12191489338874817, -0.09104162454605103, -0.02567717432975769, 0.995610773563385, -0.08611111342906952, -0.11127853393554688, 1.48681640625, 1.35791015625, 0.015869140625, 1.494873046875
47452, -0.6832581162452698, -4.181562900543213, -1.637095332145691, 0.4185812771320343, 0.05667348578572273, -42.1990852355957, 0.7835128307342529, 0.10587165504693985, -1.8766969442367554, -0.8540391325950623, -1.0448954105377197, 0.05315016582608223, -0.4039420224146313, -1.3177382377196523, -2.2802444872287757, 9362.0, 30146.0, 35388.0, 9362.0, 8.251240730285645, -0.07408090680837631, -0.5104167461395264, 0.01424857322126627, -0.09026070684194565, -0.02598215639591217, 0.9960691928863525, -0.08611111342906952, -0.11127853393554688, 1.48681640625, 1.35791015625, 0.015869140625, 1.494873046875
47472, -0.6815393567085266, -4.1818108558654785, -1.6374021768569946, 0.4343946576118469, 0.05881013348698616, -42.236629486083984, 0.7978276610374451, 0.10779370367527008, -1.8779010772705078, -0.8540531992912292, -1.0448893308639526, 0.05316826328635216, -0.39505737052228257, -1.3158573900385306, -2.2615271452810997, 9362.0, 30146.0, 35388.0, 9362.0, 8.251240730285645, -0.14279010891914368, -0.09620042145252228, -0.09954745322465897, -0.09028280526399612, -0.024903587996959686, 0.9957378506660461, -0.08611111342906952, -0.11127853393554688, 1.48681640625, 1.4208984375, 0.063079833984375, 1.494873046875
47482, -0.6821640729904175, -4.182338237762451, -1.6393239498138428, 0.4343946576118469, 0.05881013348698616, -42.236629486083984, 0.7978276610374451, 0.10779370367527008, -1.8779010772705078, -0.8540358543395996, -1.0448917150497437, 0.053133174777030945, -0.4008470470703718, -1.3166733999282485, -2.261798879312985, 9362.0, 30146.0, 35388.0, 9362.0, 8.251240730285645, 0.11801964044570923, 0.24282823503017426, 0.1329546719789505, -0.09000736474990845, -0.025832610204815865, 0.9963637590408325, -0.09848490357398987, -0.13815879821777344, 1.484619140625, 1.437744140625, 0.086029052734375, 1.49560546875
47492, -0.6814512610435486, -4.184777736663818, -1.6387474536895752, 0.4504941701889038, 0.06098518148064613, -42.27420425415039, 0.8121225833892822, 0.10970968753099442, -1.8793624639511108, -0.8540412187576294, -1.0448906421661377, 0.05312323570251465, -0.4036117061945672, -1.3238526592572555, -2.2581952320832124, 9362.0, 30146.0, 35388.0, 9362.0, 8.251240730285645, 0.2591226100921631, -0.1336827278137207, 0.13825753331184387, -0.08876680582761765, -0.026326650753617287, 0.9941695928573608, -0.09848490357398987, -0.13815879821777344, 1.484619140625, 1.37255859375, 0.02044677734375, 1.49560546875
47502, -0.6805379986763, -4.184384822845459, -1.6382695436477661, 0.45865118503570557, 0.06208707392215729, -42.292999267578125, 0.8192794322967529, 0.11066889017820358, -1.8800057172775269, -0.8540512919425964, -1.0449103116989136, 0.05311765894293785, -0.38468330356469255, -1.3116084998420945, -2.2578235595149088, 9362.0, 30146.0, 35388.0, 9362.0, 8.251240730285645, 0.08896954357624054, -0.012984969653189182, 0.10759872198104858, -0.08733131736516953, -0.026055490598082542, 0.9945842623710632, -0.09848490357398987, -0.13815879821777344, 1.484619140625, 1.4150390625, 0.05596923828125, 1.49560546875
47512, -0.6808438897132874, -4.184332370758057, -1.6384366750717163, 0.4668797254562378, 0.06319854408502579, -42.31180191040039, 0.8264304995536804, 0.11162546277046204, -1.8807857036590576, -0.8540483117103577, -1.0449122190475464, 0.05311476066708565, -0.395993318014322, -1.313836749674664, -2.277723831187563, 9362.0, 30146.0, 35388.0, 9362.0, 8.251240730285645, -0.05419313907623291, -0.02158050611615181, -0.2996811270713806, -0.08873899281024933, -0.026189101859927177, 0.993980884552002, -0.09848490357398987, -0.13815879821777344, 1.484619140625, 1.4033203125, 0.043182373046875, 1.49560546875
47552, -0.6797850131988525, -4.185055732727051, -1.6414462327957153, 0.5005088448524475, 0.06773994863033295, -42.38710021972656, 0.855032205581665, 0.11544454842805862, -1.883987545967102, -0.8540710806846619, -1.044903039932251, 0.053159985691308975, -0.3799477489195646, -1.3008959747044742, -2.261350938096582, 9362.0, 30146.0, 35388.0, 9362.0, 8.251240730285645, -0.08110528439283371, -0.0356895811855793, -0.23117482662200928, -0.09018205851316452, -0.024728862568736076, 0.9953048229217529, -0.09848490357398987, -0.13815879821777344, 1.484619140625, 1.4091796875, 0.04937744140625, 1.49560546875
47562, -0.6796448826789856, -4.1851654052734375, -1.6427788734436035, 0.5090949535369873, 0.06889916211366653, -42.40594482421875, 0.8621841669082642, 0.1163979321718216, -1.8847802877426147, -0.8540689945220947, -1.0449094772338867, 0.05315964296460152, -0.3890271217290783, -1.307985675359049, -2.271742115158715, 9362.0, 30146.0, 35388.0, 9362.0, 8.251240730285645, -0.14555571973323822, -0.27151378989219666, -0.121973417699337, -0.09308988600969315, -0.023656217381358147, 0.9963662624359131, -0.09848490357398987, -0.13815879821777344, 1.484619140625, 1.4091796875, 0.04937744140625, 1.49560546875
47582, -0.67972731590271, -4.184448719024658, -1.6440061330795288, 0.5264818072319031, 0.0712461993098259, -42.44365692138672, 0.8765020966529846, 0.11830595880746841, -1.8861370086669922, -0.8540682196617126, -1.044895887374878, 0.05316038802266121, -0.3856963905724119, -1.3076174049656686, -2.256660130274899, 9362.0, 30146.0, 35388.0, 9362.0, 8.251240730285645, -0.03605685755610466, -0.4365612268447876, -0.36066412925720215, -0.09093392640352249, -0.025233954191207886, 0.9946228861808777, -0.09848490357398987, -0.13815879821777344, 1.484619140625, 1.4091796875, 0.04937744140625, 1.5
