timeTick, roll, pitch, yaw, stateX, stateY, stateZ, stateVX, stateVY, stateVZ, otX0, otY0, otZ0, otRoll0, otPitch0, otYaw0, left wing, pitch motor, yaw motor, right wing, voltage, roll rate, pitch rate, yaw rate, A_x, A_y, A_z, current, i_raw, v_raw, airflow_voltage, airflow_speed, pot_Pitch
58755, -3.6997387409210205, 5.869813442230225, 8.201382637023926, 0, 0, 0, 0, 0, 0, -0.865140438079834, -1.0581127405166626, 0.053321678191423416, -1.0231269498766367, -0.7121964177358677, 7.941910756856961, 0, 0, 0, 0, 0, 0, 0, 0, 0, 0, 0, 0, 0, 0, 0, 0, 0
58765, -3.6983466148376465, 5.869560241699219, 8.201034545898438, 0.0035147215239703655, -0.001572397188283503, -92.49113464355469, 0.3460928499698639, -0.15483354032039642, -3.215461254119873, -0.8651678562164307, -1.058090329170227, 0.05328475683927536, -1.0515464594340713, -0.7062480548872259, 7.937533913859462, 9362.0, 30146.0, 35388.0, 9362.0, 0, 0.07605111598968506, -0.2436223179101944, -0.12685814499855042, -0.08428529649972916, -0.044259440153837204, 0.9962759613990784, 0, 0, 0, 0, 0, 0
58775, -3.6974291801452637, 5.870421886444092, 8.200553894042969, 0.0069217681884765625, -0.003096626605838537, -92.5232925415039, 0.33531653881073, -0.1500123292207718, -3.2165024280548096, -0.8651262521743774, -1.0581002235412598, 0.05333457887172699, -1.0237312637894567, -0.7143612483310449, 7.935724523680102, 9362.0, 30146.0, 35388.0, 9362.0, 0, 0.17451415956020355, 0.28161612153053284, 0.13549427688121796, -0.08276102691888809, -0.04244014993309975, 0.9955792427062988, 0, 0, 0, 1.3974609375, 0.03759765625, 0
58785, -3.6965138912200928, 5.867808818817139, 8.20126724243164, 0.010221063159406185, -0.00457265879958868, -92.55546569824219, 0.3245425224304199, -0.14519397914409637, -3.2175567150115967, -0.8651479482650757, -1.058104157447815, 0.05331576615571976, -1.0225855038936462, -0.7109221962167283, 7.939420769524239, 9362.0, 30146.0, 35388.0, 9362.0, 0, -0.29787421226501465, 0.13627348840236664, 0.35942643880844116, -0.08085563778877258, -0.04224245995283127, 0.9958983659744263, 0, 0, 0, 1.4208984375, 0.063079833984375, 1.4912109375
58795, -3.6989119052886963, 5.866964340209961, 8.202435493469238, 0.013412658125162125, -0.006000536493957043, -92.587646484375, 0.31377649307250977, -0.14038167893886566, -3.2186946868896484, -0.8651403188705444, -1.058106541633606, 0.05332859233021736, -1.0243098319656923, -0.7174343372998067, 7.941654600187117, 9362.0, 30146.0, 35388.0, 9362.0, 0, 0.1547052413225174, -0.225422665476799, -0.12155228853225708, -0.08326957374811172, -0.04338325932621956, 0.9957236051559448, 0, 0, 0, 1.465576171875, 0.130889892578125, 1.4912109375
58805, -3.699119806289673, 5.869821548461914, 8.201238632202148, 0.01649661362171173, -0.007380295544862747, -92.61984252929688, 0.3030146360397339, -0.13557033240795135, -3.219829559326172, -0.86513751745224, -1.058106541633606, 0.05331971496343613, -1.0257958040242712, -0.7176526937775236, 7.940235162689031, 9362.0, 30146.0, 35388.0, 9362.0, 0, -0.042719531804323196, -0.2274158000946045, -0.3733757734298706, -0.08265133947134018, -0.04147970676422119, 0.996286928653717, 0, 0, 0, 1.44873046875, 0.102813720703125, 1.4912109375
58815, -3.6995909214019775, 5.871201038360596, 8.198758125305176, 0.019472964107990265, -0.008711924776434898, -92.65204620361328, 0.29225561022758484, -0.13075533509254456, -3.2209808826446533, -0.8651313185691833, -1.058107852935791, 0.0533226914703846, -1.0236856582681555, -0.716821330682933, 7.94216157989708, 9362.0, 30146.0, 35388.0, 9362.0, 0, -0.028189286589622498, 0.09511222690343857, -0.016500324010849, -0.08344922959804535, -0.04115999490022659, 0.9971003532409668, 0, 0, 0, 1.409912109375, 0.0501251220703125, 1.4912109375
58825, -3.699847936630249, 5.870928764343262, 8.198524475097656, 0.022341672331094742, -0.009995391592383385, -92.68426513671875, 0.2814862132072449, -0.12593765556812286, -3.222081184387207, -0.8651386499404907, -1.058098316192627, 0.05332257226109505, -1.0241138484645658, -0.7206629432426155, 7.943989208199113, 9362.0, 30146.0, 35388.0, 9362.0, 0, -0.035365182906389236, 0.19310754537582397, 0.25451135635375977, -0.08318501710891724, -0.04236505925655365, 0.9973533749580383, 0, 0, 0, 1.4208984375, 0.063079833984375, 1.493408203125
58835, -3.699380397796631, 5.870783805847168, 8.199609756469727, 0.025102630257606506, -0.011230656877160072, -92.71649169921875, 0.2707054615020752, -0.12111547589302063, -3.2231009006500244, -0.8651748895645142, -1.0580840110778809, 0.05328867956995964, -1.0407634227322824, -0.7010558816134278, 7.93745986568085, 9362.0, 30146.0, 35388.0, 9362.0, 0, -0.09837377816438675, -0.09021809697151184, -0.27047199010849, -0.08437582105398178, -0.04338056221604347, 0.996255099773407, 0, 0, 0, 1.46630859375, 0.132171630859375, 1.493408203125
58845, -3.698573350906372, 5.871506690979004, 8.196911811828613, 0.027755770832300186, -0.012417692691087723, -92.74872589111328, 0.25992265343666077, -0.11629194766283035, -3.224099636077881, -0.8651747107505798, -1.0580837726593018, 0.05326524376869202, -1.045731978252286, -0.7057117419094538, 7.934295817222693, 9362.0, 30146.0, 35388.0, 9362.0, 0, -0.11070047318935394, -0.10587050020694733, 0.016945146024227142, -0.08230084180831909, -0.04262743517756462, 0.9968023300170898, 0, 0, 0, 1.43115234375, 0.0766143798828125, 1.494873046875
58855, -3.698639392852783, 5.871384143829346, 8.196706771850586, 0.03030111826956272, -0.013556513004004955, -92.78097534179688, 0.24914707243442535, -0.11147163063287735, -3.2251579761505127, -0.8651236891746521, -1.058103084564209, 0.05334082990884781, -1.0219172946352888, -0.7215187626334512, 7.940106323452927, 9362.0, 30146.0, 35388.0, 9362.0, 8.112398147583008, -0.21723432838916779, -0.06174762174487114, 0.3122471570968628, -0.08173131197690964, -0.04247618094086647, 0.9946480989456177, -0.08320993185043335, -0.2904777526855469, 1.47216796875, 1.3974609375, 0.03759765625, 1.494873046875
58865, -3.7003707885742188, 5.871173858642578, 8.198010444641113, 0.032738685607910156, -0.014647126197814941, -92.813232421875, 0.23836635053157806, -0.10665098577737808, -3.226179599761963, -0.865139365196228, -1.0581080913543701, 0.05330969765782356, -1.027270811500467, -0.7129148812730932, 7.941742122318727, 9362.0, 30146.0, 35388.0, 9362.0, 8.112398147583008, -0.01902039907872677, -0.11425347626209259, 0.11526959389448166, -0.08222778141498566, -0.042034879326820374, 0.9956622123718262, -0.08320993185043335, -0.2904777526855469, 1.47216796875, 1.44580078125, 0.098236083984375, 1.494140625
58875, -3.6999261379241943, 5.871820449829102, 8.199236869812012, 0.03506854176521301, -0.015689576044678688, -92.84549713134766, 0.22760502994060516, -0.10183905065059662, -3.227374792098999, -0.8651944398880005, -1.0581094026565552, 0.053284429013729095, -1.0475355100225248, -0.716379447926272, 7.934154961163062, 9362.0, 30146.0, 35388.0, 9362.0, 8.112398147583008, -0.15828104317188263, 0.18553496897220612, 0.2990598678588867, -0.0819404199719429, -0.044241201132535934, 0.9947190284729004, -0.08320993185043335, -0.2904777526855469, 1.47216796875, 1.428955078125, 0.073577880859375, 1.494140625
58885, -3.7006642818450928, 5.870412826538086, 8.20120906829834, 0.037290774285793304, -0.01668388769030571, -92.87777709960938, 0.21684135496616364, -0.09702339768409729, -3.2285497188568115, -0.8651983141899109, -1.0581119060516357, 0.05330567806959152, -1.0515159732881536, -0.7135521247479915, 7.941300005616583, 9362.0, 30146.0, 35388.0, 9362.0, 8.112398147583008, -0.16140136122703552, 0.012424885295331478, 0.32332098484039307, -0.08131902664899826, -0.043284669518470764, 0.9967440366744995, -0.08320993185043335, -0.2904777526855469, 1.47216796875, 1.478759765625, 0.1546478271484375, 1.491943359375
58895, -3.700554847717285, 5.870254039764404, 8.202184677124023, 0.03940538689494133, -0.01763005740940571, -92.91007232666016, 0.20608094334602356, -0.092211052775383, -3.2297654151916504, -0.8651612997055054, -1.05812668800354, 0.053354378789663315, -1.0253990038311351, -0.7248373711462648, 7.93432944252109, 9362.0, 30146.0, 35388.0, 9362.0, 8.112398147583008, -0.04695511236786842, 0.12661266326904297, 0.20572568476200104, -0.08020394295454025, -0.042501579970121384, 0.993604838848114, -0.08320993185043335, -0.2904777526855469, 1.47216796875, 1.465576171875, 0.130889892578125, 1.491943359375
58905, -3.700554370880127, 5.869526386260986, 8.203219413757324, 0.04141232743859291, -0.018528064712882042, -92.94237518310547, 0.19530735909938812, -0.08739041537046432, -3.2308428287506104, -0.8651519417762756, -1.058127522468567, 0.05334094911813736, -1.0322807778613214, -0.7304904640621146, 7.935629909564323, 9362.0, 30146.0, 35388.0, 9362.0, 8.112398147583008, 0.035327114164829254, 0.31807568669319153, 0.08906378597021103, -0.08237386494874954, -0.042548391968011856, 0.9947507977485657, -0.08320993185043335, -0.2904777526855469, 1.47216796875, 1.4208984375, 0.063079833984375, 1.490478515625
58915, -3.7004294395446777, 5.866551876068115, 8.203289031982422, 0.04331166297197342, -0.019377924501895905, -92.97469329833984, 0.18455959856510162, -0.08258159458637238, -3.2321510314941406, -0.8651884198188782, -1.0581092834472656, 0.05329112336039543, -1.052262667380646, -0.7164245305235966, 7.947996549331509, 9362.0, 30146.0, 35388.0, 9362.0, 8.112398147583008, -0.09629565477371216, -0.24053721129894257, -0.09294748306274414, -0.0811401978135109, -0.0400298535823822, 0.9943181872367859, -0.08320993185043335, -0.2904777526855469, 1.47216796875, 1.368896484375, 0.01885986328125, 1.490478515625
58925, -3.7004425525665283, 5.86740255355835, 8.203380584716797, 0.04510350152850151, -0.020179683342576027, -93.00701904296875, 0.17380794882774353, -0.07777036726474762, -3.233412981033325, -0.8651610612869263, -1.0581283569335938, 0.05335602909326553, -1.0266572383151653, -0.7281355793432738, 7.940086988782578, 9362.0, 30146.0, 35388.0, 9362.0, 8.112398147583008, -0.14236940443515778, 0.10356888175010681, 0.21882754564285278, -0.08257780969142914, -0.042849164456129074, 0.9960057139396667, -0.08320993185043335, -0.2904777526855469, 1.47216796875, 1.4677734375, 0.1347198486328125, 1.491943359375
58935, -3.7013373374938965, 5.866410732269287, 8.20534610748291, 0.04678783565759659, -0.020933322608470917, -93.03936004638672, 0.16305910050868988, -0.0729576125741005, -3.2346549034118652, -0.8652324676513672, -1.0581297874450684, 0.05327813699841499, -1.0487015496210574, -0.719063915856168, 7.9771766476825565, 9362.0, 30146.0, 35388.0, 9362.0, 8.112398147583008, -0.009909202344715595, -0.09503362327814102, 0.1302916258573532, -0.08441563695669174, -0.04275006428360939, 0.9950011968612671, -0.08320993185043335, -0.2904777526855469, 1.47216796875, 1.423095703125, 0.06591796875, 1.491943359375
58945, -3.7016489505767822, 5.866100788116455, 8.206287384033203, 0.04836459085345268, -0.02163879945874214, -93.07170867919922, 0.1522919088602066, -0.06813792139291763, -3.235745906829834, -0.8652130961418152, -1.0581119060516357, 0.05328892171382904, -1.0481832057982214, -0.715184630446231, 7.960660701011663, 9362.0, 30146.0, 35388.0, 9362.0, 8.112398147583008, -0.3456924259662628, -0.10414955019950867, -0.06499221920967102, -0.08299601823091507, -0.043363310396671295, 0.9962633848190308, -0.08320993185043335, -0.2904777526855469, 1.47216796875, 1.411376953125, 0.05181884765625, 1.49560546875
58955, -3.7035131454467773, 5.866244792938232, 8.206589698791504, 0.049833744764328, -0.022296100854873657, -93.10407257080078, 0.141539067029953, -0.06332246959209442, -3.2369534969329834, -0.8651837110519409, -1.0581399202346802, 0.053335823118686676, -1.0303831225652331, -0.7302237792856943, 7.965875068498784, 9362.0, 30146.0, 35388.0, 9362.0, 8.112398147583008, -0.08173299580812454, 0.1620420664548874, 0.08514227718114853, -0.08240332454442978, -0.04183126986026764, 0.9965700507164001, -0.0819137692451477, 0.03208160400390625, 1.49853515625, 1.43408203125, 0.080810546875, 1.49560546875
58965, -3.7034168243408203, 5.8650007247924805, 8.207544326782227, 0.05119532346725464, -0.022905223071575165, -93.13644409179688, 0.13077662885189056, -0.05850198492407799, -3.2380716800689697, -0.8651911616325378, -1.0581371784210205, 0.05332896113395691, -1.02466628552219, -0.736799265608937, 7.97063803002514, 9362.0, 30146.0, 35388.0, 9362.0, 8.112398147583008, 0.06450206786394119, 0.3250249922275543, 0.2837185263633728, -0.07920032739639282, -0.042866166681051254, 0.9956068396568298, -0.0819137692451477, 0.03208160400390625, 1.49853515625, 1.455322265625, 0.1134796142578125, 1.5
58975, -3.702608585357666, 5.86195707321167, 8.209722518920898, 0.05244923382997513, -0.02346610650420189, -93.16883087158203, 0.12000530958175659, -0.05367494747042656, -3.2391161918640137, -0.8651943206787109, -1.058144450187683, 0.05332557111978531, -1.0284026696953101, -0.7373731553201424, 7.970073527347066, 9362.0, 30146.0, 35388.0, 9362.0, 8.112398147583008, -0.042500197887420654, -0.2842225730419159, -0.2904609739780426, -0.08255085349082947, -0.040946099907159805, 0.9944262504577637, -0.0819137692451477, 0.03208160400390625, 1.49853515625, 1.44287109375, 0.0936279296875, 1.5
58985, -3.7022881507873535, 5.863914966583252, 8.208255767822266, 0.053595490753650665, -0.023978743702173233, -93.20122528076172, 0.109246164560318, -0.04885277897119522, -3.240253210067749, -0.8651806712150574, -1.0581284761428833, 0.053329333662986755, -1.0299514380405967, -0.7335636980978961, 7.962757873900471, 9362.0, 30146.0, 35388.0, 9362.0, 8.112398147583008, -0.06764592230319977, -0.11655935645103455, 0.29805484414100647, -0.08228900283575058, -0.040888458490371704, 0.9929829239845276, -0.0819137692451477, 0.03208160400390625, 1.49853515625, 1.452392578125, 0.10870361328125, 1.494873046875
58995, -3.7028725147247314, 5.86440372467041, 8.2095365524292, 0.054634250700473785, -0.024443194270133972, -93.23363494873047, 0.09850606322288513, -0.04403708502650261, -3.2415122985839844, -0.8652172684669495, -1.0581151247024536, 0.05327131971716881, -1.05081513209665, -0.7217134182050415, 7.968267835642615, 9362.0, 30146.0, 35388.0, 9362.0, 8.112398147583008, 0.03925260528922081, 0.06731898337602615, -0.09694536030292511, -0.08279461413621902, -0.04141325131058693, 0.9944390654563904, -0.0819137692451477, 0.03208160400390625, 1.49853515625, 1.39453125, 0.035003662109375, 1.494873046875
59005, -3.7023260593414307, 5.864518642425537, 8.208272933959961, 0.055565670132637024, -0.02485952526330948, -93.26605987548828, 0.08777808398008347, -0.03922951966524124, -3.242910385131836, -0.8652119040489197, -1.058120608329773, 0.05328357219696045, -1.046570150180011, -0.721419039228465, 7.9650731132553725, 9362.0, 30146.0, 35388.0, 9362.0, 8.112398147583008, -0.15231017768383026, -0.1628725230693817, -0.047587525099515915, -0.08018187433481216, -0.04144558683037758, 0.996112048625946, -0.0819137692451477, 0.03208160400390625, 1.49853515625, 1.443603515625, 0.0948486328125, 1.49560546875
59015, -3.702828884124756, 5.866451263427734, 8.207418441772461, 0.05638973042368889, -0.02522774413228035, -93.29849243164062, 0.07703399658203125, -0.03441402316093445, -3.2441718578338623, -0.8651723265647888, -1.0581352710723877, 0.05333472415804863, -1.0259142980589537, -0.7282743473715243, 7.965697103155574, 9362.0, 30146.0, 35388.0, 9362.0, 8.112398147583008, 0.0921223983168602, -0.01782451570034027, -0.1628115326166153, -0.0823950245976448, -0.041286807507276535, 0.9954651594161987, -0.0819137692451477, 0.03208160400390625, 1.49853515625, 1.44580078125, 0.098236083984375, 1.49560546875
59025, -3.7019917964935303, 5.866898059844971, 8.207345008850098, 0.05710626021027565, -0.025547770783305168, -93.33094024658203, 0.06627199798822403, -0.0295912753790617, -3.2452714443206787, -0.8652177453041077, -1.0581198930740356, 0.0532858744263649, -1.0554864026669681, -0.7221432818566029, 7.967262247371976, 9362.0, 30146.0, 35388.0, 9362.0, 8.112398147583008, -0.13392627239227295, -0.10460864752531052, 0.13200925290584564, -0.0836234912276268, -0.04191790893673897, 0.9967687129974365, -0.0819137692451477, 0.03208160400390625, 1.49853515625, 1.453857421875, 0.1110687255859375, 1.493408203125
59035, -3.703324556350708, 5.867656230926514, 8.208529472351074, 0.057715170085430145, -0.025819575414061546, -93.36339569091797, 0.055509719997644424, -0.024769511073827744, -3.246398687362671, -0.8652063608169556, -1.058119535446167, 0.05330110713839531, -1.053214585205464, -0.7203686879132931, 7.964450283646619, 9362.0, 30146.0, 35388.0, 9362.0, 8.112398147583008, 0.0782131478190422, -0.09098929911851883, -0.09353817254304886, -0.08363421261310577, -0.04297422245144844, 0.9953517317771912, -0.0819137692451477, 0.03208160400390625, 1.49853515625, 1.43408203125, 0.080810546875, 1.493408203125
59045, -3.7026853561401367, 5.868335247039795, 8.20742416381836, 0.0582164004445076, -0.02604314684867859, -93.39586639404297, 0.044736530631780624, -0.01994490809738636, -3.24743390083313, -0.8651798963546753, -1.058132290840149, 0.053320690989494324, -1.0305599855069598, -0.7372442472691318, 7.965017155008513, 9362.0, 30146.0, 35388.0, 9362.0, 8.112398147583008, -0.2994646430015564, 0.08594489097595215, -0.09627050906419754, -0.08127220720052719, -0.04255540296435356, 0.9951010346412659, -0.0819137692451477, 0.03208160400390625, 1.49853515625, 1.411376953125, 0.05181884765625, 1.491943359375
59055, -3.704050302505493, 5.8685688972473145, 8.206235885620117, 0.058609966188669205, -0.02621849626302719, -93.4283447265625, 0.0339767262339592, -0.015124652534723282, -3.248603582382202, -0.8652094006538391, -1.0581202507019043, 0.0532759353518486, -1.0516476205395788, -0.7234066688394307, 7.969819262381856, 9362.0, 30146.0, 35388.0, 9362.0, 8.112398147583008, 0.28776514530181885, 0.25647029280662537, 0.31975257396698, -0.08057364076375961, -0.04309147596359253, 0.9957519173622131, -0.09424016624689102, -0.18295860290527344, 1.48095703125, 1.43701171875, 0.085052490234375, 1.491943359375
59065, -3.7033817768096924, 5.868078231811523, 8.207487106323242, 0.05889594554901123, -0.02634565532207489, -93.4608383178711, 0.023219147697091103, -0.010306877084076405, -3.24980092048645, -0.8652135133743286, -1.058118224143982, 0.053293805569410324, -1.0494031600079547, -0.7200579582253681, 7.968673545050192, 9362.0, 30146.0, 35388.0, 9362.0, 8.112398147583008, 0.022522568702697754, 0.07387477159500122, 0.1494515985250473, -0.0814833864569664, -0.04566099867224693, 0.9957021474838257, -0.09424016624689102, -0.18295860290527344, 1.48095703125, 1.39306640625, 0.0337982177734375, 1.496337890625
59075, -3.7035837173461914, 5.867010593414307, 8.208436965942383, 0.059074316173791885, -0.02642461098730564, -93.49333953857422, 0.012455099262297153, -0.005484514869749546, -3.2509477138519287, -0.8652279376983643, -1.058119535446167, 0.05329051613807678, -1.0451657647250203, -0.7181282318450428, 7.970107040116151, 9362.0, 30146.0, 35388.0, 9362.0, 8.112398147583008, -0.0389227457344532, -0.45243823528289795, -0.029349055141210556, -0.08174526691436768, -0.041273705661296844, 0.9936244487762451, -0.09424016624689102, -0.18295860290527344, 1.48095703125, 1.442138671875, 0.0926361083984375, 1.496337890625
59085, -3.703993797302246, 5.868992805480957, 8.20809268951416, 0.05914504453539848, -0.0264553464949131, -93.5258560180664, 0.0016904474468901753, -0.0006626924150623381, -3.2520806789398193, -0.8651812076568604, -1.0581282377243042, 0.053346410393714905, -1.0367826879518225, -0.73223806795977, 7.9700407758676555, 9362.0, 30146.0, 35388.0, 9362.0, 8.112398147583008, 0.13183964788913727, 0.10700691491365433, -0.212876558303833, -0.08141312003135681, -0.03971369192004204, 0.9954058527946472, -0.09424016624689102, -0.18295860290527344, 1.48095703125, 1.371826171875, 0.02008056640625, 1.491943359375
59095, -3.7029945850372314, 5.86907958984375, 8.206899642944336, 0.05910823121666908, -0.026437904685735703, -93.55838012695312, -0.009052863344550133, 0.004151087254285812, -3.253390073776245, -0.8651942610740662, -1.0581324100494385, 0.05334659665822983, -1.0276233218606294, -0.7293841168799133, 7.960074067525038, 9362.0, 30146.0, 35388.0, 9362.0, 8.112398147583008, -0.021569613367319107, -0.11616512387990952, -0.011860179714858532, -0.08109796047210693, -0.0399969145655632, 0.9954881072044373, -0.09424016624689102, -0.18295860290527344, 1.48095703125, 1.427490234375, 0.0716400146484375, 1.491943359375
59105, -3.7033679485321045, 5.870325565338135, 8.206192970275879, 0.05896390601992607, -0.02637229487299919, -93.5909194946289, -0.019812453538179398, 0.008971044793725014, -3.254582643508911, -0.8651832342147827, -1.0581353902816772, 0.0533573180437088, -1.0349047779566842, -0.7302468237249116, 7.9620316481392495, 9362.0, 30146.0, 35388.0, 9362.0, 8.112398147583008, 0.1642003059387207, 0.33592599630355835, -0.0008359384373761714, -0.08160955458879471, -0.04181218892335892, 0.9992429614067078, -0.09424016624689102, -0.18295860290527344, 1.48095703125, 1.43408203125, 0.080810546875, 1.48974609375
59115, -3.7024941444396973, 5.867007732391357, 8.206159591674805, 0.0587119534611702, -0.026258477941155434, -93.62347412109375, -0.030578292906284332, 0.01379233505576849, -3.2557177543640137, -0.8651769161224365, -1.058132529258728, 0.05334661155939102, -1.0374315194911914, -0.7333652308608407, 7.96530005052168, 9362.0, 30146.0, 35388.0, 9362.0, 8.112398147583008, -0.06546122580766678, -0.16917704045772552, -0.3606629967689514, -0.08095995336771011, -0.043320104479789734, 0.9975113272666931, -0.09424016624689102, -0.18295860290527344, 1.48095703125, 1.39013671875, 0.0314483642578125, 1.48974609375
59125, -3.7031054496765137, 5.86726188659668, 8.203629493713379, 0.05835216864943504, -0.026096373796463013, -93.65603637695312, -0.041378870606422424, 0.01862848550081253, -3.2565596103668213, -0.8652179837226868, -1.058117389678955, 0.05328559875488281, -1.0519234294144506, -0.7194995987055677, 7.965311041981254, 9362.0, 30146.0, 35388.0, 9362.0, 8.112398147583008, 0.15059755742549896, -0.32984480261802673, 0.1348876953125, -0.08192375302314758, -0.0433349572122097, 0.9957006573677063, -0.09424016624689102, -0.18295860290527344, 1.48095703125, 1.449462890625, 0.103973388671875, 1.49267578125
59135, -3.7025508880615234, 5.868204593658447, 8.203520774841309, 0.057884473353624344, -0.025885941460728645, -93.68860626220703, -0.05215998366475105, 0.02345847897231579, -3.2575221061706543, -0.8651702404022217, -1.0581371784210205, 0.053352758288383484, -1.0335743439377194, -0.7294580603729912, 7.965399488677882, 9362.0, 30146.0, 35388.0, 9362.0, 8.112398147583008, -0.13996069133281708, -0.13323020935058594, -0.18470346927642822, -0.08222565054893494, -0.042432062327861786, 0.9969654083251953, -0.09424016624689102, -0.18295860290527344, 1.48095703125, 1.41796875, 0.05950927734375, 1.49267578125
59145, -3.7028098106384277, 5.869582653045654, 8.202672958374023, 0.057309068739414215, -0.025627247989177704, -93.72118377685547, -0.06292103976011276, 0.02828015573322773, -3.2586710453033447, -0.8651792407035828, -1.058122992515564, 0.0533439926803112, -1.0290543141148614, -0.733764861620358, 7.9603916831968995, 9362.0, 30146.0, 35388.0, 9362.0, 8.112398147583008, 0.15986603498458862, 0.09940358996391296, -0.19845318794250488, -0.08193137496709824, -0.04301633685827255, 0.9965722560882568, -0.09424016624689102, -0.18295860290527344, 1.48095703125, 1.44580078125, 0.098236083984375, 1.48974609375
59155, -3.7015140056610107, 5.869734287261963, 8.201301574707031, 0.05662596970796585, -0.025320308282971382, -93.75377655029297, -0.07369913905858994, 0.033107854425907135, -3.2596795558929443, -0.8652088046073914, -1.0581055879592896, 0.05330333486199379, -1.0524833136746479, -0.7165711807628554, 7.970398118446536, 9362.0, 30146.0, 35388.0, 9362.0, 8.112398147583008, 0.07700534909963608, 0.11223913729190826, -0.031409040093421936, -0.08150405436754227, -0.04299842566251755, 0.994838297367096, -0.07855228334665298, 0.023120880126953125, 1.497802734375, 1.41064453125, 0.0509490966796875, 1.48974609375
59165, -3.700406312942505, 5.869745254516602, 8.20094108581543, 0.05583508312702179, -0.02496509440243244, -93.786376953125, -0.08447812497615814, 0.037935350090265274, -3.260699510574341, -0.8652241826057434, -1.0581165552139282, 0.05327581241726875, -1.053578045564333, -0.7214314152932957, 7.97032293448035, 9362.0, 30146.0, 35388.0, 9362.0, 8.112398147583008, 0.01784691773355007, 0.1142808273434639, -0.21433380246162415, -0.08253602683544159, -0.042175326496362686, 0.994576096534729, -0.07855228334665298, 0.023120880126953125, 1.497802734375, 1.4208984375, 0.063079833984375, 1.493408203125
59175, -3.6999197006225586, 5.868873596191406, 8.199347496032715, 0.05493650585412979, -0.02456165850162506, -93.8189926147461, -0.09523723274469376, 0.04275176674127579, -3.2618978023529053, -0.8652173280715942, -1.0581177473068237, 0.05328181013464928, -1.0508501032315294, -0.7186295903982511, 7.960085445189568, 9362.0, 30146.0, 35388.0, 9362.0, 8.112398147583008, -0.07232340425252914, 0.26032447814941406, -0.030636640265583992, -0.0835491418838501, -0.04201669245958328, 0.9949277639389038, -0.07855228334665298, 0.023120880126953125, 1.497802734375, 1.452392578125, 0.10870361328125, 1.493408203125
59185, -3.7002880573272705, 5.868201732635498, 8.19857406616211, 0.05393034219741821, -0.02411006949841976, -93.85161590576172, -0.1059955433011055, 0.04756644368171692, -3.2631003856658936, -0.8652252554893494, -1.058119535446167, 0.053310658782720566, -1.0485046146595953, -0.7184546835251524, 7.964912041206824, 9362.0, 30146.0, 35388.0, 9362.0, 8.112398147583008, -0.14185744524002075, 0.198465958237648, 0.09674913436174393, -0.08324500918388367, -0.040648698806762695, 0.9952195286750793, -0.07855228334665298, 0.023120880126953125, 1.497802734375, 1.424560546875, 0.0678253173828125, 1.494873046875
59195, -3.7009894847869873, 5.865976333618164, 8.199747085571289, 0.05281661078333855, -0.02361033856868744, -93.8842544555664, -0.11675070971250534, 0.052379973232746124, -3.2643158435821533, -0.8651857972145081, -1.0581352710723877, 0.053339388221502304, -1.0301732960322265, -0.7346918473425035, 7.966288590507488, 9362.0, 30146.0, 35388.0, 9362.0, 8.112398147583008, -0.027646783739328384, 0.2737874686717987, 0.05670006573200226, -0.08203233778476715, -0.03971821814775467, 0.995318591594696, -0.07855228334665298, 0.023120880126953125, 1.497802734375, 1.4326171875, 0.0786895751953125, 1.494873046875
59205, -3.700826406478882, 5.8642191886901855, 8.199847221374512, 0.05159531161189079, -0.023062456399202347, -93.91690063476562, -0.12750959396362305, 0.05719614028930664, -3.2654895782470703, -0.8651914596557617, -1.0581250190734863, 0.05336245149374008, -1.0319475812864412, -0.7315379097322534, 7.965553611879218, 9362.0, 30146.0, 35388.0, 9362.0, 8.112398147583008, -0.038765404373407364, -0.20114292204380035, -0.0381341390311718, -0.08282020688056946, -0.04281925782561302, 0.9943689703941345, -0.07855228334665298, 0.023120880126953125, 1.497802734375, 1.46630859375, 0.132171630859375, 1.493408203125
59215, -3.7005293369293213, 5.8645853996276855, 8.199591636657715, 0.050266433507204056, -0.022466402500867844, -93.9495620727539, -0.13826614618301392, 0.062014587223529816, -3.2666518688201904, -0.8652312755584717, -1.0581166744232178, 0.05330093577504158, -1.0537561607318013, -0.717241688317614, 7.96624006387163, 9362.0, 30146.0, 35388.0, 9362.0, 8.112398147583008, -0.13006488978862762, -0.2490062713623047, -0.36767706274986267, -0.08365088701248169, -0.04387916624546051, 0.9945120215415955, -0.07855228334665298, 0.023120880126953125, 1.497802734375, 1.46044921875, 0.12200927734375, 1.493408203125
59225, -3.7010960578918457, 5.865961074829102, 8.198057174682617, 0.0488300547003746, -0.021822186186909676, -93.98223114013672, -0.14900988340377808, 0.06682886183261871, -3.267901659011841, -0.8651895523071289, -1.0581215620040894, 0.0533720999956131, -1.0265932783042153, -0.7390536418444356, 7.969214091606646, 9362.0, 30146.0, 35388.0, 9362.0, 8.112398147583008, -0.10683625191450119, 0.04789912328124046, -0.07408768683671951, -0.08167234808206558, -0.04255646839737892, 0.9937622547149658, -0.07855228334665298, 0.023120880126953125, 1.497802734375, 1.436279296875, 0.0838775634765625, 1.494873046875
59235, -3.701691150665283, 5.8643388748168945, 8.198598861694336, 0.0488300547003746, -0.021822186186909676, -93.98223114013672, -0.14900988340377808, 0.06682886183261871, -3.267901659011841, -0.8651813268661499, -1.0581296682357788, 0.053352732211351395, -1.0307597405924391, -0.7363443017023599, 7.967991270950514, 9362.0, 30146.0, 35388.0, 9362.0, 8.112398147583008, 0.025095734745264053, 0.2738403081893921, 0.009811070747673512, -0.08167234808206558, -0.04255646839737892, 0.9937622547149658, -0.07855228334665298, 0.023120880126953125, 1.497802734375, 1.436279296875, 0.0838775634765625, 1.494873046875
59245, -3.7012758255004883, 5.8618669509887695, 8.198907852172852, 0.0488300547003746, -0.021822186186909676, -93.98223114013672, -0.14900988340377808, 0.06682886183261871, -3.267901659011841, -0.8651902079582214, -1.0581343173980713, 0.05334979295730591, -1.0334641196890484, -0.7347162534658764, 7.972561750838985, 9362.0, 30146.0, 35388.0, 9362.0, 8.112398147583008, 0.025095734745264053, 0.2738403081893921, 0.009811070747673512, -0.08167234808206558, -0.04255646839737892, 0.9937622547149658, -0.07855228334665298, 0.023120880126953125, 1.497802734375, 1.436279296875, 0.0838775634765625, 1.490478515625
59285, -3.701077699661255, 5.863169193267822, 8.197858810424805, 0.03795504570007324, -0.016945501789450645, -94.17852020263672, -0.21348965167999268, 0.09573379904031754, -3.275153160095215, -0.8652107119560242, -1.0581130981445312, 0.053301356732845306, -1.0540845230144686, -0.7167959956616698, 7.965277595349215, 9362.0, 30146.0, 35388.0, 9362.0, 8.112398147583008, 0.07176470756530762, 0.21091333031654358, 0.027102679014205933, -0.08251039683818817, -0.04110050946474075, 0.9968054890632629, -0.07855228334665298, 0.023120880126953125, 1.497802734375, 1.436279296875, 0.0838775634765625, 1.490478515625
59295, -3.701192617416382, 5.861716270446777, 8.197532653808594, 0.035766344517469406, -0.015964044257998466, -94.2112808227539, -0.22425076365470886, 0.10055789351463318, -3.276219606399536, -0.8652229905128479, -1.058118462562561, 0.05328704044222832, -1.0462393192821429, -0.7220570773486941, 7.96358852168193, 9362.0, 30146.0, 35388.0, 9362.0, 8.112398147583008, 0.17890594899654388, -0.08106923848390579, -0.0025473833084106445, -0.08262205868959427, -0.041456438601017, 0.9976610541343689, -0.07855228334665298, 0.023120880126953125, 1.497802734375, 1.436279296875, 0.0838775634765625, 1.490478515625
59305, -3.7008988857269287, 5.862410545349121, 8.197294235229492, 0.035766344517469406, -0.015964044257998466, -94.2112808227539, -0.22425076365470886, 0.10055789351463318, -3.276219606399536, -0.8651871681213379, -1.0581320524215698, 0.05334089696407318, -1.034243012914176, -0.7355041509363502, 7.969566148200644, 9362.0, 30146.0, 35388.0, 9362.0, 8.112398147583008, 0.1837913691997528, -0.36208415031433105, -0.22916831076145172, -0.08262205868959427, -0.041456438601017, 0.9976610541343689, -0.07855228334665298, 0.023120880126953125, 1.497802734375, 1.436279296875, 0.0838775634765625, 1.491943359375
59315, -3.6992135047912598, 5.865023136138916, 8.196405410766602, 0.031066056340932846, -0.013856377452611923, -94.27682495117188, -0.24578304588794708, 0.11021189391613007, -3.2782609462738037, -0.8652030229568481, -1.058119773864746, 0.05330108106136322, -1.0504434126972633, -0.7201038046909787, 7.973871597811238, 9362.0, 30146.0, 35388.0, 9362.0, 8.112398147583008, 0.027138182893395424, 0.267016738653183, 0.17649582028388977, -0.0829181969165802, -0.04239029809832573, 0.9951942563056946, -0.07855228334665298, 0.023120880126953125, 1.497802734375, 1.436279296875, 0.0838775634765625, 1.491943359375
59325, -3.6990621089935303, 5.8627848625183105, 8.198002815246582, 0.031066056340932846, -0.013856377452611923, -94.27682495117188, -0.24578304588794708, 0.11021189391613007, -3.2782609462738037, -0.8652117252349854, -1.0581252574920654, 0.05328015610575676, -1.0498737415720958, -0.7236880584174799, 7.963423365997242, 9362.0, 30146.0, 35388.0, 9362.0, 8.112398147583008, -0.10578442364931107, -0.004781543742865324, 0.15400046110153198, -0.08323878794908524, -0.04382002353668213, 0.994662344455719, -0.07855228334665298, 0.023120880126953125, 1.497802734375, 1.436279296875, 0.0838775634765625, 1.49267578125
59335, -3.6992084980010986, 5.861893653869629, 8.198505401611328, 0.025935156270861626, -0.011555666103959084, -94.34241485595703, -0.2673017084598541, 0.11985402554273605, -3.2804572582244873, -0.8651819825172424, -1.058138370513916, 0.05335626006126404, -1.0334882812823383, -0.7328553059543594, 7.967529114614452, 9362.0, 30146.0, 35388.0, 9362.0, 8.112398147583008, -0.11895786970853806, 0.07775082439184189, -0.22606588900089264, -0.08323878794908524, -0.04382002353668213, 0.994662344455719, -0.07855228334665298, 0.023120880126953125, 1.497802734375, 1.436279296875, 0.0838775634765625, 1.49267578125
59345, -3.699244260787964, 5.862238883972168, 8.196343421936035, 0.023208418861031532, -0.01033305935561657, -94.37522888183594, -0.2780459225177765, 0.12466733902692795, -3.281677007675171, -0.8651750087738037, -1.0581175088882446, 0.05335225909948349, -1.03236713385237, -0.7379181071118239, 7.969758230381477, 9362.0, 30146.0, 35388.0, 9362.0, 8.112398147583008, -0.11695722490549088, 0.049472469836473465, -0.13885705173015594, -0.08535097539424896, -0.04406984895467758, 0.9950094223022461, -0.07855228334665298, 0.023120880126953125, 1.497802734375, 1.436279296875, 0.0838775634765625, 1.493408203125
59365, -3.6982312202453613, 5.859684467315674, 8.195455551147461, 0.023208418861031532, -0.01033305935561657, -94.37522888183594, -0.2780459225177765, 0.12466733902692795, -3.281677007675171, -0.8652153611183167, -1.0581231117248535, 0.053287215530872345, -1.0554314959914677, -0.7234140942545935, 7.970160938928793, 9362.0, 30146.0, 35388.0, 9362.0, 8.112398147583008, -0.19285015761852264, 0.22441573441028595, -0.034414615482091904, -0.08535097539424896, -0.04406984895467758, 0.9950094223022461, -0.08969340473413467, -0.2187976837158203, 1.47802734375, 1.436279296875, 0.0838775634765625, 1.49560546875
59375, -3.698835849761963, 5.857769012451172, 8.194263458251953, 0.023208418861031532, -0.01033305935561657, -94.37522888183594, -0.2780459225177765, 0.12466733902692795, -3.281677007675171, -0.8651950359344482, -1.0581414699554443, 0.05334441363811493, -1.0291212837672412, -0.73730684537054, 7.961516562730982, 9362.0, 30146.0, 35388.0, 9362.0, 8.112398147583008, 0.2693442404270172, 0.18500661849975586, -0.1649288833141327, -0.08231902867555618, -0.04467914253473282, 0.9941078424453735, -0.08969340473413467, -0.2187976837158203, 1.47802734375, 1.436279296875, 0.0838775634765625, 1.49560546875
59385, -3.697463274002075, 5.857550621032715, 8.192514419555664, 0.023208418861031532, -0.01033305935561657, -94.37522888183594, -0.2780459225177765, 0.12466733902692795, -3.281677007675171, -0.8651911616325378, -1.0581295490264893, 0.0533621683716774, -1.0338659386076143, -0.7370580310158061, 7.966375739517283, 9362.0, 30146.0, 35388.0, 9362.0, 8.112398147583008, 0.1231396347284317, 0.07481376826763153, 0.15612778067588806, -0.08231902867555618, -0.04467914253473282, 0.9941078424453735, -0.08969340473413467, -0.2187976837158203, 1.47802734375, 1.436279296875, 0.0838775634765625, 1.49560546875
59405, -3.696319818496704, 5.854238986968994, 8.193541526794434, 0.004589836113154888, -0.0019854081328958273, -94.57232666015625, -0.34255123138427734, 0.15358221530914307, -3.2883763313293457, -0.8652219772338867, -1.0581121444702148, 0.05329718440771103, -1.0468126396255246, -0.7209176466999168, 7.964580004180775, 9362.0, 30146.0, 35388.0, 9362.0, 8.112398147583008, -0.0879608541727066, 0.32017627358436584, 0.3406205177307129, -0.07936625927686691, -0.04452208802103996, 0.9967097043991089, -0.08969340473413467, -0.2187976837158203, 1.47802734375, 1.436279296875, 0.0838775634765625, 1.49560546875
59415, -3.697176933288574, 5.851409435272217, 8.196734428405762, 0.004589836113154888, -0.0019854081328958273, -94.57232666015625, -0.34255123138427734, 0.15358221530914307, -3.2883763313293457, -0.8652251362800598, -1.0581164360046387, 0.0532975010573864, -1.0498378689252157, -0.7218922105709566, 7.971933615490634, 9362.0, 30146.0, 35388.0, 9362.0, 8.112398147583008, -0.05815889313817024, 0.24120545387268066, -0.06911879777908325, -0.08399555832147598, -0.04366523027420044, 0.9950047135353088, -0.08969340473413467, -0.2187976837158203, 1.47802734375, 1.436279296875, 0.0838775634765625, 1.49560546875
59425, -3.697557210922241, 5.849943161010742, 8.197247505187988, 0.004589836113154888, -0.0019854081328958273, -94.57232666015625, -0.34255123138427734, 0.15358221530914307, -3.2883763313293457, -0.8651857972145081, -1.0581268072128296, 0.05334240943193436, -1.0360330541044036, -0.7325307530342968, 7.963495961463032, 9362.0, 30146.0, 35388.0, 9362.0, 8.112398147583008, -0.10845474153757095, 0.35704872012138367, 0.2160511165857315, -0.08399555832147598, -0.04366523027420044, 0.9950047135353088, -0.08969340473413467, -0.2187976837158203, 1.47802734375, 1.436279296875, 0.0838775634765625, 1.49560546875
59435, -3.697834014892578, 5.848522663116455, 8.197774887084961, -0.0061704982072114944, 0.0028390195220708847, -94.67102813720703, -0.3747863471508026, 0.1680407077074051, -3.2915899753570557, -0.8651933073997498, -1.0581327676773071, 0.053341008722782135, -1.033252602408948, -0.7284747529068056, 7.966479316741013, 9362.0, 30146.0, 35388.0, 9362.0, 8.112398147583008, 0.05360658839344978, 0.09353835135698318, -0.13422653079032898, -0.08121959865093231, -0.0424613319337368, 0.9958473443984985, -0.08969340473413467, -0.2187976837158203, 1.47802734375, 1.436279296875, 0.0838775634765625, 1.49560546875
59465, -3.69755220413208, 5.844704627990723, 8.201088905334473, -0.017897149547934532, 0.008097163401544094, -94.76982879638672, -0.40699508786201477, 0.1825050562620163, -3.294811964035034, -0.8652156591415405, -1.0581156015396118, 0.05330688878893852, -1.0523927491417735, -0.7215097675894242, 7.956701604353472, 9362.0, 30146.0, 35388.0, 9362.0, 8.112398147583008, 0.011207135394215584, -0.2040584534406662, 0.07783476263284683, -0.08117907494306564, -0.040409721434116364, 0.9937418103218079, -0.08969340473413467, -0.2187976837158203, 1.47802734375, 1.436279296875, 0.0838775634765625, 1.4970703125
59475, -3.697446346282959, 5.846419811248779, 8.201623916625977, -0.017897149547934532, 0.008097163401544094, -94.76982879638672, -0.40699508786201477, 0.1825050562620163, -3.294811964035034, -0.8651911616325378, -1.0581313371658325, 0.05335649475455284, -1.0307456818180927, -0.7357124513780491, 7.971554808598946, 9362.0, 30146.0, 35388.0, 9362.0, 8.112398147583008, -0.1745055913925171, 0.09089997410774231, 0.3076058328151703, -0.08117907494306564, -0.040409721434116364, 0.9937418103218079, -0.08969340473413467, -0.2187976837158203, 1.47802734375, 1.436279296875, 0.0838775634765625, 1.4970703125
59495, -3.697939872741699, 5.844019412994385, 8.203873634338379, -0.030589822679758072, 0.013789244927465916, -94.86872100830078, -0.4391559958457947, 0.19695384800434113, -3.298344850540161, -0.8652154803276062, -1.058115839958191, 0.05329662188887596, -1.0520017457014201, -0.7184325790553316, 7.962321090722302, 9362.0, 30146.0, 35388.0, 9362.0, 8.112398147583008, -0.04549017921090126, -0.10214502364397049, -0.01903502456843853, -0.08363349735736847, -0.04440919682383537, 0.9944409728050232, -0.08969340473413467, -0.2187976837158203, 1.47802734375, 1.436279296875, 0.0838775634765625, 1.491943359375
59505, -3.6978416442871094, 5.844407081604004, 8.203643798828125, -0.030589822679758072, 0.013789244927465916, -94.86872100830078, -0.4391559958457947, 0.19695384800434113, -3.298344850540161, -0.8651961088180542, -1.058135747909546, 0.05335310101509094, -1.0279747350422166, -0.7347228662115128, 7.9672862040996995, 9362.0, 30146.0, 35388.0, 9362.0, 8.112398147583008, -0.04549017921090126, -0.10214502364397049, -0.01903502456843853, -0.08009732514619827, -0.04228813573718071, 0.9969425201416016, -0.08969340473413467, -0.2187976837158203, 1.47802734375, 1.436279296875, 0.0838775634765625, 1.494140625
59525, -3.6996281147003174, 5.8442277908325195, 8.205307006835938, -0.030589822679758072, 0.013789244927465916, -94.86872100830078, -0.4391559958457947, 0.19695384800434113, -3.298344850540161, -0.8652238845825195, -1.0581257343292236, 0.05329884588718414, -1.050588516349252, -0.7236082037589995, 7.97057193367972, 9362.0, 30146.0, 35388.0, 9362.0, 8.112398147583008, 0.04963456839323044, -0.24699550867080688, 0.2414565086364746, -0.08086935430765152, -0.0421137772500515, 0.9953868389129639, -0.08969340473413467, -0.2187976837158203, 1.47802734375, 1.436279296875, 0.0838775634765625, 1.494140625
59535, -3.6994287967681885, 5.845519065856934, 8.207036018371582, -0.04901415854692459, 0.022053031250834465, -95.00074005126953, -0.48206621408462524, 0.21623893082141876, -3.302724838256836, -0.8651888370513916, -1.0581291913986206, 0.05334560573101044, -1.0296231166654493, -0.73536520324393, 7.9676512077708495, 9362.0, 30146.0, 35388.0, 9362.0, 8.112398147583008, -0.09662485122680664, -0.10355905443429947, -0.017697567120194435, -0.08086935430765152, -0.0421137772500515, 0.9953868389129639, -0.08969340473413467, -0.2187976837158203, 1.47802734375, 1.436279296875, 0.0838775634765625, 1.494140625
59565, -3.7009150981903076, 5.845108985900879, 8.206674575805664, -0.06395812332630157, 0.028756875544786453, -95.0998764038086, -0.5142187476158142, 0.23069168627262115, -3.3063271045684814, -0.8651949763298035, -1.058132529258728, 0.05335211008787155, -1.027692556548611, -0.7350475827683454, 7.965644707661184, 9362.0, 30146.0, 35388.0, 9362.0, 8.112398147583008, -0.022244414314627647, -0.03393193706870079, -0.2614744305610657, -0.08201123774051666, -0.042990487068891525, 0.9966955780982971, -0.05683160200715065, 0.05000114440917969, 1.5, 1.436279296875, 0.0838775634765625, 1.4912109375
59575, -3.7007291316986084, 5.845621585845947, 8.205574035644531, -0.0691540464758873, 0.031087949872016907, -95.13294219970703, -0.5249661207199097, 0.23552323877811432, -3.307271718978882, -0.8651944398880005, -1.0581339597702026, 0.05336049571633339, -1.032831405144595, -0.7350737276292705, 7.95797702201649, 9362.0, 30146.0, 35388.0, 9362.0, 8.112398147583008, -0.007059119641780853, -0.14104412496089935, 0.16100703179836273, -0.08338358998298645, -0.041107725352048874, 0.9933776259422302, -0.05683160200715065, 0.05000114440917969, 1.5, 1.436279296875, 0.0838775634765625, 1.4912109375
59585, -3.70027494430542, 5.848237991333008, 8.205166816711426, -0.0691540464758873, 0.031087949872016907, -95.13294219970703, -0.5249661207199097, 0.23552323877811432, -3.307271718978882, -0.8651794195175171, -1.0581272840499878, 0.05333364009857178, -1.0315389092294183, -0.7305671414043786, 7.959978661832309, 9362.0, 30146.0, 35388.0, 9362.0, 8.112398147583008, 0.0008840598748065531, -0.44428104162216187, 0.26668569445610046, -0.0829227939248085, -0.04030093178153038, 0.9935733079910278, -0.05683160200715065, 0.05000114440917969, 1.5, 1.436279296875, 0.0838775634765625, 1.496337890625
59595, -3.701322078704834, 5.8512749671936035, 8.205550193786621, -0.0691540464758873, 0.031087949872016907, -95.13294219970703, -0.5249661207199097, 0.23552323877811432, -3.307271718978882, -0.8651880025863647, -1.0581331253051758, 0.053338147699832916, -1.0349993463282636, -0.7315130537758137, 7.9655645462403895, 9362.0, 30146.0, 35388.0, 9362.0, 8.112398147583008, 0.0075704725459218025, 0.1367780715227127, -0.11524760723114014, -0.08149304986000061, -0.03876291960477829, 0.9957337975502014, -0.05683160200715065, 0.05000114440917969, 1.5, 1.436279296875, 0.0838775634765625, 1.496337890625
59615, -3.6998586654663086, 5.85003137588501, 8.204794883728027, -0.09101005643606186, 0.04089437052607536, -95.26533508300781, -0.5678396224975586, 0.2547958195209503, -3.3121845722198486, -0.8651845455169678, -1.0581293106079102, 0.05334185063838959, -1.0307691286462766, -0.736289936395849, 7.964416323054691, 9362.0, 30146.0, 35388.0, 9362.0, 8.112398147583008, 0.018768174573779106, 0.19022119045257568, 0.020517665892839432, -0.08309511840343475, -0.043873343616724014, 0.9947207570075989, -0.05683160200715065, 0.05000114440917969, 1.5, 1.436279296875, 0.0838775634765625, 1.49267578125
59635, -3.7008869647979736, 5.846922397613525, 8.207624435424805, -0.09101005643606186, 0.04089437052607536, -95.26533508300781, -0.5678396224975586, 0.2547958195209503, -3.3121845722198486, -0.8652209639549255, -1.058112621307373, 0.05329445004463196, -1.0517399349341472, -0.7199401872486817, 7.961887715763379, 9362.0, 30146.0, 35388.0, 9362.0, 8.112398147583008, -0.0026485256385058165, 0.01684362068772316, -0.4206898808479309, -0.0831134021282196, -0.042225103825330734, 0.9962728023529053, -0.05683160200715065, 0.05000114440917969, 1.5, 1.436279296875, 0.0838775634765625, 1.493408203125
59645, -3.7009074687957764, 5.846526622772217, 8.205419540405273, -0.09101005643606186, 0.04089437052607536, -95.26533508300781, -0.5678396224975586, 0.2547958195209503, -3.3121845722198486, -0.8651974201202393, -1.0581386089324951, 0.05335136130452156, -1.0334206610445338, -0.7352120172984087, 7.962649963824159, 9362.0, 30146.0, 35388.0, 9362.0, 8.112398147583008, -0.03148665279150009, -0.23232144117355347, -0.03966301679611206, -0.0828365758061409, -0.04451752081513405, 0.9963933229446411, -0.05683160200715065, 0.05000114440917969, 1.5, 1.436279296875, 0.0838775634765625, 1.49560546875
59685, -3.7030017375946045, 5.847363471984863, 8.202170372009277, -0.13338881731033325, 0.05991187319159508, -95.4974594116211, -0.6429981589317322, 0.28857603669166565, -3.319714307785034, -0.8652132153511047, -1.0581146478652954, 0.05330194532871246, -1.0480126858215908, -0.7167136933588552, 7.964233283721462, 9362.0, 30146.0, 35388.0, 9362.0, 8.112398147583008, -0.02630218118429184, -0.4083331525325775, 0.07383938878774643, -0.08274654299020767, -0.044385526329278946, 0.9942276477813721, -0.08609925210475922, 0.03208160400390625, 1.49853515625, 1.436279296875, 0.0838775634765625, 1.494873046875
59695, -3.7024755477905273, 5.850039005279541, 8.20240306854248, -0.13338881731033325, 0.05991187319159508, -95.4974594116211, -0.6429981589317322, 0.28857603669166565, -3.319714307785034, -0.8651919960975647, -1.0581272840499878, 0.053368791937828064, -1.0256024180001997, -0.736169937635168, 7.960945702240522, 9362.0, 30146.0, 35388.0, 9362.0, 8.112398147583008, 0.06334567815065384, 0.30087319016456604, 0.16488194465637207, -0.08274654299020767, -0.044385526329278946, 0.9942276477813721, -0.08609925210475922, 0.03208160400390625, 1.49853515625, 1.436279296875, 0.0838775634765625, 1.494873046875
59705, -3.702077627182007, 5.848272800445557, 8.202366828918457, -0.14646334946155548, 0.06577988713979721, -95.56387329101562, -0.6644466519355774, 0.2982235252857208, -3.322063684463501, -0.8652098178863525, -1.0581084489822388, 0.053308188915252686, -1.0474536961793115, -0.718994930799056, 7.9645230211480555, 9362.0, 30146.0, 35388.0, 9362.0, 8.112398147583008, -0.07545959204435349, 0.42467930912971497, -0.013087104074656963, -0.08258914947509766, -0.041707634925842285, 0.9966213703155518, -0.08609925210475922, 0.03208160400390625, 1.49853515625, 1.436279296875, 0.0838775634765625, 1.494873046875
59715, -3.702772617340088, 5.847152233123779, 8.201199531555176, -0.14646334946155548, 0.06577988713979721, -95.56387329101562, -0.6644466519355774, 0.2982235252857208, -3.322063684463501, -0.8651849031448364, -1.0581355094909668, 0.05336158722639084, -1.0331733056205596, -0.7339781526517868, 7.959013233535144, 9362.0, 30146.0, 35388.0, 9362.0, 8.112398147583008, 0.053873211145401, 0.34622710943222046, 0.13783784210681915, -0.08258914947509766, -0.041707634925842285, 0.9966213703155518, -0.08609925210475922, 0.03208160400390625, 1.49853515625, 1.436279296875, 0.0838775634765625, 1.494873046875
59725, -3.7024102210998535, 5.846622467041016, 8.201822280883789, -0.15996696054935455, 0.07184087485074997, -95.63033294677734, -0.6859207153320312, 0.3078795075416565, -3.3242347240448, -0.8651817440986633, -1.0581276416778564, 0.053360939025878906, -1.02803411813182, -0.7385338509919279, 7.9727800868398155, 9362.0, 30146.0, 35388.0, 9362.0, 8.112398147583008, -0.03501171991229057, -0.1504257619380951, -0.08620148152112961, -0.08258914947509766, -0.041707634925842285, 0.9966213703155518, -0.08609925210475922, 0.03208160400390625, 1.49853515625, 1.436279296875, 0.0838775634765625, 1.494873046875
59735, -3.702594041824341, 5.847989082336426, 8.201669692993164, -0.15996696054935455, 0.07184087485074997, -95.63033294677734, -0.6859207153320312, 0.3078795075416565, -3.3242347240448, -0.8651867508888245, -1.058132290840149, 0.05334833264350891, -1.0326309953240262, -0.7361506930321013, 7.970021299666434, 9362.0, 30146.0, 35388.0, 9362.0, 8.112398147583008, -0.03501171991229057, -0.1504257619380951, -0.08620148152112961, -0.08258914947509766, -0.041707634925842285, 0.9966213703155518, -0.08609925210475922, 0.03208160400390625, 1.49853515625, 1.436279296875, 0.0838775634765625, 1.494873046875
59745, -3.701687812805176, 5.849674701690674, 8.202522277832031, -0.15996696054935455, 0.07184087485074997, -95.63033294677734, -0.6859207153320312, 0.3078795075416565, -3.3242347240448, -0.8652070164680481, -1.0581134557724, 0.053302984684705734, -1.049646881041285, -0.7247396391991003, 7.962290945119261, 9362.0, 30146.0, 35388.0, 9362.0, 8.112398147583008, -0.08234228193759918, -0.0715830996632576, 0.031153161078691483, -0.08055339753627777, -0.04515478387475014, 0.9965814352035522, -0.08609925210475922, 0.03208160400390625, 1.49853515625, 1.436279296875, 0.0838775634765625, 1.494873046875
59755, -3.702263593673706, 5.850617408752441, 8.202249526977539, -0.18102724850177765, 0.08129440993070602, -95.73011016845703, -0.7180874347686768, 0.32235050201416016, -3.327805757522583, -0.8652235865592957, -1.0581095218658447, 0.05331384763121605, -1.0501900711817225, -0.7157864193637238, 7.96229513004999, 9362.0, 30146.0, 35388.0, 9362.0, 8.112398147583008, 0.03635426238179207, -0.15368375182151794, -0.0005625172634609044, -0.08159635961055756, -0.044206585735082626, 0.995907187461853, -0.07143127173185349, -0.05751800537109375, 1.4912109375, 1.436279296875, 0.0838775634765625, 1.494873046875
59765, -3.7022645473480225, 5.850863456726074, 8.201939582824707, -0.18826182186603546, 0.08454205095767975, -95.76339721679688, -0.7288269400596619, 0.32717809081077576, -3.3288753032684326, -0.865201473236084, -1.0581276416778564, 0.05335134640336037, -1.031540295425466, -0.7291056113167542, 7.963392957227168, 9362.0, 30146.0, 35388.0, 9362.0, 8.112398147583008, 0.11030912399291992, 0.1632782220840454, 0.253462553024292, -0.08239958435297012, -0.042824823409318924, 0.994507908821106, -0.07143127173185349, -0.05751800537109375, 1.4912109375, 1.436279296875, 0.0838775634765625, 1.4970703125
59775, -3.702406644821167, 5.8503851890563965, 8.20370864868164, -0.19560377299785614, 0.08783796429634094, -95.79669189453125, -0.7395638227462769, 0.33200445771217346, -3.329986333847046, -0.8652015328407288, -1.0581433773040771, 0.05336768552660942, -1.0282404114898716, -0.7359482785111595, 7.963002272558962, 9362.0, 30146.0, 35388.0, 9362.0, 8.112398147583008, -0.02881060168147087, 0.3397960066795349, -0.073297880589962, -0.08198767900466919, -0.04258866608142853, 0.9949213862419128, -0.07143127173185349, -0.05751800537109375, 1.4912109375, 1.45751953125, 0.117095947265625, 1.4970703125
59785, -3.702080249786377, 5.848695278167725, 8.202933311462402, -0.20305302739143372, 0.09118211269378662, -95.82999420166016, -0.7502882480621338, 0.33682459592819214, -3.331212043762207, -0.8651958703994751, -1.058136224746704, 0.053375497460365295, -1.0273191116657832, -0.7330148630244082, 7.962178564387531, 9362.0, 30146.0, 35388.0, 9362.0, 8.112398147583008, 0.14693300426006317, -0.36732372641563416, -0.1550494283437729, -0.08295819908380508, -0.04324416443705559, 0.993701696395874, -0.07143127173185349, -0.05751800537109375, 1.4912109375, 1.447998046875, 0.1016693115234375, 1.4912109375
59795, -3.701655864715576, 5.85127067565918, 8.202150344848633, -0.2106095254421234, 0.0945744588971138, -95.86331176757812, -0.7610120177268982, 0.34164533019065857, -3.3324387073516846, -0.8651939034461975, -1.0581347942352295, 0.053351931273937225, -1.0344922332983852, -0.7359252924049997, 7.963610548158884, 9362.0, 30146.0, 35388.0, 9362.0, 8.112398147583008, 0.04706211015582085, 0.37970155477523804, 0.0835503488779068, -0.08255357295274734, -0.04244670644402504, 0.9933077692985535, -0.07143127173185349, -0.05751800537109375, 1.4912109375, 1.39013671875, 0.0314483642578125, 1.4912109375
59805, -3.7013139724731445, 5.849199295043945, 8.203537940979004, -0.21827320754528046, 0.09801499545574188, -95.89664459228516, -0.7717242240905762, 0.34646233916282654, -3.3337392807006836, -0.8652049899101257, -1.0581371784210205, 0.053351301699876785, -1.0329066282724846, -0.7251525246790038, 7.9578945032612145, 9362.0, 30146.0, 35388.0, 9362.0, 8.112398147583008, -0.16400587558746338, 0.3896229565143585, 0.053110864013433456, -0.0821007490158081, -0.04163835942745209, 0.9960252046585083, -0.07143127173185349, -0.05751800537109375, 1.4912109375, 1.41650390625, 0.0577545166015625, 1.491943359375
59815, -3.7019546031951904, 5.846548557281494, 8.2042236328125, -0.22604399919509888, 0.10150368511676788, -95.92998504638672, -0.782434344291687, 0.351274698972702, -3.3351006507873535, -0.865220308303833, -1.058113932609558, 0.05330416560173035, -1.0501513462991288, -0.7230622812996614, 7.962499089405244, 9362.0, 30146.0, 35388.0, 9362.0, 8.112398147583008, -0.03807743638753891, 0.024602515622973442, 0.2753593921661377, -0.08171164989471436, -0.04397432878613472, 0.9950973987579346, -0.07143127173185349, -0.05751800537109375, 1.4912109375, 1.376220703125, 0.0222930908203125, 1.491943359375
59825, -3.7014880180358887, 5.846123695373535, 8.20566177368164, -0.23392198979854584, 0.1050405502319336, -95.96334075927734, -0.7931649088859558, 0.35609763860702515, -3.336245059967041, -0.8652154803276062, -1.0581181049346924, 0.053291939198970795, -1.0496549598979208, -0.7215416424704983, 7.961421376394094, 9362.0, 30146.0, 35388.0, 9362.0, 8.112398147583008, -0.11652927100658417, -0.35072061419487, -0.431740403175354, -0.08171164989471436, -0.04397432878613472, 0.9950973987579346, -0.07143127173185349, -0.05751800537109375, 1.4912109375, 1.491943359375, 0.179656982421875, 1.47216796875
59835, -3.7011942863464355, 5.84793758392334, 8.203202247619629, -0.23392198979854584, 0.1050405502319336, -95.96334075927734, -0.7931649088859558, 0.35609763860702515, -3.336245059967041, -0.8651958107948303, -1.0581432580947876, 0.05334743112325668, -1.0308339291125486, -0.7354293109687546, 7.958536202209077, 9362.0, 30146.0, 35388.0, 9362.0, 8.112398147583008, -0.1610065996646881, 0.3311769962310791, -0.0034932889975607395, -0.08446745574474335, -0.04201200231909752, 0.9953686594963074, -0.07143127173185349, -0.05751800537109375, 1.4912109375, 1.491943359375, 0.179656982421875, 1.47216796875
59845, -3.7019541263580322, 5.8456549644470215, 8.202529907226562, -0.2499997466802597, 0.11225895583629608, -96.03009033203125, -0.8146091103553772, 0.3657427132129669, -3.3386025428771973, -0.8651968240737915, -1.058128833770752, 0.053338829427957535, -1.033597671644487, -0.7362153682051371, 7.956184487608001, 9362.0, 30146.0, 35388.0, 9362.0, 8.112398147583008, 0.1276654303073883, 0.24948011338710785, 0.09295117110013962, -0.08446745574474335, -0.04201200231909752, 0.9953686594963074, -0.07143127173185349, -0.05751800537109375, 1.4912109375, 1.491943359375, 0.179656982421875, 1.47216796875
59865, -3.7014825344085693, 5.840472221374512, 8.201866149902344, -0.2581994831562042, 0.11594049632549286, -96.06348419189453, -0.825335681438446, 0.370565265417099, -3.339761734008789, -0.8651924133300781, -1.058127522468567, 0.05335688218474388, -1.0366003611766923, -0.73886585922574, 7.960101632720349, 9362.0, 30146.0, 35388.0, 9362.0, 8.112398147583008, 0.0808366984128952, 0.00520949624478817, -0.061282671988010406, -0.08146539330482483, -0.04149531200528145, 0.9942225813865662, -0.08202574402093887, 0.0052013397216796875, 1.496337890625, 1.491943359375, 0.179656982421875, 1.4912109375
59875, -3.7011287212371826, 5.8410515785217285, 8.201772689819336, -0.2749205529689789, 0.12344825267791748, -96.13030242919922, -0.8467742800712585, 0.38021281361579895, -3.342114210128784, -0.8651939034461975, -1.0581309795379639, 0.05334382504224777, -1.0326683430111534, -0.7324250927298124, 7.960174952083701, 9362.0, 30146.0, 35388.0, 9362.0, 8.112398147583008, -0.1156042292714119, -0.043718717992305756, -0.12318184971809387, -0.08182914555072784, -0.04258506000041962, 0.995108962059021, -0.08202574402093887, 0.0052013397216796875, 1.496337890625, 1.491943359375, 0.179656982421875, 1.4912109375
59885, -3.7017552852630615, 5.841005802154541, 8.200517654418945, -0.28344181180000305, 0.12727448344230652, -96.16372680664062, -0.8574775457382202, 0.3850330114364624, -3.343369483947754, -0.8652098774909973, -1.0581096410751343, 0.05329323559999466, -1.0543422081407974, -0.7240473753730896, 7.955814095941277, 9362.0, 30146.0, 35388.0, 9362.0, 8.112398147583008, 0.11686670780181885, 0.1715737283229828, 0.06674696505069733, -0.08182914555072784, -0.04258506000041962, 0.995108962059021, -0.08202574402093887, 0.0052013397216796875, 1.496337890625, 1.491943359375, 0.179656982421875, 1.49267578125
59895, -3.7004971504211426, 5.84030294418335, 8.201285362243652, -0.28344181180000305, 0.12727448344230652, -96.16372680664062, -0.8574775457382202, 0.3850330114364624, -3.343369483947754, -0.86517733335495, -1.0581200122833252, 0.053350988775491714, -1.0407382494733863, -0.7348114026851533, 7.963738033626826, 9362.0, 30146.0, 35388.0, 9362.0, 8.112398147583008, 0.014345886185765266, -0.013904815539717674, 0.17808976769447327, -0.08182914555072784, -0.04258506000041962, 0.995108962059021, -0.08202574402093887, 0.0052013397216796875, 1.496337890625, 1.491943359375, 0.179656982421875, 1.49267578125
59905, -3.701216459274292, 5.839595317840576, 8.202860832214355, -0.28344181180000305, 0.12727448344230652, -96.16372680664062, -0.8574775457382202, 0.3850330114364624, -3.343369483947754, -0.8651878833770752, -1.0581244230270386, 0.05334264785051346, -1.0408653643447507, -0.7389358618156336, 7.962197032699462, 9362.0, 30146.0, 35388.0, 9362.0, 8.112398147583008, 0.11525901407003403, -0.0977516770362854, -0.12614427506923676, -0.08021809905767441, -0.041399240493774414, 0.9984532594680786, -0.08202574402093887, 0.0052013397216796875, 1.496337890625, 1.491943359375, 0.179656982421875, 1.49267578125
59925, -3.7011940479278564, 5.83988618850708, 8.203133583068848, -0.28344181180000305, 0.12727448344230652, -96.16372680664062, -0.8574775457382202, 0.3850330114364624, -3.343369483947754, -0.8651916980743408, -1.0581333637237549, 0.05334842577576637, -1.0332120804268605, -0.7366210024890165, 7.956641082719248, 9362.0, 30146.0, 35388.0, 9362.0, 8.112398147583008, 0.1671420782804489, 0.22854885458946228, 0.07629929482936859, -0.080563023686409, -0.042087044566869736, 0.9947432279586792, -0.08202574402093887, 0.0052013397216796875, 1.496337890625, 1.491943359375, 0.179656982421875, 1.48681640625
