timeTick, roll, pitch, yaw, stateX, stateY, stateZ, stateVX, stateVY, stateVZ, otX0, otY0, otZ0, otRoll0, otPitch0, otYaw0, left wing, pitch motor, yaw motor, right wing, voltage, roll rate, pitch rate, yaw rate, A_x, A_y, A_z, current, i_raw, v_raw, airflow_voltage, airflow_speed, pot_Pitch
66638, 0.0016383915208280087, -0.0023149859625846148, -0.00011090131738455966, 0, 0, 0, 0, 0, 0, -0.8342132568359375, -0.971516489982605, 0.05389469861984253, -1.5828560129224027, -2.400262346466917, -2.670111271754946, 0, 0, 0, 0, 0, 0, 0, 0, 0, 0, 0, 0, 0, 0, 0, 0, 0
66648, 0.0025600704830139875, -0.00337493815459311, -0.000758294656407088, 2.091245221436111e-08, -1.4791869951125136e-08, -9.549985406920314e-06, 4.203374828648521e-06, -2.973353502966347e-06, -0.0010153003968298435, -0.8341884016990662, -0.9715201258659363, 0.05393245443701744, -1.587425818083688, -2.397852037790159, -2.6699922566015917, 9362.0, 30146.0, 35388.0, 9362.0, 0, 0.013758745975792408, -0.18302126228809357, 0.17442810535430908, 0, 0, 0, 0, 0, 0, 0, 0, 0
66658, 0.0022890614345669746, -0.0036273784935474396, 0.0011766459792852402, 8.265013207164884e-08, -5.847055106755761e-08, -2.253204002045095e-05, 8.133670235110912e-06, -5.75333297092584e-06, -0.0015807155286893249, -0.8341774940490723, -0.9715145230293274, 0.05393875017762184, -1.579100724649068, -2.397409522787598, -2.661166536598964, 9362.0, 30146.0, 35388.0, 9362.0, 0, -0.09422396123409271, 0.23765026032924652, 0.11301624774932861, -0.10139597207307816, -0.025152748450636864, 0.9966903924942017, 0, 0, 0, 1.427490234375, 0.0716400146484375, 0
66668, 0.002023237058892846, -0.004817058797925711, 0.0021039447747170925, 1.9278137131095718e-07, -1.3784662655780267e-07, -3.999515320174396e-05, 1.3891267371946014e-05, -1.0123251740878914e-05, -0.00191150838509202, -0.8342057466506958, -0.9715120792388916, 0.05389463156461716, -1.5901228316659577, -2.399388975688055, -2.673633343496384, 9362.0, 30146.0, 35388.0, 9362.0, 0, -0.06540223956108093, -0.3248286545276642, 0.00437528220936656, -0.10114691406488419, -0.02175510674715042, 0.9949657320976257, 0, 0, 0, 1.5087890625, 0.21337890625, 1.49853515625
66678, 0.0006442407611757517, -0.0013984362594783306, 0.0013726353645324707, 3.6259166336094495e-07, -2.5857622176772566e-07, -6.157794268801808e-05, 2.0060619135620072e-05, -1.4024853953742422e-05, -0.0024046548642218113, -0.8341824412345886, -0.9715181589126587, 0.05391322448849678, -1.5871555108785873, -2.3925666962700802, -2.6642230919703627, 9362.0, 30146.0, 35388.0, 9362.0, 0, 0.09686215966939926, 0.3475189805030823, 0.13764238357543945, -0.10149721801280975, -0.02390635758638382, 0.9958977103233337, 0, 0, 0, 1.49560546875, 0.1868743896484375, 1.49853515625
66688, 0.0022376293782144785, -0.0037673902697861195, 0.001715165446512401, 6.042729410182801e-07, -4.1607509615460003e-07, -8.757159230299294e-05, 2.8298802135395817e-05, -1.748438626236748e-05, -0.0027936771512031555, -0.8341898918151855, -0.9715204834938049, 0.05391690135002136, -1.5801134740079037, -2.3989174587543403, -2.664207159548708, 9362.0, 30146.0, 35388.0, 9362.0, 0, -0.00958991702646017, -0.06221874803304672, -0.1795584112405777, -0.10312015563249588, -0.025321414694190025, 0.9986922144889832, 0, 0, 0, 1.519775390625, 0.236236572265625, 1.496337890625
66698, 0.0017555165104568005, -0.003935416229069233, -0.00010350270167691633, 8.992119546746835e-07, -5.96424285959074e-07, -0.00011636686394922435, 3.068193109356798e-05, -1.8580672985990532e-05, -0.002964979037642479, -0.8342089653015137, -0.9715196490287781, 0.05390141159296036, -1.5835428181678821, -2.3920662390492, -2.663783090126501, 9362.0, 30146.0, 35388.0, 9362.0, 0, 0.13990269601345062, 0.4102415442466736, 0.09725717455148697, -0.10299291461706161, -0.025735855102539062, 0.995111346244812, 0, 0, 0, 1.458984375, 0.1195831298828125, 1.496337890625
66708, 0.004718269221484661, -0.005235143005847931, 0.0002876953803934157, 1.2381276519590756e-06, -8.012932539713802e-07, -0.00014839202049188316, 3.709970769705251e-05, -2.2397320208256133e-05, -0.003439652267843485, -0.8342022895812988, -0.9715235829353333, 0.05388154461979866, -1.5816376355213837, -2.3981112225102095, -2.6770516537862936, 9362.0, 30146.0, 35388.0, 9362.0, 0, -0.09570787847042084, 0.06169417127966881, -0.017835188657045364, -0.10155923664569855, -0.02271202579140663, 0.9943515658378601, 0, 0, 0, 1.42822265625, 0.0726470947265625, 1.494873046875
66718, 0.004851487930864096, -0.005057209637016058, -0.0005639452137984335, 1.6426265574409626e-06, -1.0402110319773783e-06, -0.0001855357550084591, 4.378764424473047e-05, -2.535780549806077e-05, -0.003988695330917835, -0.8341883420944214, -0.9715203046798706, 0.05392080545425415, -1.5759941934336223, -2.4030336565249684, -2.6543615420225812, 9362.0, 30146.0, 35388.0, 9362.0, 0, -0.010124149732291698, 0.17156416177749634, -0.15516813099384308, -0.1016954556107521, -0.02340094745159149, 0.9928072094917297, 0, 0, 0, 1.51171875, 0.21942138671875, 1.494873046875
66728, 0.005045226775109768, -0.00702217873185873, -0.0012113528791815042, 2.1249907149467617e-06, -1.3338841426957515e-06, -0.00022903073113411665, 5.268733366392553e-05, -3.337526140967384e-05, -0.004709903616458178, -0.8341705203056335, -0.971521258354187, 0.053917426615953445, -1.582620917903316, -2.3975104615593352, -2.662416316829023, 9362.0, 30146.0, 35388.0, 9362.0, 0, -0.05259411036968231, -0.2045939564704895, 0.024114830419421196, -0.09884460270404816, -0.02333150990307331, 0.9935863614082336, 0, 0, 0, 1.433349609375, 0.0797576904296875, 1.4912109375
66738, 0.005084381904453039, -0.005382047966122627, -0.0012908647768199444, 2.6948862341669155e-06, -1.7089095081246342e-06, -0.0002792060549836606, 6.127057713456452e-05, -4.1627834434621036e-05, -0.005324769765138626, -0.8341891169548035, -0.971513032913208, 0.05392073839902878, -1.57835473111423, -2.4011406565509787, -2.6612089668829855, 9362.0, 30146.0, 35388.0, 9362.0, 8.013224601745605, 0.30680716037750244, 0.10046999156475067, -0.3060143291950226, -0.10065119713544846, -0.024633320048451424, 0.9960365891456604, 0, 0, 0, 1.464111328125, 0.1283111572265625, 1.4912109375
66748, 0.006074409931898117, -0.005494330078363419, -0.003104333532974124, 3.3674646147119347e-06, -2.168206265196204e-06, -0.000334430777002126, 7.325640035560355e-05, -5.023128687753342e-05, -0.005719782784581184, -0.8342058658599854, -0.9715091586112976, 0.05389496684074402, -1.5859114264856642, -2.3945698099185506, -2.674309077838353, 9362.0, 30146.0, 35388.0, 9362.0, 8.013224601745605, -0.09955991059541702, -0.15823346376419067, -0.3810226619243622, -0.10160565376281738, -0.023158343508839607, 0.9955547451972961, -0.08004016429185867, -0.18295860290527344, 1.48095703125, 1.486083984375, 0.16845703125, 1.491943359375
66758, 0.007092774845659733, -0.004123138263821602, -0.005150326061993837, 4.145900220464682e-06, -2.7138555651617935e-06, -0.00039378157816827297, 8.242962940130383e-05, -5.889145904802717e-05, -0.006149988621473312, -0.8342104554176331, -0.9715254902839661, 0.05390935018658638, -1.5779759015657853, -2.4040034701772868, -2.6596534760503925, 9362.0, 30146.0, 35388.0, 9362.0, 8.013224601745605, 0.022732745856046677, 0.42574769258499146, -0.04221642017364502, -0.10218917578458786, -0.02279261313378811, 0.9956634044647217, -0.08004016429185867, -0.18295860290527344, 1.48095703125, 1.471435546875, 0.14129638671875, 1.491943359375
66768, 0.007297143805772066, -0.008219050243496895, -0.00445480877533555, 5.017025614506565e-06, -3.3545488804520573e-06, -0.0004574123886413872, 9.180525375995785e-05, -6.923995533725247e-05, -0.006575777195394039, -0.8341876864433289, -0.971518337726593, 0.05392133817076683, -1.582319805817355, -2.3947678181727383, -2.6544390931297657, 9362.0, 30146.0, 35388.0, 9362.0, 8.013224601745605, 0.1586121916770935, 0.6210471987724304, 0.1072331890463829, -0.10091332346200943, -0.021709932014346123, 0.9972109198570251, -0.08004016429185867, -0.18295860290527344, 1.48095703125, 1.452392578125, 0.10870361328125, 1.493408203125
66778, 0.007332544308155775, -0.010391016490757465, -0.004559734836220741, 5.9702574617404025e-06, -4.107477707293583e-06, -0.0005247375229373574, 9.881889855023474e-05, -8.134460949804634e-05, -0.006888850126415491, -0.8341781497001648, -0.9715144634246826, 0.05391518771648407, -1.5769300321498554, -2.4000754909950217, -2.6614263888570893, 9362.0, 30146.0, 35388.0, 9362.0, 8.013224601745605, -0.02233411744236946, -0.16549941897392273, 0.030717741698026657, -0.1006082221865654, -0.024118788540363312, 0.9977753758430481, -0.08004016429185867, -0.18295860290527344, 1.48095703125, 1.503662109375, 0.2029876708984375, 1.493408203125
66788, 0.007203120272606611, -0.011096936650574207, -0.00400035222992301, 7.02863189872005e-06, -4.983246071788017e-06, -0.0005948242032900453, 0.00011284689389867708, -9.380899427924305e-05, -0.007128097582608461, -0.834185004234314, -0.971529483795166, 0.05393262952566147, -1.5772539522482918, -2.398427930074007, -2.6614039730148193, 9362.0, 30146.0, 35388.0, 9362.0, 8.013224601745605, 0.02602008730173111, 0.15465706586837769, -0.07815573364496231, -0.1004265695810318, -0.021549982950091362, 0.9964272975921631, -0.08004016429185867, -0.18295860290527344, 1.48095703125, 1.51318359375, 0.2224273681640625, 1.49853515625
66798, 0.006840691436082125, -0.013587008230388165, -0.004319032188504934, 8.245724529842846e-06, -5.983884875604417e-06, -0.0006679096259176731, 0.00013056735042482615, -0.00010631939949234948, -0.007488603238016367, -0.8341870307922363, -0.9715267419815063, 0.05390971526503563, -1.5790345222994009, -2.39875798177124, -2.654930094634849, 9362.0, 30146.0, 35388.0, 9362.0, 8.013224601745605, -0.0966741070151329, 0.09931127727031708, -0.008623886853456497, -0.1009894609451294, -0.023658309131860733, 0.9958844780921936, -0.08004016429185867, -0.18295860290527344, 1.48095703125, 1.509521484375, 0.2148895263671875, 1.49853515625
66808, 0.006766523700207472, -0.011928888037800789, -0.005949689541012049, 9.79648575594183e-06, -7.227746209537145e-06, -0.00075246806954965, 0.0001513720490038395, -0.00011983980948571116, -0.007885226979851723, -0.8341907858848572, -0.9715100526809692, 0.05392162874341011, -1.580903082240882, -2.3927169398708656, -2.6658830076929383, 9362.0, 30146.0, 35388.0, 9362.0, 8.013224601745605, -0.13477030396461487, -0.12957461178302765, -0.30987098813056946, -0.10241606831550598, -0.026102548465132713, 0.9972562789916992, -0.08004016429185867, -0.18295860290527344, 1.48095703125, 1.446533203125, 0.09930419921875, 1.49560546875
66818, 0.006380079779773951, -0.012866786681115627, -0.008371523581445217, 1.1426195669628214e-05, -8.484552381560206e-06, -0.0008326808456331491, 0.00017457744979765266, -0.0001315225090365857, -0.008156931027770042, -0.8341857194900513, -0.9715173840522766, 0.05392678081989288, -1.5778090050666047, -2.395253065497087, -2.6586068358476354, 9362.0, 30146.0, 35388.0, 9362.0, 8.013224601745605, -0.0495661199092865, -0.15605954825878143, -0.19034656882286072, -0.10323598980903625, -0.024784423410892487, 0.9958679676055908, -0.08004016429185867, -0.18295860290527344, 1.48095703125, 1.490478515625, 0.1768646240234375, 1.49560546875
66828, 0.006860433146357536, -0.0124599514529109, -0.009404847398400307, 1.3273629519972019e-05, -9.857456461759284e-06, -0.0009164412040263414, 0.0001949016732396558, -0.00014306210505310446, -0.008594752289354801, -0.8341878056526184, -0.9715250730514526, 0.053926095366477966, -1.5812897243763833, -2.40024341881184, -2.6560159646329295, 9362.0, 30146.0, 35388.0, 9362.0, 8.013224601745605, 0.14193390309810638, -0.011570267379283905, 0.15095363557338715, -0.10284054279327393, -0.023018527776002884, 0.9952048063278198, -0.08004016429185867, -0.18295860290527344, 1.48095703125, 1.475830078125, 0.1492767333984375, 1.50146484375
66838, 0.007452283054590225, -0.01281736046075821, -0.010921691544353962, 1.5332312614191324e-05, -1.1342475772835314e-05, -0.001004509860649705, 0.00021683776867575943, -0.00015393865760415792, -0.009018590673804283, -0.8341963291168213, -0.9715130925178528, 0.05392001196742058, -1.5751390615937435, -2.4033443600240787, -2.66554034237422, 9362.0, 30146.0, 35388.0, 9362.0, 8.013224601745605, -0.08116327226161957, -0.058042261749506, -0.3436315357685089, -0.10155180841684341, -0.022530116140842438, 0.9962373971939087, -0.08004016429185867, -0.18295860290527344, 1.48095703125, 1.474365234375, 0.14654541015625, 1.50146484375
66848, 0.007029019761830568, -0.014303646050393581, -0.011148529127240181, 1.7606915207579732e-05, -1.2940372471348383e-05, -0.0010966884437948465, 0.00023807997058611363, -0.00016563711687922478, -0.009416722692549229, -0.8341898918151855, -0.9715210199356079, 0.05390538275241852, -1.5819111662813472, -2.400417632120053, -2.6609561446971006, 9362.0, 30146.0, 35388.0, 9362.0, 8.013224601745605, 0.05884619802236557, 0.2741409242153168, 0.005135693121701479, -0.10120467841625214, -0.02290252596139908, 0.9950495362281799, -0.09026355296373367, -0.20087814331054688, 1.4794921875, 1.509521484375, 0.2148895263671875, 1.490478515625
66858, 0.006538426037877798, -0.014579571783542633, -0.011603543534874916, 2.0096884327358566e-05, -1.4660244232800324e-05, -0.0011932989582419395, 0.0002599010185804218, -0.0001783409679774195, -0.00990497786551714, -0.8341850638389587, -0.971509575843811, 0.053930167108774185, -1.579630491998897, -2.4000491509121105, -2.6597721675074135, 9362.0, 30146.0, 35388.0, 9362.0, 8.013224601745605, -0.11359886825084686, -0.19355754554271698, -0.10894984006881714, -0.10190871357917786, -0.02424239180982113, 0.9942518472671509, -0.09026355296373367, -0.20087814331054688, 1.4794921875, 1.434814453125, 0.081787109375, 1.490478515625
66868, 0.0074222800321877, -0.014700500294566154, -0.010428312234580517, 2.2817623175797053e-05, -1.6503501683473587e-05, -0.0012951964745298028, 0.0002842439862433821, -0.0001903157535707578, -0.010474138893187046, -0.834180474281311, -0.971513032913208, 0.05389838665723801, -1.5834177808226875, -2.396913976370314, -2.6565930294473747, 9362.0, 30146.0, 35388.0, 9362.0, 8.013224601745605, -0.019661547616124153, -0.04014471173286438, -0.1892637312412262, -0.1017644926905632, -0.0219834316521883, 0.9942393898963928, -0.09026355296373367, -0.20087814331054688, 1.4794921875, 1.449462890625, 0.103973388671875, 1.4970703125
66878, 0.007742193061858416, -0.015813475474715233, -0.0114932581782341, 2.5784138415474445e-05, -1.8462333173374645e-05, -0.0014027947327122092, 0.00030905811581760645, -0.00020144114387221634, -0.011045134626328945, -0.8341872096061707, -0.9715221524238586, 0.053929634392261505, -1.5799002342980313, -2.3977836082840724, -2.662162650893925, 9362.0, 30146.0, 35388.0, 9362.0, 8.013224601745605, 0.039533648639917374, 0.0415310263633728, -0.0643685907125473, -0.1012924462556839, -0.02069944515824318, 0.9930237531661987, -0.09026355296373367, -0.20087814331054688, 1.4794921875, 1.52197265625, 0.2408599853515625, 1.4970703125
66888, 0.007672199513763189, -0.01657496578991413, -0.013671140186488628, 2.8999662390560843e-05, -2.0539857359835878e-05, -0.0015167308738455176, 0.00033403298584744334, -0.00021406018640846014, -0.011741705238819122, -0.8341870307922363, -0.9715167880058289, 0.053912192583084106, -1.578119339855977, -2.4000006765407136, -2.6582539808046475, 9362.0, 30146.0, 35388.0, 9362.0, 8.013224601745605, -0.09510847926139832, -0.06659486889839172, -0.23456180095672607, -0.10180537402629852, -0.02362103760242462, 0.9920088052749634, -0.09026355296373367, -0.20087814331054688, 1.4794921875, 1.45751953125, 0.117095947265625, 1.493408203125
66898, 0.006826484575867653, -0.01790815033018589, -0.013478186912834644, 3.2474381441716105e-05, -2.27462896873476e-05, -0.0016376734711229801, 0.00036090126377530396, -0.0002272281126352027, -0.01244643609970808, -0.8341870307922363, -0.9715210199356079, 0.05389944463968277, -1.5786440755637052, -2.3972531333114944, -2.6621058030102045, 9362.0, 30146.0, 35388.0, 9362.0, 8.013224601745605, 0.06862466782331467, 0.30946633219718933, 0.10205698013305664, -0.1024278774857521, -0.024516025558114052, 0.9944077730178833, -0.09026355296373367, -0.20087814331054688, 1.4794921875, 1.47802734375, 0.1532745361328125, 1.493408203125
66908, 0.007401885464787483, -0.020825285464525223, -0.012601888738572598, 3.6224570067133754e-05, -2.5083958462346345e-05, -0.0017645773477852345, 0.00038912490708753467, -0.00024031270004343241, -0.012933951802551746, -0.8341987133026123, -0.9715238213539124, 0.05391533300280571, -1.5761875884693313, -2.400645075656513, -2.6590560390111495, 9362.0, 30146.0, 35388.0, 9362.0, 8.013224601745605, 0.02451818250119686, 0.07751119136810303, -0.16574405133724213, -0.1015825867652893, -0.02363770268857479, 0.9957641363143921, -0.09026355296373367, -0.20087814331054688, 1.4794921875, 1.478759765625, 0.1546478271484375, 1.490478515625
66918, 0.008427786640822887, -0.020925182849168777, -0.013424561358988285, 4.026844908366911e-05, -2.754530760284979e-05, -0.0018960434244945645, 0.0004196296213194728, -0.00025195255875587463, -0.013358887284994125, -0.8341983556747437, -0.9715204834938049, 0.05392825976014137, -1.5760240261299083, -2.3967866990169853, -2.6540150611403788, 9362.0, 30146.0, 35388.0, 9362.0, 8.013224601745605, 0.2407308667898178, 0.2642579972743988, 0.09022056311368942, -0.10085267573595047, -0.023766756057739258, 0.9959027767181396, -0.09026355296373367, -0.20087814331054688, 1.4794921875, 1.48388671875, 0.1642303466796875, 1.490478515625
66928, 0.009029879234731197, -0.022793756797909737, -0.014737504534423351, 4.464228914002888e-05, -3.0127981517580338e-05, -0.0020316278096288443, 0.00045513734221458435, -0.0002645754721015692, -0.01375761441886425, -0.8342030048370361, -0.9715158343315125, 0.053905099630355835, -1.5808719425551743, -2.4024363108525506, -2.651496858136279, 9362.0, 30146.0, 35388.0, 9362.0, 8.013224601745605, 0.000393993454053998, -0.20122195780277252, -0.2593572735786438, -0.10231901705265045, -0.0234565120190382, 0.995226263999939, -0.09026355296373367, -0.20087814331054688, 1.4794921875, 1.46630859375, 0.132171630859375, 1.493408203125
66938, 0.008423044346272945, -0.023318251594901085, -0.015257569961249828, 4.937178528052755e-05, -3.2845524401636794e-05, -0.002171940403059125, 0.0004907434922643006, -0.0002789281716104597, -0.01430449914187193, -0.8341894149780273, -0.9715192914009094, 0.05392243340611458, -1.584766656263443, -2.391367998957662, -2.6618310826001945, 9362.0, 30146.0, 35388.0, 9362.0, 8.033059120178223, -0.14176182448863983, -0.0016169205773621798, 0.15552450716495514, -0.1034635379910469, -0.020893702283501625, 0.9928163290023804, -0.09026355296373367, -0.20087814331054688, 1.4794921875, 1.465576171875, 0.130889892578125, 1.493408203125
66948, 0.007204391527920961, -0.0239463709294796, -0.015250115655362606, 5.447300281957723e-05, -3.571163324522786e-05, -0.0023183312732726336, 0.0005294939619489014, -0.00029430078575387597, -0.01497326698154211, -0.8341960310935974, -0.9715168476104736, 0.05392841622233391, -1.5829712839059213, -2.3975631762950513, -2.6606531473435813, 9362.0, 30146.0, 35388.0, 9362.0, 8.033059120178223, -0.10640346258878708, 0.054928332567214966, -0.20259925723075867, -0.10237576812505722, -0.02291840687394142, 0.9944514632225037, -0.07435350865125656, -0.030637741088867188, 1.493408203125, 1.497802734375, 0.19122314453125, 1.494873046875
66958, 0.009133887477219105, -0.025521736592054367, -0.01607799157500267, 5.9966492699459195e-05, -3.8726422644685954e-05, -0.002470659790560603, 0.0005691979895345867, -0.0003086677170358598, -0.01549203135073185, -0.8341901898384094, -0.9715180993080139, 0.053894221782684326, -1.5850086665559036, -2.3975374705386514, -2.661612166529373, 9362.0, 30146.0, 35388.0, 9362.0, 8.033059120178223, -0.029738890007138252, 0.18584951758384705, -0.14795494079589844, -0.10007980465888977, -0.024845801293849945, 0.9948623180389404, -0.07435350865125656, -0.030637741088867188, 1.493408203125, 1.5146484375, 0.225494384765625, 1.494873046875
66968, 0.010252092964947224, -0.024893395602703094, -0.020236514508724213, 6.58623393974267e-05, -4.187449303572066e-05, -0.002628261223435402, 0.000609956041444093, -0.0003209288406651467, -0.016027875244617462, -0.8341984748840332, -0.9715201258659363, 0.05390334129333496, -1.5759613248016295, -2.3965345318021036, -2.6536227159230674, 9362.0, 30146.0, 35388.0, 9362.0, 8.033059120178223, 0.054289188235998154, 0.10608097910881042, -0.11441180109977722, -0.10306476801633835, -0.024126086384058, 0.9937037825584412, -0.07435350865125656, -0.030637741088867188, 1.493408203125, 1.46337890625, 0.1270751953125, 1.49560546875
66978, 0.01058662123978138, -0.02674352005124092, -0.020994143560528755, 7.217903475975618e-05, -4.516155968303792e-05, -0.002791530219838023, 0.0006533882115036249, -0.0003364758740644902, -0.01662554033100605, -0.8341946005821228, -0.9715173840522766, 0.053903065621852875, -1.5826669345726805, -2.4008268387483156, -2.6614186579972614, 9362.0, 30146.0, 35388.0, 9362.0, 8.033059120178223, 0.2401207685470581, 0.29404178261756897, -0.16609415411949158, -0.10056038945913315, -0.0238441564142704, 0.9942507147789001, -0.07435350865125656, -0.030637741088867188, 1.493408203125, 1.5234375, 0.2439727783203125, 1.49560546875
66988, 0.010724972933530807, -0.02638065442442894, -0.020312106236815453, 7.892488065408543e-05, -4.8613703256705776e-05, -0.0029603433795273304, 0.0006957647856324911, -0.0003539502213243395, -0.017136678099632263, -0.8341917395591736, -0.9715258479118347, 0.05389610677957535, -1.5822218919135485, -2.3978515130032747, -2.657676682324244, 9362.0, 30146.0, 35388.0, 9362.0, 8.033059120178223, -0.03296229615807533, 0.15207038819789886, 0.14314806461334229, -0.10152747482061386, -0.023074034601449966, 0.9956738352775574, -0.07435350865125656, -0.030637741088867188, 1.493408203125, 1.47509765625, 0.147857666015625, 1.4970703125
66998, 0.012250691652297974, -0.02857121080160141, -0.021152308210730553, 8.611039811512455e-05, -5.224350388743915e-05, -0.003133949590846896, 0.0007413416169583797, -0.0003720085951499641, -0.017584143206477165, -0.8341953754425049, -0.9715209007263184, 0.05390884727239609, -1.5736838023528603, -2.4007890104168723, -2.6595110211130644, 9362.0, 30146.0, 35388.0, 9362.0, 8.033059120178223, 0.0031343274749815464, -0.28666186332702637, -0.11197128146886826, -0.10098211467266083, -0.024562247097492218, 0.9945054054260254, -0.07435350865125656, -0.030637741088867188, 1.493408203125, 1.494873046875, 0.185455322265625, 1.4970703125
67008, 0.011240336112678051, -0.026686372235417366, -0.02142103761434555, 9.374840010423213e-05, -5.6054988817777485e-05, -0.003312438726425171, 0.0007862391066737473, -0.0003902749449480325, -0.01811329461634159, -0.8341890573501587, -0.9715241193771362, 0.05391223356127739, -1.5808356506389147, -2.398091587628784, -2.6648012068431606, 9362.0, 30146.0, 35388.0, 9362.0, 8.033059120178223, -0.01732707768678665, 0.07414819300174713, -0.01801716536283493, -0.10276331007480621, -0.02540878765285015, 0.9956179857254028, -0.07435350865125656, -0.030637741088867188, 1.493408203125, 1.475830078125, 0.1492767333984375, 1.49267578125
67018, 0.011278061196208, -0.028181064873933792, -0.020156433805823326, 0.00010185443534282967, -6.0062313423259184e-05, -0.0034954024013131857, 0.0008349795243702829, -0.00041119655361399055, -0.018479058519005775, -0.8341929316520691, -0.9715188145637512, 0.05390693619847298, -1.578970628468615, -2.4059810929700234, -2.6541607646969783, 9362.0, 30146.0, 35388.0, 9362.0, 8.033059120178223, -0.3022783696651459, -0.00015487663040403277, 0.0900326818227768, -0.1046193540096283, -0.02656477503478527, 0.9973648190498352, -0.07435350865125656, -0.030637741088867188, 1.493408203125, 1.467041015625, 0.1334686279296875, 1.49267578125
67028, 0.010797648690640926, -0.02832144871354103, -0.021848568692803383, 0.00011043209087802097, -6.427035259548575e-05, -0.003681403584778309, 0.0008805453544482589, -0.00043041029130108654, -0.01872081495821476, -0.8341837525367737, -0.9715178608894348, 0.05388317257165909, -1.5816675667517244, -2.4020134595475326, -2.653707193232594, 9362.0, 30146.0, 35388.0, 9362.0, 8.033059120178223, 0.16009308397769928, 0.22649985551834106, -0.14420519769191742, -0.10236797481775284, -0.02519099786877632, 0.9969495534896851, -0.07435350865125656, -0.030637741088867188, 1.493408203125, 1.51904296875, 0.2346954345703125, 1.494873046875
67038, 0.011398053728044033, -0.030669555068016052, -0.02168053202331066, 0.00011947795428568497, -6.867076444905251e-05, -0.00387025298550725, 0.0009286266285926104, -0.00044967670692130923, -0.019048666581511497, -0.8341923356056213, -0.9715195894241333, 0.053894009441137314, -1.5804414214621405, -2.3997491652632164, -2.656512180485428, 9362.0, 30146.0, 35388.0, 9362.0, 8.033059120178223, 0.08539286255836487, 0.4575294256210327, 0.27906450629234314, -0.10188806802034378, -0.025006266310811043, 0.9961725473403931, -0.07435350865125656, -0.030637741088867188, 1.493408203125, 1.491943359375, 0.179656982421875, 1.494873046875
67048, 0.01218763180077076, -0.03513006865978241, -0.020651251077651978, 0.0001290056825382635, -7.325969636440277e-05, -0.004062688443809748, 0.000976902199909091, -0.00046810481580905616, -0.019438056275248528, -0.8341798186302185, -0.9715097546577454, 0.053910352289676666, -1.5779867015373354, -2.3960387184596073, -2.663769833777111, 9362.0, 30146.0, 35388.0, 9362.0, 8.033059120178223, 0.12687453627586365, 0.28739094734191895, -0.22379128634929657, -0.10213027894496918, -0.025179406628012657, 0.9949227571487427, -0.08483614027500153, 0.014162063598632812, 1.4970703125, 1.450927734375, 0.1063690185546875, 1.491943359375
67058, 0.012103447690606117, -0.034589048475027084, -0.02110535465180874, 0.0001390359248034656, -7.803793414495885e-05, -0.0042595104314386845, 0.0010291073704138398, -0.00048753517330624163, -0.019925978034734726, -0.834191083908081, -0.971525251865387, 0.053908903151750565, -1.5780200352185647, -2.3989710262397352, -2.6586686541454725, 9362.0, 30146.0, 35388.0, 9362.0, 8.033059120178223, -0.07342050969600677, -0.2865027189254761, 0.060657668858766556, -0.10367217659950256, -0.024648917838931084, 0.9945294260978699, -0.08483614027500153, 0.014162063598632812, 1.4970703125, 1.47509765625, 0.147857666015625, 1.491943359375
67068, 0.010729409754276276, -0.0329904779791832, -0.020581968128681183, 0.00014962616842240095, -8.301719935843721e-05, -0.004461274482309818, 0.0010889461264014244, -0.0005083187134005129, -0.020426413044333458, -0.8341869711875916, -0.9715274572372437, 0.053885772824287415, -1.576995050521192, -2.3974687727480273, -2.654566262411235, 9362.0, 30146.0, 35388.0, 9362.0, 8.033059120178223, -0.16698265075683594, -0.10516850650310516, 0.07469572871923447, -0.10314193367958069, -0.022448629140853882, 0.9949625134468079, -0.08483614027500153, 0.014162063598632812, 1.4970703125, 1.48974609375, 0.1755218505859375, 1.493408203125
67078, 0.009707524441182613, -0.03156416118144989, -0.019915271550416946, 0.0001608102465979755, -8.820360380923375e-05, -0.004667952191084623, 0.0011478831293061376, -0.0005289725959300995, -0.020908711478114128, -0.8341777324676514, -0.9715228080749512, 0.05391215160489082, -1.5829494008830114, -2.398883229590041, -2.6568933908599233, 9362.0, 30146.0, 35388.0, 9362.0, 8.033059120178223, 0.24346433579921722, -0.09873922169208527, -0.1673494130373001, -0.10160980373620987, -0.0200930405408144, 0.9955514669418335, -0.08483614027500153, 0.014162063598632812, 1.4970703125, 1.4853515625, 0.1669921875, 1.493408203125
67088, 0.011259038932621479, -0.03210754320025444, -0.02016344852745533, 0.0001725701440591365, -9.358485112898052e-05, -0.004879349377006292, 0.0012041075387969613, -0.0005472844350151718, -0.021370312198996544, -0.8341923952102661, -0.971511721611023, 0.053893931210041046, -1.5777785390291164, -2.4023257222585244, -2.6520401624666516, 9362.0, 30146.0, 35388.0, 9362.0, 8.033059120178223, 0.047934211790561676, 0.09721385687589645, 0.06061180680990219, -0.10272333770990372, -0.02408566139638424, 0.9929918050765991, -0.08483614027500153, 0.014162063598632812, 1.4970703125, 1.47216796875, 0.142547607421875, 1.494873046875
67098, 0.011565765365958214, -0.03340279683470726, -0.019775496795773506, 0.00018487955094315112, -9.91403212537989e-05, -0.005096422508358955, 0.0012577673187479377, -0.0005637917784042656, -0.022043922916054726, -0.8341986536979675, -0.9715092778205872, 0.053903721272945404, -1.5814332040914494, -2.3967809402970204, -2.6561713857896874, 9362.0, 30146.0, 35388.0, 9362.0, 8.033059120178223, -0.035407185554504395, -0.2946312427520752, 0.07877635210752487, -0.10439886152744293, -0.023453470319509506, 0.9923914670944214, -0.08483614027500153, 0.014162063598632812, 1.4970703125, 1.4150390625, 0.05596923828125, 1.494873046875
67108, 0.012057449668645859, -0.03332052752375603, -0.021702582016587257, 0.00019772988162003458, -0.00010487396502867341, -0.005320732947438955, 0.0013122832169756293, -0.0005829318542964756, -0.022817743942141533, -0.8341939449310303, -0.9715195894241333, 0.05390651524066925, -1.5822723344955811, -2.4012791528435002, -2.6665231432754988, 9362.0, 30146.0, 35388.0, 9362.0, 8.033059120178223, 0.16342173516750336, 0.009981105104088783, 0.03829074651002884, -0.10016889870166779, -0.024629250168800354, 0.9922189116477966, -0.08483614027500153, 0.014162063598632812, 1.4970703125, 1.424560546875, 0.0678253173828125, 1.49853515625
67118, 0.012571283616125584, -0.03371964395046234, -0.02071179635822773, 0.00021113661932758987, -0.00011080169497290626, -0.005552374292165041, 0.0013690640917047858, -0.0006026101182214916, -0.02351013571023941, -0.8341942429542542, -0.9715118408203125, 0.05391004681587219, -1.5740148765287068, -2.4021774502526227, -2.656718454644227, 9362.0, 30146.0, 35388.0, 9362.0, 8.033059120178223, -0.19271773099899292, 0.05650247633457184, 0.0991767942905426, -0.10056068003177643, -0.02258572354912758, 0.9948726892471313, -0.08483614027500153, 0.014162063598632812, 1.4970703125, 1.509521484375, 0.2148895263671875, 1.49853515625
67128, 0.01215407531708479, -0.03446382284164429, -0.022055450826883316, 0.00022511098359245807, -0.00011693058331729844, -0.005790031049400568, 0.0014258063165470958, -0.0006231628358364105, -0.024020832031965256, -0.8341942429542542, -0.9715186953544617, 0.053886912763118744, -1.5817544972103499, -2.3940862123953366, -2.6630065041864808, 9362.0, 30146.0, 35388.0, 9362.0, 8.033059120178223, 0.15414564311504364, -0.024018805474042892, -0.06698627024888992, -0.1015215739607811, -0.022522181272506714, 0.9934099316596985, -0.08483614027500153, 0.014162063598632812, 1.4970703125, 1.481689453125, 0.1600799560546875, 1.494140625
67138, 0.01201532781124115, -0.03381160646677017, -0.022754579782485962, 0.00023965582659002393, -0.00012326924479566514, -0.006033373065292835, 0.0014831548323854804, -0.0006445761537179351, -0.02464722841978073, -0.8341939449310303, -0.9715171456336975, 0.05389903113245964, -1.5864212285207537, -2.392716646607113, -2.660716104599028, 9362.0, 30146.0, 35388.0, 9362.0, 8.033059120178223, 0.11789163202047348, 0.2632782757282257, -0.026330536231398582, -0.0995064526796341, -0.022642718628048897, 0.9955936670303345, -0.08483614027500153, 0.014162063598632812, 1.4970703125, 1.41796875, 0.05950927734375, 1.494140625
67148, 0.012387212365865707, -0.033543795347213745, -0.02481592260301113, 0.00025478124734945595, -0.0001298187708016485, -0.006281723268330097, 0.0015419329283758998, -0.0006653305026702583, -0.025022370740771294, -0.8341949582099915, -0.971527099609375, 0.05391716957092285, -1.5808966584211093, -2.4010825687010424, -2.6616871323650244, 9362.0, 30146.0, 35388.0, 9362.0, 8.033059120178223, -0.0034434418193995953, -0.1380080282688141, -0.21847103536128998, -0.10140564292669296, -0.022802162915468216, 0.9974040985107422, -0.07853007316589355, -0.10231781005859375, 1.487548828125, 1.508056640625, 0.211883544921875, 1.491943359375
67158, 0.012546755373477936, -0.03626329079270363, -0.024038061499595642, 0.00027048916672356427, -0.00013657475938089192, -0.006533365696668625, 0.0015996493166312575, -0.0006858664564788342, -0.025305693969130516, -0.8342006802558899, -0.9715177416801453, 0.05391952395439148, -1.5799643976839208, -2.3940634397953886, -2.6646408450861636, 9362.0, 30146.0, 35388.0, 9362.0, 8.033059120178223, 0.15528778731822968, 0.3025067150592804, -0.19389663636684418, -0.10331948101520538, -0.025605779141187668, 0.9952858090400696, -0.07853007316589355, -0.10231781005859375, 1.487548828125, 1.458251953125, 0.1184234619140625, 1.491943359375
67168, 0.012159693986177444, -0.037168607115745544, -0.026151809841394424, 0.00028677142108790576, -0.00014353908773045987, -0.006788740400224924, 0.0016567799029871821, -0.0007069978746585548, -0.025768829509615898, -0.8341922760009766, -0.9715230464935303, 0.05390061065554619, -1.5830456453546617, -2.396750434937104, -2.666346992245762, 9362.0, 30146.0, 35388.0, 9362.0, 8.033059120178223, -0.08840218186378479, 0.059191636741161346, -0.023808719590306282, -0.10138217359781265, -0.02654844895005226, 0.9950760006904602, -0.07853007316589355, -0.10231781005859375, 1.487548828125, 1.47509765625, 0.147857666015625, 1.491943359375
67178, 0.012487232685089111, -0.039675891399383545, -0.027409140020608902, 0.0003036481502931565, -0.00015071610687300563, -0.007048735860735178, 0.001718559768050909, -0.0007284103776328266, -0.02622988447546959, -0.8341848850250244, -0.9715209603309631, 0.05392806977033615, -1.5878281855405858, -2.3973423587827654, -2.668768778742415, 9362.0, 30146.0, 35388.0, 9362.0, 8.033059120178223, -0.08238741755485535, 0.06856196373701096, -0.20069767534732819, -0.10096369683742523, -0.024698954075574875, 0.9949578046798706, -0.07853007316589355, -0.10231781005859375, 1.487548828125, 1.45458984375, 0.11224365234375, 1.491943359375
67188, 0.011615999042987823, -0.04029998555779457, -0.02618144266307354, 0.00032115026260726154, -0.00015810391050763428, -0.007313563488423824, 0.0017818387132138014, -0.0007491498836316168, -0.02673526294529438, -0.8342054486274719, -0.9715169072151184, 0.05391347408294678, -1.5834356883359062, -2.3993143061646265, -2.666285357800074, 9362.0, 30146.0, 35388.0, 9362.0, 8.033059120178223, -0.004595082253217697, 0.2538872957229614, 0.06408344209194183, -0.10258737206459045, -0.024362504482269287, 0.993861973285675, -0.07853007316589355, -0.10231781005859375, 1.487548828125, 1.44580078125, 0.098236083984375, 1.5
67198, 0.012678871862590313, -0.0428079329431057, -0.02934247814118862, 0.00033930622157640755, -0.00016570182924624532, -0.007583866827189922, 0.001849345862865448, -0.0007704413146711886, -0.02732498198747635, -0.8341932892799377, -0.9715248346328735, 0.05390345677733421, -1.581810255154545, -2.3948444955935315, -2.6697571788703303, 9362.0, 30146.0, 35388.0, 9362.0, 8.033059120178223, -0.14822594821453094, 0.33947765827178955, -0.34827324748039246, -0.1017930880188942, -0.023863015696406364, 0.9947351813316345, -0.07853007316589355, -0.10231781005859375, 1.487548828125, 1.487548828125, 0.1712188720703125, 1.5
67208, 0.012678871862590313, -0.0428079329431057, -0.02934247814118862, 0.00036006432492285967, -0.00017429659783374518, -0.007887404412031174, 0.0019248329335823655, -0.0007922382210381329, -0.027863267809152603, -0.8342028260231018, -0.9715179204940796, 0.053919315338134766, -1.5838874681220156, -2.397933791274653, -2.6610685588246934, 9362.0, 30146.0, 35388.0, 9362.0, 8.033059120178223, 0.07802791148424149, 0.11874222755432129, -0.10002627968788147, -0.1027546301484108, -0.021990535780787468, 0.9936686754226685, -0.07853007316589355, -0.10231781005859375, 1.487548828125, 1.446533203125, 0.09930419921875, 1.490478515625
67218, 0.012667084112763405, -0.04553580656647682, -0.029376255348324776, 0.00037967675598338246, -0.00018232702859677374, -0.008169140666723251, 0.0019976228941231966, -0.0008138467092067003, -0.0284835584461689, -0.8341937065124512, -0.9715138077735901, 0.05391541123390198, -1.5837279930314399, -2.398935387768006, -2.6647938851083586, 9362.0, 30146.0, 35388.0, 9362.0, 8.033059120178223, -0.08197759091854095, 0.09106703847646713, 0.19923390448093414, -0.10240354388952255, -0.02380025014281273, 0.9941378831863403, -0.07853007316589355, -0.10231781005859375, 1.487548828125, 1.490478515625, 0.1768646240234375, 1.490478515625
67228, 0.013505578972399235, -0.043469008058309555, -0.030163975432515144, 0.0004000406479462981, -0.00019057355530094355, -0.008456619456410408, 0.002075175754725933, -0.0008354511228390038, -0.029011884704232216, -0.8341925740242004, -0.9715216159820557, 0.05391056835651398, -1.5844520207519197, -2.39455699193266, -2.6639324873500687, 9362.0, 30146.0, 35388.0, 9362.0, 8.033059120178223, -0.013821136206388474, 0.2840050160884857, -0.035919204354286194, -0.10364140570163727, -0.024829933419823647, 0.9950883388519287, -0.07853007316589355, -0.10231781005859375, 1.487548828125, 1.4794921875, 0.155975341796875, 1.494873046875
67238, 0.013586990535259247, -0.04549834132194519, -0.029062585905194283, 0.00042116237455047667, -0.00019904322107322514, -0.008749507367610931, 0.002149150473996997, -0.000858481100294739, -0.02956540323793888, -0.8341943025588989, -0.9715279936790466, 0.05392000451683998, -1.5762617167191904, -2.3954348583032186, -2.6607420120118825, 9362.0, 30146.0, 35388.0, 9362.0, 8.013224601745605, 0.20230352878570557, 0.14723314344882965, -0.08845005929470062, -0.10199785232543945, -0.025500670075416565, 0.9929327368736267, -0.07853007316589355, -0.10231781005859375, 1.487548828125, 1.437744140625, 0.086029052734375, 1.494873046875
67248, 0.013813351280987263, -0.04621952399611473, -0.02974748983979225, 0.0004430405970197171, -0.00020774373842868954, -0.00904858484864235, 0.002226487034931779, -0.0008816193439997733, -0.03024974651634693, -0.834206223487854, -0.9715202450752258, 0.053930092602968216, -1.5756562801781107, -2.394507641195446, -2.6589926302219427, 9362.0, 30146.0, 35388.0, 9362.0, 8.013224601745605, -0.0187416709959507, 0.09568142890930176, 0.0857512354850769, -0.10352886468172073, -0.024071717634797096, 0.9930304884910583, -0.11338035762310028, -0.04855918884277344, 1.491943359375, 1.3974609375, 0.03759765625, 1.493408203125
67258, 0.013574953190982342, -0.04581088945269585, -0.031096765771508217, 0.0004656983364839107, -0.00021667756664101034, -0.009354487992823124, 0.0023050655145198107, -0.000905151420738548, -0.030930474400520325, -0.8341977596282959, -0.9715085625648499, 0.05389681085944176, -1.5842798926974806, -2.3919634324007006, -2.662074262889545, 9362.0, 30146.0, 35388.0, 9362.0, 8.013224601745605, 0.16325119137763977, -0.15432040393352509, -0.3853728473186493, -0.10168743133544922, -0.025882868096232414, 0.9934756755828857, -0.11338035762310028, -0.04855918884277344, 1.491943359375, 1.4794921875, 0.155975341796875, 1.493408203125
67268, 0.012773334980010986, -0.04491553455591202, -0.03169254586100578, 0.0004891389398835599, -0.00022584486578125507, -0.00966647733002901, 0.0023830679710954428, -0.0009283175459131598, -0.031466927379369736, -0.8342356085777283, -0.9715139269828796, 0.05389365553855896, -1.5846724685128497, -2.4038700504946746, -2.6660018716696574, 9362.0, 30146.0, 35388.0, 9362.0, 8.013224601745605, 0.11063427478075027, -0.047312866896390915, 0.027258196845650673, -0.10262402892112732, -0.02749348245561123, 0.9955882430076599, -0.11338035762310028, -0.04855918884277344, 1.491943359375, 1.500732421875, 0.1970977783203125, 1.49853515625
67278, 0.014478135854005814, -0.043714333325624466, -0.03166607767343521, 0.0005133523955009878, -0.0002352371229790151, -0.009983290918171406, 0.0024596319999545813, -0.0009501216700300574, -0.03189544379711151, -0.8342109322547913, -0.9715072512626648, 0.053899649530649185, -1.5838267029347142, -2.4061026657541618, -2.662069127610241, 9362.0, 30146.0, 35388.0, 9362.0, 8.013224601745605, 0.08375362306833267, -0.1359318047761917, -0.18831266462802887, -0.10055366903543472, -0.02554992027580738, 0.9969329833984375, -0.11338035762310028, -0.04855918884277344, 1.491943359375, 1.462646484375, 0.125823974609375, 1.49853515625
67288, 0.013856260105967522, -0.04265908896923065, -0.031216224655508995, 0.0005383216193877161, -0.00024486207985319197, -0.01030387170612812, 0.0025342225562781096, -0.0009748726151883602, -0.0322202704846859, -0.8342030644416809, -0.9715092182159424, 0.05390150845050812, -1.5803824658121317, -2.3998893488463295, -2.6587528866842223, 9362.0, 30146.0, 35388.0, 9362.0, 8.013224601745605, -0.07902838289737701, -0.19578474760055542, -0.09005934745073318, -0.10297565907239914, -0.02290252409875393, 0.9963548183441162, -0.11338035762310028, -0.04855918884277344, 1.491943359375, 1.417236328125, 0.058624267578125, 1.49853515625
67298, 0.014550680294632912, -0.04224773496389389, -0.031130323186516762, 0.0005640274030156434, -0.00025472912238910794, -0.010628174990415573, 0.0026069399900734425, -0.0009985297219827771, -0.032639991492033005, -0.834221363067627, -0.9715217351913452, 0.053883716464042664, -1.5832503596591885, -2.394857903953067, -2.66734658156623, 9362.0, 30146.0, 35388.0, 9362.0, 8.013224601745605, 0.0833677276968956, -0.21716837584972382, 0.04726001247763634, -0.10297565907239914, -0.02290252409875393, 0.9963548183441162, -0.11338035762310028, -0.04855918884277344, 1.491943359375, 1.493408203125, 0.1825714111328125, 1.49853515625
67308, 0.014160427264869213, -0.04035576805472374, -0.032685715705156326, 0.0005904561839997768, -0.00026483842520974576, -0.010957585647702217, 0.002678837161511183, -0.0010233352659270167, -0.03324176371097565, -0.8341867923736572, -0.9715129733085632, 0.0539090521633625, -1.578312959075315, -2.3977634289099967, -2.6595060718022214, 9362.0, 30146.0, 35388.0, 9362.0, 8.013224601745605, 0.00426375400274992, -0.11318089812994003, 0.35976389050483704, -0.10037285089492798, -0.021702250465750694, 0.9929268956184387, -0.11338035762310028, -0.04855918884277344, 1.491943359375, 1.477294921875, 0.1519775390625, 1.49853515625
67318, 0.014377825893461704, -0.03971061110496521, -0.03252851217985153, 0.0005904561839997768, -0.00026483842520974576, -0.010957585647702217, 0.002678837161511183, -0.0010233352659270167, -0.03324176371097565, -0.834221601486206, -0.9715160727500916, 0.05389898270368576, -1.5823850945956812, -2.4004640072438974, -2.664778370918128, 9362.0, 30146.0, 35388.0, 9362.0, 8.013224601745605, 0.10587307810783386, 0.2682664096355438, -0.11939336359500885, -0.10037285089492798, -0.021702250465750694, 0.9929268956184387, -0.11338035762310028, -0.04855918884277344, 1.491943359375, 1.477294921875, 0.1519775390625, 1.49853515625
67328, 0.014110664837062359, -0.03926238417625427, -0.03201882541179657, 0.0006454016547650099, -0.00028579001082107425, -0.011633024550974369, 0.002815213054418564, -0.0010720273712649941, -0.0342324934899807, -0.8342350721359253, -0.9715235233306885, 0.05388331785798073, -1.5852872409432197, -2.39683248506671, -2.661742510011916, 9362.0, 30146.0, 35388.0, 9362.0, 8.013224601745605, 0.11533229798078537, 0.10305353254079819, -0.11729907989501953, -0.10037285089492798, -0.021702250465750694, 0.9929268956184387, -0.11338035762310028, -0.04855918884277344, 1.491943359375, 1.481689453125, 0.1600799560546875, 1.493408203125
67338, 0.014448489062488079, -0.03976854681968689, -0.03155698627233505, 0.0006454016547650099, -0.00028579001082107425, -0.011633024550974369, 0.002815213054418564, -0.0010720273712649941, -0.0342324934899807, -0.8341923952102661, -0.9715172052383423, 0.053902365267276764, -1.5837640542347629, -2.3945639708505553, -2.6569953932704133, 9362.0, 30146.0, 35388.0, 9362.0, 8.013224601745605, 0.11533229798078537, 0.10305353254079819, -0.11729907989501953, -0.1032816618680954, -0.022674454376101494, 0.9958839416503906, -0.11338035762310028, -0.04855918884277344, 1.491943359375, 1.41357421875, 0.0542449951171875, 1.493408203125
67348, 0.014643765054643154, -0.03778471797704697, -0.031832609325647354, 0.0006454016547650099, -0.00028579001082107425, -0.011633024550974369, 0.002815213054418564, -0.0010720273712649941, -0.0342324934899807, -0.8342345356941223, -0.9714909791946411, 0.05385727807879448, -1.6002241421959083, -2.381720663432759, -2.642463270902612, 9362.0, 30146.0, 35388.0, 9362.0, 8.013224601745605, 0.03213229402899742, 0.015496581792831421, 0.05619164928793907, -0.10312032699584961, -0.022696301341056824, 0.9963903427124023, -0.11338035762310028, -0.04855918884277344, 1.491943359375, 1.41357421875, 0.0542449951171875, 1.493408203125
67358, 0.014701279811561108, -0.03923054412007332, -0.033249277621507645, 0.0007328679203055799, -0.00031904742354527116, -0.012681793421506882, 0.0030142476316541433, -0.0011457616928964853, -0.03559974953532219, -0.8342384696006775, -0.9714975357055664, 0.05384586378931999, -1.6068631850067274, -2.3695937602476533, -2.6474786719189467, 9362.0, 30146.0, 35388.0, 9362.0, 8.013224601745605, -0.10308179259300232, 0.13644631206989288, -0.07695667445659637, -0.10312032699584961, -0.022696301341056824, 0.9963903427124023, -0.11338035762310028, -0.04855918884277344, 1.491943359375, 1.41357421875, 0.0542449951171875, 1.493408203125
67368, 0.013799356296658516, -0.038922686129808426, -0.03271966427564621, 0.0007633444620296359, -0.00033063042792491615, -0.013040323741734028, 0.0030810583848506212, -0.0011708489619195461, -0.036105863749980927, -0.8342747688293457, -0.9714992046356201, 0.05380437150597572, -1.6083243252054784, -2.3701038686573384, -2.657746346237174, 9362.0, 30146.0, 35388.0, 9362.0, 8.013224601745605, -0.15659523010253906, -0.19631268084049225, -0.24588295817375183, -0.10212960094213486, -0.026771683245897293, 0.997382402420044, -0.11338035762310028, -0.04855918884277344, 1.491943359375, 1.464111328125, 0.1283111572265625, 1.493408203125
67378, 0.01483721099793911, -0.04006969556212425, -0.031518612056970596, 0.0007633444620296359, -0.00033063042792491615, -0.013040323741734028, 0.0030810583848506212, -0.0011708489619195461, -0.036105863749980927, -0.834239661693573, -0.9714981317520142, 0.053827520459890366, -1.613046342147197, -2.3644055621801385, -2.6634642290097794, 9362.0, 30146.0, 35388.0, 9362.0, 8.013224601745605, 0.07088708132505417, 0.15897221863269806, 0.09389317035675049, -0.10239012539386749, -0.024419305846095085, 0.996695876121521, -0.11338035762310028, -0.04855918884277344, 1.491943359375, 1.464111328125, 0.1283111572265625, 1.493408203125
67388, 0.015440745279192924, -0.03967977687716484, -0.03334031626582146, 0.000826304079964757, -0.0003545281069818884, -0.013768144883215427, 0.003215834964066744, -0.0012197863543406129, -0.036744240671396255, -0.8342323303222656, -0.9714999198913574, 0.05385235697031021, -1.6073963815478647, -2.371201941936647, -2.656230787806617, 9362.0, 30146.0, 35388.0, 9362.0, 8.013224601745605, -0.1373332440853119, -0.10346391797065735, -0.2962431311607361, -0.10068119317293167, -0.024781588464975357, 0.9951215982437134, -0.11338035762310028, -0.04855918884277344, 1.491943359375, 1.4560546875, 0.1147003173828125, 1.493408203125
67398, 0.01551619078963995, -0.040195122361183167, -0.03419813513755798, 0.0008588005439378321, -0.0003668577701319009, -0.014137787744402885, 0.003283449448645115, -0.001246144762262702, -0.037183888256549835, -0.8342486023902893, -0.9714909195899963, 0.05384374037384987, -1.602988728895434, -2.372130185662087, -2.646280871510018, 9362.0, 30146.0, 35388.0, 9362.0, 8.013224601745605, -0.08118581026792526, 0.12107028812170029, -0.3163716495037079, -0.10068119317293167, -0.024781588464975357, 0.9951215982437134, -0.11338035762310028, -0.04855918884277344, 1.491943359375, 1.447265625, 0.1004791259765625, 1.493408203125
67408, 0.015298942103981972, -0.04202568531036377, -0.03606515750288963, 0.000891977280844003, -0.00037945155054330826, -0.014512170106172562, 0.0033518800046294928, -0.0012726180721074343, -0.037692274898290634, -0.8342441320419312, -0.9714964032173157, 0.0538133941590786, -1.6101620787324444, -2.3685166041921946, -2.663861336535701, 9362.0, 30146.0, 35388.0, 9362.0, 8.013224601745605, -0.07816054672002792, 0.021758221089839935, 0.015039761550724506, -0.10068119317293167, -0.024781588464975357, 0.9951215982437134, -0.11338035762310028, -0.04855918884277344, 1.491943359375, 1.468505859375, 0.13604736328125, 1.49560546875
67418, 0.01476950105279684, -0.04279089719057083, -0.03720223903656006, 0.000891977280844003, -0.00037945155054330826, -0.014512170106172562, 0.0033518800046294928, -0.0012726180721074343, -0.037692274898290634, -0.8342302441596985, -0.9715069532394409, 0.05383745953440666, -1.6150448823563317, -2.3682181415005346, -2.6693362673968095, 9362.0, 30146.0, 35388.0, 9362.0, 8.013224601745605, 0.12294670939445496, 0.17560236155986786, -0.05496038869023323, -0.10089342296123505, -0.023835407570004463, 0.9942588806152344, -0.11338035762310028, -0.04855918884277344, 1.491943359375, 1.468505859375, 0.13604736328125, 1.49560546875
67428, 0.016224777325987816, -0.04479072242975235, -0.03829490765929222, 0.0009604501537978649, -0.0004054206656292081, -0.015279528684914112, 0.0034960939083248377, -0.0013238521059975028, -0.03896806016564369, -0.8342604637145996, -0.9715011119842529, 0.053816959261894226, -1.6106540285417361, -2.3762238349279414, -2.6577048887130337, 9362.0, 30146.0, 35388.0, 9362.0, 8.013224601745605, 0.17462091147899628, 0.19804809987545013, 0.003734380705282092, -0.10089342296123505, -0.023835407570004463, 0.9942588806152344, -0.11338035762310028, -0.04855918884277344, 1.491943359375, 1.456787109375, 0.115966796875, 1.49560546875
67438, 0.016929343342781067, -0.04757797345519066, -0.0382777638733387, 0.000995793379843235, -0.00041879795026034117, -0.01567057892680168, 0.0035725373309105635, -0.0013516016770154238, -0.03924178704619408, -0.8342410326004028, -0.9714921712875366, 0.0538269579410553, -1.6047398983360306, -2.365212318904213, -2.652754627673467, 9362.0, 30146.0, 35388.0, 9362.0, 8.033059120178223, -0.061479680240154266, 0.14670276641845703, -0.20497047901153564, -0.10089342296123505, -0.023835407570004463, 0.9942588806152344, -0.11338035762310028, -0.04855918884277344, 1.491943359375, 1.456787109375, 0.115966796875, 1.49560546875
67448, 0.017240101471543312, -0.04948858916759491, -0.03920992091298103, 0.000995793379843235, -0.00041879795026034117, -0.01567057892680168, 0.0035725373309105635, -0.0013516016770154238, -0.03924178704619408, -0.8342691659927368, -0.9714952707290649, 0.0537564717233181, -1.613413824499394, -2.36570519438186, -2.6710476149608944, 9362.0, 30146.0, 35388.0, 9362.0, 8.033059120178223, 0.10111634433269501, 0.37820255756378174, 0.15311560034751892, -0.10089342296123505, -0.023835407570004463, 0.9942588806152344, -0.11338035762310028, -0.04855918884277344, 1.491943359375, 1.4736328125, 0.1452178955078125, 1.49560546875
67458, 0.017385095357894897, -0.05046212673187256, -0.04017655923962593, 0.000995793379843235, -0.00041879795026034117, -0.01567057892680168, 0.0035725373309105635, -0.0013516016770154238, -0.03924178704619408, -0.8342409133911133, -0.9714828133583069, 0.0538250096142292, -1.6081153918006936, -2.3707007028427824, -2.6569999058933442, 9362.0, 30146.0, 35388.0, 9362.0, 8.033059120178223, 0.016628744080662727, 0.09406022727489471, -0.18575872480869293, -0.10089342296123505, -0.023835407570004463, 0.9942588806152344, -0.11338035762310028, -0.04855918884277344, 1.491943359375, 1.4736328125, 0.1452178955078125, 1.49560546875
67468, 0.01627844013273716, -0.04974054917693138, -0.04427024722099304, 0.0011066928273066878, -0.000460659503005445, -0.01686546579003334, 0.003823986742645502, -0.0014396714977920055, -0.04047193378210068, -0.834240198135376, -0.9715004563331604, 0.053819697350263596, -1.6064121816641737, -2.375441219675338, -2.659968518010102, 9362.0, 30146.0, 35388.0, 9362.0, 8.033059120178223, -0.25358909368515015, -0.10742047429084778, -0.15248844027519226, -0.10386015474796295, -0.026555029675364494, 0.9953177571296692, -0.11338035762310028, -0.04855918884277344, 1.491943359375, 1.4736328125, 0.1452178955078125, 1.49560546875
67478, 0.015527330338954926, -0.050248317420482635, -0.043620798736810684, 0.0011453687911853194, -0.0004752084205392748, -0.017272641882300377, 0.003911209758371115, -0.0014701311010867357, -0.04096299409866333, -0.8342748284339905, -0.9714949727058411, 0.05381595715880394, -1.6084281452587683, -2.3779856688505276, -2.6637840278099585, 9362.0, 30146.0, 35388.0, 9362.0, 8.033059120178223, 0.1638765037059784, 0.03571677207946777, -0.19605900347232819, -0.10386015474796295, -0.026555029675364494, 0.9953177571296692, -0.11338035762310028, -0.04855918884277344, 1.491943359375, 1.46923828125, 0.137359619140625, 1.49560546875
67488, 0.015527330338954926, -0.050248317420482635, -0.043620798736810684, 0.0011453687911853194, -0.0004752084205392748, -0.017272641882300377, 0.003911209758371115, -0.0014701311010867357, -0.04096299409866333, -0.8342682719230652, -0.971494197845459, 0.053787220269441605, -1.6079860460212876, -2.364444832429143, -2.6588183989174223, 9362.0, 30146.0, 35388.0, 9362.0, 8.033059120178223, 0.1559867411851883, 0.018142275512218475, 0.0033362179528921843, -0.10176833719015121, -0.025058211758732796, 0.9960050582885742, -0.11338035762310028, -0.04855918884277344, 1.491943359375, 1.46923828125, 0.137359619140625, 1.496337890625
67498, 0.01625962182879448, -0.049740664660930634, -0.04582720994949341, 0.0011453687911853194, -0.0004752084205392748, -0.017272641882300377, 0.003911209758371115, -0.0014701311010867357, -0.04096299409866333, -0.8342490792274475, -0.9715002179145813, 0.053817395120859146, -1.608326413611439, -2.366641467606115, -2.6573455511160535, 9362.0, 30146.0, 35388.0, 9362.0, 8.033059120178223, -0.19639544188976288, -0.08770900219678879, -0.0077332425862550735, -0.09901412576436996, -0.02396228536963463, 0.9942026734352112, -0.11338035762310028, -0.04855918884277344, 1.491943359375, 1.46923828125, 0.137359619140625, 1.496337890625
67518, 0.014702331274747849, -0.05468125268816948, -0.04947749152779579, 0.0013086252147331834, -0.0005361999501474202, -0.018950946629047394, 0.0042525543831288815, -0.0015789091121405363, -0.04325525090098381, -0.8342411518096924, -0.9714933037757874, 0.05382021889090538, -1.6019061002870145, -2.3686872659395988, -2.6621848883526056, 9362.0, 30146.0, 35388.0, 9362.0, 8.033059120178223, 0.045491352677345276, 0.09470934420824051, -0.19287581741809845, -0.10341164469718933, -0.023457573726773262, 0.9959058165550232, -0.11338035762310028, -0.04855918884277344, 1.491943359375, 1.45458984375, 0.11224365234375, 1.496337890625
67528, 0.015313691459596157, -0.0545927956700325, -0.050216078758239746, 0.0013086252147331834, -0.0005361999501474202, -0.018950946629047394, 0.0042525543831288815, -0.0015789091121405363, -0.04325525090098381, -0.8342614769935608, -0.9714906215667725, 0.05380624905228615, -1.6068632273672017, -2.365394341159373, -2.6678460900195327, 9362.0, 30146.0, 35388.0, 9362.0, 8.033059120178223, 0.06715879589319229, 0.2139287292957306, -0.20065326988697052, -0.10341164469718933, -0.023457573726773262, 0.9959058165550232, -0.11338035762310028, -0.04855918884277344, 1.491943359375, 1.443603515625, 0.0948486328125, 1.496337890625
67538, 0.015313691459596157, -0.0545927956700325, -0.050216078758239746, 0.0013086252147331834, -0.0005361999501474202, -0.018950946629047394, 0.0042525543831288815, -0.0015789091121405363, -0.04325525090098381, -0.8342496752738953, -0.971486508846283, 0.05380364507436752, -1.6095162066052062, -2.3723776422668834, -2.6591786152153296, 9362.0, 30146.0, 35388.0, 9362.0, 8.033059120178223, 0.04315808787941933, 0.2730931341648102, 0.042617131024599075, -0.09981124103069305, -0.026211844757199287, 0.9970092177391052, -0.11338035762310028, -0.04855918884277344, 1.491943359375, 1.443603515625, 0.0948486328125, 1.496337890625
67548, 0.01576331816613674, -0.05747849866747856, -0.049595024436712265, 0.0013086252147331834, -0.0005361999501474202, -0.018950946629047394, 0.0042525543831288815, -0.0015789091121405363, -0.04325525090098381, -0.8342413902282715, -0.9714869856834412, 0.053817037492990494, -1.612555459951614, -2.364038942563525, -2.6660901898731573, 9362.0, 30146.0, 35388.0, 9362.0, 8.033059120178223, -0.10305674374103546, 0.13585056364536285, -0.2165706306695938, -0.10408361256122589, -0.02423987351357937, 0.9960228800773621, -0.11338035762310028, -0.04855918884277344, 1.491943359375, 1.443603515625, 0.0948486328125, 1.496337890625
67558, 0.015436363406479359, -0.0611412487924099, -0.050147976726293564, 0.0013086252147331834, -0.0005361999501474202, -0.018950946629047394, 0.0042525543831288815, -0.0015789091121405363, -0.04325525090098381, -0.8342497944831848, -0.9714844822883606, 0.05379325523972511, -1.608257119171978, -2.3684993444040288, -2.654581087803163, 9362.0, 30146.0, 35388.0, 9362.0, 8.033059120178223, -0.08211137354373932, 0.5440239310264587, 0.2499343603849411, -0.10403458029031754, -0.022645385935902596, 0.9939177632331848, -0.11338035762310028, -0.04855918884277344, 1.491943359375, 1.443603515625, 0.0948486328125, 1.496337890625
67568, 0.014925521798431873, -0.06159917265176773, -0.047649431973695755, 0.0015328420558944345, -0.0006184062222018838, -0.021160293370485306, 0.004729991313070059, -0.0017100380500778556, -0.04528201371431351, -0.8342492580413818, -0.9714884757995605, 0.053805191069841385, -1.6100307285067017, -2.3677546605064492, -2.659135659263093, 9362.0, 30146.0, 35388.0, 9362.0, 8.033059120178223, 0.004740774631500244, -0.2729528844356537, 0.09673044830560684, -0.10403458029031754, -0.022645385935902596, 0.9939177632331848, -0.11338035762310028, -0.04855918884277344, 1.491943359375, 1.44580078125, 0.098236083984375, 1.496337890625
67578, 0.015046934597194195, -0.06183035671710968, -0.046848345547914505, 0.0015328420558944345, -0.0006184062222018838, -0.021160293370485306, 0.004729991313070059, -0.0017100380500778556, -0.04528201371431351, -0.8342406749725342, -0.9714879393577576, 0.053809236735105515, -1.6104733693750297, -2.366313517953529, -2.6585190655177033, 9362.0, 30146.0, 35388.0, 9362.0, 8.033059120178223, 0.10746929049491882, 0.21477536857128143, 0.23339223861694336, -0.10403458029031754, -0.022645385935902596, 0.9939177632331848, -0.11338035762310028, -0.04855918884277344, 1.491943359375, 1.40625, 0.04620361328125, 1.496337890625
67588, 0.015046934597194195, -0.06183035671710968, -0.046848345547914505, 0.001629557809792459, -0.0006531090475618839, -0.022074922919273376, 0.0049410248175263405, -0.0017605191096663475, -0.046179912984371185, -0.8342682123184204, -0.971489667892456, 0.053795721381902695, -1.6206543876250752, -2.3637329541499525, -2.670713565240949, 9362.0, 30146.0, 35388.0, 9362.0, 8.033059120178223, 0.21546979248523712, -0.2119617462158203, -0.3008713722229004, -0.10403458029031754, -0.022645385935902596, 0.9939177632331848, -0.11338035762310028, -0.04855918884277344, 1.491943359375, 1.40625, 0.04620361328125, 1.4912109375
67598, 0.014107954688370228, -0.06091457977890968, -0.04847174882888794, 0.001629557809792459, -0.0006531090475618839, -0.022074922919273376, 0.0049410248175263405, -0.0017605191096663475, -0.046179912984371185, -0.8342686295509338, -0.9714974164962769, 0.05379532650113106, -1.6066506694379075, -2.3727363211993975, -2.666303134600209, 9362.0, 30146.0, 35388.0, 9362.0, 8.033059120178223, -0.16802461445331573, 0.13883185386657715, 0.21248967945575714, -0.1020774245262146, -0.02201240323483944, 0.9948442578315735, -0.11338035762310028, -0.04855918884277344, 1.491943359375, 1.40625, 0.04620361328125, 1.4912109375
