timeTick, roll, pitch, yaw, stateX, stateY, stateZ, stateVX, stateVY, stateVZ, otX0, otY0, otZ0, otRoll0, otPitch0, otYaw0, left wing, pitch motor, yaw motor, right wing, voltage, roll rate, pitch rate, yaw rate, A_x, A_y, A_z, current, i_raw, v_raw, airflow_voltage, airflow_speed, pot_Pitch
47299, 2.727252721786499, 7.890794277191162, -12.878280639648438, 0, 0, 0, 0, 0, 0, -0.8374205827713013, -0.9959278106689453, 0.05383650213479996, -1.8985835776914752, -3.089396875066825, 1.970122279288721, 0, 0, 0, 0, 0, 0, 0, 0, 0, 0, 0, 0, 0, 0, 0, 0, 0
47309, 2.7276742458343506, 7.891647815704346, -12.878264427185059, 0.003508011344820261, 0.0003847218176815659, -56.63391876220703, 0.343760222196579, 0.037700071930885315, -2.4549994468688965, -0.8374152183532715, -0.9959301948547363, 0.0538584366440773, -1.8963658111211812, -3.092098487121035, 1.9727604992340417, 9362.0, 30146.0, 35388.0, 9362.0, 0, -0.02193440869450569, 0.168062224984169, 0.19514261186122894, -0.1151527613401413, -0.02740545943379402, 0.9944059252738953, 0, 0, 0, 0, 0, 0
47319, 2.7262282371520996, 7.890617370605469, -12.87700366973877, 0.006875259801745415, 0.0007540082442574203, -56.658477783203125, 0.3296895921230316, 0.03615719452500343, -2.4566121101379395, -0.8374172449111938, -0.9959328770637512, 0.05385194346308708, -1.8982405842986576, -3.095981553026519, 1.9714722594461198, 9362.0, 30146.0, 35388.0, 9362.0, 0, -0.2479192018508911, 0.08734586834907532, -0.14094676077365875, -0.11450868844985962, -0.027668027207255363, 0.9955074787139893, 0, 0, 0, 1.434814453125, 0.081787109375, 0
47329, 2.728301525115967, 7.888317584991455, -12.879289627075195, 0.010101709514856339, 0.0011078546522185206, -56.68305206298828, 0.31560036540031433, 0.03461180254817009, -2.4581079483032227, -0.8374109268188477, -0.9959383010864258, 0.05385325849056244, -1.8966450145802656, -3.09255743452988, 1.9726737069850946, 9362.0, 30146.0, 35388.0, 9362.0, 0, 0.19757921993732452, 0.23348651826381683, -0.058644622564315796, -0.11503779888153076, -0.027950074523687363, 0.9941837191581726, 0, 0, 0, 1.320556640625, 0.02685546875, 1.48974609375
47339, 2.727503538131714, 7.888408660888672, -12.880711555480957, 0.013187311589717865, 0.00144625932443887, -56.7076416015625, 0.3015199601650238, 0.0330696776509285, -2.4596498012542725, -0.8374200463294983, -0.995913565158844, 0.05385772883892059, -1.896306757913722, -3.0829893479502175, 1.9704853239570141, 9362.0, 30146.0, 35388.0, 9362.0, 0, -0.19399091601371765, -0.05710885673761368, -0.12997247278690338, -0.11347369104623795, -0.02866991050541401, 0.9941236972808838, 0, 0, 0, 1.4033203125, 0.043182373046875, 1.48974609375
47349, 2.7273266315460205, 7.886776447296143, -12.88164234161377, 0.016132138669490814, 0.0017692255787551403, -56.73224639892578, 0.2874453663825989, 0.0315239243209362, -2.461210012435913, -0.8374075889587402, -0.9959311485290527, 0.05386358126997948, -1.9020155258819458, -3.086916673671766, 1.969780118821871, 9362.0, 30146.0, 35388.0, 9362.0, 0, 0.10916141420602798, 0.05548662319779396, -0.1073109358549118, -0.11549052596092224, -0.02814708650112152, 0.9941267371177673, 0, 0, 0, 1.52490234375, 0.247039794921875, 1.494873046875
47359, 2.7281062602996826, 7.889950752258301, -12.883334159851074, 0.01893625780940056, 0.0020767468959093094, -56.756866455078125, 0.27337828278541565, 0.029980575665831566, -2.4628212451934814, -0.8374127745628357, -0.9959356188774109, 0.053846970200538635, -1.8975985938597573, -3.0940583053981925, 1.9732350340565639, 9362.0, 30146.0, 35388.0, 9362.0, 0, -0.04172561690211296, -0.1742948740720749, 0.006506288889795542, -0.11471323668956757, -0.02944512665271759, 0.9934963583946228, 0, 0, 0, 1.54833984375, 0.298126220703125, 1.494873046875
47369, 2.727846384048462, 7.888864517211914, -12.882726669311523, 0.021599723026156425, 0.002368834801018238, -56.78150177001953, 0.25931480526924133, 0.02843737229704857, -2.4644384384155273, -0.8374184966087341, -0.995918869972229, 0.05385085940361023, -1.8991841772787281, -3.08972246289008, 1.9646579239764312, 9362.0, 30146.0, 35388.0, 9362.0, 0, 0.07347126305103302, -0.12573891878128052, 0.007238805294036865, -0.11452333629131317, -0.02702125906944275, 0.9937583208084106, 0, 0, 0, 1.26123046875, 0.129302978515625, 1.48974609375
47379, 2.7285752296447754, 7.890374183654785, -12.883620262145996, 0.024122580885887146, 0.002645498141646385, -56.806156158447266, 0.2452569305896759, 0.026895174756646156, -2.466132164001465, -0.8374123573303223, -0.9959338307380676, 0.05384982004761696, -1.898977561609532, -3.089297463037127, 1.9710608416766024, 9362.0, 30146.0, 35388.0, 9362.0, 0, 0.10529246181249619, -0.0462476909160614, 0.04158467426896095, -0.1148509755730629, -0.02770155481994152, 0.9920109510421753, 0, 0, 0, 1.524169921875, 0.2455596923828125, 1.48974609375
47389, 2.7300548553466797, 7.889676570892334, -12.884367942810059, 0.02650485746562481, 0.0029067376162856817, -56.83082580566406, 0.2311985194683075, 0.025352928787469864, -2.4678094387054443, -0.83741295337677, -0.9959204792976379, 0.053886957466602325, -1.8949900695360138, -3.094216764837512, 1.9730449084344586, 9362.0, 30146.0, 35388.0, 9362.0, 0, 0.14238624274730682, 0.27863919734954834, -0.193281888961792, -0.11534647643566132, -0.02865789271891117, 0.9923496842384338, 0, 0, 0, 1.60546875, 0.43011474609375, 1.493408203125
47399, 2.7284910678863525, 7.888057708740234, -12.883674621582031, 0.028746668249368668, 0.0031525669619441032, -56.85551452636719, 0.2171635627746582, 0.02381313219666481, -2.469667434692383, -0.8374190926551819, -0.9959306120872498, 0.05384399741888046, -1.8953445315401716, -3.0928573724684725, 1.969017247291731, 9362.0, 30146.0, 35388.0, 9362.0, 8.370248794555664, 0.10433396697044373, -0.35474124550819397, -0.27244704961776733, -0.11494026333093643, -0.028290551155805588, 0.9947169423103333, -0.07688862830400467, -0.06647872924804688, 1.490478515625, 1.3564453125, 0.0156707763671875, 1.493408203125
47409, 2.7294187545776367, 7.887430191040039, -12.883445739746094, 0.030848050490021706, 0.0033829768653959036, -56.880218505859375, 0.20311278104782104, 0.02226868085563183, -2.471412181854248, -0.837425947189331, -0.9959266781806946, 0.053865402936935425, -1.89831865559351, -3.0911977032919538, 1.9704074681079236, 9362.0, 30146.0, 35388.0, 9362.0, 8.370248794555664, 0.06751568615436554, 0.0018408481264486909, -0.07534344494342804, -0.11539389938116074, -0.02868802845478058, 0.9948554635047913, -0.07688862830400467, -0.06647872924804688, 1.490478515625, 1.450927734375, 0.1063690185546875, 1.111083984375
47419, 2.730147361755371, 7.885700702667236, -12.883339881896973, 0.032808780670166016, 0.003597933566197753, -56.90494155883789, 0.18903304636478424, 0.02072257734835148, -2.472935914993286, -0.837425172328949, -0.9959208369255066, 0.053862981498241425, -1.8957094956719822, -3.0880591084298885, 1.9720643378865197, 9362.0, 30146.0, 35388.0, 9362.0, 8.370248794555664, 0.0010500798234716058, 0.37980037927627563, 0.0772789940237999, -0.1156211569905281, -0.030203228816390038, 0.9931292533874512, -0.07688862830400467, -0.06647872924804688, 1.490478515625, 1.591552734375, 0.3972320556640625, 1.111083984375
47429, 2.7298643589019775, 7.885757923126221, -12.881966590881348, 0.03462878242135048, 0.003797427285462618, -56.92967987060547, 0.17496749758720398, 0.019176188856363297, -2.4745519161224365, -0.8374256491661072, -0.9959321022033691, 0.0538816973567009, -1.897313682867267, -3.0889231837871307, 1.9623702016739655, 9362.0, 30146.0, 35388.0, 9362.0, 8.370248794555664, 0.015328752808272839, -0.24582542479038239, -0.024288726970553398, -0.11469097435474396, -0.028822964057326317, 0.9931226968765259, -0.07688862830400467, -0.06647872924804688, 1.490478515625, 1.395263671875, 0.035675048828125, 1.49267578125
47439, 2.7290399074554443, 7.885019302368164, -12.881864547729492, 0.03630824014544487, 0.003981458488851786, -56.95443344116211, 0.16092431545257568, 0.017629751935601234, -2.4763028621673584, -0.8374207615852356, -0.9959208965301514, 0.05385628342628479, -1.8962975339065413, -3.096287497171687, 1.9722202660926438, 9362.0, 30146.0, 35388.0, 9362.0, 8.370248794555664, -0.1887204796075821, 0.00826026126742363, -0.11619559675455093, -0.11366170644760132, -0.02913046069443226, 0.9926137924194336, -0.07688862830400467, -0.06647872924804688, 1.490478515625, 1.598876953125, 0.414520263671875, 1.49267578125
47449, 2.730222225189209, 7.885016918182373, -12.881999969482422, 0.037847235798835754, 0.004150022752583027, -56.97920608520508, 0.14687468111515045, 0.016083067283034325, -2.4780094623565674, -0.837424635887146, -0.9959354996681213, 0.053827643394470215, -1.8958547150440832, -3.093320136260701, 1.9717846363308675, 9362.0, 30146.0, 35388.0, 9362.0, 8.370248794555664, 0.22821466624736786, -0.2604998052120209, 0.22678640484809875, -0.11303522437810898, -0.028105052188038826, 0.992068886756897, -0.07688862830400467, -0.06647872924804688, 1.490478515625, 1.402587890625, 0.0425262451171875, 1.494873046875
47459, 2.729853630065918, 7.883794784545898, -12.881814002990723, 0.03924582526087761, 0.004303134512156248, -57.00399398803711, 0.1328430473804474, 0.014539314433932304, -2.4798290729522705, -0.8374151587486267, -0.9959216713905334, 0.053890008479356766, -1.892640644436947, -3.0920981659141376, 1.972563875687185, 9362.0, 30146.0, 35388.0, 9362.0, 8.370248794555664, 0.04701158404350281, 0.15017291903495789, -0.20493663847446442, -0.11470171064138412, -0.0264438409358263, 0.9929972887039185, -0.07688862830400467, -0.06647872924804688, 1.490478515625, 1.563720703125, 0.3327789306640625, 1.494873046875
47469, 2.72979474067688, 7.882992267608643, -12.883637428283691, 0.040504034608602524, 0.004440792370587587, -57.02880096435547, 0.11879871040582657, 0.01299222931265831, -2.481564998626709, -0.8374252319335938, -0.9959346055984497, 0.053848329931497574, -1.8988499887473747, -3.0887419383711006, 1.9687465907494397, 9362.0, 30146.0, 35388.0, 9362.0, 8.370248794555664, -0.08549940586090088, 0.057315222918987274, -0.30940595269203186, -0.11509431898593903, -0.026614543050527573, 0.9927474856376648, -0.07688862830400467, -0.06647872924804688, 1.490478515625, 1.572509765625, 0.3528594970703125, 1.489013671875
47479, 2.730494499206543, 7.882271766662598, -12.883068084716797, 0.041621800512075424, 0.004562979098409414, -57.053627014160156, 0.10475466400384903, 0.011445548385381699, -2.483287811279297, -0.8374184966087341, -0.995921790599823, 0.053851403295993805, -1.8979045439996465, -3.092025202855126, 1.9658358962209999, 9362.0, 30146.0, 35388.0, 9362.0, 8.370248794555664, 0.10082340985536575, 0.1446014940738678, 0.06972526013851166, -0.11578965932130814, -0.026586083695292473, 0.992134690284729, -0.07688862830400467, -0.06647872924804688, 1.490478515625, 1.54541015625, 0.291656494140625, 1.489013671875
47489, 2.7302064895629883, 7.878176212310791, -12.881481170654297, 0.042599186301231384, 0.004669705871492624, -57.078468322753906, 0.09072250127792358, 0.009899658150970936, -2.4850828647613525, -0.8374190330505371, -0.9959246516227722, 0.053865619003772736, -1.8997596107096915, -3.0911892221171513, 1.9666511588305133, 9362.0, 30146.0, 35388.0, 9362.0, 8.370248794555664, -0.08894722163677216, 0.33598968386650085, 0.12143095582723618, -0.11526240408420563, -0.027270426973700523, 0.9940142631530762, -0.07688862830400467, -0.06647872924804688, 1.490478515625, 1.5380859375, 0.2755889892578125, 1.496337890625
47499, 2.7296643257141113, 7.880462646484375, -12.882577896118164, 0.043436188250780106, 0.004760958719998598, -57.103328704833984, 0.07667818665504456, 0.008350567892193794, -2.4867873191833496, -0.8374068140983582, -0.995986819267273, 0.05404731631278992, -1.8363780197853272, -3.0831728651479864, 1.9618410415884606, 9362.0, 30146.0, 35388.0, 9362.0, 8.390083312988281, 0.08906029164791107, -0.0011267038062214851, -0.03615702688694, -0.1148904338479042, -0.02803839184343815, 0.9961248636245728, -0.09274954348802567, -0.32631683349609375, 1.46923828125, 1.491943359375, 0.179656982421875, 1.496337890625
47509, 2.730272054672241, 7.879528522491455, -12.881805419921875, 0.04413264989852905, 0.004836698528379202, -57.128204345703125, 0.06261418014764786, 0.0067976778373122215, -2.488309144973755, -0.8374056816101074, -0.9959868788719177, 0.054058440029621124, -1.8381286575753406, -3.0853857035410783, 1.9553517764254984, 9362.0, 30146.0, 35388.0, 9362.0, 8.390083312988281, -0.11316545307636261, -0.07144634425640106, -0.23477883636951447, -0.1140119805932045, -0.027926510199904442, 0.9933464527130127, -0.09274954348802567, -0.32631683349609375, 1.46923828125, 1.565185546875, 0.336090087890625, 1.490478515625
47519, 2.7295522689819336, 7.880163669586182, -12.882997512817383, 0.04468844085931778, 0.004896918311715126, -57.15309524536133, 0.04854382202029228, 0.005246087908744812, -2.489812135696411, -0.8374195694923401, -0.9959260821342468, 0.053880732506513596, -1.899487643350637, -3.0928600274146447, 1.9669770302534102, 9362.0, 30146.0, 35388.0, 9362.0, 8.390083312988281, -0.07922753691673279, 0.17329725623130798, -0.23083272576332092, -0.1153140738606453, -0.027757897973060608, 0.9922154545783997, -0.09274954348802567, -0.32631683349609375, 1.46923828125, 1.559326171875, 0.32293701171875, 1.490478515625
47529, 2.7284865379333496, 7.87891149520874, -12.88428020477295, 0.045103769749403, 0.004941640421748161, -57.178001403808594, 0.03452206775546074, 0.0036986367776989937, -2.491640567779541, -0.8374308943748474, -0.9959245324134827, 0.05388449504971504, -1.9009383806924989, -3.0948718877307897, 1.9704312864173237, 9362.0, 30146.0, 35388.0, 9362.0, 8.390083312988281, 0.16409355401992798, -0.05659794062376022, -0.10338801890611649, -0.11760310083627701, -0.026377733796834946, 0.9930132627487183, -0.09274954348802567, -0.32631683349609375, 1.46923828125, 1.30517578125, 0.0422515869140625, 1.487548828125
47539, 2.728790521621704, 7.8787126541137695, -12.884221076965332, 0.04537877067923546, 0.004970884881913662, -57.20292663574219, 0.020477987825870514, 0.002150569809600711, -2.4933204650878906, -0.8374077081680298, -0.9959331154823303, 0.0538782998919487, -1.894556348810855, -3.0947504981865563, 1.9647736157852163, 9362.0, 30146.0, 35388.0, 9362.0, 8.390083312988281, -0.2502139210700989, -0.016838207840919495, 0.06895016133785248, -0.11568426340818405, -0.027827657759189606, 0.9916679263114929, -0.09274954348802567, -0.32631683349609375, 1.46923828125, 1.5205078125, 0.237762451171875, 1.487548828125
47549, 2.7296242713928223, 7.876097202301025, -12.886382102966309, 0.04551343247294426, 0.004984666593372822, -57.227867126464844, 0.00645409245043993, 0.0006057422142475843, -2.4951224327087402, -0.8374199867248535, -0.9959404468536377, 0.053884316235780716, -1.8944586524443552, -3.092565560605067, 1.9673165860537185, 9362.0, 30146.0, 35388.0, 9362.0, 8.390083312988281, 0.1473773717880249, 0.3316328525543213, -0.05385519191622734, -0.11557479202747345, -0.02873176895081997, 0.9929981231689453, -0.09274954348802567, -0.32631683349609375, 1.46923828125, 1.552734375, 0.3080596923828125, 1.490478515625
47559, 2.729189872741699, 7.873807430267334, -12.886885643005371, 0.04550784453749657, 0.004982995800673962, -57.25282669067383, -0.0075716618448495865, -0.0009393516811542213, -2.496910333633423, -0.8374161720275879, -0.9959233403205872, 0.05387178808450699, -1.898813567267188, -3.0898190670438055, 1.9662029194658308, 9362.0, 30146.0, 35388.0, 9362.0, 8.390083312988281, -0.13152433931827545, -0.0931997075676918, -0.12226998805999756, -0.11560477316379547, -0.02748975344002247, 0.9933329224586487, -0.09274954348802567, -0.32631683349609375, 1.46923828125, 1.324951171875, 0.0236663818359375, 1.490478515625
47569, 2.729520559310913, 7.876386642456055, -12.888246536254883, 0.045361947268247604, 0.004965856671333313, -57.27780532836914, -0.021608155220746994, -0.0024882813449949026, -2.498595952987671, -0.8374297618865967, -0.9959247708320618, 0.05385642126202583, -1.8998679991392573, -3.0949255004555027, 1.9717131024811996, 9362.0, 30146.0, 35388.0, 9362.0, 8.390083312988281, 0.0016600684029981494, -0.32041817903518677, -0.35738545656204224, -0.1140161007642746, -0.028140263631939888, 0.9932301044464111, -0.09274954348802567, -0.32631683349609375, 1.46923828125, 1.579833984375, 0.369873046875, 1.49267578125
47579, 2.729769468307495, 7.873647689819336, -12.88933277130127, 0.045075684785842896, 0.004933226387947798, -57.302799224853516, -0.03564444184303284, -0.0040374817326664925, -2.5002567768096924, -0.8374366760253906, -0.995935320854187, 0.05387929454445839, -1.8954436689522436, -3.087792532874005, 1.9723645959069702, 9362.0, 30146.0, 35388.0, 9362.0, 8.390083312988281, 0.09407204389572144, 0.002032569143921137, -0.39826154708862305, -0.11572372913360596, -0.027654873207211494, 0.9941539168357849, -0.09274954348802567, -0.32631683349609375, 1.46923828125, 1.543212890625, 0.286834716796875, 1.49267578125
47589, 2.7298238277435303, 7.872124671936035, -12.889799118041992, 0.04464910924434662, 0.004885115660727024, -57.32781219482422, -0.04967072978615761, -0.005584393162280321, -2.502016544342041, -0.8374272584915161, -0.9959187507629395, 0.05387040600180626, -1.8952661237589508, -3.0945220096378705, 1.964791574533892, 9362.0, 30146.0, 35388.0, 9362.0, 8.390083312988281, -0.019273845478892326, 0.378023624420166, 0.14743956923484802, -0.11559784412384033, -0.029210632666945457, 0.9928399920463562, -0.09274954348802567, -0.32631683349609375, 1.46923828125, 1.569580078125, 0.3462371826171875, 1.49267578125
47599, 2.729377269744873, 7.871700286865234, -12.89009952545166, 0.0440821573138237, 0.004821515176445246, -57.352840423583984, -0.06371951848268509, -0.007135618478059769, -2.5035903453826904, -0.8374304175376892, -0.9959256052970886, 0.05386390537023544, -1.8966599266800195, -3.0867909307884815, 1.9692792385523192, 9362.0, 30146.0, 35388.0, 9362.0, 8.390083312988281, -0.0582534521818161, -0.2313699573278427, -0.16285422444343567, -0.11646514385938644, -0.032263584434986115, 0.991014301776886, -0.10308855026960373, -0.18295860290527344, 1.48095703125, 1.357177734375, 0.0157928466796875, 1.49267578125
47609, 2.7287673950195312, 7.8734846115112305, -12.892601013183594, 0.04337490350008011, 0.004742418881505728, -57.37788391113281, -0.07773157954216003, -0.008683610707521439, -2.5054008960723877, -0.8374145030975342, -0.9959867000579834, 0.054060593247413635, -1.840436934107827, -3.084070466754241, 1.9619988829852966, 9362.0, 30146.0, 35388.0, 9362.0, 8.390083312988281, -0.013440454378724098, -0.005998664535582066, -0.15293480455875397, -0.11677248775959015, -0.03128165006637573, 0.9937466979026794, -0.10308855026960373, -0.18295860290527344, 1.48095703125, 1.2333984375, 0.2232666015625, 1.48974609375
47619, 2.7293577194213867, 7.871948719024658, -12.89295768737793, 0.04252755269408226, 0.004647847730666399, -57.40294647216797, -0.09173888713121414, -0.010229992680251598, -2.507236957550049, -0.8374214172363281, -0.9959244132041931, 0.05387689173221588, -1.8982751630646792, -3.097303558806942, 1.965769705785962, 9362.0, 30146.0, 35388.0, 9362.0, 8.390083312988281, -0.058894429355859756, 0.08668214827775955, -0.20788048207759857, -0.11666376143693924, -0.03024146519601345, 0.9933422207832336, -0.10308855026960373, -0.18295860290527344, 1.48095703125, 1.175537109375, 0.5392303466796875, 1.48974609375
47629, 2.7302298545837402, 7.8710551261901855, -12.892630577087402, 0.04153997451066971, 0.004537809174507856, -57.42802810668945, -0.10577640682458878, -0.011777631938457489, -2.508885145187378, -0.837408721446991, -0.9959855675697327, 0.05405880883336067, -1.8346436085152749, -3.0814684299920714, 1.9666285387930909, 9362.0, 30146.0, 35388.0, 9362.0, 8.390083312988281, 0.14700841903686523, 0.33980822563171387, 0.1185479536652565, -0.11728730797767639, -0.027998492121696472, 0.9934303164482117, -0.10308855026960373, -0.18295860290527344, 1.48095703125, 1.573974609375, 0.35626220703125, 1.489013671875
47639, 2.7300846576690674, 7.870626449584961, -12.89555549621582, 0.0404120571911335, 0.004412289243191481, -57.453125, -0.11980678141117096, -0.013326374813914299, -2.510566234588623, -0.8374601006507874, -0.9959278702735901, 0.05384655296802521, -1.8974017236917537, -3.0772469776582057, 1.9520195147205122, 9362.0, 30146.0, 35388.0, 9362.0, 8.390083312988281, -0.05492609366774559, -0.21545696258544922, -0.062443893402814865, -0.1149345263838768, -0.028896931558847427, 0.9941985607147217, -0.10308855026960373, -0.18295860290527344, 1.48095703125, 1.51171875, 0.21942138671875, 1.489013671875
47649, 2.7302136421203613, 7.868931770324707, -12.89566707611084, 0.039143841713666916, 0.004271272569894791, -57.47823715209961, -0.13383659720420837, -0.014876244589686394, -2.5122432708740234, -0.8374104499816895, -0.9959299564361572, 0.05387600138783455, -1.8980637855986553, -3.0892996169917524, 1.9688549593123341, 9362.0, 30146.0, 35388.0, 9362.0, 8.390083312988281, 0.04372235760092735, 0.2760062515735626, -0.16122381389141083, -0.1155942901968956, -0.029256420210003853, 0.9949444532394409, -0.10308855026960373, -0.18295860290527344, 1.48095703125, 1.358642578125, 0.0159912109375, 1.49853515625
47659, 2.7289106845855713, 7.8689351081848145, -12.895028114318848, 0.037735216319561005, 0.004114748910069466, -57.50336837768555, -0.14788833260536194, -0.016428496688604355, -2.5137650966644287, -0.8374556303024292, -0.9959344863891602, 0.05385640263557434, -1.898906122692876, -3.0865350351094776, 1.9617351731625952, 9362.0, 30146.0, 35388.0, 9362.0, 8.390083312988281, -0.08114495128393173, -0.12769578397274017, 0.07871683686971664, -0.11657779663801193, -0.029877059161663055, 0.9929245710372925, -0.10308855026960373, -0.18295860290527344, 1.48095703125, 1.388671875, 0.03033447265625, 1.49853515625
47669, 2.728851556777954, 7.870542526245117, -12.895864486694336, 0.03618616983294487, 0.00394270708784461, -57.52851486206055, -0.16192132234573364, -0.017980000004172325, -2.5153956413269043, -0.8374425768852234, -0.9959906935691833, 0.05405397340655327, -1.8469135594972466, -3.0749961188163297, 1.9681804587003993, 9362.0, 30146.0, 35388.0, 9362.0, 8.390083312988281, -0.06521255522966385, 0.083768330514431, -0.05380183458328247, -0.11654297262430191, -0.03043450228869915, 0.9945850372314453, -0.10308855026960373, -0.18295860290527344, 1.48095703125, 1.616455078125, 0.456512451171875, 1.48681640625
47679, 2.726883888244629, 7.869587421417236, -12.895255088806152, 0.03449681028723717, 0.003755162237212062, -57.55367660522461, -0.17595063149929047, -0.01952880248427391, -2.5170493125915527, -0.8374348878860474, -0.9959766864776611, 0.05402602255344391, -1.8474209762136307, -3.0754877095716893, 1.9700287219734072, 9362.0, 30146.0, 35388.0, 9362.0, 8.390083312988281, 0.006972026079893112, -0.05568835139274597, 0.029544208198785782, -0.11445427685976028, -0.028608277440071106, 0.9942392706871033, -0.10308855026960373, -0.18295860290527344, 1.48095703125, 1.480224609375, 0.157379150390625, 1.48681640625
47689, 2.727186679840088, 7.872013092041016, -12.894430160522461, 0.03266704082489014, 0.0035521220415830612, -57.578853607177734, -0.19000355899333954, -0.021079344674944878, -2.51855731010437, -0.837460458278656, -0.9959807991981506, 0.05400577932596207, -1.841118987197545, -3.0619557479212745, 1.9539848410442162, 9362.0, 30146.0, 35388.0, 9362.0, 8.390083312988281, -0.11340132355690002, 0.045837000012397766, 0.11313050240278244, -0.11652666330337524, -0.026182793080806732, 0.9932559728622437, -0.10308855026960373, -0.18295860290527344, 1.48095703125, 1.55419921875, 0.311279296875, 1.491943359375
47699, 2.726207971572876, 7.870638370513916, -12.893665313720703, 0.030696848407387733, 0.0033336009364575148, -57.60404586791992, -0.20403487980365753, -0.02262507937848568, -2.5201988220214844, -0.8374309539794922, -0.9959863424301147, 0.054035428911447525, -1.8480636136120103, -3.0813746218046845, 1.9650272247221328, 9362.0, 30146.0, 35388.0, 9362.0, 8.390083312988281, -0.06056094169616699, -0.3028371036052704, -0.03529464825987816, -0.11489316821098328, -0.02707204781472683, 0.993773877620697, -0.09990119934082031, 0.11272048950195312, 1.505126953125, 1.241455078125, 0.192626953125, 1.491943359375
47709, 2.7262587547302246, 7.869343280792236, -12.893823623657227, 0.02858632430434227, 0.0030996238347142935, -57.62925720214844, -0.21807003021240234, -0.02417050674557686, -2.5218427181243896, -0.8374473452568054, -0.9959216117858887, 0.05385076254606247, -1.910678362686741, -3.083130800713633, 1.9778863252355785, 9362.0, 30146.0, 35388.0, 9362.0, 8.390083312988281, 0.18012557923793793, 0.2821585237979889, 0.3608337938785553, -0.11373203992843628, -0.026633160188794136, 0.9934341311454773, -0.09990119934082031, 0.11272048950195312, 1.505126953125, 1.563720703125, 0.3327789306640625, 1.493408203125
47719, 2.7252495288848877, 7.869813442230225, -12.891585350036621, 0.026335489004850388, 0.0028501998167485, -57.654483795166016, -0.23209726810455322, -0.025714246556162834, -2.523522138595581, -0.8374554514884949, -0.9959185719490051, 0.053845636546611786, -1.906054419065715, -3.087975164968327, 1.9760817256047507, 9362.0, 30146.0, 35388.0, 9362.0, 8.390083312988281, -0.06260984390974045, 0.0037198218051344156, 0.2754734754562378, -0.11599959433078766, -0.0276265200227499, 0.9948226809501648, -0.09990119934082031, 0.11272048950195312, 1.505126953125, 1.571044921875, 0.349578857421875, 1.493408203125
47729, 2.7256290912628174, 7.868898391723633, -12.888784408569336, 0.023944318294525146, 0.0025853279512375593, -57.679725646972656, -0.24613673985004425, -0.027260681614279747, -2.525101900100708, -0.8374537229537964, -0.995917797088623, 0.053861331194639206, -1.9107191394939527, -3.08864384067482, 1.9799502147186594, 9362.0, 30146.0, 35388.0, 9362.0, 8.390083312988281, -0.02727513760328293, 0.368862122297287, 0.3571068048477173, -0.11623048782348633, -0.027922477573156357, 0.9936114549636841, -0.09990119934082031, 0.11272048950195312, 1.505126953125, 1.52490234375, 0.247039794921875, 1.493408203125
47739, 2.7246859073638916, 7.868578910827637, -12.888078689575195, 0.021412741392850876, 0.0023049970623105764, -57.70498275756836, -0.2601783573627472, -0.0288061685860157, -2.5266687870025635, -0.8374612331390381, -0.9959244728088379, 0.05384206026792526, -1.9100160113228546, -3.080858512783493, 1.9813496955937067, 9362.0, 30146.0, 35388.0, 9362.0, 8.390083312988281, -0.27643224596977234, 0.0783844143152237, 0.3026196360588074, -0.1156458780169487, -0.026164885610342026, 0.9952384233474731, -0.09990119934082031, 0.11272048950195312, 1.505126953125, 1.590087890625, 0.3937835693359375, 1.493408203125
47749, 2.7251663208007812, 7.870335102081299, -12.888066291809082, 0.01874077133834362, 0.0020092050544917583, -57.73025894165039, -0.2742154896259308, -0.03035244345664978, -2.5282578468322754, -0.837457001209259, -0.9959219098091125, 0.05384383350610733, -1.9050781572291788, -3.0830218361517154, 1.9697565890973232, 9362.0, 30146.0, 35388.0, 9362.0, 8.390083312988281, 0.1810743659734726, -0.1262989342212677, -0.03820718079805374, -0.11544881761074066, -0.02630552649497986, 0.9954816699028015, -0.09990119934082031, 0.11272048950195312, 1.505126953125, 1.210693359375, 0.326202392578125, 1.487548828125
47759, 2.724391460418701, 7.86983585357666, -12.888256072998047, 0.015928346663713455, 0.0016979468055069447, -57.755550384521484, -0.2882695198059082, -0.03189928084611893, -2.5297248363494873, -0.837436318397522, -0.9959132671356201, 0.05383387207984924, -1.9125921013286271, -3.0806117891961833, 1.9763304817481473, 9362.0, 30146.0, 35388.0, 9362.0, 8.390083312988281, -0.06561058759689331, 0.09600222855806351, 0.022767674177885056, -0.11781641840934753, -0.02831130102276802, 0.9958920478820801, -0.09990119934082031, 0.11272048950195312, 1.505126953125, 1.3974609375, 0.03759765625, 1.487548828125
47769, 2.723613977432251, 7.869321823120117, -12.88867473602295, 0.012975407764315605, 0.001371223945170641, -57.78085708618164, -0.30231812596321106, -0.03344523906707764, -2.531249761581421, -0.8374530076980591, -0.9959231019020081, 0.053836967796087265, -1.9112463829153028, -3.081090606488658, 1.9808147779329648, 9362.0, 30146.0, 35388.0, 9362.0, 8.390083312988281, -0.14963342249393463, 0.10866177082061768, -0.16984142363071442, -0.11648204177618027, -0.026628106832504272, 0.9944185018539429, -0.09990119934082031, 0.11272048950195312, 1.505126953125, 1.591552734375, 0.3972320556640625, 1.496337890625
47779, 2.7231945991516113, 7.869299411773682, -12.88967227935791, 0.009881938807666302, 0.0010290418285876513, -57.806175231933594, -0.31637582182884216, -0.03499110788106918, -2.532705545425415, -0.8374543190002441, -0.9959287047386169, 0.05386122688651085, -1.904415257348816, -3.084746199027194, 1.9814464906979603, 9362.0, 30146.0, 35388.0, 9362.0, 8.390083312988281, -0.007629978470504284, -0.07406732439994812, -0.1665710210800171, -0.11708755046129227, -0.028055835515260696, 0.9937869906425476, -0.09990119934082031, 0.11272048950195312, 1.505126953125, 1.382080078125, 0.0256195068359375, 1.496337890625
47799, 2.7240216732025146, 7.870168685913086, -12.893061637878418, 0.003273729933425784, 0.0002983793383464217, -57.85686111450195, -0.3444490432739258, -0.03807460889220238, -2.535888671875, -0.8374570608139038, -0.9959303736686707, 0.05383962392807007, -1.9102848077668984, -3.081524678943566, 1.9760510967628375, 9362.0, 30146.0, 35388.0, 9362.0, 8.370248794555664, 0.042630717158317566, 0.02393212541937828, -0.11065659672021866, -0.11555887758731842, -0.030162252485752106, 0.9937582015991211, -0.09990119934082031, 0.11272048950195312, 1.505126953125, 1.5498046875, 0.3014678955078125, 1.493408203125
47809, 2.723766565322876, 7.872697353363037, -12.89399242401123, 0.003273729933425784, 0.0002983793383464217, -57.85686111450195, -0.3444490432739258, -0.03807460889220238, -2.535888671875, -0.8374495506286621, -0.9959263801574707, 0.053861070424318314, -1.9046760912153264, -3.0819713439438488, 1.975516571568236, 9362.0, 30146.0, 35388.0, 9362.0, 8.370248794555664, -0.11350560933351517, 0.00648617185652256, 0.07428823411464691, -0.11555887758731842, -0.030162252485752106, 0.9937582015991211, -0.09990119934082031, 0.11272048950195312, 1.505126953125, 1.5498046875, 0.3014678955078125, 1.493408203125
47819, 2.7233169078826904, 7.871053218841553, -12.89302921295166, -0.003895906498655677, -0.0004939549835398793, -57.90761184692383, -0.3725089132785797, -0.04115729779005051, -2.539182424545288, -0.8374335765838623, -0.9959838390350342, 0.05401771143078804, -1.847409170364194, -3.079967553150283, 1.9636936588664027, 9362.0, 30146.0, 35388.0, 9362.0, 8.370248794555664, -0.04317869618535042, 0.3466934263706207, 0.22822129726409912, -0.11557929962873459, -0.028659958392381668, 0.993162989616394, -0.09990119934082031, 0.11272048950195312, 1.505126953125, 1.5498046875, 0.3014678955078125, 1.493408203125
47829, 2.7230422496795654, 7.870372772216797, -12.892329216003418, -0.003895906498655677, -0.0004939549835398793, -57.90761184692383, -0.3725089132785797, -0.04115729779005051, -2.539182424545288, -0.8374488353729248, -0.9959174394607544, 0.053856056183576584, -1.9123552052230448, -3.0794324026777815, 1.9822316946990075, 9362.0, 30146.0, 35388.0, 9362.0, 8.370248794555664, -0.10611661523580551, 0.12526482343673706, -0.10190140455961227, -0.11623340845108032, -0.028114816173911095, 0.9950587749481201, -0.09990119934082031, 0.11272048950195312, 1.505126953125, 1.5498046875, 0.3014678955078125, 1.4912109375
47839, 2.7244861125946045, 7.868544101715088, -12.894826889038086, -0.011626675724983215, -0.0013478825567290187, -57.958431243896484, -0.4005696773529053, -0.044235989451408386, -2.5425119400024414, -0.8374348878860474, -0.9959158897399902, 0.0538453683257103, -1.9142630932321718, -3.0717319838975925, 1.9733132851195705, 9362.0, 30146.0, 35388.0, 9362.0, 8.370248794555664, 0.11673897504806519, -0.37511685490608215, -0.29215940833091736, -0.11605068296194077, -0.02898722141981125, 0.9943411350250244, -0.09990119934082031, 0.11272048950195312, 1.505126953125, 1.5498046875, 0.3014678955078125, 1.4912109375
47849, 2.723830461502075, 7.870513439178467, -12.896450996398926, -0.011626675724983215, -0.0013478825567290187, -57.958431243896484, -0.4005696773529053, -0.044235989451408386, -2.5425119400024414, -0.8374519348144531, -0.9959254860877991, 0.05386069044470787, -1.9078982975427177, -3.0775880610728734, 1.9766227726923524, 9362.0, 30146.0, 35388.0, 9362.0, 8.370248794555664, -0.08973310142755508, 0.006238429807126522, -0.2710040211677551, -0.11605068296194077, -0.02898722141981125, 0.9943411350250244, -0.09990119934082031, 0.11272048950195312, 1.505126953125, 1.5498046875, 0.3014678955078125, 1.49267578125
47859, 2.7239625453948975, 7.870974540710449, -12.898051261901855, -0.011626675724983215, -0.0013478825567290187, -57.958431243896484, -0.4005696773529053, -0.044235989451408386, -2.5425119400024414, -0.8374516367912292, -0.9959256052970886, 0.053846556693315506, -1.9087225418299316, -3.0794664040186035, 1.9753019525505886, 9362.0, 30146.0, 35388.0, 9362.0, 8.370248794555664, -0.14890486001968384, -0.10287415236234665, -0.2010871022939682, -0.11348692327737808, -0.03173106908798218, 0.99444580078125, -0.09990119934082031, 0.11272048950195312, 1.505126953125, 1.440673828125, 0.090423583984375, 1.49267578125
47869, 2.7231414318084717, 7.867713451385498, -12.898258209228516, -0.011626675724983215, -0.0013478825567290187, -57.958431243896484, -0.4005696773529053, -0.044235989451408386, -2.5425119400024414, -0.837439775466919, -0.9959827661514282, 0.05402898043394089, -1.846515003915403, -3.0755066072023, 1.9710024691259511, 9362.0, 30146.0, 35388.0, 9362.0, 8.370248794555664, -0.08374199271202087, 0.6329389810562134, 0.13792364299297333, -0.11388737708330154, -0.03046233020722866, 0.9913768768310547, -0.09990119934082031, 0.11272048950195312, 1.505126953125, 1.440673828125, 0.090423583984375, 1.493408203125
47879, 2.7229719161987305, 7.86691427230835, -12.897994041442871, -0.011626675724983215, -0.0013478825567290187, -57.958431243896484, -0.4005696773529053, -0.044235989451408386, -2.5425119400024414, -0.8374559283256531, -0.9959219694137573, 0.053851500153541565, -1.9132653251620315, -3.079477969084195, 1.9726683178085498, 9362.0, 30146.0, 35388.0, 9362.0, 8.370248794555664, -0.23191481828689575, 0.1725742369890213, 0.023708734661340714, -0.11604131758213043, -0.03024393878877163, 0.9947627186775208, -0.09990119934082031, 0.11272048950195312, 1.505126953125, 1.440673828125, 0.090423583984375, 1.493408203125
47889, 2.72275447845459, 7.8649163246154785, -12.900176048278809, -0.011626675724983215, -0.0013478825567290187, -57.958431243896484, -0.4005696773529053, -0.044235989451408386, -2.5425119400024414, -0.8374459147453308, -0.9959154725074768, 0.05385063588619232, -1.9115195333387078, -3.07802381767209, 1.9834134153537593, 9362.0, 30146.0, 35388.0, 9362.0, 8.370248794555664, 0.13799194991588593, 0.10684051364660263, -0.4740920662879944, -0.11531908065080643, -0.028531009331345558, 0.9940268993377686, -0.09990119934082031, 0.11272048950195312, 1.505126953125, 1.440673828125, 0.090423583984375, 1.493408203125
47909, 2.722616195678711, 7.861165523529053, -12.902059555053711, -0.011626675724983215, -0.0013478825567290187, -57.958431243896484, -0.4005696773529053, -0.044235989451408386, -2.5425119400024414, -0.8374429941177368, -0.9959177374839783, 0.0538477897644043, -1.909313862451503, -3.0767065246148206, 1.9746183787235085, 9362.0, 30146.0, 35388.0, 9362.0, 8.370248794555664, 0.15852482616901398, 0.5021929144859314, -0.307921439409256, -0.11442543566226959, -0.02764064259827137, 0.9941529035568237, -0.09990119934082031, 0.11272048950195312, 1.505126953125, 1.119873046875, 1.0350341796875, 1.4970703125
47919, 2.7232112884521484, 7.862524032592773, -12.90321159362793, -0.048164576292037964, -0.005379778333008289, -58.16233444213867, -0.512844443321228, -0.05655523017048836, -2.555267810821533, -0.8374457955360413, -0.9959150552749634, 0.05386411026120186, -1.9116516612937107, -3.0789266290446164, 1.9770511118440268, 9362.0, 30146.0, 35388.0, 9362.0, 8.370248794555664, -0.03754899278283119, -0.19896157085895538, -0.18614667654037476, -0.11442543566226959, -0.02764064259827137, 0.9941529035568237, -0.09990119934082031, 0.11272048950195312, 1.505126953125, 1.119873046875, 1.0350341796875, 1.4970703125
47929, 2.7228918075561523, 7.861534595489502, -12.904457092285156, -0.048164576292037964, -0.005379778333008289, -58.16233444213867, -0.512844443321228, -0.05655523017048836, -2.555267810821533, -0.8374404311180115, -0.9959135055541992, 0.05385483428835869, -1.9133837891385963, -3.08399266782277, 1.9742999397994359, 9362.0, 30146.0, 35388.0, 9362.0, 8.370248794555664, 0.10445711016654968, 0.015846217051148415, 0.026273077353835106, -0.11561691761016846, -0.029708420857787132, 0.9957081079483032, -0.09990119934082031, 0.11272048950195312, 1.505126953125, 1.119873046875, 1.0350341796875, 1.4912109375
47939, 2.723735809326172, 7.861954689025879, -12.906013488769531, -0.05870189517736435, -0.006541690323501825, -58.21347427368164, -0.5408943891525269, -0.059636376798152924, -2.5584418773651123, -0.8374491930007935, -0.9959093332290649, 0.05385199189186096, -1.9127053974266113, -3.0847813254929406, 1.9786550291897977, 9362.0, 30146.0, 35388.0, 9362.0, 8.370248794555664, 0.04555220156908035, 0.1245548278093338, -0.49528518319129944, -0.11481478810310364, -0.029446136206388474, 0.9943518042564392, -0.09990119934082031, 0.11272048950195312, 1.505126953125, 1.119873046875, 1.0350341796875, 1.4912109375
47949, 2.7242817878723145, 7.865047931671143, -12.90921401977539, -0.05870189517736435, -0.006541690323501825, -58.21347427368164, -0.5408943891525269, -0.059636376798152924, -2.5584418773651123, -0.8374337553977966, -0.995913565158844, 0.053843237459659576, -1.907993003333796, -3.0824477431837067, 1.9847400844610361, 9362.0, 30146.0, 35388.0, 9362.0, 8.370248794555664, 0.06904294341802597, -0.16993936896324158, -0.35763126611709595, -0.11239738762378693, -0.027925916016101837, 0.9910169243812561, -0.09990119934082031, 0.11272048950195312, 1.505126953125, 1.119873046875, 1.0350341796875, 1.491943359375
47959, 2.7244930267333984, 7.8637518882751465, -12.908824920654297, -0.06980028748512268, -0.0077652293257415295, -58.26467514038086, -0.5689224600791931, -0.06271471083164215, -2.561767339706421, -0.8374497294425964, -0.9959180951118469, 0.05384349450469017, -1.9128433688093878, -3.082658468532287, 1.9821642002205262, 9362.0, 30146.0, 35388.0, 9362.0, 8.370248794555664, 0.007155830506235361, 0.34581172466278076, 0.050690680742263794, -0.11239738762378693, -0.027925916016101837, 0.9910169243812561, -0.09990119934082031, 0.11272048950195312, 1.505126953125, 1.119873046875, 1.0350341796875, 1.491943359375
47969, 2.724043369293213, 7.860752582550049, -12.907323837280273, -0.06980028748512268, -0.0077652293257415295, -58.26467514038086, -0.5689224600791931, -0.06271471083164215, -2.561767339706421, -0.837476372718811, -0.9959070682525635, 0.05384651571512222, -1.9069814249474977, -3.07046509978818, 1.9657197902408792, 9362.0, 30146.0, 35388.0, 9362.0, 8.370248794555664, -0.015204593539237976, 0.1773119419813156, 0.2990404963493347, -0.1179279014468193, -0.027750512585043907, 0.9927906394004822, -0.09990119934082031, 0.11272048950195312, 1.505126953125, 1.119873046875, 1.0350341796875, 1.49267578125
47979, 2.7244253158569336, 7.859983921051025, -12.90804386138916, -0.08145888149738312, -0.009050285443663597, -58.31594467163086, -0.5969422459602356, -0.06579233705997467, -2.5652167797088623, -0.8374439477920532, -0.9959182739257812, 0.05385510250926018, -1.9135406228482308, -3.0839294930141534, 1.9766043786564726, 9362.0, 30146.0, 35388.0, 9362.0, 8.370248794555664, 0.14385353028774261, 0.2033342719078064, -0.20251664519309998, -0.11346255987882614, -0.028699815273284912, 0.9937334060668945, -0.09990119934082031, 0.11272048950195312, 1.505126953125, 1.119873046875, 1.0350341796875, 1.49267578125
47989, 2.7256357669830322, 7.858943939208984, -12.909273147583008, -0.08145888149738312, -0.009050285443663597, -58.31594467163086, -0.5969422459602356, -0.06579233705997467, -2.5652167797088623, -0.8374823331832886, -0.9959115982055664, 0.053827352821826935, -1.9115893770196695, -3.0641040475754266, 1.9598525297107876, 9362.0, 30146.0, 35388.0, 9362.0, 8.370248794555664, 0.12601323425769806, 0.019271548837423325, -0.030834699049592018, -0.11498632282018661, -0.02946438454091549, 0.9912564754486084, -0.09990119934082031, 0.11272048950195312, 1.505126953125, 1.119873046875, 1.0350341796875, 1.493408203125
48009, 2.7255470752716064, 7.857964992523193, -12.908259391784668, -0.0936778262257576, -0.010396933183073997, -58.36728286743164, -0.624945878982544, -0.06887192279100418, -2.5686843395233154, -0.837455153465271, -0.995920717716217, 0.053863152861595154, -1.9063041742572278, -3.0828577522624414, 1.972950566899403, 9362.0, 30146.0, 35388.0, 9362.0, 8.390083312988281, -0.00429763738065958, -0.23705732822418213, 0.05562673136591911, -0.11589913070201874, -0.027406755834817886, 0.9920366406440735, -0.08024551719427109, 0.05000114440917969, 1.5, 1.119873046875, 1.0350341796875, 1.493408203125
48019, 2.7258381843566895, 7.858968257904053, -12.90870189666748, -0.10645643621683121, -0.011805180460214615, -58.41869354248047, -0.6529222726821899, -0.07195350527763367, -2.5723118782043457, -0.837480902671814, -0.9959226846694946, 0.053820107132196426, -1.9096456304818148, -3.0651603270958674, 1.9632210665593364, 9362.0, 30146.0, 35388.0, 9362.0, 8.390083312988281, -0.03703239932656288, -0.17200885713100433, -0.11008747667074203, -0.1146184578537941, -0.02848939783871174, 0.991644561290741, -0.08024551719427109, 0.05000114440917969, 1.5, 1.119873046875, 1.0350341796875, 1.493408203125
48029, 2.7259039878845215, 7.8584394454956055, -12.908125877380371, -0.10645643621683121, -0.011805180460214615, -58.41869354248047, -0.6529222726821899, -0.07195350527763367, -2.5723118782043457, -0.8374427556991577, -0.9959242343902588, 0.053843915462493896, -1.9124077604517575, -3.084165512272051, 1.9785331534002504, 9362.0, 30146.0, 35388.0, 9362.0, 8.390083312988281, -0.08361418545246124, 0.08680304884910583, 0.16125865280628204, -0.11551808565855026, -0.0293169766664505, 0.9950097799301147, -0.08024551719427109, 0.05000114440917969, 1.5, 1.119873046875, 1.0350341796875, 1.496337890625
48049, 2.727107048034668, 7.857688903808594, -12.909754753112793, -0.11979472637176514, -0.013275094330310822, -58.470176696777344, -0.6809208989143372, -0.07503952831029892, -2.575777769088745, -0.837446391582489, -0.9959285855293274, 0.0538528636097908, -1.9087960278395457, -3.086023114937319, 1.9717993334670174, 9362.0, 30146.0, 35388.0, 9362.0, 8.390083312988281, 0.005442558787763119, 0.12035563588142395, 0.04936658963561058, -0.11280041933059692, -0.028996065258979797, 0.9950150847434998, -0.08024551719427109, 0.05000114440917969, 1.5, 1.119873046875, 1.0350341796875, 1.494140625
48059, 2.726609945297241, 7.859160900115967, -12.910754203796387, -0.13369345664978027, -0.014806794002652168, -58.521724700927734, -0.7089545130729675, -0.0781313106417656, -2.5789968967437744, -0.8374443054199219, -0.9959768652915955, 0.05400748923420906, -1.8437288894300508, -3.0749870609808454, 1.9728438095955483, 9362.0, 30146.0, 35388.0, 9362.0, 8.390083312988281, 0.05871004983782768, -0.2764865756034851, -0.1420261710882187, -0.11525805294513702, -0.02973790280520916, 0.99387526512146, -0.08024551719427109, 0.05000114440917969, 1.5, 1.119873046875, 1.0350341796875, 1.494140625
48069, 2.727091073989868, 7.859142303466797, -12.911462783813477, -0.13369345664978027, -0.014806794002652168, -58.521724700927734, -0.7089545130729675, -0.0781313106417656, -2.5789968967437744, -0.8374429941177368, -0.9959213733673096, 0.05384737625718117, -1.9088121613750975, -3.088169765818634, 1.9732368692445013, 9362.0, 30146.0, 35388.0, 9362.0, 8.390083312988281, 0.022321566939353943, -0.2236853539943695, -0.32557201385498047, -0.11362867057323456, -0.029708949849009514, 0.9918896555900574, -0.08024551719427109, 0.05000114440917969, 1.5, 1.119873046875, 1.0350341796875, 1.487548828125
48079, 2.726918935775757, 7.860454559326172, -12.913618087768555, -0.14815285801887512, -0.016400353983044624, -58.57333755493164, -0.7369745373725891, -0.08122210949659348, -2.5823214054107666, -0.8374553918838501, -0.9959161877632141, 0.05385840684175491, -1.9123468754856576, -3.0840632054539014, 1.9739539682632425, 9362.0, 30146.0, 35388.0, 9362.0, 8.390083312988281, 0.22549770772457123, -0.27098020911216736, -0.09081517159938812, -0.11461466550827026, -0.028719155117869377, 0.9942132830619812, -0.08024551719427109, 0.05000114440917969, 1.5, 1.119873046875, 1.0350341796875, 1.487548828125
48089, 2.728327989578247, 7.859250545501709, -12.91247272491455, -0.14815285801887512, -0.016400353983044624, -58.57333755493164, -0.7369745373725891, -0.08122210949659348, -2.5823214054107666, -0.8374637365341187, -0.9959765672683716, 0.05401327833533287, -1.8424220254017851, -3.0663750567565273, 1.9524681605253154, 9362.0, 30146.0, 35388.0, 9362.0, 8.390083312988281, 0.3214602470397949, 0.21571089327335358, 0.10724980384111404, -0.11502373218536377, -0.027492713183164597, 0.9932388067245483, -0.08024551719427109, 0.05000114440917969, 1.5, 1.119873046875, 1.0350341796875, 1.493408203125
48119, 2.729553461074829, 7.858938217163086, -12.911417961120605, -0.17875239253044128, -0.019772814586758614, -58.6767692565918, -0.7930042743682861, -0.08740288019180298, -2.5890865325927734, -0.8374500274658203, -0.9959208369255066, 0.053865641355514526, -1.9009892789150444, -3.0858627357543753, 1.9781987969687753, 9362.0, 30146.0, 35388.0, 9362.0, 8.370248794555664, 0.12223748862743378, 0.22868144512176514, -0.16357694566249847, -0.11559359729290009, -0.029072562232613564, 0.993370532989502, -0.09449559450149536, -0.27255821228027344, 1.4736328125, 1.119873046875, 1.0350341796875, 1.494140625
48129, 2.729823589324951, 7.856945514678955, -12.914034843444824, -0.17875239253044128, -0.019772814586758614, -58.6767692565918, -0.7930042743682861, -0.08740288019180298, -2.5890865325927734, -0.8374738693237305, -0.9959192276000977, 0.05380821228027344, -1.9065122830399002, -3.074149021718256, 1.9670522551853717, 9362.0, 30146.0, 35388.0, 9362.0, 8.370248794555664, -0.09078739583492279, 0.0628524199128151, -0.19708620011806488, -0.1161215603351593, -0.027045512571930885, 0.993468701839447, -0.09449559450149536, -0.27255821228027344, 1.4736328125, 1.119873046875, 1.0350341796875, 1.4912109375
48139, 2.730947494506836, 7.856736183166504, -12.915023803710938, -0.19489267468452454, -0.021551812067627907, -58.72858428955078, -0.8210299015045166, -0.09049846976995468, -2.5924203395843506, -0.8374351859092712, -0.995980978012085, 0.05402962118387222, -1.8463230177013075, -3.0786817511266236, 1.9664947135912516, 9362.0, 30146.0, 35388.0, 9362.0, 8.370248794555664, -0.04056490957736969, 0.5491775870323181, -0.19988031685352325, -0.1137906163930893, -0.026557249948382378, 0.9943166971206665, -0.09449559450149536, -0.27255821228027344, 1.4736328125, 1.119873046875, 1.0350341796875, 1.4912109375
48149, 2.7309577465057373, 7.853919506072998, -12.914472579956055, -0.19489267468452454, -0.021551812067627907, -58.72858428955078, -0.8210299015045166, -0.09049846976995468, -2.5924203395843506, -0.8374422788619995, -0.9959173202514648, 0.05385921150445938, -1.9067834686026672, -3.080938985570839, 1.9778615266928659, 9362.0, 30146.0, 35388.0, 9362.0, 8.370248794555664, -0.0474056713283062, -0.0050201257690787315, 0.09937893599271774, -0.11456859856843948, -0.02763127163052559, 0.9952495694160461, -0.09449559450149536, -0.27255821228027344, 1.4736328125, 1.201904296875, 0.373077392578125, 1.49267578125
48159, 2.7324013710021973, 7.8535661697387695, -12.915328979492188, -0.21159352362155914, -0.023392800241708755, -58.78046417236328, -0.8490703701972961, -0.09360294789075851, -2.5955872535705566, -0.8374418020248413, -0.9959262609481812, 0.053852614015340805, -1.9117523995948908, -3.0833980995772947, 1.9736959925949127, 9362.0, 30146.0, 35388.0, 9362.0, 8.370248794555664, -0.05421856418251991, 0.11952442675828934, -0.12571468949317932, -0.11541204899549484, -0.03002169169485569, 0.9960821866989136, -0.09449559450149536, -0.27255821228027344, 1.4736328125, 1.201904296875, 0.373077392578125, 1.49267578125
48169, 2.7322134971618652, 7.852619171142578, -12.914815902709961, -0.21159352362155914, -0.023392800241708755, -58.78046417236328, -0.8490703701972961, -0.09360294789075851, -2.5955872535705566, -0.837454080581665, -0.9959292411804199, 0.05385187268257141, -1.9017248308033932, -3.0867611436283653, 1.9834140088579804, 9362.0, 30146.0, 35388.0, 9362.0, 8.370248794555664, -0.03596540912985802, -0.053674571216106415, -0.11748713999986649, -0.11637433618307114, -0.029937302693724632, 0.9931531548500061, -0.09449559450149536, -0.27255821228027344, 1.4736328125, 1.201904296875, 0.373077392578125, 1.48974609375
48179, 2.732703447341919, 7.853067398071289, -12.915664672851562, -0.22885560989379883, -0.02529599517583847, -58.83240509033203, -0.8771291971206665, -0.09671690315008163, -2.598562717437744, -0.8374487161636353, -0.9959180355072021, 0.05385652929544449, -1.9096194810433895, -3.089001947754525, 1.9798194435490868, 9362.0, 30146.0, 35388.0, 9362.0, 8.370248794555664, -0.012997763231396675, 0.14842484891414642, -0.07026828825473785, -0.117953822016716, -0.029836397618055344, 0.9928838610649109, -0.09449559450149536, -0.27255821228027344, 1.4736328125, 1.201904296875, 0.373077392578125, 1.48974609375
48189, 2.7336833477020264, 7.850962162017822, -12.915176391601562, -0.22885560989379883, -0.02529599517583847, -58.83240509033203, -0.8771291971206665, -0.09671690315008163, -2.598562717437744, -0.8374484777450562, -0.9959200620651245, 0.0538671500980854, -1.9117183661001131, -3.0825764582804425, 1.9727552887454611, 9362.0, 30146.0, 35388.0, 9362.0, 8.370248794555664, 0.0814567282795906, 0.19989559054374695, -0.0327073410153389, -0.11713407933712006, -0.029495900496840477, 0.9936544299125671, -0.09449559450149536, -0.27255821228027344, 1.4736328125, 1.201904296875, 0.373077392578125, 1.493408203125
48219, 2.7328684329986572, 7.845579147338867, -12.913379669189453, -0.2650604844093323, -0.029289130121469498, -58.936485290527344, -0.9331020712852478, -0.10294205695390701, -2.6054413318634033, -0.8374550938606262, -0.9959108233451843, 0.05387234687805176, -1.9038093936224723, -3.087135248777116, 1.9819135761632094, 9362.0, 30146.0, 35388.0, 9362.0, 8.390083312988281, -0.15419423580169678, -0.06929994374513626, -0.11001265794038773, -0.11389106512069702, -0.028537726029753685, 0.9932637214660645, -0.09449559450149536, -0.27255821228027344, 1.4736328125, 1.201904296875, 0.373077392578125, 1.493408203125
48229, 2.732404947280884, 7.847087860107422, -12.914718627929688, -0.2650604844093323, -0.029289130121469498, -58.936485290527344, -0.9331020712852478, -0.10294205695390701, -2.6054413318634033, -0.8374460935592651, -0.9959118366241455, 0.0538814403116703, -1.9065772719202463, -3.084434118541793, 1.9779344628144415, 9362.0, 30146.0, 35388.0, 9362.0, 8.390083312988281, -0.029792573302984238, -0.032383993268013, 0.16543009877204895, -0.11321017891168594, -0.027130238711833954, 0.9945778250694275, -0.09449559450149536, -0.27255821228027344, 1.4736328125, 1.201904296875, 0.373077392578125, 1.493408203125
48239, 2.731816291809082, 7.845145225524902, -12.915852546691895, -0.2840021848678589, -0.03137915953993797, -58.98862838745117, -0.9610816240310669, -0.10606134682893753, -2.608799457550049, -0.8374506235122681, -0.9959139823913574, 0.05385538935661316, -1.9060036802608353, -3.0899515204633303, 1.9858017894564333, 9362.0, 30146.0, 35388.0, 9362.0, 8.390083312988281, 0.04510265216231346, 0.11119326949119568, -0.2659606337547302, -0.11493290215730667, -0.02905120514333248, 0.9949761629104614, -0.09449559450149536, -0.27255821228027344, 1.4736328125, 1.380615234375, 0.024749755859375, 1.493408203125
48249, 2.73209547996521, 7.841572284698486, -12.914487838745117, -0.2840021848678589, -0.03137915953993797, -58.98862838745117, -0.9610816240310669, -0.10606134682893753, -2.608799457550049, -0.8374519944190979, -0.9959295392036438, 0.053847845643758774, -1.9097780143868623, -3.08771821223516, 1.9777825361840706, 9362.0, 30146.0, 35388.0, 9362.0, 8.390083312988281, 0.09753237664699554, 0.38669082522392273, 0.3246656358242035, -0.11564270406961441, -0.027243230491876602, 0.9937559962272644, -0.09449559450149536, -0.27255821228027344, 1.4736328125, 1.380615234375, 0.024749755859375, 1.50146484375
48259, 2.731569766998291, 7.840919494628906, -12.914295196533203, -0.3035040497779846, -0.03353158384561539, -59.040836334228516, -0.9890953898429871, -0.10918015986680984, -2.611912250518799, -0.8374384641647339, -0.9959879517555237, 0.05402149260044098, -1.8508040649040713, -3.0794373752170543, 1.9687663438092928, 9362.0, 30146.0, 35388.0, 9362.0, 8.390083312988281, -0.012010442093014717, 0.041630297899246216, 0.07028572261333466, -0.11483357101678848, -0.028439732268452644, 0.9936413168907166, -0.09449559450149536, -0.27255821228027344, 1.4736328125, 1.380615234375, 0.024749755859375, 1.50146484375
48269, 2.731881856918335, 7.841594696044922, -12.916887283325195, -0.3035040497779846, -0.03353158384561539, -59.040836334228516, -0.9890953898429871, -0.10918015986680984, -2.611912250518799, -0.8374390602111816, -0.995970606803894, 0.05404894798994064, -1.8477996565212322, -3.074860358774515, 1.968086132542261, 9362.0, 30146.0, 35388.0, 9362.0, 8.390083312988281, -0.020391404628753662, -0.09510615468025208, -0.3175130784511566, -0.11664541810750961, -0.027822114527225494, 0.9964349865913391, -0.09449559450149536, -0.27255821228027344, 1.4736328125, 1.380615234375, 0.024749755859375, 1.494873046875
48279, 2.730131149291992, 7.839888095855713, -12.91601848602295, -0.3235657513141632, -0.035746388137340546, -59.09310531616211, -1.0170888900756836, -0.11230110377073288, -2.6150498390197754, -0.8374348878860474, -0.9959798455238342, 0.05404014512896538, -1.8552276404626, -3.074887546508762, 1.9647736748020321, 9362.0, 30146.0, 35388.0, 9362.0, 8.390083312988281, -0.30569544434547424, 0.03608941659331322, 0.09856533259153366, -0.11423272639513016, -0.028813961893320084, 0.9957274198532104, -0.09449559450149536, -0.27255821228027344, 1.4736328125, 1.380615234375, 0.024749755859375, 1.494873046875
48289, 2.731579303741455, 7.839423656463623, -12.917561531066895, -0.3235657513141632, -0.035746388137340546, -59.09310531616211, -1.0170888900756836, -0.11230110377073288, -2.6150498390197754, -0.8374800682067871, -0.9959086179733276, 0.05383478105068207, -1.9068789680003353, -3.0725435461341704, 1.966825424536448, 9362.0, 30146.0, 35388.0, 9362.0, 8.390083312988281, -0.04393390193581581, 0.21352258324623108, -0.3292098641395569, -0.11369623243808746, -0.029583903029561043, 0.9935645461082458, -0.09449559450149536, -0.27255821228027344, 1.4736328125, 1.380615234375, 0.024749755859375, 1.494873046875
48299, 2.7307097911834717, 7.839070796966553, -12.917719841003418, -0.34418782591819763, -0.03802364692091942, -59.14543533325195, -1.0451050996780396, -0.11542180180549622, -2.6180174350738525, -0.8374531269073486, -0.9959781169891357, 0.05403832346200943, -1.843371434865581, -3.0793926331696753, 1.969955566622543, 9362.0, 30146.0, 35388.0, 9362.0, 8.390083312988281, -0.04393390193581581, 0.21352258324623108, -0.3292098641395569, -0.11348801851272583, -0.030160600319504738, 0.9932800531387329, -0.09449559450149536, -0.27255821228027344, 1.4736328125, 1.380615234375, 0.024749755859375, 1.494873046875
48309, 2.731097936630249, 7.839146614074707, -12.917848587036133, -0.34418782591819763, -0.03802364692091942, -59.14543533325195, -1.0451050996780396, -0.11542180180549622, -2.6180174350738525, -0.8374513983726501, -0.9959201812744141, 0.05386093258857727, -1.9069727599456159, -3.093308452326397, 1.9795053517653065, 9362.0, 30146.0, 35388.0, 9362.0, 8.390083312988281, 0.055879782885313034, -0.17542313039302826, -0.07128612697124481, -0.11314751952886581, -0.027933724224567413, 0.992475688457489, -0.09449559450149536, -0.27255821228027344, 1.4736328125, 1.380615234375, 0.024749755859375, 1.494873046875
48319, 2.731095314025879, 7.839254379272461, -12.918190002441406, -0.3653694987297058, -0.04036324843764305, -59.19783020019531, -1.073058843612671, -0.11853723973035812, -2.621380567550659, -0.8374494910240173, -0.995924174785614, 0.05384867638349533, -1.9047738278675408, -3.0881530434564297, 1.9752757865671582, 9362.0, 30146.0, 35388.0, 9362.0, 8.390083312988281, 0.10849257558584213, 0.0056594787165522575, 0.10612425208091736, -0.11314751952886581, -0.027933724224567413, 0.992475688457489, -0.09449559450149536, -0.27255821228027344, 1.4736328125, 1.380615234375, 0.024749755859375, 1.494873046875
48329, 2.730280876159668, 7.838061809539795, -12.917753219604492, -0.3653694987297058, -0.04036324843764305, -59.19783020019531, -1.073058843612671, -0.11853723973035812, -2.621380567550659, -0.8374366164207458, -0.995979905128479, 0.0540291927754879, -1.8515180888441494, -3.0724414081409464, 1.9748367014262231, 9362.0, 30146.0, 35388.0, 9362.0, 8.390083312988281, -0.10158140957355499, 0.039365824311971664, 0.00031804825994186103, -0.11630270630121231, -0.029149549081921577, 0.9941935539245605, -0.09449559450149536, -0.27255821228027344, 1.4736328125, 1.380615234375, 0.024749755859375, 1.49267578125
48339, 2.729341745376587, 7.839660167694092, -12.91819953918457, -0.3653694987297058, -0.04036324843764305, -59.19783020019531, -1.073058843612671, -0.11853723973035812, -2.621380567550659, -0.8374350666999817, -0.9959145188331604, 0.0538623221218586, -1.8989107906209606, -3.0902124134343865, 1.9865159053417718, 9362.0, 30146.0, 35388.0, 9362.0, 8.390083312988281, 0.014937188476324081, -0.3416832685470581, -0.2945881187915802, -0.11630270630121231, -0.029149549081921577, 0.9941935539245605, -0.09449559450149536, -0.27255821228027344, 1.4736328125, 1.2216796875, 0.27325439453125, 1.49267578125
48349, 2.7305142879486084, 7.838344097137451, -12.9198579788208, -0.3653694987297058, -0.04036324843764305, -59.19783020019531, -1.073058843612671, -0.11853723973035812, -2.621380567550659, -0.8374431729316711, -0.9959822297096252, 0.054017532616853714, -1.8501543597639718, -3.0774351041479804, 1.9729677846472453, 9362.0, 30146.0, 35388.0, 9362.0, 8.390083312988281, 0.11588209122419357, 0.4114914834499359, 0.045117512345314026, -0.11304490268230438, -0.027516333386301994, 0.993014931678772, -0.09449559450149536, -0.27255821228027344, 1.4736328125, 1.2216796875, 0.27325439453125, 1.4912109375
48359, 2.730893611907959, 7.83787727355957, -12.92007827758789, -0.3653694987297058, -0.04036324843764305, -59.19783020019531, -1.073058843612671, -0.11853723973035812, -2.621380567550659, -0.8374416828155518, -0.9959843158721924, 0.05404738709330559, -1.845739420152082, -3.0807895279680793, 1.966386760866073, 9362.0, 30146.0, 35388.0, 9362.0, 8.390083312988281, 0.16720622777938843, -0.20943273603916168, -0.023104805499315262, -0.11349135637283325, -0.026969684287905693, 0.9937468767166138, -0.09449559450149536, -0.27255821228027344, 1.4736328125, 1.194580078125, 0.4152679443359375, 1.4912109375
48369, 2.7324273586273193, 7.835093975067139, -12.922224044799805, -0.3653694987297058, -0.04036324843764305, -59.19783020019531, -1.073058843612671, -0.11853723973035812, -2.621380567550659, -0.8374322056770325, -0.9959806799888611, 0.054048437625169754, -1.8521187655463593, -3.0784039092315822, 1.965724439761033, 9362.0, 30146.0, 35388.0, 9362.0, 8.390083312988281, 0.18000535666942596, 0.270235151052475, -0.035946451127529144, -0.11535719782114029, -0.02873045764863491, 0.9924231171607971, -0.09449559450149536, -0.27255821228027344, 1.4736328125, 1.194580078125, 0.4152679443359375, 1.4970703125
