timeTick, roll, pitch, yaw, stateX, stateY, stateZ, stateVX, stateVY, stateVZ, otX0, otY0, otZ0, otRoll0, otPitch0, otYaw0, left wing, pitch motor, yaw motor, right wing, voltage, roll rate, pitch rate, yaw rate, A_x, A_y, A_z, current, i_raw, v_raw, airflow_voltage, airflow_speed, pot_Pitch
67308, -7.5097975730896, 2.4157791137695312, -2.5984604358673096, 0, 0, 0, 0, 0, 0, -0.8283259272575378, -0.9523785710334778, 0.05385255813598633, -1.6513256727670618, -1.9377123746005793, 8.04460307381338, 0, 0, 0, 0, 0, 0, 0, 0, 0, 0, 0, 0, 0, 0, 0, 0, 0
67318, -7.5098795890808105, 2.4167568683624268, -2.5985910892486572, 0.0014535714872181416, -0.005371041130274534, -69.79408264160156, 0.06917967647314072, -0.25561827421188354, -2.1076653003692627, -0.8283231258392334, -0.9523541927337646, 0.05390530824661255, -1.6423309285107257, -1.9335920429148814, 8.054334617472806, 9362.0, 30146.0, 35388.0, 9362.0, 0, 0.013789286836981773, 0.025562478229403496, -0.007301574107259512, -0.09673105925321579, -0.02861540950834751, 0.9955856204032898, 0, 0, 0, 1.200439453125, 0.3812713623046875, 0
67328, -7.510185241699219, 2.4156224727630615, -2.5982794761657715, 0.0021278741769492626, -0.007862535305321217, -69.8151626586914, 0.06568090617656708, -0.2426806390285492, -2.109013557434082, -0.828324019908905, -0.9523691534996033, 0.053879059851169586, -1.6460768543003093, -1.940061314403465, 8.050160457904697, 9362.0, 30146.0, 35388.0, 9362.0, 0, 0.06572522222995758, 0.15574659407138824, 0.2862618863582611, -0.09722061455249786, -0.02746308408677578, 0.9949836730957031, 0, 0, 0, 1.171875, 0.5655364990234375, 0
67338, -7.5098700523376465, 2.415287733078003, -2.597438097000122, 0.0027671833522617817, -0.010224660858511925, -69.83625793457031, 0.06218082457780838, -0.22974450886249542, -2.110374927520752, -0.8283328413963318, -0.9523905515670776, 0.0538758784532547, -1.6543131267790487, -1.938830567411884, 8.037010631377589, 9362.0, 30146.0, 35388.0, 9362.0, 0, -0.08814352005720139, -0.43418431282043457, -0.13437192142009735, -0.09805917739868164, -0.026690630242228508, 0.9956439733505249, 0, 0, 0, 1.4677734375, 0.1347198486328125, 1.490478515625
67348, -7.510127067565918, 2.418259382247925, -2.597604274749756, 0.003371508326381445, -0.012457450851798058, -69.85736846923828, 0.05868399515748024, -0.21681341528892517, -2.111776828765869, -0.8283342719078064, -0.9523717761039734, 0.053860798478126526, -1.6505782519563097, -1.9381501785140927, 8.039737026257049, 9362.0, 30146.0, 35388.0, 9362.0, 0, 0.14615754783153534, 0.2676679790019989, -0.19774670898914337, -0.10042741149663925, -0.027443967759609222, 0.9949066042900085, 0, 0, 0, 1.5087890625, 0.21337890625, 1.490478515625
67358, -7.509346008300781, 2.4170145988464355, -2.5988852977752686, 0.003940858878195286, -0.014560902491211891, -69.87849426269531, 0.05518617853522301, -0.20387683808803558, -2.1131339073181152, -0.8283327221870422, -0.9523705840110779, 0.05386681854724884, -1.6486431042268164, -1.9412730867663015, 8.04276035797563, 9362.0, 30146.0, 35388.0, 9362.0, 0, 0.06052439287304878, 0.3071661591529846, 0.2940950095653534, -0.10034482181072235, -0.028374720364809036, 0.9963417053222656, 0, 0, 0, 1.5, 0.19561767578125, 1.493408203125
67368, -7.509588718414307, 2.414752721786499, -2.598029613494873, 0.004475212190300226, -0.01653500646352768, -69.8996353149414, 0.05168476700782776, -0.19094406068325043, -2.1145241260528564, -0.828331708908081, -0.9523845911026001, 0.05386257544159889, -1.6440264157971753, -1.9380391408487299, 8.045516587663398, 9362.0, 30146.0, 35388.0, 9362.0, 0, 0.11828552186489105, 0.22588543593883514, 0.1094479188323021, -0.09849894046783447, -0.027583561837673187, 0.9965351819992065, 0, 0, 0, 1.3271484375, 0.022308349609375, 1.493408203125
67378, -7.509213924407959, 2.413874864578247, -2.597783088684082, 0.004974545445293188, -0.01837972365319729, -69.92078399658203, 0.048181623220443726, -0.1779995709657669, -2.115816116333008, -0.8283162713050842, -0.9523526430130005, 0.05391872301697731, -1.6461575327759712, -1.9354314742929546, 8.060060761004419, 9362.0, 30146.0, 35388.0, 9362.0, 0, -0.05360540747642517, -0.31581318378448486, -0.10310886055231094, -0.0976029634475708, -0.026721300557255745, 0.9952658414840698, 0, 0, 0, 1.301513671875, 0.046966552734375, 1.494873046875
67388, -7.5091447830200195, 2.414832592010498, -2.5973758697509766, 0.005438866093754768, -0.02009499818086624, -69.94194793701172, 0.044682420790195465, -0.1650552749633789, -2.1171114444732666, -0.8283354043960571, -0.952377200126648, 0.05387144535779953, -1.6528294166342121, -1.938221807408695, 8.042842748980288, 9362.0, 30146.0, 35388.0, 9362.0, 0, -0.045615941286087036, 0.01508714072406292, -0.043911829590797424, -0.0992521196603775, -0.02883949503302574, 0.9958993792533875, 0, 0, 0, 1.288330078125, 0.0676116943359375, 1.494873046875
67398, -7.509938716888428, 2.4147706031799316, -2.5967774391174316, 0.005868211388587952, -0.021680869162082672, -69.96312713623047, 0.041186559945344925, -0.15211890637874603, -2.1184604167938232, -0.828336238861084, -0.9523806571960449, 0.05387274548411369, -1.6403685604972307, -1.9442845099319186, 8.053870676130206, 9362.0, 30146.0, 35388.0, 9362.0, 0, 0.05092408135533333, 0.1661984771490097, 0.023855041712522507, -0.09808962047100067, -0.026479294523596764, 0.9955292344093323, 0, 0, 0, 1.336669921875, 0.0177764892578125, 1.494140625
67408, -7.5101776123046875, 2.4139902591705322, -2.597262382507324, 0.006262594368308783, -0.023137394338846207, -69.98432159423828, 0.03768988698720932, -0.13918621838092804, -2.1198363304138184, -0.8283156752586365, -0.9523530006408691, 0.053867414593696594, -1.6474047403757934, -1.937417523466479, 8.051655952539777, 9362.0, 30146.0, 35388.0, 9362.0, 8.370248794555664, 0.26108670234680176, 0.12122488021850586, -0.24297650158405304, -0.10106484591960907, -0.027322696521878242, 0.995499849319458, -0.0933532565832138, -0.28151702880859375, 1.472900390625, 1.453125, 0.1099090576171875, 1.494140625
67418, -7.509430408477783, 2.413053035736084, -2.5977914333343506, 0.006622012704610825, -0.024464592337608337, -70.00552368164062, 0.03419385850429535, -0.12625348567962646, -2.121222496032715, -0.8283233642578125, -0.9523769617080688, 0.053870610892772675, -1.651857609604737, -1.9369553091251532, 8.03777215567675, 9362.0, 30146.0, 35388.0, 9362.0, 8.370248794555664, 0.21712158620357513, 0.2731575667858124, -0.01136708352714777, -0.10030844062566757, -0.027042370289564133, 0.9937533736228943, -0.0933532565832138, -0.28151702880859375, 1.472900390625, 1.447998046875, 0.1016693115234375, 1.494873046875
67428, -7.508848190307617, 2.411402463912964, -2.5979623794555664, 0.00694648502394557, -0.025662489235401154, -70.02674102783203, 0.030700689181685448, -0.11332572996616364, -2.122647523880005, -0.8283305764198303, -0.9523555040359497, 0.05388544872403145, -1.6472564784972026, -1.9319349031161437, 8.058544756932882, 9362.0, 30146.0, 35388.0, 9362.0, 8.370248794555664, -0.05643847957253456, 0.2418542206287384, -0.19430629909038544, -0.10006137192249298, -0.027893323451280594, 0.9970159530639648, -0.0933532565832138, -0.28151702880859375, 1.472900390625, 1.475830078125, 0.1492767333984375, 1.494873046875
67438, -7.508620262145996, 2.4081897735595703, -2.59832763671875, 0.007236048579216003, -0.02673116885125637, -70.0479736328125, 0.027212055400013924, -0.1004103571176529, -2.1241562366485596, -0.8283215165138245, -0.9523668885231018, 0.05388250946998596, -1.6522063494817165, -1.9327674848700838, 8.04778035074336, 9362.0, 30146.0, 35388.0, 9362.0, 8.370248794555664, 0.07406365871429443, -0.07072029262781143, -0.13831274211406708, -0.09629682451486588, -0.026819534599781036, 0.9968096613883972, -0.0933532565832138, -0.28151702880859375, 1.472900390625, 1.329345703125, 0.02105712890625, 1.493408203125
67448, -7.5083112716674805, 2.4075958728790283, -2.597931146621704, 0.00749068520963192, -0.027670498937368393, -70.06922149658203, 0.023715313524007797, -0.08745567500591278, -2.125361919403076, -0.8283331394195557, -0.9523351192474365, 0.05388966575264931, -1.6605013737430272, -1.9334038707057175, 8.057237264757674, 9362.0, 30146.0, 35388.0, 9362.0, 8.370248794555664, -0.13084836304187775, 0.021574772894382477, 0.1045302152633667, -0.09668923914432526, -0.02698269672691822, 0.9931602478027344, -0.0933532565832138, -0.28151702880859375, 1.472900390625, 1.489013671875, 0.174041748046875, 1.493408203125
67458, -7.50901460647583, 2.40730357170105, -2.596482276916504, 0.007710394449532032, -0.02848033234477043, -70.09048461914062, 0.02022644318640232, -0.07451092451810837, -2.1266369819641113, -0.8283354043960571, -0.9523779153823853, 0.05387504771351814, -1.6488629350311248, -1.9398204615573604, 8.045652035044471, 9362.0, 30146.0, 35388.0, 9362.0, 8.370248794555664, 0.2135995477437973, 0.12044472992420197, 0.18156009912490845, -0.09935244917869568, -0.02786029502749443, 0.9932627081871033, -0.0933532565832138, -0.28151702880859375, 1.472900390625, 1.404052734375, 0.04400634765625, 1.494873046875
67468, -7.508360862731934, 2.405951499938965, -2.595277786254883, 0.007895276881754398, -0.029160931706428528, -70.11175537109375, 0.01674962043762207, -0.06160913035273552, -2.128227949142456, -0.8283311724662781, -0.952373743057251, 0.05385757237672806, -1.648964231224827, -1.938853153947207, 8.043751367969909, 9362.0, 30146.0, 35388.0, 9362.0, 8.370248794555664, -0.12666788697242737, -0.2407614141702652, -0.2568718492984772, -0.09777060896158218, -0.027868719771504402, 0.9955645799636841, -0.0933532565832138, -0.28151702880859375, 1.472900390625, 1.48974609375, 0.1755218505859375, 1.494873046875
67478, -7.509371757507324, 2.408647060394287, -2.5967519283294678, 0.008045381866395473, -0.02971247024834156, -70.13304901123047, 0.013270986266434193, -0.04869864508509636, -2.129762649536133, -0.8283326029777527, -0.9523667097091675, 0.053884357213974, -1.6457882572157114, -1.9377616466804, 8.04667662753778, 9362.0, 30146.0, 35388.0, 9362.0, 8.370248794555664, -0.0977291539311409, 0.17723576724529266, 0.07796572148799896, -0.1011461615562439, -0.028692640364170074, 0.9946305751800537, -0.0933532565832138, -0.28151702880859375, 1.472900390625, 1.204833984375, 0.35699462890625, 1.49267578125
67488, -7.509947299957275, 2.407994031906128, -2.59663462638855, 0.008160682395100594, -0.030134806409478188, -70.15435028076172, 0.00978943333029747, -0.03576848655939102, -2.1311419010162354, -0.8283436298370361, -0.9523547291755676, 0.05388154461979866, -1.645301211014127, -1.933946682692806, 8.065203176700862, 9362.0, 30146.0, 35388.0, 9362.0, 8.370248794555664, 0.021941039711236954, 0.33441856503486633, -0.0007486802060157061, -0.09835989773273468, -0.027619516476988792, 0.9961478114128113, -0.0933532565832138, -0.28151702880859375, 1.472900390625, 1.3623046875, 0.0167999267578125, 1.49267578125
67498, -7.509593486785889, 2.4064536094665527, -2.5965940952301025, 0.00824115052819252, -0.030427847057580948, -70.17566680908203, 0.006304183974862099, -0.02283971756696701, -2.1325457096099854, -0.8283493518829346, -0.9523430466651917, 0.05385468155145645, -1.6563717981208954, -1.9083016757398923, 8.04849225020538, 9362.0, 30146.0, 35388.0, 9362.0, 8.370248794555664, 0.09711091220378876, 0.09851905703544617, -0.2422468066215515, -0.10025984793901443, -0.027403103187680244, 0.9957088232040405, -0.0933532565832138, -0.28151702880859375, 1.472900390625, 1.23779296875, 0.2061920166015625, 1.494140625
67508, -7.508965969085693, 2.4065897464752197, -2.5979409217834473, 0.008286752738058567, -0.03059152513742447, -70.1969985961914, 0.00281622726470232, -0.009895737282931805, -2.133842706680298, -0.8283466696739197, -0.9523397088050842, 0.053825028240680695, -1.6584244744256191, -1.9072167350258553, 8.04707041991026, 9362.0, 30146.0, 35388.0, 9362.0, 8.370248794555664, 0.08519469946622849, 0.41865670680999756, -0.04923444986343384, -0.09819107502698898, -0.027684586122632027, 0.9936826825141907, -0.09386377781629562, -0.021678924560546875, 1.494140625, 1.467041015625, 0.1334686279296875, 1.494140625
67518, -7.508723735809326, 2.403477430343628, -2.5979506969451904, 0.008297497406601906, -0.030625801533460617, -70.21834564208984, -0.0006669326103292406, 0.003040505340322852, -2.135193109512329, -0.8283563256263733, -0.9523574709892273, 0.05384592339396477, -1.6579255879074468, -1.915449639182782, 8.035251103555332, 9362.0, 30146.0, 35388.0, 9362.0, 8.370248794555664, -0.12488764524459839, -0.16624602675437927, 0.0014754845760762691, -0.09924965351819992, -0.026993462815880775, 0.9933698773384094, -0.09386377781629562, -0.021678924560546875, 1.494140625, 1.442138671875, 0.0926361083984375, 1.4912109375
67528, -7.508315563201904, 2.404486656188965, -2.5976598262786865, 0.008273438550531864, -0.03053082525730133, -70.23970794677734, -0.004144841339439154, 0.015954844653606415, -2.1366984844207764, -0.8283400535583496, -0.952346682548523, 0.05385701730847359, -1.652192750004746, -1.906298621711386, 8.042768019006454, 9362.0, 30146.0, 35388.0, 9362.0, 8.370248794555664, -0.009834502823650837, -0.2679140567779541, -0.061181679368019104, -0.09795533120632172, -0.02860907092690468, 0.9947192072868347, -0.09386377781629562, -0.021678924560546875, 1.494140625, 1.26416015625, 0.121337890625, 1.4912109375
67538, -7.50777006149292, 2.4062302112579346, -2.598921775817871, 0.008214636705815792, -0.03030674159526825, -70.2610855102539, -0.007615647278726101, 0.0288617555052042, -2.1382548809051514, -0.8283451795578003, -0.9523559212684631, 0.05384994298219681, -1.6530541593780161, -1.912050330960085, 8.047132544928367, 9362.0, 30146.0, 35388.0, 9362.0, 8.370248794555664, -0.23617275059223175, 0.18895192444324493, 0.04932181164622307, -0.09919184446334839, -0.02805534563958645, 0.9976686835289001, -0.09386377781629562, -0.021678924560546875, 1.494140625, 1.2890625, 0.0663909912109375, 1.496337890625
67548, -7.5084357261657715, 2.4047141075134277, -2.599836587905884, 0.00812109000980854, -0.029953492805361748, -70.28247833251953, -0.011093324981629848, 0.04178827628493309, -2.139660358428955, -0.8283466696739197, -0.952341616153717, 0.05385373905301094, -1.6601295545911543, -1.9058743971393994, 8.04508318935628, 9362.0, 30146.0, 35388.0, 9362.0, 8.370248794555664, -0.12962275743484497, 0.10434684157371521, -0.12095861881971359, -0.09881973266601562, -0.027394669130444527, 0.9970051646232605, -0.09386377781629562, -0.021678924560546875, 1.494140625, 1.24072265625, 0.1952667236328125, 1.496337890625
67558, -7.509368419647217, 2.4048945903778076, -2.6008353233337402, 0.007992706261575222, -0.029470806941390038, -70.30387878417969, -0.014583278447389603, 0.054749105125665665, -2.1408040523529053, -0.8283329010009766, -0.9523419141769409, 0.05384918302297592, -1.6575441820844252, -1.9104752941087213, 8.037780269221205, 9362.0, 30146.0, 35388.0, 9362.0, 8.370248794555664, -0.18930593132972717, -0.12332292646169662, 0.2962936758995056, -0.09957055002450943, -0.02767467498779297, 0.9929327368736267, -0.09386377781629562, -0.021678924560546875, 1.494140625, 1.4912109375, 0.178253173828125, 1.494140625
67568, -7.510426044464111, 2.4035592079162598, -2.598715305328369, 0.00782945565879345, -0.028858575969934464, -70.3252944946289, -0.018066592514514923, 0.06769698858261108, -2.142052412033081, -0.8283452391624451, -0.9523422122001648, 0.05382134020328522, -1.6607482743955038, -1.9108844240279268, 8.053346316006929, 9362.0, 30146.0, 35388.0, 9362.0, 8.370248794555664, 0.012264009565114975, 0.061318106949329376, 0.06286606192588806, -0.09979777038097382, -0.027003593742847443, 0.9943209886550903, -0.09386377781629562, -0.021678924560546875, 1.494140625, 1.487548828125, 0.1712188720703125, 1.494140625
67578, -7.510608673095703, 2.401977777481079, -2.5988802909851074, 0.007631433196365833, -0.028117086738348007, -70.34672546386719, -0.02153838612139225, 0.08060082048177719, -2.143641233444214, -0.8283452391624451, -0.9523309469223022, 0.05386878922581673, -1.6597428248968658, -1.9079687829734837, 8.036749210494934, 9362.0, 30146.0, 35388.0, 9362.0, 8.370248794555664, -0.09924012422561646, 0.05326990410685539, 0.12353061884641647, -0.10085875540971756, -0.027849342674016953, 0.9954826235771179, -0.09386377781629562, -0.021678924560546875, 1.494140625, 1.37548828125, 0.021820068359375, 1.49560546875
67588, -7.511131286621094, 2.40000581741333, -2.5986063480377197, 0.007398685440421104, -0.027246488258242607, -70.36817169189453, -0.02501116506755352, 0.09351876378059387, -2.145137310028076, -0.8283454179763794, -0.9523540735244751, 0.05381809175014496, -1.653339859453304, -1.921204300935841, 8.036946219767064, 9362.0, 30146.0, 35388.0, 9362.0, 8.370248794555664, 0.08919494599103928, 0.10226062685251236, -0.16277700662612915, -0.09810992330312729, -0.027261439710855484, 0.9950439929962158, -0.09386377781629562, -0.021678924560546875, 1.494140625, 1.50146484375, 0.1985626220703125, 1.49560546875
67598, -7.510024070739746, 2.399967670440674, -2.600039005279541, 0.007131203543394804, -0.026246635243296623, -70.38963317871094, -0.028485305607318878, 0.10645171999931335, -2.146522283554077, -0.8283379077911377, -0.9523637294769287, 0.05382430553436279, -1.6541897806262675, -1.9239859283259193, 8.030634576293401, 9362.0, 30146.0, 35388.0, 9362.0, 8.370248794555664, -0.06068643927574158, -0.1292715072631836, 0.18326133489608765, -0.09637615829706192, -0.026849757879972458, 0.9956694841384888, -0.09386377781629562, -0.021678924560546875, 1.494140625, 1.259033203125, 0.135589599609375, 1.497802734375
67608, -7.510819435119629, 2.4008734226226807, -2.5979225635528564, 0.006828997749835253, -0.025117451325058937, -70.41110229492188, -0.03195558488368988, 0.11938498914241791, -2.1479108333587646, -0.8283388614654541, -0.9523650407791138, 0.05382376164197922, -1.6624249683247432, -1.916784555627686, 8.026957644355669, 9362.0, 30146.0, 35388.0, 9362.0, 8.370248794555664, -0.07872477173805237, -0.24229766428470612, -0.014510474167764187, -0.09839872270822525, -0.028195925056934357, 0.9944616556167603, -0.11676179617643356, -0.15607833862304688, 1.483154296875, 1.361572265625, 0.016571044921875, 1.497802734375
67618, -7.511956214904785, 2.4017252922058105, -2.5974011421203613, 0.006492086686193943, -0.0238589309155941, -70.43258666992188, -0.03542713075876236, 0.13231916725635529, -2.149277925491333, -0.8283529281616211, -0.9523591995239258, 0.053844574838876724, -1.6593432177027232, -1.9222129331682538, 8.034315604161597, 9362.0, 30146.0, 35388.0, 9362.0, 8.370248794555664, 0.05699990317225456, -0.3779221177101135, -0.2858025133609772, -0.09959109872579575, -0.026738503947854042, 0.99764084815979, -0.11676179617643356, -0.15607833862304688, 1.483154296875, 1.50146484375, 0.1985626220703125, 1.497802734375
67628, -7.511419773101807, 2.402653455734253, -2.599639892578125, 0.006120461970567703, -0.022471105679869652, -70.45408630371094, -0.03889790549874306, 0.1452459841966629, -2.150710344314575, -0.8283373117446899, -0.9523520469665527, 0.05383354052901268, -1.6605156414201017, -1.9253375941590036, 8.029884587122789, 9362.0, 30146.0, 35388.0, 9362.0, 8.370248794555664, 0.06648679822683334, 0.13908490538597107, -0.19295598566532135, -0.10041122883558273, -0.02742147073149681, 0.9954622983932495, -0.11676179617643356, -0.15607833862304688, 1.483154296875, 1.4208984375, 0.063079833984375, 1.497802734375
67638, -7.510829925537109, 2.402252674102783, -2.600280523300171, 0.005714078899472952, -0.020953839644789696, -70.47560119628906, -0.04237820953130722, 0.15820731222629547, -2.1519007682800293, -0.8283569812774658, -0.9523555636405945, 0.053833406418561935, -1.6603823581692734, -1.9157723216283102, 8.032158841749924, 9362.0, 30146.0, 35388.0, 9362.0, 8.370248794555664, 0.1030908152461052, 0.21177835762500763, -0.14623117446899414, -0.09780482947826385, -0.026903565973043442, 0.9935747385025024, -0.11676179617643356, -0.15607833862304688, 1.483154296875, 1.374755859375, 0.021392822265625, 1.4912109375
67648, -7.509964942932129, 2.400179147720337, -2.601266860961914, 0.00527291651815176, -0.019307073205709457, -70.49712371826172, -0.0458541214466095, 0.17114587128162384, -2.1532554626464844, -0.828349232673645, -0.9523575901985168, 0.05382929742336273, -1.6636589660279146, -1.9167502518473043, 8.03302528305819, 9362.0, 30146.0, 35388.0, 9362.0, 8.370248794555664, 0.03075067326426506, 0.08407221734523773, -0.002160905860364437, -0.09765523672103882, -0.026458127424120903, 0.9951611757278442, -0.11676179617643356, -0.15607833862304688, 1.483154296875, 1.48681640625, 0.1698150634765625, 1.4912109375
67658, -7.510045528411865, 2.3986783027648926, -2.601085662841797, 0.004797025583684444, -0.017531026154756546, -70.51866149902344, -0.04932393133640289, 0.1840638369321823, -2.154756784439087, -0.8283504843711853, -0.9523600935935974, 0.053843989968299866, -1.6579093555035038, -1.9148675057780054, 8.028589393634832, 9362.0, 30146.0, 35388.0, 9362.0, 8.370248794555664, 0.258129358291626, 0.18577642738819122, -0.16219216585159302, -0.10043881833553314, -0.025249090045690536, 0.9941851496696472, -0.11676179617643356, -0.15607833862304688, 1.483154296875, 1.468505859375, 0.13604736328125, 1.491943359375
67668, -7.508828639984131, 2.3977267742156982, -2.6024301052093506, 0.00428644148632884, -0.015625758096575737, -70.54021453857422, -0.052792925387620926, 0.19698968529701233, -2.1561858654022217, -0.8283474445343018, -0.9523547887802124, 0.05385138839483261, -1.6593432870412739, -1.9124345026189644, 8.034315104188941, 9362.0, 30146.0, 35388.0, 9362.0, 8.370248794555664, 0.05280504375696182, -0.013498490676283836, 0.1556972712278366, -0.10014540702104568, -0.0263528935611248, 0.9964689016342163, -0.11676179617643356, -0.15607833862304688, 1.483154296875, 1.46337890625, 0.1270751953125, 1.491943359375
67678, -7.508151531219482, 2.398148536682129, -2.602193593978882, 0.003741186112165451, -0.013591254130005836, -70.56178283691406, -0.05625789985060692, 0.2099112868309021, -2.1576485633850098, -0.8283441066741943, -0.9523789286613464, 0.05381995067000389, -1.6563271571951885, -1.917056385081196, 8.033788921782714, 9362.0, 30146.0, 35388.0, 9362.0, 8.370248794555664, -0.008420717902481556, 0.09419211000204086, 0.31693053245544434, -0.09860087186098099, -0.0307086780667305, 0.9958858489990234, -0.11676179617643356, -0.15607833862304688, 1.483154296875, 1.34912109375, 0.015380859375, 1.4970703125
67688, -7.508798599243164, 2.3972039222717285, -2.600757122039795, 0.0031612555030733347, -0.01142741646617651, -70.58336639404297, -0.059728268533945084, 0.22285640239715576, -2.158918619155884, -0.8283524513244629, -0.9523516297340393, 0.053831081837415695, -1.66001918723785, -1.9211388545757586, 8.027459390596258, 9362.0, 30146.0, 35388.0, 9362.0, 8.370248794555664, -0.13729697465896606, 0.3392227590084076, -0.15410253405570984, -0.09872730076313019, -0.028348680585622787, 0.9957919120788574, -0.11676179617643356, -0.15607833862304688, 1.483154296875, 1.32275390625, 0.0251312255859375, 1.4970703125
67698, -7.509825706481934, 2.3939855098724365, -2.601492404937744, 0.0025466270744800568, -0.009134169667959213, -70.60496520996094, -0.06319775432348251, 0.23579290509223938, -2.1602439880371094, -0.8283478021621704, -0.9523675441741943, 0.053840864449739456, -1.6625422929161746, -1.9171299512566975, 8.029052043545255, 9362.0, 30146.0, 35388.0, 9362.0, 8.370248794555664, -0.10028059780597687, 0.273285448551178, 0.057473067194223404, -0.09859059005975723, -0.028644507750868797, 0.9935399293899536, -0.11676179617643356, -0.15607833862304688, 1.483154296875, 1.516845703125, 0.23004150390625, 1.494140625
67708, -7.510242462158203, 2.3904013633728027, -2.6005938053131104, 0.0018973189871758223, -0.006711585447192192, -70.62657165527344, -0.06666377931833267, 0.248724102973938, -2.1616172790527344, -0.8283517360687256, -0.9523695111274719, 0.05382806435227394, -1.6590910242749919, -1.9107341355305039, 8.04026055338962, 9362.0, 30146.0, 35388.0, 9362.0, 8.370248794555664, -0.04743654653429985, 0.050665877759456635, 0.05020568147301674, -0.09884168207645416, -0.028141198679804802, 0.9936725497245789, -0.06777776032686234, -0.09335899353027344, 1.48828125, 1.48681640625, 0.1698150634765625, 1.494140625
67718, -7.511080741882324, 2.389481544494629, -2.600304365158081, 0.001213406678289175, -0.004159785341471434, -70.648193359375, -0.0701189860701561, 0.26163604855537415, -2.163144826889038, -0.8283593654632568, -0.9523669481277466, 0.0538419634103775, -1.6619875204539811, -1.9176451900458744, 8.03430580009198, 9362.0, 30146.0, 35388.0, 9362.0, 8.370248794555664, 0.10872015357017517, -0.0781259536743164, -0.16710399091243744, -0.09788785129785538, -0.027790602296590805, 0.9939578175544739, -0.06777776032686234, -0.09335899353027344, 1.48828125, 1.468505859375, 0.13604736328125, 1.49853515625
67728, -7.510679721832275, 2.3911638259887695, -2.602013349533081, 0.0004949704743921757, -0.00147885805927217, -70.66983032226562, -0.07356833666563034, 0.27454936504364014, -2.1646652221679688, -0.8283462524414062, -0.9523696303367615, 0.05383390560746193, -1.660747007596944, -1.9162816085405723, 8.031557524861773, 9362.0, 30146.0, 35388.0, 9362.0, 8.370248794555664, -0.03928298130631447, -0.1387723833322525, 0.12419696152210236, -0.09581803530454636, -0.02835063450038433, 0.9955471754074097, -0.06777776032686234, -0.09335899353027344, 1.48828125, 1.376220703125, 0.0222930908203125, 1.49853515625
67738, -7.511215686798096, 2.3925845623016357, -2.601975917816162, -0.00025795731926336884, 0.0013312301598489285, -70.69148254394531, -0.07701681554317474, 0.2874683737754822, -2.1661536693573, -0.8283372521400452, -0.9523420929908752, 0.05384684354066849, -1.6582740976614831, -1.8999015946626514, 8.03819303684197, 9362.0, 30146.0, 35388.0, 9362.0, 8.370248794555664, 0.14317210018634796, 0.09310708194971085, -0.031595323234796524, -0.10024242848157883, -0.029301486909389496, 0.9964003562927246, -0.06777776032686234, -0.09335899353027344, 1.48828125, 1.40625, 0.04620361328125, 1.4970703125
67748, -7.509177207946777, 2.3913562297821045, -2.602846384048462, -0.0010454056318849325, 0.004270594567060471, -70.71315002441406, -0.08047282695770264, 0.30040442943573, -2.167511463165283, -0.8283550143241882, -0.952328622341156, 0.05384642258286476, -1.667942417314784, -1.9082905203843268, 8.045086673234833, 9362.0, 30146.0, 35388.0, 9362.0, 8.370248794555664, 0.2524121105670929, 0.13026376068592072, 0.22657924890518188, -0.10038986057043076, -0.028324464336037636, 0.9962279796600342, -0.06777776032686234, -0.09335899353027344, 1.48828125, 1.197509765625, 0.3980255126953125, 1.4970703125
67758, -7.507669925689697, 2.3912124633789062, -2.600548505783081, -0.0018674402963370085, 0.007339377887547016, -70.73483276367188, -0.08393396437168121, 0.3133523762226105, -2.168788194656372, -0.8283615112304688, -0.9523599147796631, 0.05384267494082451, -1.658777606403045, -1.909710139801149, 8.037601490195277, 9362.0, 30146.0, 35388.0, 9362.0, 8.370248794555664, -0.24199703335762024, -0.11033669859170914, 0.11030242592096329, -0.10144008696079254, -0.027407413348555565, 0.9955228567123413, -0.06777776032686234, -0.09335899353027344, 1.48828125, 1.39453125, 0.035003662109375, 1.5
67768, -7.509443283081055, 2.391685962677002, -2.600168466567993, -0.002724073827266693, 0.010537615045905113, -70.75653076171875, -0.08739329129457474, 0.32629507780075073, -2.1700761318206787, -0.8283427953720093, -0.9523574709892273, 0.05382288247346878, -1.6563548212468926, -1.912920828605337, 8.029102525801282, 9362.0, 30146.0, 35388.0, 9362.0, 8.370248794555664, 0.029337896034121513, -0.07622083276510239, 0.04043201729655266, -0.09778676927089691, -0.02631448395550251, 0.9948809146881104, -0.06777776032686234, -0.09335899353027344, 1.48828125, 1.382080078125, 0.0256195068359375, 1.5
67778, -7.509260654449463, 2.393233299255371, -2.600337505340576, -0.0036152899265289307, 0.013865218497812748, -70.77823638916016, -0.09084998071193695, 0.33922556042671204, -2.1714353561401367, -0.8283495306968689, -0.9523446559906006, 0.05384885519742966, -1.6568038027073562, -1.9101544739186238, 8.039771747755394, 9362.0, 30146.0, 35388.0, 9362.0, 8.370248794555664, -0.16898657381534576, -0.09744130820035934, -0.1542414426803589, -0.09667815268039703, -0.02759084478020668, 0.9925884008407593, -0.06777776032686234, -0.09335899353027344, 1.48828125, 1.399658203125, 0.0396575927734375, 1.4970703125
67788, -7.509934425354004, 2.393598794937134, -2.60119366645813, -0.004541062284260988, 0.01732208952307701, -70.79995727539062, -0.09430447220802307, 0.35214850306510925, -2.1728742122650146, -0.8283559083938599, -0.9523732662200928, 0.053862281143665314, -1.6578924232202683, -1.920962814266062, 8.030538377484838, 9362.0, 30146.0, 35388.0, 9362.0, 8.370248794555664, -0.11214378476142883, 0.1743909865617752, -0.16780632734298706, -0.0968969464302063, -0.02764013223350048, 0.9937259554862976, -0.06777776032686234, -0.09335899353027344, 1.48828125, 1.27294921875, 0.099334716796875, 1.4970703125
67798, -7.510455131530762, 2.394615411758423, -2.602632999420166, -0.005501356441527605, 0.02090805396437645, -70.82169342041016, -0.09775419533252716, 0.36504441499710083, -2.1745145320892334, -0.8283478617668152, -0.9523618817329407, 0.053837619721889496, -1.6590529183812344, -1.9182338815404876, 8.035529453201585, 9362.0, 30146.0, 35388.0, 9362.0, 8.370248794555664, -0.09380782395601273, -0.17746594548225403, -0.20021310448646545, -0.09933257102966309, -0.029101712629199028, 0.9938051104545593, -0.06777776032686234, -0.09335899353027344, 1.48828125, 1.513916015625, 0.224029541015625, 1.49267578125
67808, -7.510824680328369, 2.395728349685669, -2.6034140586853027, -0.00649616401642561, 0.02462303638458252, -70.84344482421875, -0.1012069582939148, 0.3779522478580475, -2.1760754585266113, -0.8283517956733704, -0.9523663520812988, 0.05381012707948685, -1.66224621151441, -1.918430104871561, 8.03132774455728, 9362.0, 30146.0, 35388.0, 9362.0, 8.370248794555664, 0.10937502235174179, 0.02170969732105732, -0.02102609910070896, -0.10038766264915466, -0.02919250726699829, 0.9956972599029541, -0.08086881041526794, -0.06647872924804688, 1.490478515625, 1.446533203125, 0.09930419921875, 1.49267578125
67818, -7.509613513946533, 2.394895076751709, -2.602983236312866, -0.007525518536567688, 0.028467148542404175, -70.8652114868164, -0.1046636551618576, 0.39087021350860596, -2.177568197250366, -0.8283494710922241, -0.9523429870605469, 0.05387183278799057, -1.6573460664942483, -1.907014396966673, 8.037582410078269, 9362.0, 30146.0, 35388.0, 9362.0, 8.370248794555664, -0.11692297458648682, -0.00884377583861351, -0.0647592768073082, -0.10043885558843613, -0.028705811128020287, 0.9955571293830872, -0.08086881041526794, -0.06647872924804688, 1.490478515625, 1.48095703125, 0.1587677001953125, 1.494873046875
67828, -7.509696960449219, 2.3944270610809326, -2.602433919906616, -0.008589472621679306, 0.032440535724163055, -70.88699340820312, -0.10812725871801376, 0.40380722284317017, -2.1789238452911377, -0.828345537185669, -0.9523627161979675, 0.05383647605776787, -1.660152271620227, -1.915708903756837, 8.021290060022896, 9362.0, 30146.0, 35388.0, 9362.0, 8.370248794555664, -0.011949315667152405, 0.12844212353229523, 0.2547251284122467, -0.09743288904428482, -0.029032880440354347, 0.9954543113708496, -0.08086881041526794, -0.06647872924804688, 1.490478515625, 1.317626953125, 0.0291900634765625, 1.494873046875
67838, -7.509731769561768, 2.391545295715332, -2.600146532058716, -0.009688053280115128, 0.03654326871037483, -70.9087905883789, -0.11158891022205353, 0.4167391061782837, -2.1803011894226074, -0.8283497095108032, -0.9523342251777649, 0.05383887514472008, -1.654980061789819, -1.9041614416280765, 8.038449862498421, 9362.0, 30146.0, 35388.0, 9362.0, 8.370248794555664, -0.011949315667152405, 0.12844212353229523, 0.2547251284122467, -0.09698884934186935, -0.02882663533091545, 0.9953874349594116, -0.08086881041526794, -0.06647872924804688, 1.490478515625, 1.427490234375, 0.0716400146484375, 1.494873046875
67848, -7.510166645050049, 2.3892245292663574, -2.5990536212921143, -0.010821244679391384, 0.04077531397342682, -70.93060302734375, -0.11504994332790375, 0.42966949939727783, -2.1816885471343994, -0.8283506035804749, -0.9523607492446899, 0.05383436381816864, -1.6593598999428287, -1.918957730861564, 8.030991989234154, 9362.0, 30146.0, 35388.0, 9362.0, 8.370248794555664, -0.1690261960029602, -0.23994901776313782, 0.14708811044692993, -0.0998716950416565, -0.02996905706822872, 0.9945255517959595, -0.08086881041526794, -0.06647872924804688, 1.490478515625, 1.412109375, 0.0526123046875, 1.494873046875
67858, -7.510774612426758, 2.3896968364715576, -2.5982158184051514, -0.01198902539908886, 0.04513666406273842, -70.95242309570312, -0.11850660294294357, 0.44260063767433167, -2.1830697059631348, -0.828349769115448, -0.9523597955703735, 0.05385008454322815, -1.66061199127419, -1.9167474901723267, 8.031986094763846, 9362.0, 30146.0, 35388.0, 9362.0, 8.370248794555664, -0.048392403870821, -0.04729705676436424, -0.24542509019374847, -0.0998716950416565, -0.02996905706822872, 0.9945255517959595, -0.08086881041526794, -0.06647872924804688, 1.490478515625, 1.49853515625, 0.1927032470703125, 1.4912109375
67868, -7.510707855224609, 2.3883190155029297, -2.599308490753174, -0.01319134421646595, 0.049627289175987244, -70.97425842285156, -0.12195734679698944, 0.45552462339401245, -2.184508800506592, -0.8283548951148987, -0.952355146408081, 0.05383582040667534, -1.659148346454074, -1.9194049284060668, 8.028346268568734, 9362.0, 30146.0, 35388.0, 9362.0, 8.370248794555664, -0.048392403870821, -0.04729705676436424, -0.24542509019374847, -0.0972563773393631, -0.029209420084953308, 0.9958123564720154, -0.08086881041526794, -0.06647872924804688, 1.490478515625, 1.169677734375, 0.5817718505859375, 1.4912109375
67878, -7.511362552642822, 2.3871986865997314, -2.599898099899292, -0.01319134421646595, 0.049627289175987244, -70.97425842285156, -0.12195734679698944, 0.45552462339401245, -2.184508800506592, -0.8283613920211792, -0.9523636102676392, 0.05381866171956062, -1.6634923606359122, -1.9199247462324536, 8.033782825321902, 9362.0, 30146.0, 35388.0, 9362.0, 8.370248794555664, 0.25622040033340454, -0.4400169551372528, -0.29407036304473877, -0.0972563773393631, -0.029209420084953308, 0.9958123564720154, -0.08086881041526794, -0.06647872924804688, 1.490478515625, 1.468505859375, 0.13604736328125, 1.4970703125
67888, -7.510213375091553, 2.389667510986328, -2.601409435272217, -0.015699584037065506, 0.058996569365262985, -71.01797485351562, -0.12886470556259155, 0.4814015328884125, -2.1871843338012695, -0.8283586502075195, -0.9523470401763916, 0.05386767163872719, -1.6558108268925997, -1.9201994092082657, 8.043521367340153, 9362.0, 30146.0, 35388.0, 9362.0, 8.370248794555664, 0.23621821403503418, 0.1470629870891571, 0.0016402375185862184, -0.09734439849853516, -0.027841392904520035, 0.9944921135902405, -0.08086881041526794, -0.06647872924804688, 1.490478515625, 1.467041015625, 0.1334686279296875, 1.4970703125
67898, -7.50957727432251, 2.3872642517089844, -2.601245403289795, -0.017005454748868942, 0.06387517601251602, -71.03985595703125, -0.13230906426906586, 0.4943195581436157, -2.1886818408966064, -0.8283481001853943, -0.952351450920105, 0.05383099988102913, -1.6598522926894446, -1.91873986657572, 8.033903587082778, 9362.0, 30146.0, 35388.0, 9362.0, 8.370248794555664, 0.04907173290848732, -0.27244803309440613, 0.09453737735748291, -0.09973219037055969, -0.026991689577698708, 0.9963110089302063, -0.08086881041526794, -0.06647872924804688, 1.490478515625, 1.427490234375, 0.0716400146484375, 1.4970703125
67918, -7.510567665100098, 2.3881852626800537, -2.5999534130096436, -0.01972065679728985, 0.0740201324224472, -71.08365631103516, -0.13921156525611877, 0.520183801651001, -2.1914312839508057, -0.8283511400222778, -0.9523681402206421, 0.05382028594613075, -1.661579394726361, -1.91644743777411, 8.03307448944946, 9362.0, 30146.0, 35388.0, 9362.0, 8.370248794555664, 0.0005416874191723764, -0.3569185435771942, -0.2766105830669403, -0.09981603920459747, -0.025789126753807068, 0.9937344193458557, -0.06455238163471222, 0.13064002990722656, 1.506591796875, 1.48095703125, 0.1587677001953125, 1.497802734375
67928, -7.5101118087768555, 2.3904974460601807, -2.6019675731658936, -0.021129999309778214, 0.07928653806447983, -71.10557556152344, -0.14265678822994232, 0.5330977439880371, -2.192934036254883, -0.8283549547195435, -0.9523611068725586, 0.05381953716278076, -1.6669121217511451, -1.916821211189614, 8.031040209383107, 9362.0, 30146.0, 35388.0, 9362.0, 8.370248794555664, 0.0005416874191723764, -0.3569185435771942, -0.2766105830669403, -0.09811656177043915, -0.029276324436068535, 0.9940892457962036, -0.06455238163471222, 0.13064002990722656, 1.506591796875, 1.43408203125, 0.080810546875, 1.497802734375
67938, -7.509301662445068, 2.3897006511688232, -2.6022450923919678, -0.022573787719011307, 0.08468205481767654, -71.12751007080078, -0.14610028266906738, 0.5460053086280823, -2.1945018768310547, -0.8283609747886658, -0.9523557424545288, 0.05385469272732735, -1.6609154247701718, -1.915830138444079, 8.031009978579819, 9362.0, 30146.0, 35388.0, 9362.0, 8.370248794555664, 0.0005416874191723764, -0.3569185435771942, -0.2766105830669403, -0.09811656177043915, -0.029276324436068535, 0.9940892457962036, -0.06455238163471222, 0.13064002990722656, 1.506591796875, 1.472900390625, 0.1439361572265625, 1.497802734375
67948, -7.509105205535889, 2.390080690383911, -2.6020455360412598, -0.02405204065144062, 0.09020669013261795, -71.14945983886719, -0.14955024421215057, 0.558921754360199, -2.195997953414917, -0.8283498883247375, -0.9523716568946838, 0.05382716655731201, -1.6642628525514302, -1.918468343404811, 8.024271274251753, 9362.0, 30146.0, 35388.0, 9362.0, 8.370248794555664, 0.011261415667831898, -0.42373013496398926, 0.057666338980197906, -0.09811656177043915, -0.029276324436068535, 0.9940892457962036, -0.06455238163471222, 0.13064002990722656, 1.506591796875, 1.38720703125, 0.0291900634765625, 1.497802734375
67958, -7.508954048156738, 2.392266035079956, -2.6019952297210693, -0.02556479349732399, 0.09586051106452942, -71.17142486572266, -0.15300041437149048, 0.5718420743942261, -2.1974542140960693, -0.8283600211143494, -0.952350378036499, 0.05381753295660019, -1.6636625323957537, -1.9161067123089026, 8.03305678577466, 9362.0, 30146.0, 35388.0, 9362.0, 8.370248794555664, -0.06046959385275841, -0.18860314786434174, 0.04125383868813515, -0.09846129268407822, -0.028223419561982155, 0.9918439388275146, -0.06455238163471222, 0.13064002990722656, 1.506591796875, 1.237060546875, 0.2089996337890625, 1.491943359375
67968, -7.509140491485596, 2.3935182094573975, -2.602022647857666, -0.027112018316984177, 0.10164341330528259, -71.19340515136719, -0.15644465386867523, 0.5847377181053162, -2.1990931034088135, -0.8283548355102539, -0.9523236751556396, 0.05383681505918503, -1.6683906371579786, -1.909731318118503, 8.044324838141042, 9362.0, 30146.0, 35388.0, 9362.0, 8.370248794555664, -0.06046959385275841, -0.18860314786434174, 0.04125383868813515, -0.09887576848268509, -0.028777088969945908, 0.994552493095398, -0.06455238163471222, 0.13064002990722656, 1.506591796875, 1.244384765625, 0.18212890625, 1.491943359375
67978, -7.508388042449951, 2.3939757347106934, -2.6041722297668457, -0.02869369648396969, 0.10755524039268494, -71.21540069580078, -0.1598910391330719, 0.5976274609565735, -2.200775384902954, -0.8283436298370361, -0.9523611068725586, 0.053831908851861954, -1.6619105829319594, -1.917270104593598, 8.025387771166352, 9362.0, 30146.0, 35388.0, 9362.0, 8.370248794555664, -0.010100730694830418, -0.10040939599275589, -0.11887526512145996, -0.09887576848268509, -0.028777088969945908, 0.994552493095398, -0.06455238163471222, 0.13064002990722656, 1.506591796875, 1.424560546875, 0.0678253173828125, 1.494873046875
67988, -7.5092453956604, 2.3938915729522705, -2.6040666103363037, -0.03030988946557045, 0.113596111536026, -71.23741912841797, -0.1633470505475998, 0.6105474829673767, -2.202235221862793, -0.8283525109291077, -0.9523590207099915, 0.053811151534318924, -1.661209837225902, -1.9176626012553015, 8.035453456324257, 9362.0, 30146.0, 35388.0, 9362.0, 8.370248794555664, 0.04697922244668007, -0.07508257776498795, -0.17612192034721375, -0.09887576848268509, -0.028777088969945908, 0.994552493095398, -0.06455238163471222, 0.13064002990722656, 1.506591796875, 1.423828125, 0.066802978515625, 1.494873046875
67998, -7.5094075202941895, 2.393688440322876, -2.605457067489624, -0.03196065127849579, 0.11976621299982071, -71.25944519042969, -0.1668054759502411, 0.623472273349762, -2.2036499977111816, -0.8283531665802002, -0.9523525238037109, 0.05384306237101555, -1.6585835051122446, -1.918093463608443, 8.031499009673235, 9362.0, 30146.0, 35388.0, 9362.0, 8.370248794555664, 0.046181634068489075, -0.327306866645813, 0.001837604446336627, -0.09887576848268509, -0.028777088969945908, 0.994552493095398, -0.06455238163471222, 0.13064002990722656, 1.506591796875, 1.31689453125, 0.0298919677734375, 1.494873046875
68008, -7.50957727432251, 2.3955576419830322, -2.605131149291992, -0.033645980060100555, 0.12606550753116608, -71.28148651123047, -0.17026017606258392, 0.6363864541053772, -2.205155849456787, -0.8283439874649048, -0.9523608684539795, 0.05383465066552162, -1.6588320555444078, -1.924846346047275, 8.028965896529161, 9362.0, 30146.0, 35388.0, 9362.0, 8.370248794555664, 0.24539567530155182, 0.1097085028886795, -0.24015522003173828, -0.09887576848268509, -0.028777088969945908, 0.994552493095398, -0.0871121734380722, -0.08439826965332031, 1.489013671875, 1.481689453125, 0.1600799560546875, 1.494873046875
68028, -7.510019779205322, 2.3953170776367188, -2.602855682373047, -0.03712046146392822, 0.13905219733715057, -71.32561492919922, -0.17719079554080963, 0.662285566329956, -2.207645893096924, -0.8283580541610718, -0.9523508548736572, 0.05384592339396477, -1.658578904127514, -1.9204990205739705, 8.03395080132005, 9362.0, 30146.0, 35388.0, 9362.0, 8.370248794555664, -0.18552596867084503, 0.13532231748104095, 0.1742514967918396, -0.09918232262134552, -0.02764478139579296, 0.9942355751991272, -0.0871121734380722, -0.08439826965332031, 1.489013671875, 1.380615234375, 0.024749755859375, 1.4912109375
68048, -7.510974407196045, 2.3960249423980713, -2.6021978855133057, -0.04073348268866539, 0.1525563895702362, -71.36979675292969, -0.1841093748807907, 0.6881269216537476, -2.2105636596679688, -0.8283501863479614, -0.9523633122444153, 0.05382426828145981, -1.659645305496746, -1.9173068973087766, 8.034311271968026, 9362.0, 30146.0, 35388.0, 9362.0, 8.370248794555664, 0.0069445171393454075, 0.11084598302841187, -0.22853411734104156, -0.09948717057704926, -0.027815550565719604, 0.9939485192298889, -0.0871121734380722, -0.08439826965332031, 1.489013671875, 1.4765625, 0.1505584716796875, 1.4912109375
68058, -7.510824680328369, 2.3970723152160645, -2.604429006576538, -0.04259185120463371, 0.15950223803520203, -71.39190673828125, -0.18756406009197235, 0.7010422348976135, -2.212075710296631, -0.8283475041389465, -0.9523389935493469, 0.05385816469788551, -1.6597807002646519, -1.9148556339962965, 8.049375251330327, 9362.0, 30146.0, 35388.0, 9362.0, 8.370248794555664, -0.035838305950164795, 0.29253140091896057, 0.017845796421170235, -0.09948717057704926, -0.027815550565719604, 0.9939485192298889, -0.0871121734380722, -0.08439826965332031, 1.489013671875, 1.46630859375, 0.132171630859375, 1.4912109375
68068, -7.511007308959961, 2.396681308746338, -2.6051948070526123, -0.044484805315732956, 0.1665773242712021, -71.41403198242188, -0.1910264641046524, 0.71397465467453, -2.2134695053100586, -0.8283563852310181, -0.952363133430481, 0.05384474992752075, -1.6636337197379272, -1.916964504066982, 8.025067526409883, 9362.0, 30146.0, 35388.0, 9362.0, 8.370248794555664, -0.035838305950164795, 0.29253140091896057, 0.017845796421170235, -0.09695757180452347, -0.026926236227154732, 0.9941668510437012, -0.0871121734380722, -0.08439826965332031, 1.489013671875, 1.4326171875, 0.0786895751953125, 1.4912109375
68098, -7.510185241699219, 2.395569086074829, -2.606306791305542, -0.04837452620267868, 0.18111513555049896, -71.45832824707031, -0.19794586300849915, 0.7398090958595276, -2.2164804935455322, -0.8283515572547913, -0.9523554444313049, 0.05382125452160835, -1.6642032919033471, -1.9202303342330538, 8.03556059987423, 9362.0, 30146.0, 35388.0, 9362.0, 8.370248794555664, 0.10607600957155228, 0.1465119868516922, 0.09017383307218552, -0.09711794555187225, -0.02965635061264038, 0.9936443567276001, -0.0871121734380722, -0.08439826965332031, 1.489013671875, 1.482421875, 0.161529541015625, 1.494873046875
68118, -7.510172367095947, 2.392437219619751, -2.60557222366333, -0.05240263044834137, 0.19616980850696564, -71.502685546875, -0.2048635482788086, 0.7656524777412415, -2.219407320022583, -0.828357994556427, -0.9523489475250244, 0.053837455809116364, -1.6613511951892581, -1.910151562373585, 8.031197161753845, 9362.0, 30146.0, 35388.0, 9362.0, 8.370248794555664, 0.10607600957155228, 0.1465119868516922, 0.09017383307218552, -0.09711794555187225, -0.02965635061264038, 0.9936443567276001, -0.0871121734380722, -0.08439826965332031, 1.489013671875, 1.2626953125, 0.1252593994140625, 1.491943359375
68128, -7.510221004486084, 2.393181085586548, -2.60589337348938, -0.056569136679172516, 0.21174152195453644, -71.54710388183594, -0.21178653836250305, 0.7915189862251282, -2.2221500873565674, -0.8283606171607971, -0.9523255228996277, 0.05385725200176239, -1.6608164010119129, -1.9135676162525783, 8.050412863162032, 9362.0, 30146.0, 35388.0, 9362.0, 8.370248794555664, 0.11491414904594421, -0.1762593388557434, -0.00648404099047184, -0.09785562008619308, -0.027583612129092216, 0.9948452711105347, -0.0871121734380722, -0.08439826965332031, 1.489013671875, 1.43994140625, 0.089324951171875, 1.491943359375
68138, -7.510872840881348, 2.3945555686950684, -2.6048519611358643, -0.056569136679172516, 0.21174152195453644, -71.54710388183594, -0.21178653836250305, 0.7915189862251282, -2.2221500873565674, -0.8283482789993286, -0.9523431062698364, 0.05384068563580513, -1.663629719538392, -1.9222858656793846, 8.031818442221791, 9362.0, 30146.0, 35388.0, 9362.0, 8.370248794555664, 0.26568081974983215, 0.24773143231868744, 0.16627192497253418, -0.09657501429319382, -0.027825908735394478, 0.9962170720100403, -0.0871121734380722, -0.08439826965332031, 1.489013671875, 1.44287109375, 0.0936279296875, 1.496337890625
68148, -7.510648727416992, 2.391590118408203, -2.603139877319336, -0.06087394058704376, 0.22783030569553375, -71.5915756225586, -0.2186960130929947, 0.8173651099205017, -2.22505259513855, -0.8283562660217285, -0.9523335099220276, 0.05384836718440056, -1.667414851411784, -1.920095870461921, 8.03560521716525, 9362.0, 30146.0, 35388.0, 9362.0, 8.370248794555664, 0.13216596841812134, 0.4214777946472168, -0.16458037495613098, -0.09843120723962784, -0.028444262221455574, 0.9963483810424805, -0.0871121734380722, -0.08439826965332031, 1.489013671875, 1.43408203125, 0.080810546875, 1.496337890625
68158, -7.510072708129883, 2.3881866931915283, -2.6046550273895264, -0.06307821720838547, 0.23606866598129272, -71.61383056640625, -0.22215914726257324, 0.8303079009056091, -2.226364850997925, -0.8283496499061584, -0.9523229002952576, 0.053864266723394394, -1.6684213115265882, -1.9110886005367433, 8.042487640968158, 9362.0, 30146.0, 35388.0, 9362.0, 8.370248794555664, -0.07053142786026001, 0.14424878358840942, 0.014548340812325478, -0.09905936568975449, -0.028869740664958954, 0.9946655631065369, -0.0871121734380722, -0.08439826965332031, 1.489013671875, 1.43994140625, 0.089324951171875, 1.48974609375
68168, -7.510854721069336, 2.386779308319092, -2.605384349822998, -0.06531710177659988, 0.24443645775318146, -71.63610076904297, -0.225617453455925, 0.8432514667510986, -2.227665662765503, -0.8283542394638062, -0.9523447155952454, 0.05382746085524559, -1.6661060751055512, -1.9204847537792489, 8.032645216478883, 9362.0, 30146.0, 35388.0, 9362.0, 8.370248794555664, -0.05639109015464783, -0.022234469652175903, -0.2376672327518463, -0.09797731786966324, -0.027461500838398933, 0.9952452778816223, -0.0871121734380722, -0.08439826965332031, 1.489013671875, 1.2275390625, 0.24749755859375, 1.48974609375
68178, -7.511483669281006, 2.387321949005127, -2.6063809394836426, -0.06759051233530045, 0.2529335916042328, -71.65838623046875, -0.22906500101089478, 0.8561758995056152, -2.2291016578674316, -0.8283430933952332, -0.9523341655731201, 0.05385270342230797, -1.6721669442245999, -1.9145692399617928, 8.032617400219552, 9362.0, 30146.0, 35388.0, 9362.0, 8.370248794555664, 0.06524315476417542, 0.1461462825536728, -0.35662636160850525, -0.09781769663095474, -0.0274968184530735, 0.9974165558815002, -0.0871121734380722, -0.08439826965332031, 1.489013671875, 1.36962890625, 0.01910400390625, 1.493408203125
68188, -7.511337757110596, 2.386658191680908, -2.609790325164795, -0.06989839673042297, 0.26156002283096313, -71.6806869506836, -0.23251207172870636, 0.8691099882125854, -2.2304751873016357, -0.8283566236495972, -0.9523363709449768, 0.05385660380125046, -1.6763110406875659, -1.9224862650484624, 8.02998053785138, 9362.0, 30146.0, 35388.0, 9362.0, 8.370248794555664, -0.25463032722473145, 0.06670862436294556, -0.0948391929268837, -0.09789066761732101, -0.02743558958172798, 0.9974532723426819, -0.0871121734380722, -0.08439826965332031, 1.489013671875, 1.426025390625, 0.069732666015625, 1.493408203125
68198, -7.512637138366699, 2.3851985931396484, -2.610030174255371, -0.06989839673042297, 0.26156002283096313, -71.6806869506836, -0.23251207172870636, 0.8691099882125854, -2.2304751873016357, -0.8283557295799255, -0.95234215259552, 0.05386124178767204, -1.6776077414713957, -1.920039861609581, 8.030647345414346, 9362.0, 30146.0, 35388.0, 9362.0, 8.370248794555664, 0.022859111428260803, 0.33742931485176086, 0.43932610750198364, -0.09789066761732101, -0.02743558958172798, 0.9974532723426819, -0.0871121734380722, -0.08439826965332031, 1.489013671875, 1.50439453125, 0.2044219970703125, 1.493408203125
68238, -7.513387203216553, 2.380676031112671, -2.6074373722076416, -0.07947499305009842, 0.29736098647117615, -71.7699966430664, -0.24630075693130493, 0.920901358127594, -2.2356185913085938, -0.8283429741859436, -0.9523206949234009, 0.05384698510169983, -1.665737414481124, -1.9135674471411903, 8.033675906988778, 9362.0, 30146.0, 35388.0, 9362.0, 8.370248794555664, 0.022859111428260803, 0.33742931485176086, 0.43932610750198364, -0.09748908877372742, -0.02746804989874363, 0.9974526166915894, -0.0871121734380722, -0.08439826965332031, 1.489013671875, 1.259033203125, 0.135589599609375, 1.496337890625
68248, -7.512180805206299, 2.378849983215332, -2.607069253921509, -0.08446966856718063, 0.31603744626045227, -71.81473541259766, -0.2531733810901642, 0.9467713832855225, -2.2383980751037598, -0.8283531665802002, -0.952342689037323, 0.05385623499751091, -1.6729403679852715, -1.9194161465855188, 8.029263420872866, 9362.0, 30146.0, 35388.0, 9362.0, 8.370248794555664, 0.022859111428260803, 0.33742931485176086, 0.43932610750198364, -0.0970291942358017, -0.027177594602108, 0.9955816864967346, -0.0871121734380722, -0.08439826965332031, 1.489013671875, 1.259033203125, 0.135589599609375, 1.496337890625
68258, -7.511141777038574, 2.3750243186950684, -2.6070451736450195, -0.08701860904693604, 0.3255699574947357, -71.83712768554688, -0.2566151022911072, 0.9597294330596924, -2.239621162414551, -0.8283438086509705, -0.9523323774337769, 0.05386166647076607, -1.6704131394082802, -1.912316797767005, 8.03221595143734, 9362.0, 30146.0, 35388.0, 9362.0, 8.370248794555664, 0.022859111428260803, 0.33742931485176086, 0.43932610750198364, -0.09773577004671097, -0.02830478735268116, 0.9940842986106873, -0.0871121734380722, -0.08439826965332031, 1.489013671875, 1.4326171875, 0.0786895751953125, 1.496337890625
68268, -7.512024402618408, 2.375702381134033, -2.6063246726989746, -0.08960192650556564, 0.3352319300174713, -71.85952758789062, -0.26004865765571594, 0.9726648926734924, -2.2409942150115967, -0.8283494710922241, -0.9523497819900513, 0.05384723097085953, -1.669817576186177, -1.927037459572574, 8.027489819572638, 9362.0, 30146.0, 35388.0, 9362.0, 8.370248794555664, 0.022859111428260803, 0.33742931485176086, 0.43932610750198364, -0.09773577004671097, -0.02830478735268116, 0.9940842986106873, -0.0871121734380722, -0.08439826965332031, 1.489013671875, 1.40625, 0.04620361328125, 1.496337890625
68278, -7.512820720672607, 2.376894950866699, -2.607029676437378, -0.08960192650556564, 0.3352319300174713, -71.85952758789062, -0.26004865765571594, 0.9726648926734924, -2.2409942150115967, -0.828363835811615, -0.9523541927337646, 0.05383436009287834, -1.6670097615607264, -1.9194259193014318, 8.02458180021489, 9362.0, 30146.0, 35388.0, 9362.0, 8.370248794555664, 0.05112211033701897, -0.043834902346134186, -0.1078968271613121, -0.09773577004671097, -0.02830478735268116, 0.9940842986106873, -0.0871121734380722, -0.08439826965332031, 1.489013671875, 1.294189453125, 0.0578155517578125, 1.497802734375
68288, -7.512002944946289, 2.375312566757202, -2.6082825660705566, -0.0948714092373848, 0.35494375228881836, -71.90437316894531, -0.2669023275375366, 0.9985275864601135, -2.243786573410034, -0.8283448219299316, -0.9523338079452515, 0.05387702211737633, -1.6635499507376952, -1.9102575969843087, 8.034599370283818, 9362.0, 30146.0, 35388.0, 9362.0, 8.370248794555664, -0.004065254237502813, 0.5179280042648315, 0.10366550087928772, -0.09773577004671097, -0.02830478735268116, 0.9940842986106873, -0.0871121734380722, -0.08439826965332031, 1.489013671875, 1.29638671875, 0.0542755126953125, 1.497802734375
68298, -7.511251449584961, 2.373189687728882, -2.608642339706421, -0.09755760431289673, 0.36499378085136414, -71.92681884765625, -0.27033647894859314, 1.0114808082580566, -2.245037078857422, -0.8283548951148987, -0.9523379802703857, 0.053865645080804825, -1.67372760460686, -1.908106298453987, 8.028058289279683, 9362.0, 30146.0, 35388.0, 9362.0, 8.370248794555664, -0.287262499332428, 0.17616859078407288, -0.01564071513712406, -0.09773577004671097, -0.02830478735268116, 0.9940842986106873, -0.0871121734380722, -0.08439826965332031, 1.489013671875, 1.47216796875, 0.142547607421875, 1.497802734375
68308, -7.512519359588623, 2.370929002761841, -2.6081929206848145, -0.09755760431289673, 0.36499378085136414, -71.92681884765625, -0.27033647894859314, 1.0114808082580566, -2.245037078857422, -0.8283581733703613, -0.9523600339889526, 0.053857818245887756, -1.660744714982555, -1.9124975933326027, 8.031602267322745, 9362.0, 30146.0, 35388.0, 9362.0, 8.370248794555664, -0.287262499332428, 0.17616859078407288, -0.01564071513712406, -0.09893391281366348, -0.03030961938202381, 0.9956544637680054, -0.0871121734380722, -0.08439826965332031, 1.489013671875, 1.49267578125, 0.1811065673828125, 1.497802734375
68328, -7.513493061065674, 2.3697972297668457, -2.605138063430786, -0.10303283482789993, 0.38548198342323303, -71.97174835205078, -0.2771811783313751, 1.0373262166976929, -2.2479593753814697, -0.8283556699752808, -0.9523637294769287, 0.05387978255748749, -1.6565520635828714, -1.9119319156230574, 8.026134652723835, 9362.0, 30146.0, 35388.0, 9362.0, 8.370248794555664, -0.287262499332428, 0.17616859078407288, -0.01564071513712406, -0.09969046711921692, -0.02831185609102249, 0.9927932620048523, -0.0871121734380722, -0.08439826965332031, 1.489013671875, 1.5087890625, 0.21337890625, 1.497802734375
68338, -7.513036727905273, 2.367377758026123, -2.6056149005889893, -0.10303283482789993, 0.38548198342323303, -71.97174835205078, -0.2771811783313751, 1.0373262166976929, -2.2479593753814697, -0.8283601403236389, -0.9523410797119141, 0.0538608655333519, -1.6597752891905795, -1.9097120510443801, 8.035944683042366, 9362.0, 30146.0, 35388.0, 9362.0, 8.370248794555664, 0.1500328779220581, -0.07746181637048721, 0.054630279541015625, -0.09969046711921692, -0.02831185609102249, 0.9927932620048523, -0.0871121734380722, -0.08439826965332031, 1.489013671875, 1.370361328125, 0.0194549560546875, 1.497802734375
68348, -7.513088226318359, 2.3671295642852783, -2.603817939758301, -0.11150214076042175, 0.41718369722366333, -72.03924560546875, -0.2874317765235901, 1.0760958194732666, -2.252368211746216, -0.8283693790435791, -0.9523470997810364, 0.05385136976838112, -1.6743755274217504, -1.9031947261024982, 8.031715080239657, 9362.0, 30146.0, 35388.0, 9362.0, 8.370248794555664, -0.06806375086307526, 0.2829531133174896, 0.2932112216949463, -0.09969046711921692, -0.02831185609102249, 0.9927932620048523, -0.0871121734380722, -0.08439826965332031, 1.489013671875, 1.456787109375, 0.115966796875, 1.497802734375
68358, -7.513766765594482, 2.363489866256714, -2.6019301414489746, -0.11439349502325058, 0.42800918221473694, -72.06177520751953, -0.2908390164375305, 1.089003562927246, -2.253952741622925, -0.8283641338348389, -0.9523617625236511, 0.053858354687690735, -1.6617602699979481, -1.9107947580395148, 8.033704840245223, 9362.0, 30146.0, 35388.0, 9362.0, 8.370248794555664, -0.06806375086307526, 0.2829531133174896, 0.2932112216949463, -0.09578016400337219, -0.02753433585166931, 0.996464192867279, -0.0871121734380722, -0.08439826965332031, 1.489013671875, 1.446533203125, 0.09930419921875, 1.497802734375
68378, -7.515525817871094, 2.3645849227905273, -2.603367567062378, -0.11731897294521332, 0.43896394968032837, -72.08432006835938, -0.2942564785480499, 1.1019494533538818, -2.2552499771118164, -0.828370213508606, -0.952322781085968, 0.05385427922010422, -1.6756028475216234, -1.9098532340384224, 8.033014753060966, 9362.0, 30146.0, 35388.0, 9362.0, 8.370248794555664, 0.0023896866478025913, -0.10947974771261215, 0.4652494490146637, -0.09578016400337219, -0.02753433585166931, 0.996464192867279, -0.0871121734380722, -0.08439826965332031, 1.489013671875, 1.2275390625, 0.24749755859375, 1.4912109375
68388, -7.51563835144043, 2.3645527362823486, -2.602027416229248, -0.12327227741479874, 0.46126168966293335, -72.12945556640625, -0.30106985569000244, 1.1278051137924194, -2.2581441402435303, -0.8283714056015015, -0.952343225479126, 0.05384379252791405, -1.6739354955883794, -1.9043920045661764, 8.027029807452259, 9362.0, 30146.0, 35388.0, 9362.0, 8.370248794555664, -0.282528817653656, -0.03426774591207504, 0.23113246262073517, -0.09578016400337219, -0.02753433585166931, 0.996464192867279, -0.0871121734380722, -0.08439826965332031, 1.489013671875, 1.330810546875, 0.0203399658203125, 1.4912109375
68398, -7.518219947814941, 2.3636906147003174, -2.599355459213257, -0.12327227741479874, 0.46126168966293335, -72.12945556640625, -0.30106985569000244, 1.1278051137924194, -2.2581441402435303, -0.828372597694397, -0.9523420929908752, 0.053853411227464676, -1.676519775026533, -1.9163519143102974, 8.032521287387715, 9362.0, 30146.0, 35388.0, 9362.0, 8.370248794555664, -0.282528817653656, -0.03426774591207504, 0.23113246262073517, -0.10015692561864853, -0.02919633686542511, 0.9970076680183411, -0.0871121734380722, -0.08439826965332031, 1.489013671875, 1.53076171875, 0.2596435546875, 1.493408203125
68408, -7.518493175506592, 2.3634729385375977, -2.5998880863189697, -0.12936164438724518, 0.48407572507858276, -72.17465209960938, -0.30786627531051636, 1.1535921096801758, -2.261585235595703, -0.8283796906471252, -0.9523369073867798, 0.0538477748632431, -1.6716376902241465, -1.9201633593042686, 8.036135541776892, 9362.0, 30146.0, 35388.0, 9362.0, 8.370248794555664, -0.03760150820016861, -0.04761717841029167, -0.42969465255737305, -0.10015692561864853, -0.02919633686542511, 0.9970076680183411, -0.0871121734380722, -0.08439826965332031, 1.489013671875, 1.218017578125, 0.2902679443359375, 1.493408203125
