timeTick, roll, pitch, yaw, stateX, stateY, stateZ, stateVX, stateVY, stateVZ, otX0, otY0, otZ0, otRoll0, otPitch0, otYaw0, left wing, pitch motor, yaw motor, right wing, voltage, roll rate, pitch rate, yaw rate, A_x, A_y, A_z, current, i_raw, v_raw, airflow_voltage, airflow_speed, pot_Pitch
42274, 1.3223302364349365, -7.035085201263428, 1.1049672365188599, 0, 0, 0, 0, 0, 0, -0.815233588218689, -0.9696610569953918, 0.05388812720775604, -2.1776590109520573, -2.6552837942073495, -2.2480038981117576, 0, 0, 0, 0, 0, 0, 0, 0, 0, 0, 0, 0, 0, 0, 0, 0, 0
42284, 1.3240681886672974, -7.037195682525635, 1.1060569286346436, -0.009656124748289585, 0.0016273516230285168, -56.254764556884766, -0.3038899600505829, 0.05121412128210068, -2.7486114501953125, -0.8152404427528381, -0.9696639776229858, 0.053887344896793365, -2.1742990352198417, -2.6634379416890965, -2.241526211956416, 9362.0, 30146.0, 35388.0, 9362.0, 0, 0.0550810880959034, -0.06714030355215073, 0.015264811925590038, 0, 0, 0, 0, 0, 0, 0, 0, 0
42294, 1.324639081954956, -7.038004398345947, 1.106020212173462, -0.012635000050067902, 0.002129374770447612, -56.282257080078125, -0.2918851673603058, 0.049190714955329895, -2.749767303466797, -0.815228283405304, -0.9696502685546875, 0.05390602722764015, -2.1630676198999144, -2.6691711853216873, -2.2344303676106048, 9362.0, 30146.0, 35388.0, 9362.0, 0, 0.02708791196346283, 0.056461747735738754, 0.09493657201528549, -0.10388432443141937, -0.039560604840517044, 0.994384229183197, 0, 0, 0, 1.502197265625, 0.20001220703125, 0
42304, 1.3249324560165405, -7.040101528167725, 1.1065369844436646, -0.015493899583816528, 0.00261116586625576, -56.30976104736328, -0.2798948884010315, 0.04716747999191284, -2.751070261001587, -0.8152421712875366, -0.9696463942527771, 0.05388743430376053, -2.170961143996091, -2.6621142103904276, -2.22972641750656, 9362.0, 30146.0, 35388.0, 9362.0, 0, 0.2562534809112549, 0.04423525556921959, -0.009447573684155941, -0.10765551030635834, -0.038764867931604385, 0.9938877820968628, 0, 0, 0, 1.4208984375, 0.063079833984375, 1.494140625
42314, 1.3266432285308838, -7.039451599121094, 1.1052249670028687, -0.018232975155115128, 0.003072734223678708, -56.3372802734375, -0.2679204046726227, 0.04514630511403084, -2.752511501312256, -0.8152382969856262, -0.9696465134620667, 0.05389666557312012, -2.175359953365016, -2.667988274854224, -2.241274731601623, 9362.0, 30146.0, 35388.0, 9362.0, 0, -0.15286503732204437, -0.01579214632511139, -0.07303206622600555, -0.10611389577388763, -0.038201410323381424, 0.9909656047821045, 0, 0, 0, 1.51318359375, 0.2224273681640625, 1.494140625
42324, 1.3256250619888306, -7.039288520812988, 1.1048946380615234, -0.02085237018764019, 0.003514103125780821, -56.36481475830078, -0.2559586763381958, 0.043127186596393585, -2.754084825515747, -0.8152374029159546, -0.9696489572525024, 0.053900569677352905, -2.1684184451464112, -2.6654577446840335, -2.2399080029482863, 9362.0, 30146.0, 35388.0, 9362.0, 0, 0.08998396247625351, -0.021294614300131798, 0.18002766370773315, -0.10481786727905273, -0.0379549004137516, 0.9940997958183289, 0, 0, 0, 1.57177734375, 0.3512115478515625, 1.489013671875
42334, 1.3259419202804565, -7.037631511688232, 1.1046366691589355, -0.02335195429623127, 0.0039352308958768845, -56.39236068725586, -0.2439580112695694, 0.04109830781817436, -2.7553353309631348, -0.8152370452880859, -0.9696584343910217, 0.05390002578496933, -2.168294454913658, -2.657686867222708, -2.2377606446433385, 9362.0, 30146.0, 35388.0, 9362.0, 0, -0.05662726238369942, -0.0388110987842083, 0.0674704983830452, -0.10427722334861755, -0.037712592631578445, 0.9947148561477661, 0, 0, 0, 1.32421875, 0.024139404296875, 1.489013671875
42344, 1.3252573013305664, -7.038577556610107, 1.1040704250335693, -0.025731585919857025, 0.00433608703315258, -56.419921875, -0.23196834325790405, 0.0390729159116745, -2.756671667098999, -0.8152469992637634, -0.9696590304374695, 0.05388535559177399, -2.1762447011014374, -2.653931113847335, -2.23692921635705, 9362.0, 30146.0, 35388.0, 9362.0, 0, -0.020083507522940636, -0.20258991420269012, -0.16980966925621033, -0.10578511655330658, -0.03831985220313072, 0.9924776554107666, 0, 0, 0, 1.51171875, 0.21942138671875, 1.48828125
42354, 1.323615550994873, -7.037525653839111, 1.1035757064819336, -0.02799146994948387, 0.00471670925617218, -56.44749450683594, -0.22000853717327118, 0.03705136477947235, -2.7582263946533203, -0.8152357935905457, -0.9696467518806458, 0.05390615016222, -2.176424193254318, -2.6518286696230575, -2.2470487403795456, 9362.0, 30146.0, 35388.0, 9362.0, 0, -0.0690968856215477, -0.1626439392566681, -0.1194329485297203, -0.10405466705560684, -0.03863911330699921, 0.9912038445472717, 0, 0, 0, 1.380615234375, 0.024749755859375, 1.48828125
42364, 1.323730230331421, -7.036735534667969, 1.1029616594314575, -0.030131731182336807, 0.005077118519693613, -56.4750862121582, -0.20804376900196075, 0.03503035381436348, -2.759754180908203, -0.8152393698692322, -0.9696516394615173, 0.05390935391187668, -2.1780687652684128, -2.660048876502401, -2.2386572205507225, 9362.0, 30146.0, 35388.0, 9362.0, 0, -0.015936240553855896, 0.12169921398162842, 0.05990017578005791, -0.10284161567687988, -0.04091633856296539, 0.9941704869270325, 0, 0, 0, 1.37548828125, 0.021820068359375, 1.49267578125
42374, 1.322469711303711, -7.034699440002441, 1.10396409034729, -0.032152190804481506, 0.005417303182184696, -56.502689361572266, -0.196048304438591, 0.033006470650434494, -2.7610185146331787, -0.8152433633804321, -0.9696521162986755, 0.05388691648840904, -2.1772977085507486, -2.6497872786118535, -2.2452000020513236, 9362.0, 30146.0, 35388.0, 9362.0, 8.390083312988281, -0.33867987990379333, 0.06867192685604095, -0.03549068793654442, -0.10282589495182037, -0.0393901951611042, 0.9949424862861633, 0, 0, 0, 1.50732421875, 0.2104644775390625, 1.49267578125
42384, 1.3220247030258179, -7.036777019500732, 1.1041173934936523, -0.03405268117785454, 0.005737243220210075, -56.530303955078125, -0.18404944241046906, 0.030981799587607384, -2.762244462966919, -0.8152364492416382, -0.9696537256240845, 0.05390192195773125, -2.1738474038037627, -2.660323676802477, -2.2405260090997867, 9362.0, 30146.0, 35388.0, 9362.0, 8.390083312988281, -0.14182128012180328, 0.12488199025392532, 0.06400972604751587, -0.10600665211677551, -0.03938525915145874, 0.9955071210861206, -0.10063983500003815, -0.10231781005859375, 1.487548828125, 1.2802734375, 0.0831756591796875, 1.490478515625
42394, 1.3229570388793945, -7.035371780395508, 1.10525381565094, -0.03583323955535889, 0.006036954931914806, -56.55793380737305, -0.1720619946718216, 0.028960546478629112, -2.7635345458984375, -0.8152430057525635, -0.9696550369262695, 0.05386609584093094, -2.172761035763276, -2.654665494642643, -2.2401353195451805, 9362.0, 30146.0, 35388.0, 9362.0, 8.390083312988281, 0.1283777505159378, -0.34722331166267395, 0.1212615966796875, -0.10425636172294617, -0.0377972386777401, 0.9931554198265076, -0.10063983500003815, -0.10231781005859375, 1.487548828125, 1.4326171875, 0.0786895751953125, 1.490478515625
42404, 1.32242751121521, -7.034001350402832, 1.1057897806167603, -0.037493955343961716, 0.006316467188298702, -56.585575103759766, -0.1600814014673233, 0.026942117139697075, -2.7649085521698, -0.8152391314506531, -0.9696504473686218, 0.05388721823692322, -2.1704869053466256, -2.6601392975599367, -2.238911067927517, 9362.0, 30146.0, 35388.0, 9362.0, 8.390083312988281, -0.27620306611061096, -0.10855940729379654, 0.12306889146566391, -0.10527189075946808, -0.03675062954425812, 0.9948292970657349, -0.10063983500003815, -0.10231781005859375, 1.487548828125, 1.35205078125, 0.015380859375, 1.4853515625
42414, 1.3214328289031982, -7.035738945007324, 1.1068243980407715, -0.03903480991721153, 0.0065757762640714645, -56.61323165893555, -0.14808931946754456, 0.024919845163822174, -2.7661709785461426, -0.8152440190315247, -0.9696477055549622, 0.05387716740369797, -2.1758932692193556, -2.651681229214205, -2.2333758320439587, 9362.0, 30146.0, 35388.0, 9362.0, 8.390083312988281, 0.10873088240623474, 0.25388994812965393, -0.37575989961624146, -0.10397547483444214, -0.038546815514564514, 0.9934595823287964, -0.10063983500003815, -0.10231781005859375, 1.487548828125, 1.508056640625, 0.211883544921875, 1.4853515625
42424, 1.3214428424835205, -7.035369396209717, 1.1063014268875122, -0.0404559001326561, 0.006814892403781414, -56.640899658203125, -0.13612884283065796, 0.022903580218553543, -2.767669677734375, -0.8152509331703186, -0.9696650505065918, 0.053895507007837296, -2.1778871284427126, -2.6555472297658014, -2.2456931316030704, 9362.0, 30146.0, 35388.0, 9362.0, 8.390083312988281, 0.07498984038829803, 0.32113394141197205, 0.1613379567861557, -0.105796679854393, -0.03698759526014328, 0.9929582476615906, -0.10063983500003815, -0.10231781005859375, 1.487548828125, 1.51025390625, 0.2164154052734375, 1.49267578125
42434, 1.321829080581665, -7.034748077392578, 1.1053656339645386, -0.04175728186964989, 0.007033840287476778, -56.668582916259766, -0.12414718419313431, 0.020885871723294258, -2.7690210342407227, -0.8152397871017456, -0.9696407914161682, 0.05388370156288147, -2.179941372374056, -2.6540205441855846, -2.2452728392151693, 9362.0, 30146.0, 35388.0, 9362.0, 8.390083312988281, -0.07078783959150314, 0.06583896279335022, -0.24741625785827637, -0.10444502532482147, -0.037306271493434906, 0.9959396719932556, -0.10063983500003815, -0.10231781005859375, 1.487548828125, 1.33154296875, 0.0198516845703125, 1.49267578125
42444, 1.321396827697754, -7.034943580627441, 1.103440284729004, -0.04293873906135559, 0.007232591975480318, -56.6962776184082, -0.11214424669742584, 0.01886424608528614, -2.770195245742798, -0.8152484893798828, -0.9696557521820068, 0.05388278141617775, -2.17479593056604, -2.6595308151945005, -2.2404737725823027, 9362.0, 30146.0, 35388.0, 9362.0, 8.390083312988281, 0.030082423239946365, -0.2019556760787964, 0.29473549127578735, -0.10488578677177429, -0.036239251494407654, 0.9949201941490173, -0.10063983500003815, -0.10231781005859375, 1.487548828125, 1.54833984375, 0.298126220703125, 1.49267578125
42454, 1.32108473777771, -7.03469181060791, 1.1044124364852905, -0.04400024935603142, 0.0074111358262598515, -56.7239875793457, -0.10015757381916046, 0.01684408448636532, -2.7714920043945312, -0.8152363300323486, -0.9696531295776367, 0.05388947203755379, -2.1748523587815654, -2.65326537991848, -2.2470937166056566, 9362.0, 30146.0, 35388.0, 9362.0, 8.390083312988281, 0.08309926092624664, 0.23648378252983093, 0.15556275844573975, -0.10461612790822983, -0.03860434517264366, 0.9946035146713257, -0.10063983500003815, -0.10231781005859375, 1.487548828125, 1.51904296875, 0.2346954345703125, 1.49267578125
42464, 1.321739673614502, -7.037262916564941, 1.1057409048080444, -0.044941846281290054, 0.0075694723054766655, -56.751708984375, -0.08816198259592056, 0.014823430217802525, -2.772719383239746, -0.8152446150779724, -0.9696516394615173, 0.053894031792879105, -2.1716446114461143, -2.659461257035929, -2.2365562946331923, 9362.0, 30146.0, 35388.0, 9362.0, 8.390083312988281, 0.018331114202737808, 0.06489311158657074, -0.06364883482456207, -0.10614459961652756, -0.037620771676301956, 0.995235025882721, -0.10063983500003815, -0.10231781005859375, 1.487548828125, 1.50439453125, 0.2044219970703125, 1.494140625
42474, 1.3225219249725342, -7.035621166229248, 1.1058205366134644, -0.045763567090034485, 0.007707619108259678, -56.779441833496094, -0.07618242502212524, 0.01280620601028204, -2.7740728855133057, -0.8152396082878113, -0.9696457982063293, 0.053899019956588745, -2.175938766149545, -2.6610777754033563, -2.2429865476515602, 9362.0, 30146.0, 35388.0, 9362.0, 8.390083312988281, -0.046428099274635315, 0.09733060747385025, 0.04606568440794945, -0.10506203025579453, -0.038844410330057144, 0.9917870163917542, -0.10063983500003815, -0.10231781005859375, 1.487548828125, 1.527099609375, 0.2517852783203125, 1.494140625
42484, 1.3226945400238037, -7.0353217124938965, 1.10585618019104, -0.046465639024972916, 0.007825617678463459, -56.80718994140625, -0.06423158943653107, 0.010793563909828663, -2.7756950855255127, -0.8152426481246948, -0.9696510434150696, 0.053906962275505066, -2.18308999925102, -2.6580291024359894, -2.245934324701208, 9362.0, 30146.0, 35388.0, 9362.0, 8.390083312988281, 0.2817651033401489, -0.05567788705229759, 0.00140246597584337, -0.10352222621440887, -0.03809342905879021, 0.9913126230239868, -0.0901905745267868, -0.18295860290527344, 1.48095703125, 1.47509765625, 0.147857666015625, 1.491943359375
42494, 1.323333501815796, -7.036679267883301, 1.1068857908248901, -0.047048188745975494, 0.00792347826063633, -56.83495330810547, -0.052278321236371994, 0.00877866055816412, -2.7772741317749023, -0.8152418732643127, -0.9696598052978516, 0.053906287997961044, -2.169315508772925, -2.6559949665869738, -2.235058230765346, 9362.0, 30146.0, 35388.0, 9362.0, 8.390083312988281, 0.029747072607278824, 0.17009373009204865, -0.0658072680234909, -0.1042400598526001, -0.039410300552845, 0.9934848546981812, -0.0901905745267868, -0.18295860290527344, 1.48095703125, 1.427490234375, 0.0716400146484375, 1.491943359375
42504, 1.3231638669967651, -7.03740930557251, 1.1062555313110352, -0.04751097410917282, 0.008001149632036686, -56.86273193359375, -0.04027852788567543, 0.006755742244422436, -2.7784740924835205, -0.8152430653572083, -0.9696571826934814, 0.05390200391411781, -2.1787223296317766, -2.656720118426989, -2.2443491831920643, 9362.0, 30146.0, 35388.0, 9362.0, 8.390083312988281, 0.08182287216186523, 0.04399735480546951, 0.045607686042785645, -0.10514155775308609, -0.03739778697490692, 0.9968259930610657, -0.0901905745267868, -0.18295860290527344, 1.48095703125, 1.37841796875, 0.023406982421875, 1.493408203125
42514, 1.3225153684616089, -7.038924694061279, 1.1065165996551514, -0.047853752970695496, 0.008058588020503521, -56.89052200317383, -0.028277462348341942, 0.00473182275891304, -2.7796823978424072, -0.8152412176132202, -0.9696686863899231, 0.053875554352998734, -2.1807732870348704, -2.653712518691208, -2.249671829307627, 9362.0, 30146.0, 35388.0, 9362.0, 8.390083312988281, -0.0813005343079567, -0.07689525932073593, 0.15883170068264008, -0.10657649487257004, -0.03669876232743263, 0.994286060333252, -0.0901905745267868, -0.18295860290527344, 1.48095703125, 1.53955078125, 0.278778076171875, 1.493408203125
42524, 1.3216147422790527, -7.038668155670166, 1.1073133945465088, -0.048076558858156204, 0.008095795288681984, -56.9183235168457, -0.016283834353089333, 0.002709729829803109, -2.78096079826355, -0.8152352571487427, -0.9696469902992249, 0.05390399321913719, -2.180082736808031, -2.6637435357794175, -2.2430627915119814, 9362.0, 30146.0, 35388.0, 9362.0, 8.390083312988281, 0.23022077977657318, 0.30788183212280273, -0.1906176656484604, -0.10633871704339981, -0.03760984539985657, 0.9939926266670227, -0.0901905745267868, -0.18295860290527344, 1.48095703125, 1.458251953125, 0.1184234619140625, 1.48974609375
42534, 1.322697401046753, -7.042086124420166, 1.1078901290893555, -0.048179466277360916, 0.00811279658228159, -56.94614028930664, -0.004297767300158739, 0.0006906798225827515, -2.7823214530944824, -0.8152440190315247, -0.9696561694145203, 0.053893886506557465, -2.182718502260709, -2.6534826847661748, -2.256129552941647, 9362.0, 30146.0, 35388.0, 9362.0, 8.390083312988281, 0.11459000408649445, -0.18457245826721191, 0.11876703798770905, -0.10557137429714203, -0.03928087279200554, 0.9937565326690674, -0.0901905745267868, -0.18295860290527344, 1.48095703125, 1.528564453125, 0.2548828125, 1.48974609375
42544, 1.323230504989624, -7.040849685668945, 1.108993411064148, -0.04816253110766411, 0.008109617978334427, -56.97397232055664, 0.007684679701924324, -0.0013262169668450952, -2.783707857131958, -0.8152474164962769, -0.9696530103683472, 0.05388865992426872, -2.1732176845536904, -2.6554590955117874, -2.2440360012054734, 9362.0, 30146.0, 35388.0, 9362.0, 8.390083312988281, 0.0796821266412735, 0.04374990612268448, 0.004863687325268984, -0.10443757474422455, -0.036906883120536804, 0.9928488731384277, -0.0901905745267868, -0.18295860290527344, 1.48095703125, 1.53955078125, 0.278778076171875, 1.487548828125
42554, 1.3238048553466797, -7.043753623962402, 1.1116371154785156, -0.048025790601968765, 0.008086270652711391, -57.00181579589844, 0.01966373436152935, -0.0033430384937673807, -2.7851691246032715, -0.8152348399162292, -0.9696528911590576, 0.05390031263232231, -2.1765189562148657, -2.6516677357157903, -2.2503734784086222, 9362.0, 30146.0, 35388.0, 9362.0, 8.390083312988281, 0.05666745454072952, 0.23815003037452698, 0.2715827226638794, -0.10461699962615967, -0.0370602086186409, 0.9935551881790161, -0.0901905745267868, -0.18295860290527344, 1.48095703125, 1.528564453125, 0.2548828125, 1.487548828125
42564, 1.3249084949493408, -7.046643257141113, 1.1139638423919678, -0.04776926338672638, 0.008042750880122185, -57.0296745300293, 0.031641919165849686, -0.00536046177148819, -2.78662109375, -0.8152425289154053, -0.9696465730667114, 0.05387984216213226, -2.177569262282686, -2.666413324595794, -2.245267743567787, 9362.0, 30146.0, 35388.0, 9362.0, 8.390083312988281, 0.01353116799145937, 0.1590280681848526, 0.08981799334287643, -0.10334927588701248, -0.038461122661828995, 0.9922917485237122, -0.0901905745267868, -0.18295860290527344, 1.48095703125, 1.439208984375, 0.0882415771484375, 1.489013671875
42574, 1.325482964515686, -7.048106670379639, 1.1141507625579834, -0.04739290848374367, 0.00797905120998621, -57.05754852294922, 0.04362906515598297, -0.0073789386078715324, -2.788041591644287, -0.8152355551719666, -0.9696487188339233, 0.053898781538009644, -2.1677862327008968, -2.660724964509143, -2.245511490861573, 9362.0, 30146.0, 35388.0, 9362.0, 8.390083312988281, 0.052109602838754654, 0.3705745339393616, -0.003606208134442568, -0.1033124253153801, -0.039497051388025284, 0.9932300448417664, -0.0901905745267868, -0.18295860290527344, 1.48095703125, 1.53662109375, 0.27239990234375, 1.489013671875
42584, 1.3260011672973633, -7.0493597984313965, 1.1156060695648193, -0.04689670354127884, 0.007895168848335743, -57.0854377746582, 0.05561152845621109, -0.009397545829415321, -2.7895407676696777, -0.8152384757995605, -0.9696502685546875, 0.05387105420231819, -2.1729940562570764, -2.6543488986130797, -2.239674423652846, 9362.0, 30146.0, 35388.0, 9362.0, 8.390083312988281, 0.1577790081501007, -0.08814698457717896, 0.09209141135215759, -0.10633929073810577, -0.03682255372405052, 0.9916848540306091, -0.09470367431640625, -0.31735801696777344, 1.469970703125, 1.294921875, 0.0565948486328125, 1.48974609375
42594, 1.325548529624939, -7.050325393676758, 1.1186857223510742, -0.04628072306513786, 0.0077911061234772205, -57.11334228515625, 0.0675843209028244, -0.011414709500968456, -2.791137933731079, -0.8152441382408142, -0.9696502089500427, 0.053894367069005966, -2.174035639552712, -2.6512323056921616, -2.247155552030277, 9362.0, 30146.0, 35388.0, 9362.0, 8.390083312988281, -0.32790690660476685, 0.0013970396248623729, 0.324419766664505, -0.1029595360159874, -0.037063147872686386, 0.9928133487701416, -0.09470367431640625, -0.31735801696777344, 1.469970703125, 1.437744140625, 0.086029052734375, 1.48974609375
42604, 1.3244309425354004, -7.049987316131592, 1.1191378831863403, -0.04554484039545059, 0.007666841149330139, -57.14126205444336, 0.07959232479333878, -0.013437601737678051, -2.7924704551696777, -0.8152361512184143, -0.9696508646011353, 0.05387365072965622, -2.1673451866511955, -2.6576353425164427, -2.241542916682619, 9362.0, 30146.0, 35388.0, 9362.0, 8.390083312988281, 0.011574355885386467, 0.17871800065040588, -0.00682135671377182, -0.10358893871307373, -0.03801997750997543, 0.9960910081863403, -0.09470367431640625, -0.31735801696777344, 1.469970703125, 1.3623046875, 0.0167999267578125, 1.491943359375
42614, 1.3235560655593872, -7.050957679748535, 1.1207644939422607, -0.044688791036605835, 0.007522341329604387, -57.169193267822266, 0.09161780774593353, -0.015462270937860012, -2.7936747074127197, -0.815241813659668, -0.9696639180183411, 0.05387960746884346, -2.1784991377469107, -2.6596204978743003, -2.2532199454276585, 9362.0, 30146.0, 35388.0, 9362.0, 8.390083312988281, -0.08468011766672134, 0.38033729791641235, 0.12579679489135742, -0.10413417965173721, -0.03975141793489456, 0.9943510890007019, -0.09470367431640625, -0.31735801696777344, 1.469970703125, 1.5322265625, 0.2628021240234375, 1.491943359375
42624, 1.3244898319244385, -7.05325984954834, 1.1217483282089233, -0.043712515383958817, 0.0073576089926064014, -57.19713592529297, 0.10363734513521194, -0.017483800649642944, -2.7949233055114746, -0.8152385950088501, -0.9696495532989502, 0.053890179842710495, -2.182185743265511, -2.654652164662025, -2.2493263875853082, 9362.0, 30146.0, 35388.0, 9362.0, 8.390083312988281, 0.014874819666147232, -0.13214750587940216, 0.2060016393661499, -0.1032538041472435, -0.0396818146109581, 0.996372401714325, -0.09470367431640625, -0.31735801696777344, 1.469970703125, 1.5029296875, 0.201446533203125, 1.493408203125
42634, 1.3236656188964844, -7.051074504852295, 1.1223841905593872, -0.042616039514541626, 0.007172671612352133, -57.22509002685547, 0.11565782874822617, -0.019503502175211906, -2.7961771488189697, -0.8152457475662231, -0.9696568846702576, 0.05386786162853241, -2.1747401417397256, -2.654394921878236, -2.2507290628589196, 9362.0, 30146.0, 35388.0, 9362.0, 8.390083312988281, 0.05716508999466896, 0.001663943869061768, 0.18253418803215027, -0.10247963666915894, -0.03995620459318161, 0.9928708076477051, -0.09470367431640625, -0.31735801696777344, 1.469970703125, 1.42236328125, 0.0649566650390625, 1.493408203125
42644, 1.3248050212860107, -7.052882194519043, 1.1244404315948486, -0.04139949008822441, 0.006967555731534958, -57.25305938720703, 0.12765231728553772, -0.02151954360306263, -2.7976717948913574, -0.8152303099632263, -0.9696449637413025, 0.053909577429294586, -2.1789841146192113, -2.654976067381341, -2.2459448545891285, 9362.0, 30146.0, 35388.0, 9362.0, 8.390083312988281, 0.09944763034582138, -0.027690812945365906, 0.077545166015625, -0.10401073098182678, -0.039244797080755234, 0.9931541085243225, -0.09470367431640625, -0.31735801696777344, 1.469970703125, 1.339599609375, 0.0168914794921875, 1.48828125
42654, 1.3242815732955933, -7.051844120025635, 1.1250962018966675, -0.04006294161081314, 0.006742274854332209, -57.281044006347656, 0.1396573930978775, -0.023536214604973793, -2.7990529537200928, -0.8152489066123962, -0.9696459174156189, 0.053876783698797226, -2.1759488715074395, -2.6603392938270645, -2.2475809253225316, 9362.0, 30146.0, 35388.0, 9362.0, 8.390083312988281, -0.02182694338262081, -0.15453414618968964, 0.21006782352924347, -0.10494975745677948, -0.03866880014538765, 0.9936693906784058, -0.09470367431640625, -0.31735801696777344, 1.469970703125, 1.494140625, 0.183990478515625, 1.48828125
42664, 1.3245106935501099, -7.051614761352539, 1.126443862915039, -0.03860632702708244, 0.006496820133179426, -57.30904006958008, 0.15166541934013367, -0.025554588064551353, -2.8004348278045654, -0.8152415752410889, -0.9696585536003113, 0.053884997963905334, -2.1789600825411, -2.6545691098774284, -2.2497337769704315, 9362.0, 30146.0, 35388.0, 9362.0, 8.390083312988281, 0.1099572405219078, 0.10522649437189102, 0.11874952167272568, -0.1039564311504364, -0.038423046469688416, 0.9942037463188171, -0.09470367431640625, -0.31735801696777344, 1.469970703125, 1.471435546875, 0.14129638671875, 1.491943359375
42674, 1.3243811130523682, -7.052507400512695, 1.127253770828247, -0.03702959045767784, 0.006231177598237991, -57.33705139160156, 0.1636822670698166, -0.02757359854876995, -2.801732063293457, -0.8152403831481934, -0.9696457982063293, 0.053900159895420074, -2.1853607494811462, -2.655368259226293, -2.250275226436333, 9362.0, 30146.0, 35388.0, 9362.0, 8.390083312988281, 0.10085907578468323, 0.2578675448894501, 0.012301355600357056, -0.10457330197095871, -0.0392589308321476, 0.9948320388793945, -0.09470367431640625, -0.31735801696777344, 1.469970703125, 1.459716796875, 0.120849609375, 1.491943359375
42684, 1.3255252838134766, -7.053339004516602, 1.1274017095565796, -0.03533271327614784, 0.005945349577814341, -57.365074157714844, 0.1756928712129593, -0.029591869562864304, -2.8030760288238525, -0.8152457475662231, -0.9696527719497681, 0.05388748645782471, -2.1741354863879674, -2.655643807334343, -2.2532860310457523, 9362.0, 30146.0, 35388.0, 9362.0, 8.390083312988281, 0.14859949052333832, -0.007945509627461433, -0.1000816747546196, -0.10477689653635025, -0.0375029556453228, 0.993070125579834, -0.11705999821424484, -0.05751800537109375, 1.4912109375, 1.3974609375, 0.03759765625, 1.493408203125
42694, 1.325560212135315, -7.0541672706604, 1.1258447170257568, -0.03351576253771782, 0.005639347713440657, -57.39311218261719, 0.18769697844982147, -0.03160850703716278, -2.8044843673706055, -0.8152564764022827, -0.9696521162986755, 0.05390850082039833, -2.173956886653911, -2.655206017075585, -2.2394890713077165, 9362.0, 30146.0, 35388.0, 9362.0, 8.390083312988281, -0.10042829066514969, -0.10454647988080978, -0.07674843817949295, -0.10416676849126816, -0.03896147012710571, 0.9933411478996277, -0.11705999821424484, -0.05751800537109375, 1.4912109375, 1.282470703125, 0.0786590576171875, 1.493408203125
42704, 1.3261685371398926, -7.053106307983398, 1.1252199411392212, -0.03157881274819374, 0.005313177593052387, -57.421165466308594, 0.1996932029724121, -0.033625807613134384, -2.80596923828125, -0.8152495622634888, -0.9696571230888367, 0.05386791005730629, -2.175977305981482, -2.657232900711392, -2.2496336526998877, 9362.0, 30146.0, 35388.0, 9362.0, 8.390083312988281, 0.09604369848966599, 0.2885679006576538, -0.11748044192790985, -0.10460206121206284, -0.03860842064023018, 0.9918242692947388, -0.11705999821424484, -0.05751800537109375, 1.4912109375, 1.549072265625, 0.2998809814453125, 1.4912109375
42714, 1.326901912689209, -7.055522918701172, 1.1242520809173584, -0.02952193282544613, 0.00496683968231082, -57.44923400878906, 0.21168288588523865, -0.03564194217324257, -2.8075170516967773, -0.8152316212654114, -0.9696645140647888, 0.05390331521630287, -2.1748694188863062, -2.649639895579071, -2.2526301427364914, 9362.0, 30146.0, 35388.0, 9362.0, 8.390083312988281, 0.0005286808591336012, -0.09205103665590286, -0.08312415331602097, -0.10228034853935242, -0.03784767538309097, 0.9930937886238098, -0.11705999821424484, -0.05751800537109375, 1.4912109375, 1.43408203125, 0.080810546875, 1.4912109375
42724, 1.3264068365097046, -7.056340217590332, 1.124334692955017, -0.02734500542283058, 0.004600307438522577, -57.47731399536133, 0.22370240092277527, -0.03766471520066261, -2.808809280395508, -0.815239429473877, -0.9696632027626038, 0.05387955158948898, -2.1765813275571713, -2.654232110953245, -2.245089466924013, 9362.0, 30146.0, 35388.0, 9362.0, 8.390083312988281, 0.15726152062416077, 0.12300563603639603, -0.06563150137662888, -0.10452678799629211, -0.04062974452972412, 0.9953706860542297, -0.11705999821424484, -0.05751800537109375, 1.4912109375, 1.414306640625, 0.05517578125, 1.49560546875
42734, 1.3271127939224243, -7.058448791503906, 1.1243451833724976, -0.02504780888557434, 0.004213531501591206, -57.505409240722656, 0.23573707044124603, -0.039690472185611725, -2.810013771057129, -0.8152359127998352, -0.969658374786377, 0.053883615881204605, -2.179271698050852, -2.6544450406433384, -2.248413153537319, 9362.0, 30146.0, 35388.0, 9362.0, 8.390083312988281, -0.0418165922164917, -0.0007797190337441862, -0.015330874361097813, -0.10444974899291992, -0.039399098604917526, 0.9961445331573486, -0.11705999821424484, -0.05751800537109375, 1.4912109375, 1.47216796875, 0.142547607421875, 1.49560546875
42744, 1.3286420106887817, -7.058366775512695, 1.1237815618515015, -0.02263021469116211, 0.003806494874879718, -57.53351593017578, 0.247781902551651, -0.041716836392879486, -2.8111472129821777, -0.8152397274971008, -0.9696675539016724, 0.05389508232474327, -2.1760333747279157, -2.6614591231362397, -2.2466370099889126, 9362.0, 30146.0, 35388.0, 9362.0, 8.390083312988281, 0.13276758790016174, 0.013990768231451511, -0.2335835099220276, -0.10520213842391968, -0.0394812636077404, 0.996464192867279, -0.11705999821424484, -0.05751800537109375, 1.4912109375, 1.141845703125, 0.81378173828125, 1.493408203125
42754, 1.328290343284607, -7.057921409606934, 1.1224195957183838, -0.02009212225675583, 0.0033791838213801384, -57.5616340637207, 0.25983667373657227, -0.04374552518129349, -2.8122305870056152, -0.8152424693107605, -0.9696523547172546, 0.05388168618083, -2.1744339405078725, -2.6583680853944713, -2.2461259202924766, 9362.0, 30146.0, 35388.0, 9362.0, 8.390083312988281, -0.004800890572369099, -0.025498701259493828, 0.08967673033475876, -0.10530462861061096, -0.04047058895230293, 0.9966685175895691, -0.11705999821424484, -0.05751800537109375, 1.4912109375, 1.398193359375, 0.03826904296875, 1.493408203125
42764, 1.3287338018417358, -7.058765411376953, 1.1208099126815796, -0.017433514818549156, 0.0029315773863345385, -57.58976364135742, 0.2718847990036011, -0.04577602446079254, -2.8133649826049805, -0.8152326345443726, -0.9696534872055054, 0.053914133459329605, -2.1798785205891145, -2.6574843639351684, -2.24745552706993, 9362.0, 30146.0, 35388.0, 9362.0, 8.390083312988281, 0.08732464164495468, -0.16539132595062256, -0.16332225501537323, -0.10746294260025024, -0.03976292163133621, 0.9948188662528992, -0.11705999821424484, -0.05751800537109375, 1.4912109375, 1.37109375, 0.0197906494140625, 1.491943359375
42774, 1.3299423456192017, -7.0589213371276855, 1.1209628582000732, -0.017433514818549156, 0.0029315773863345385, -57.58976364135742, 0.2718847990036011, -0.04577602446079254, -2.8133649826049805, -0.8152384161949158, -0.9696608185768127, 0.053902946412563324, -2.1786457005893247, -2.659681963109847, -2.2455237834322643, 9362.0, 30146.0, 35388.0, 9362.0, 8.390083312988281, -0.007603492587804794, 0.14445511996746063, -0.02670506201684475, -0.10746294260025024, -0.03976292163133621, 0.9948188662528992, -0.11705999821424484, -0.05751800537109375, 1.4912109375, 1.37109375, 0.0197906494140625, 1.491943359375
42784, 1.3304425477981567, -7.062063217163086, 1.1232041120529175, -0.017433514818549156, 0.0029315773863345385, -57.58976364135742, 0.2718847990036011, -0.04577602446079254, -2.8133649826049805, -0.81524258852005, -0.9696637988090515, 0.05387172847986221, -2.182311514609779, -2.659349714510796, -2.2417849503801195, 9362.0, 30146.0, 35388.0, 9362.0, 8.390083312988281, 0.11404061317443848, 0.08092224597930908, -0.07303374260663986, -0.10746294260025024, -0.03976292163133621, 0.9948188662528992, -0.08461448550224304, -0.1291980743408203, 1.4853515625, 1.229736328125, 0.23822021484375, 1.489013671875
42794, 1.3314920663833618, -7.062910079956055, 1.125489354133606, -0.017433514818549156, 0.0029315773863345385, -57.58976364135742, 0.2718847990036011, -0.04577602446079254, -2.8133649826049805, -0.8152416348457336, -0.9696558713912964, 0.0538843534886837, -2.1798872875757853, -2.6599757270228963, -2.2451430506378376, 9362.0, 30146.0, 35388.0, 9362.0, 8.390083312988281, -0.32594552636146545, 0.06217319890856743, 0.22912441194057465, -0.10746294260025024, -0.03976292163133621, 0.9948188662528992, -0.08461448550224304, -0.1291980743408203, 1.4853515625, 1.37109375, 0.0197906494140625, 1.489013671875
42804, 1.3306124210357666, -7.064154148101807, 1.1261674165725708, -0.005596448667347431, 0.0009384216391481459, -57.70240783691406, 0.319949746131897, -0.05387980118393898, -2.8189918994903564, -0.8152353763580322, -0.9696460962295532, 0.0539017952978611, -2.1735952730460144, -2.6606510820012943, -2.250595553742029, 9362.0, 30146.0, 35388.0, 9362.0, 8.390083312988281, -0.06759940087795258, 0.19561675190925598, 0.42244648933410645, -0.10746294260025024, -0.03976292163133621, 0.9948188662528992, -0.08461448550224304, -0.1291980743408203, 1.4853515625, 1.37109375, 0.0197906494140625, 1.491943359375
42814, 1.3312064409255981, -7.066431045532227, 1.1301249265670776, -0.005596448667347431, 0.0009384216391481459, -57.70240783691406, 0.319949746131897, -0.05387980118393898, -2.8189918994903564, -0.8152319192886353, -0.969649076461792, 0.05390184745192528, -2.1793340168073083, -2.6626204153334925, -2.2452124827926574, 9362.0, 30146.0, 35388.0, 9362.0, 8.390083312988281, -0.25924375653266907, -0.11266838759183884, -0.06876062601804733, -0.10746294260025024, -0.03976292163133621, 0.9948188662528992, -0.08461448550224304, -0.1291980743408203, 1.4853515625, 1.37109375, 0.0197906494140625, 1.491943359375
42834, 1.331080436706543, -7.061696529388428, 1.1303489208221436, -0.005596448667347431, 0.0009384216391481459, -57.70240783691406, 0.319949746131897, -0.05387980118393898, -2.8189918994903564, -0.8152371048927307, -0.9696568846702576, 0.05386904254555702, -2.1740916170311313, -2.6571219345053123, -2.2412975906319854, 9362.0, 30146.0, 35388.0, 9362.0, 8.390083312988281, -0.0009253085008822381, -0.39772117137908936, 0.050691548734903336, -0.10746294260025024, -0.03976292163133621, 0.9948188662528992, -0.08461448550224304, -0.1291980743408203, 1.4853515625, 1.150634765625, 0.734954833984375, 1.491943359375
42854, 1.3330883979797363, -7.063253402709961, 1.1328480243682861, 0.011904411017894745, -0.0020090616308152676, -57.843528747558594, 0.38007494807243347, -0.06401670724153519, -2.8260040283203125, -0.8152379393577576, -0.9696555137634277, 0.05390956252813339, -2.178397453437598, -2.657547921526003, -2.249797418583635, 9362.0, 30146.0, 35388.0, 9362.0, 8.390083312988281, -0.1151973307132721, -0.18822701275348663, 0.32818275690078735, -0.10746294260025024, -0.03976292163133621, 0.9948188662528992, -0.08461448550224304, -0.1291980743408203, 1.4853515625, 1.150634765625, 0.734954833984375, 1.494873046875
42874, 1.3311959505081177, -7.068901538848877, 1.1371862888336182, 0.011904411017894745, -0.0020090616308152676, -57.843528747558594, 0.38007494807243347, -0.06401670724153519, -2.8260040283203125, -0.8152502775192261, -0.9696536660194397, 0.05386307090520859, -2.177907612953048, -2.651411987594031, -2.2436293313232043, 9362.0, 30146.0, 35388.0, 9362.0, 8.390083312988281, 0.19295014441013336, 0.5299872756004333, -0.015640193596482277, -0.10387416929006577, -0.038479093462228775, 0.9951668977737427, -0.08461448550224304, -0.1291980743408203, 1.4853515625, 1.434814453125, 0.081787109375, 1.493408203125
42894, 1.3310292959213257, -7.072134971618652, 1.1370329856872559, 0.011904411017894745, -0.0020090616308152676, -57.843528747558594, 0.38007494807243347, -0.06401670724153519, -2.8260040283203125, -0.8152248859405518, -0.9696533679962158, 0.05390617623925209, -2.1710536378266667, -2.666946351766711, -2.2433157599880214, 9362.0, 30146.0, 35388.0, 9362.0, 8.390083312988281, 0.06806811690330505, 0.04284561425447464, -0.1268339902162552, -0.10387416929006577, -0.038479093462228775, 0.9951668977737427, -0.10108818858861923, -0.19191741943359375, 1.480224609375, 1.3212890625, 0.026214599609375, 1.491943359375
42904, 1.3312408924102783, -7.073827266693115, 1.1377382278442383, 0.03241198882460594, -0.005463575012981892, -57.98500061035156, 0.44022315740585327, -0.07415798306465149, -2.8329436779022217, -0.8152482509613037, -0.9696493744850159, 0.05389534309506416, -2.1792613566982024, -2.6596947144181513, -2.2434337221258547, 9362.0, 30146.0, 35388.0, 9362.0, 8.390083312988281, -0.021108562126755714, 0.3556988537311554, 0.032182395458221436, -0.10387416929006577, -0.038479093462228775, 0.9951668977737427, -0.10108818858861923, -0.19191741943359375, 1.480224609375, 1.311767578125, 0.0348052978515625, 1.493408203125
42914, 1.33023202419281, -7.073723793029785, 1.1374298334121704, 0.03241198882460594, -0.005463575012981892, -57.98500061035156, 0.44022315740585327, -0.07415798306465149, -2.8329436779022217, -0.8152472972869873, -0.969648003578186, 0.05387457087635994, -2.1827103991613965, -2.6576326052948787, -2.2462345820768856, 9362.0, 30146.0, 35388.0, 9362.0, 8.390083312988281, 0.024867089465260506, -0.570092499256134, -0.2502233684062958, -0.10387416929006577, -0.038479093462228775, 0.9951668977737427, -0.10108818858861923, -0.19191741943359375, 1.480224609375, 1.311767578125, 0.0348052978515625, 1.493408203125
42924, 1.3290129899978638, -7.071069717407227, 1.135687232017517, 0.03241198882460594, -0.005463575012981892, -57.98500061035156, 0.44022315740585327, -0.07415798306465149, -2.8329436779022217, -0.8152318000793457, -0.9696499109268188, 0.05389293655753136, -2.1801254302002535, -2.6653631251532772, -2.242397349440327, 9362.0, 30146.0, 35388.0, 9362.0, 8.390083312988281, 0.03225961700081825, -0.32989490032196045, 0.05425633490085602, -0.10373979806900024, -0.03944121673703194, 0.9949949383735657, -0.10108818858861923, -0.19191741943359375, 1.480224609375, 1.51171875, 0.21942138671875, 1.494873046875
42934, 1.3292388916015625, -7.068112373352051, 1.1350538730621338, 0.03241198882460594, -0.005463575012981892, -57.98500061035156, 0.44022315740585327, -0.07415798306465149, -2.8329436779022217, -0.815231204032898, -0.9696484804153442, 0.053902775049209595, -2.181249083063389, -2.6591359825950747, -2.2485745465052727, 9362.0, 30146.0, 35388.0, 9362.0, 8.390083312988281, 0.06303957104682922, -0.3398186266422272, -0.1158997192978859, -0.10373979806900024, -0.03944121673703194, 0.9949949383735657, -0.10108818858861923, -0.19191741943359375, 1.480224609375, 1.51171875, 0.21942138671875, 1.494873046875
42954, 1.330223560333252, -7.067932605743408, 1.1328061819076538, 0.05593014508485794, -0.009424909017980099, -58.12680435180664, 0.5005010366439819, -0.08429329097270966, -2.8392672538757324, -0.815252959728241, -0.9696462154388428, 0.05387048050761223, -2.1805602223173346, -2.658016496961949, -2.245327719138248, 9362.0, 30146.0, 35388.0, 9362.0, 8.390083312988281, 0.09466703981161118, 0.06341918557882309, -0.21172833442687988, -0.10587789863348007, -0.04008442163467407, 0.995089054107666, -0.10108818858861923, -0.19191741943359375, 1.480224609375, 1.51171875, 0.21942138671875, 1.493408203125
42974, 1.3313541412353516, -7.068637371063232, 1.1336220502853394, 0.05593014508485794, -0.009424909017980099, -58.12680435180664, 0.5005010366439819, -0.08429329097270966, -2.8392672538757324, -0.8152332305908203, -0.96964031457901, 0.05389605835080147, -2.1809548123015143, -2.657784521179991, -2.2488900923564064, 9362.0, 30146.0, 35388.0, 9362.0, 8.390083312988281, -0.046818993985652924, -0.5105409026145935, -0.13427220284938812, -0.10520164668560028, -0.039280667901039124, 0.9958926439285278, -0.10108818858861923, -0.19191741943359375, 1.480224609375, 1.51171875, 0.21942138671875, 1.49267578125
42984, 1.3326778411865234, -7.066307544708252, 1.134020447731018, 0.05593014508485794, -0.009424909017980099, -58.12680435180664, 0.5005010366439819, -0.08429329097270966, -2.8392672538757324, -0.8152368664741516, -0.9696542620658875, 0.05390022695064545, -2.1771305812071167, -2.6582212679175825, -2.2439114363403125, 9362.0, 30146.0, 35388.0, 9362.0, 8.390083312988281, 0.07008510828018188, 0.09287405759096146, 0.013380549848079681, -0.10520164668560028, -0.039280667901039124, 0.9958926439285278, -0.10284127295017242, -0.10231781005859375, 1.487548828125, 1.51171875, 0.21942138671875, 1.491943359375
42994, 1.332619309425354, -7.066859245300293, 1.1327763795852661, 0.05593014508485794, -0.009424909017980099, -58.12680435180664, 0.5005010366439819, -0.08429329097270966, -2.8392672538757324, -0.8152441382408142, -0.9696565270423889, 0.05386911332607269, -2.186207849892781, -2.65410259513979, -2.253657796271815, 9362.0, 30146.0, 35388.0, 9362.0, 8.390083312988281, -0.02540242299437523, -0.12064278870820999, 0.021058307960629463, -0.10520164668560028, -0.039280667901039124, 0.9958926439285278, -0.10284127295017242, -0.10231781005859375, 1.487548828125, 1.51171875, 0.21942138671875, 1.491943359375
43014, 1.3345516920089722, -7.066634178161621, 1.1331987380981445, 0.08813126385211945, -0.014848055317997932, -58.29737854003906, 0.5728428363800049, -0.09648013114929199, -2.8464481830596924, -0.815230667591095, -0.9696406722068787, 0.05390797182917595, -2.1799725247748114, -2.653668974452387, -2.250071876141448, 9362.0, 30146.0, 35388.0, 9362.0, 8.390083312988281, 0.13917988538742065, 0.14460407197475433, -0.03814135491847992, -0.10520164668560028, -0.039280667901039124, 0.9958926439285278, -0.10284127295017242, -0.10231781005859375, 1.487548828125, 1.51171875, 0.21942138671875, 1.4912109375
43034, 1.3346996307373047, -7.069424152374268, 1.1320278644561768, 0.09982862323522568, -0.01681828871369362, -58.35433578491211, 0.5969046354293823, -0.10054527223110199, -2.8492398262023926, -0.8152482509613037, -0.9696534872055054, 0.053861673921346664, -2.17393940231038, -2.6559998943975813, -2.2380559350050118, 9362.0, 30146.0, 35388.0, 9362.0, 8.390083312988281, 0.004036863334476948, 0.0031151187140494585, -0.13775868713855743, -0.10520164668560028, -0.039280667901039124, 0.9958926439285278, -0.10284127295017242, -0.10231781005859375, 1.487548828125, 1.242919921875, 0.1873626708984375, 1.487548828125
43054, 1.3358691930770874, -7.068528652191162, 1.1298768520355225, 0.10585790127515793, -0.017833923920989037, -58.382835388183594, 0.6089512705802917, -0.10258206725120544, -2.8505330085754395, -0.8152499794960022, -0.9696427583694458, 0.05389494076371193, -2.1703211143402314, -2.660883313010146, -2.2345787854303856, 9362.0, 30146.0, 35388.0, 9362.0, 8.390083312988281, 0.11859756708145142, -0.3636731505393982, -0.3744561970233917, -0.10520164668560028, -0.039280667901039124, 0.9958926439285278, -0.10284127295017242, -0.10231781005859375, 1.487548828125, 1.245849609375, 0.1771087646484375, 1.487548828125
43074, 1.3373225927352905, -7.067953109741211, 1.1281661987304688, 0.1246686801314354, -0.021003007888793945, -58.46841049194336, 0.6451132893562317, -0.10869420319795609, -2.8542656898498535, -0.8152342438697815, -0.9696587324142456, 0.053867995738983154, -2.179532669407056, -2.6497607557627703, -2.24334923849846, 9362.0, 30146.0, 35388.0, 9362.0, 8.390083312988281, 0.027209307998418808, 0.035709016025066376, -0.2222854495048523, -0.10520164668560028, -0.039280667901039124, 0.9958926439285278, -0.10284127295017242, -0.10231781005859375, 1.487548828125, 1.242919921875, 0.1873626708984375, 1.487548828125
43084, 1.3370866775512695, -7.068958282470703, 1.127249836921692, 0.1246686801314354, -0.021003007888793945, -58.46841049194336, 0.6451132893562317, -0.10869420319795609, -2.8542656898498535, -0.8152384161949158, -0.9696478247642517, 0.05385750159621239, -2.17913609834816, -2.657908008677083, -2.2409430501666123, 9362.0, 30146.0, 35388.0, 9362.0, 8.390083312988281, 0.01679549179971218, -0.0917157232761383, -0.12741954624652863, -0.10520164668560028, -0.039280667901039124, 0.9958926439285278, -0.10749529302120209, -0.28151702880859375, 1.472900390625, 1.35791015625, 0.015869140625, 1.491943359375
43094, 1.3362077474594116, -7.067132949829102, 1.126329779624939, 0.1246686801314354, -0.021003007888793945, -58.46841049194336, 0.6451132893562317, -0.10869420319795609, -2.8542656898498535, -0.8152230978012085, -0.9696460962295532, 0.05389527231454849, -2.171674717911065, -2.6652794490277927, -2.2363664312044618, 9362.0, 30146.0, 35388.0, 9362.0, 8.390083312988281, 0.056529924273490906, -0.020709127187728882, 0.21843017637729645, -0.10520164668560028, -0.039280667901039124, 0.9958926439285278, -0.10749529302120209, -0.28151702880859375, 1.472900390625, 1.35791015625, 0.015869140625, 1.491943359375
43104, 1.3374515771865845, -7.070565700531006, 1.1270149946212769, 0.14456422626972198, -0.024355649948120117, -58.55409622192383, 0.6812664270401001, -0.11481738090515137, -2.8579978942871094, -0.815233051776886, -0.969646155834198, 0.053875699639320374, -2.1783895443435215, -2.666277193627394, -2.2378745288057798, 9362.0, 30146.0, 35388.0, 9362.0, 8.390083312988281, -0.022774435579776764, 0.27119284868240356, -0.05060425028204918, -0.10303899645805359, -0.03880472853779793, 0.9932793378829956, -0.10749529302120209, -0.28151702880859375, 1.472900390625, 1.35791015625, 0.015869140625, 1.49853515625
43114, 1.3384524583816528, -7.072755336761475, 1.126113772392273, 0.15143698453903198, -0.025513997301459312, -58.58268356323242, 0.6932847499847412, -0.11685189604759216, -2.8594980239868164, -0.8152509331703186, -0.9696514010429382, 0.05385462939739227, -2.1784003194213, -2.660726184498145, -2.239667073312473, 9362.0, 30146.0, 35388.0, 9362.0, 8.390083312988281, 0.02414325438439846, 0.14285767078399658, -0.08952062577009201, -0.10303899645805359, -0.03880472853779793, 0.9932793378829956, -0.10749529302120209, -0.28151702880859375, 1.472900390625, 1.35791015625, 0.015869140625, 1.49853515625
43124, 1.3390954732894897, -7.073681831359863, 1.1272594928741455, 0.15143698453903198, -0.025513997301459312, -58.58268356323242, 0.6932847499847412, -0.11685189604759216, -2.8594980239868164, -0.8152180910110474, -0.9696357250213623, 0.05386855825781822, -2.181807395621564, -2.665967427762297, -2.248893370217392, 9362.0, 30146.0, 35388.0, 9362.0, 8.390083312988281, 0.21491248905658722, 0.07959813624620438, 0.21178561449050903, -0.10403725504875183, -0.03701687231659889, 0.9926729798316956, -0.10749529302120209, -0.28151702880859375, 1.472900390625, 1.415771484375, 0.0568695068359375, 1.49560546875
43134, 1.3411383628845215, -7.076375961303711, 1.128511905670166, 0.15143698453903198, -0.025513997301459312, -58.58268356323242, 0.6932847499847412, -0.11685189604759216, -2.8594980239868164, -0.815224289894104, -0.9696357846260071, 0.053871702402830124, -2.187631968564806, -2.665557610561592, -2.2460115344016067, 9362.0, 30146.0, 35388.0, 9362.0, 8.390083312988281, -0.3063885569572449, -0.053394511342048645, -0.06430288404226303, -0.10403725504875183, -0.03701687231659889, 0.9926729798316956, -0.10749529302120209, -0.28151702880859375, 1.472900390625, 1.401123046875, 0.041015625, 1.49560546875
43154, 1.3397232294082642, -7.077082633972168, 1.12814199924469, 0.18013069033622742, -0.03035113215446472, -58.697181701660156, 0.741428792476654, -0.1250128448009491, -2.8652701377868652, -0.8152320981025696, -0.9696325063705444, 0.05385441333055496, -2.1833425880648636, -2.664332146606398, -2.2482324626158667, 9362.0, 30146.0, 35388.0, 9362.0, 8.390083312988281, 0.17056423425674438, -0.08956167846918106, 0.05081503465771675, -0.10346509516239166, -0.037249479442834854, 0.9954022765159607, -0.10749529302120209, -0.28151702880859375, 1.472900390625, 1.38427734375, 0.027099609375, 1.486083984375
43174, 1.3399426937103271, -7.075443744659424, 1.129754900932312, 0.18013069033622742, -0.03035113215446472, -58.697181701660156, 0.741428792476654, -0.1250128448009491, -2.8652701377868652, -0.8152437806129456, -0.9696269631385803, 0.0538947619497776, -2.1844350215758346, -2.661301640415843, -2.250167052747018, 9362.0, 30146.0, 35388.0, 9362.0, 8.390083312988281, 0.3078729808330536, -0.00755027960985899, 0.19368954002857208, -0.10660706460475922, -0.038759905844926834, 0.9920120239257812, -0.10749529302120209, -0.28151702880859375, 1.472900390625, 1.45166015625, 0.107452392578125, 1.493408203125
43184, 1.3412683010101318, -7.076639175415039, 1.1322896480560303, 0.18013069033622742, -0.03035113215446472, -58.697181701660156, 0.741428792476654, -0.1250128448009491, -2.8652701377868652, -0.8152428269386292, -0.9696385860443115, 0.05388042703270912, -2.1859093133687892, -2.6621951538813846, -2.24420805479727, 9362.0, 30146.0, 35388.0, 9362.0, 8.390083312988281, 0.1588885635137558, 0.05768086016178131, -0.17196868360042572, -0.10660706460475922, -0.038759905844926834, 0.9920120239257812, -0.12122702598571777, -0.030637741088867188, 1.493408203125, 1.45166015625, 0.107452392578125, 1.49267578125
43194, 1.3430393934249878, -7.0771002769470215, 1.1307244300842285, 0.18013069033622742, -0.03035113215446472, -58.697181701660156, 0.741428792476654, -0.1250128448009491, -2.8652701377868652, -0.8152478337287903, -0.9696465730667114, 0.053851135075092316, -2.1772749737048764, -2.6586970173950704, -2.2425333786214448, 9362.0, 30146.0, 35388.0, 9362.0, 8.390083312988281, 0.18976745009422302, -0.12613289058208466, -0.08086467534303665, -0.10660706460475922, -0.038759905844926834, 0.9920120239257812, -0.12122702598571777, -0.030637741088867188, 1.493408203125, 1.289794921875, 0.065032958984375, 1.49267578125
43204, 1.3438791036605835, -7.077794075012207, 1.1322779655456543, 0.18013069033622742, -0.03035113215446472, -58.697181701660156, 0.741428792476654, -0.1250128448009491, -2.8652701377868652, -0.8152505159378052, -0.9696412682533264, 0.05386998876929283, -2.1813111047725458, -2.6557544758638585, -2.2416707223180836, 9362.0, 30146.0, 35388.0, 9362.0, 8.390083312988281, 0.1898854523897171, 0.36661404371261597, 0.34812742471694946, -0.10660706460475922, -0.038759905844926834, 0.9920120239257812, -0.12122702598571777, -0.030637741088867188, 1.493408203125, 1.289794921875, 0.065032958984375, 1.4912109375
43214, 1.345360279083252, -7.07963228225708, 1.1385207176208496, 0.18013069033622742, -0.03035113215446472, -58.697181701660156, 0.741428792476654, -0.1250128448009491, -2.8652701377868652, -0.8152419924736023, -0.969643771648407, 0.053889576345682144, -2.181045045349171, -2.659203546842548, -2.2447066502674007, 9362.0, 30146.0, 35388.0, 9362.0, 8.390083312988281, -0.10271679610013962, -0.16938091814517975, 0.6109551787376404, -0.10660706460475922, -0.038759905844926834, 0.9920120239257812, -0.12122702598571777, -0.030637741088867188, 1.493408203125, 1.417236328125, 0.058624267578125, 1.4912109375
43224, 1.343774437904358, -7.0791850090026855, 1.143069863319397, 0.18013069033622742, -0.03035113215446472, -58.697181701660156, 0.741428792476654, -0.1250128448009491, -2.8652701377868652, -0.8152435421943665, -0.9696474075317383, 0.053887564688920975, -2.177830636798151, -2.65520780528567, -2.243108108235139, 9362.0, 30146.0, 35388.0, 9362.0, 8.390083312988281, -0.10271679610013962, -0.16938091814517975, 0.6109551787376404, -0.10469801723957062, -0.038905106484889984, 0.9944924712181091, -0.12122702598571777, -0.030637741088867188, 1.493408203125, 1.4033203125, 0.043182373046875, 1.494873046875
43234, 1.3440330028533936, -7.079110145568848, 1.1459465026855469, 0.18013069033622742, -0.03035113215446472, -58.697181701660156, 0.741428792476654, -0.1250128448009491, -2.8652701377868652, -0.8152506947517395, -0.9696409702301025, 0.05386471003293991, -2.1734022719365385, -2.659735744877736, -2.2416991847363534, 9362.0, 30146.0, 35388.0, 9362.0, 8.390083312988281, -0.12288489192724228, 0.39384958148002625, 0.3166024386882782, -0.10469801723957062, -0.038905106484889984, 0.9944924712181091, -0.12122702598571777, -0.030637741088867188, 1.493408203125, 1.469970703125, 0.1386566162109375, 1.494873046875
43244, 1.3429831266403198, -7.081677436828613, 1.1466046571731567, 0.18013069033622742, -0.03035113215446472, -58.697181701660156, 0.741428792476654, -0.1250128448009491, -2.8652701377868652, -0.8152443766593933, -0.9696410298347473, 0.05389459431171417, -2.1731380534093496, -2.6549236617753706, -2.2457757403943894, 9362.0, 30146.0, 35388.0, 9362.0, 8.390083312988281, -0.09860745072364807, -0.05955079197883606, -0.10082830488681793, -0.10494545847177505, -0.037250835448503494, 0.9953244924545288, -0.12122702598571777, -0.030637741088867188, 1.493408203125, 1.469970703125, 0.1386566162109375, 1.49267578125
43254, 1.34293532371521, -7.079577922821045, 1.1487306356430054, 0.26029497385025024, -0.04387377202510834, -58.98442077636719, 0.8619556427001953, -0.1454642415046692, -2.8789479732513428, -0.8152480721473694, -0.9696414470672607, 0.05388529226183891, -2.1778880556368545, -2.654967691346002, -2.244582591212841, 9362.0, 30146.0, 35388.0, 9362.0, 8.390083312988281, -0.1503826379776001, -0.1614622175693512, 0.07565155625343323, -0.10494545847177505, -0.037250835448503494, 0.9953244924545288, -0.12122702598571777, -0.030637741088867188, 1.493408203125, 1.469970703125, 0.1386566162109375, 1.49267578125
43264, 1.3424668312072754, -7.0798211097717285, 1.1480252742767334, 0.26029497385025024, -0.04387377202510834, -58.98442077636719, 0.8619556427001953, -0.1454642415046692, -2.8789479732513428, -0.8152481913566589, -0.9696478843688965, 0.05387832969427109, -2.1737944250670918, -2.6519732236608036, -2.242175452528979, 9362.0, 30146.0, 35388.0, 9362.0, 8.390083312988281, 0.034239646047353745, 0.34510448575019836, 0.25993433594703674, -0.10720526427030563, -0.04202171787619591, 0.9922520518302917, -0.12122702598571777, -0.030637741088867188, 1.493408203125, 1.128662109375, 0.9422607421875, 1.49267578125
43274, 1.3439818620681763, -7.080338001251221, 1.1491941213607788, 0.26029497385025024, -0.04387377202510834, -58.98442077636719, 0.8619556427001953, -0.1454642415046692, -2.8789479732513428, -0.8152483105659485, -0.9696574807167053, 0.053878817707300186, -2.1775615916214845, -2.6566459976315286, -2.2525213028639297, 9362.0, 30146.0, 35388.0, 9362.0, 8.390083312988281, 0.10294715315103531, 0.17075391113758087, -0.12449678778648376, -0.10720526427030563, -0.04202171787619591, 0.9922520518302917, -0.12122702598571777, -0.030637741088867188, 1.493408203125, 1.3740234375, 0.0210723876953125, 1.49267578125
43294, 1.3451998233795166, -7.082366943359375, 1.1485700607299805, 0.2957378327846527, -0.049855832010507584, -59.09968948364258, 0.910201370716095, -0.1536429226398468, -2.8843202590942383, -0.815247654914856, -0.9696490168571472, 0.05388989299535751, -2.1799703787932367, -2.6549826299867902, -2.2497378977485796, 9362.0, 30146.0, 35388.0, 9362.0, 8.390083312988281, 0.20882970094680786, -0.14669010043144226, 0.24093414843082428, -0.10720526427030563, -0.04202171787619591, 0.9922520518302917, -0.08990465104579926, 0.0052013397216796875, 1.496337890625, 1.259765625, 0.1334381103515625, 1.4912109375
43304, 1.3470005989074707, -7.082390785217285, 1.1480144262313843, 0.30490007996559143, -0.05140247941017151, -59.1285400390625, 0.922248363494873, -0.1556866616010666, -2.8858063220977783, -0.8152415752410889, -0.9696536064147949, 0.05389142781496048, -2.1766762304539036, -2.659681621888211, -2.249634894764915, 9362.0, 30146.0, 35388.0, 9362.0, 8.390083312988281, 0.20882970094680786, -0.14669010043144226, 0.24093414843082428, -0.10720526427030563, -0.04202171787619591, 0.9922520518302917, -0.08990465104579926, 0.0052013397216796875, 1.496337890625, 1.259765625, 0.1334381103515625, 1.490478515625
43314, 1.347993016242981, -7.083930969238281, 1.146307110786438, 0.30490007996559143, -0.05140247941017151, -59.1285400390625, 0.922248363494873, -0.1556866616010666, -2.8858063220977783, -0.8152421116828918, -0.9696469306945801, 0.053877539932727814, -2.1713547399352655, -2.6675727410616616, -2.2385347387038377, 9362.0, 30146.0, 35388.0, 9362.0, 8.390083312988281, 0.20497365295886993, 0.20320455729961395, 0.055945489555597305, -0.10720526427030563, -0.04202171787619591, 0.9922520518302917, -0.08990465104579926, 0.0052013397216796875, 1.496337890625, 1.26416015625, 0.121337890625, 1.490478515625
43324, 1.350071907043457, -7.085046291351318, 1.147890567779541, 0.30490007996559143, -0.05140247941017151, -59.1285400390625, 0.922248363494873, -0.1556866616010666, -2.8858063220977783, -0.815231204032898, -0.9696626663208008, 0.05387859418988228, -2.176451592700037, -2.6601902500634367, -2.24908368034919, 9362.0, 30146.0, 35388.0, 9362.0, 8.390083312988281, 0.010131735354661942, 0.08790406584739685, 0.08573425561189651, -0.10720526427030563, -0.04202171787619591, 0.9922520518302917, -0.08990465104579926, 0.0052013397216796875, 1.496337890625, 1.43994140625, 0.089324951171875, 1.489013671875
43334, 1.3502799272537231, -7.083193302154541, 1.143668532371521, 0.30490007996559143, -0.05140247941017151, -59.1285400390625, 0.922248363494873, -0.1556866616010666, -2.8858063220977783, -0.8152284026145935, -0.9696530699729919, 0.05388377606868744, -2.1781182081863384, -2.659071225282247, -2.2497479322884644, 9362.0, 30146.0, 35388.0, 9362.0, 8.390083312988281, 0.14850853383541107, 0.16884905099868774, -0.4746159017086029, -0.10720526427030563, -0.04202171787619591, 0.9922520518302917, -0.08990465104579926, 0.0052013397216796875, 1.496337890625, 1.365234375, 0.0175933837890625, 1.489013671875
43354, 1.3510297536849976, -7.085479736328125, 1.1384003162384033, 0.35251906514167786, -0.05944296717643738, -59.27301025390625, 0.9825173616409302, -0.16594438254833221, -2.893036365509033, -0.8152402639389038, -0.9696382284164429, 0.05387049913406372, -2.1848951886673147, -2.6667444491329775, -2.2442539979085163, 9362.0, 30146.0, 35388.0, 9362.0, 8.390083312988281, 0.19234956800937653, 0.21065765619277954, 0.053752437233924866, -0.10720526427030563, -0.04202171787619591, 0.9922520518302917, -0.08990465104579926, 0.0052013397216796875, 1.496337890625, 1.377685546875, 0.023040771484375, 1.494873046875
43374, 1.3494524955749512, -7.088624477386475, 1.138264536857605, 0.35251906514167786, -0.05944296717643738, -59.27301025390625, 0.9825173616409302, -0.16594438254833221, -2.893036365509033, -0.8152405619621277, -0.9696398377418518, 0.05391308292746544, -2.181691075346511, -2.6622632386751093, -2.245751283449361, 9362.0, 30146.0, 35388.0, 9362.0, 8.390083312988281, 0.03375456854701042, 0.07221882045269012, 0.5416793823242188, -0.10720526427030563, -0.04202171787619591, 0.9922520518302917, -0.08990465104579926, 0.0052013397216796875, 1.496337890625, 1.3623046875, 0.0167999267578125, 1.487548828125
43384, 1.3484783172607422, -7.08848762512207, 1.1378909349441528, 0.35251906514167786, -0.05944296717643738, -59.27301025390625, 0.9825173616409302, -0.16594438254833221, -2.893036365509033, -0.8152464628219604, -0.9696441888809204, 0.05387914553284645, -2.186348638836859, -2.6622018429433467, -2.242528748486871, 9362.0, 30146.0, 35388.0, 9362.0, 8.390083312988281, -0.13179147243499756, -0.32917940616607666, -0.49006274342536926, -0.10720526427030563, -0.04202171787619591, 0.9922520518302917, -0.09666220098733902, -0.08439826965332031, 1.489013671875, 1.3623046875, 0.0167999267578125, 1.491943359375
43394, 1.3478889465332031, -7.090353012084961, 1.1382774114608765, 0.35251906514167786, -0.05944296717643738, -59.27301025390625, 0.9825173616409302, -0.16594438254833221, -2.893036365509033, -0.8152327537536621, -0.9696493744850159, 0.053894106298685074, -2.178370731793657, -2.666627116631588, -2.2433636222675952, 9362.0, 30146.0, 35388.0, 9362.0, 8.390083312988281, -0.025018293410539627, 0.5010462999343872, 0.33429256081581116, -0.10434121638536453, -0.040277592837810516, 0.9914686679840088, -0.09666220098733902, -0.08439826965332031, 1.489013671875, 1.3623046875, 0.0167999267578125, 1.491943359375
43414, 1.3465065956115723, -7.092761993408203, 1.1365268230438232, 0.41364437341690063, -0.06977038830518723, -59.44682312011719, 1.0549559593200684, -0.17828956246376038, -2.901144504547119, -0.8152487277984619, -0.9696334600448608, 0.05390910431742668, -2.1881815217704834, -2.6619931908510353, -2.2427312120922176, 9362.0, 30146.0, 35388.0, 9362.0, 8.390083312988281, -0.04226717725396156, -0.14062823355197906, 0.05326377972960472, -0.10434121638536453, -0.040277592837810516, 0.9914686679840088, -0.09666220098733902, -0.08439826965332031, 1.489013671875, 1.248779296875, 0.1671905517578125, 1.4912109375
43434, 1.3442026376724243, -7.094066143035889, 1.134027361869812, 0.43498578667640686, -0.07337737828493118, -59.50486755371094, 1.0791881084442139, -0.1824091523885727, -2.9032833576202393, -0.8152428269386292, -0.9696416258811951, 0.0538862906396389, -2.1824824236910403, -2.6597126545109973, -2.2509481472346016, 9362.0, 30146.0, 35388.0, 9362.0, 8.390083312988281, -0.20810484886169434, 0.14038777351379395, 0.2376556396484375, -0.10434121638536453, -0.040277592837810516, 0.9914686679840088, -0.09666220098733902, -0.08439826965332031, 1.489013671875, 1.266357421875, 0.1154937744140625, 1.48974609375
