timeTick, roll, pitch, yaw, stateX, stateY, stateZ, stateVX, stateVY, stateVZ, otX0, otY0, otZ0, otRoll0, otPitch0, otYaw0, left wing, pitch motor, yaw motor, right wing, voltage, roll rate, pitch rate, yaw rate, A_x, A_y, A_z, current, i_raw, v_raw, airflow_voltage, airflow_speed, pot_Pitch
43145, 4.113711357116699, -2.211822509765625, 0.8217410445213318, 0, 0, 0, 0, 0, 0, -0.8257629871368408, -0.9949958324432373, 0.055022839456796646, -1.6541003940477959, -1.6501842773114959, 7.992727994526438, 0, 0, 0, 0, 0, 0, 0, 0, 0, 0, 0, 0, 0, 0, 0, 0, 0
43155, 4.114011287689209, -2.2135088443756104, 0.8220357298851013, -0.0008249736856669188, 0.001485653454437852, -44.348445892333984, -0.08056889474391937, 0.14509253203868866, -2.1299726963043213, -0.825766384601593, -0.9949843287467957, 0.05501159653067589, -1.6532436102852206, -1.6428648333073284, 7.9926505118107425, 9362.0, 30146.0, 35388.0, 9362.0, 0, 0.0021306041162461042, 0.014517039991915226, 0.12120968848466873, -0.09415235370397568, -0.031183997169137, 0.9955765008926392, 0, 0, 0, 0, 0, 0
43165, 4.113160610198975, -2.2140235900878906, 0.8220334053039551, -0.0016113368328660727, 0.0029017720371484756, -44.369747161865234, -0.0767037495970726, 0.138131245970726, -2.1305935382843018, -0.8257650136947632, -0.9950023293495178, 0.055012382566928864, -1.6480185130649716, -1.6451100746999145, 7.993935884999418, 9362.0, 30146.0, 35388.0, 9362.0, 0, 0.2723635137081146, 0.2520686089992523, 0.06655728071928024, -0.09711483865976334, -0.030504653230309486, 0.9940134882926941, 0, 0, 0, 1.3330078125, 0.0191650390625, 0
43175, 4.113852500915527, -2.216325283050537, 0.8225255608558655, -0.0023590654600411654, 0.004248332232236862, -44.391056060791016, -0.07284198701381683, 0.1311807632446289, -2.1313729286193848, -0.8257579803466797, -0.9949948191642761, 0.05501337721943855, -1.6491165928074902, -1.6454130104165472, 7.997241036446271, 9362.0, 30146.0, 35388.0, 9362.0, 0, -0.23320446908473969, 0.22412750124931335, 0.3320951461791992, -0.0974675789475441, -0.03364221751689911, 0.993355929851532, 0, 0, 0, 1.469970703125, 0.1386566162109375, 1.48681640625
43185, 4.11325216293335, -2.21675968170166, 0.8243522644042969, -0.003068201942369342, 0.0055254483595490456, -44.41237258911133, -0.06898528337478638, 0.12424251437187195, -2.1323025226593018, -0.8257641196250916, -0.9949920177459717, 0.05502040684223175, -1.6547927869790984, -1.6462001236243964, 7.9908416307373455, 9362.0, 30146.0, 35388.0, 9362.0, 0, -0.12244407832622528, -0.035808514803647995, 0.1263878494501114, -0.0965222716331482, -0.03335696458816528, 0.9946067333221436, 0, 0, 0, 1.371826171875, 0.02008056640625, 1.48681640625
43195, 4.113026142120361, -2.216865301132202, 0.8247089385986328, -0.003738757222890854, 0.0067331865429878235, -44.43370056152344, -0.06512555480003357, 0.11730527877807617, -2.1332602500915527, -0.8257566094398499, -0.9949808120727539, 0.055022869259119034, -1.6523221875112328, -1.6499382444267212, 7.994035929666461, 9362.0, 30146.0, 35388.0, 9362.0, 0, -0.09390890598297119, -0.04279434308409691, -0.18296201527118683, -0.09651506692171097, -0.032256368547677994, 0.9967893958091736, 0, 0, 0, 1.436279296875, 0.0838775634765625, 1.487548828125
43205, 4.112658977508545, -2.2172391414642334, 0.8243392705917358, -0.0043706814758479595, 0.007871506735682487, -44.45503616333008, -0.06125924363732338, 0.11035870015621185, -2.1340725421905518, -0.8257675766944885, -0.9949914216995239, 0.05500134453177452, -1.6452549942353556, -1.6561526146860217, 7.991133936619733, 9362.0, 30146.0, 35388.0, 9362.0, 0, 0.08688133209943771, -0.08832494169473648, 0.06293122470378876, -0.09734617918729782, -0.03261040523648262, 0.9954773783683777, 0, 0, 0, 1.332275390625, 0.019561767578125, 1.487548828125
43215, 4.113920211791992, -2.2175981998443604, 0.8270542621612549, -0.004963912535458803, 0.008940310217440128, -44.47637939453125, -0.05738699063658714, 0.10340200364589691, -2.134737730026245, -0.8257679343223572, -0.994990348815918, 0.05501237511634827, -1.6492672148030318, -1.6495882250858074, 7.988509548415042, 9362.0, 30146.0, 35388.0, 9362.0, 0, 0.004353742580860853, 0.20426003634929657, 0.20681478083133698, -0.09706524759531021, -0.030085787177085876, 0.9950982928276062, 0, 0, 0, 1.431884765625, 0.07769775390625, 1.48974609375
43225, 4.1128997802734375, -2.219285249710083, 0.8281421065330505, -0.005518442951142788, 0.009939595125615597, -44.49773025512695, -0.05351880565285683, 0.0964551717042923, -2.1355297565460205, -0.8257663249969482, -0.9949963688850403, 0.05503787472844124, -1.6510669320132085, -1.647095979128494, 7.9963769560418365, 9362.0, 30146.0, 35388.0, 9362.0, 0, -0.008298676460981369, 0.17541156709194183, 0.024067910388112068, -0.09690337628126144, -0.03113122470676899, 0.9972012042999268, 0, 0, 0, 1.500732421875, 0.1970977783203125, 1.48974609375
43235, 4.113549709320068, -2.2212424278259277, 0.8269054889678955, -0.006034292280673981, 0.010869411751627922, -44.51908874511719, -0.049650922417640686, 0.08950812369585037, -2.136348009109497, -0.8257634043693542, -0.9949805736541748, 0.05500616133213043, -1.651415238109823, -1.646936493978302, 7.9875711282085256, 9362.0, 30146.0, 35388.0, 9362.0, 0, 0.1765342801809311, 0.0009030105429701507, 0.1357804238796234, -0.09698004275560379, -0.03162720426917076, 0.998290479183197, 0, 0, 0, 1.19677734375, 0.40228271484375, 1.489013671875
43245, 4.115811347961426, -2.222590446472168, 0.8277973532676697, -0.006511409301310778, 0.011729697696864605, -44.54045486450195, -0.04577263817191124, 0.08254899084568024, -2.1369731426239014, -0.8257572650909424, -0.9949906468391418, 0.05501473322510719, -1.6526895062545781, -1.6497217937766493, 7.993392451738398, 9362.0, 30146.0, 35388.0, 9362.0, 8.152067184448242, 0.026338491588830948, 0.368304044008255, -0.4827369153499603, -0.09621837735176086, -0.03173774480819702, 0.9991170763969421, -0.08615194261074066, -0.03959846496582031, 1.49267578125, 1.494873046875, 0.185455322265625, 1.489013671875
43255, 4.115833759307861, -2.223825693130493, 0.8256064057350159, -0.006949706003069878, 0.012520347721874714, -44.56182861328125, -0.04188661277294159, 0.07558117061853409, -2.1374905109405518, -0.8257586359977722, -0.9949964284896851, 0.05501405894756317, -1.6496398546414528, -1.6504104805479756, 7.998653186316691, 9362.0, 30146.0, 35388.0, 9362.0, 8.152067184448242, -0.11692500114440918, -0.1750716120004654, 0.14979404211044312, -0.09360495954751968, -0.03261328116059303, 0.9972567558288574, -0.08615194261074066, -0.03959846496582031, 1.49267578125, 1.390869140625, 0.0319671630859375, 1.493408203125
43265, 4.1149067878723145, -2.22314715385437, 0.8270851969718933, -0.007349114399403334, 0.013241272419691086, -44.58320617675781, -0.03799530863761902, 0.06860363483428955, -2.1379282474517822, -0.8257580995559692, -0.9949838519096375, 0.05501590296626091, -1.6465722788122654, -1.652008732935542, 7.986109710100718, 9362.0, 30146.0, 35388.0, 9362.0, 8.152067184448242, 0.07042571157217026, 0.3927893340587616, -0.07151506096124649, -0.09491143375635147, -0.03473525494337082, 0.9950624108314514, -0.08615194261074066, -0.03959846496582031, 1.49267578125, 1.51025390625, 0.2164154052734375, 1.493408203125
43275, 4.114274978637695, -2.2239677906036377, 0.8277195692062378, -0.007709630765020847, 0.01389247551560402, -44.60458755493164, -0.03410773724317551, 0.061637017875909805, -2.138517141342163, -0.8257510662078857, -0.9949800968170166, 0.055029790848493576, -1.6503599363780364, -1.6484643254190985, 7.992254985466738, 9362.0, 30146.0, 35388.0, 9362.0, 8.152067184448242, -0.06646505743265152, 0.002035901416093111, -0.03579867258667946, -0.0956636592745781, -0.03413878381252289, 0.993401050567627, -0.08615194261074066, -0.03959846496582031, 1.49267578125, 1.294189453125, 0.0578155517578125, 1.490478515625
43285, 4.114688873291016, -2.2247507572174072, 0.8276700973510742, -0.008031326346099377, 0.014474110677838326, -44.6259765625, -0.030231352895498276, 0.05469003692269325, -2.1393585205078125, -0.8257644772529602, -0.9950023889541626, 0.05499093607068062, -1.6502785937685494, -1.6474802231911383, 7.996301302284014, 9362.0, 30146.0, 35388.0, 9362.0, 8.152067184448242, 0.03634776547551155, 0.11998184770345688, 0.1315675675868988, -0.0972713902592659, -0.03198186680674553, 0.9949946999549866, -0.08615194261074066, -0.03959846496582031, 1.49267578125, 1.125732421875, 0.9725341796875, 1.490478515625
43295, 4.115321159362793, -2.2242231369018555, 0.8283579349517822, -0.00831427238881588, 0.014986320398747921, -44.64737319946289, -0.02635795623064041, 0.04775194823741913, -2.1403093338012695, -0.8257652521133423, -0.9949954748153687, 0.05500318855047226, -1.6508255016075668, -1.6477870273115514, 7.99171797412631, 9362.0, 30146.0, 35388.0, 9362.0, 8.152067184448242, 0.16537749767303467, 0.49405306577682495, 0.026293229311704636, -0.09803533554077148, -0.03003055974841118, 0.9945617318153381, -0.08615194261074066, -0.03959846496582031, 1.49267578125, 1.324951171875, 0.0236663818359375, 1.489013671875
43305, 4.11478853225708, -2.2281811237335205, 0.827896237373352, -0.008558452129364014, 0.015429100021719933, -44.66878128051758, -0.022477982565760612, 0.04080399125814438, -2.1411311626434326, -0.8257635235786438, -0.9949849843978882, 0.05501363426446915, -1.6486799853707355, -1.6412563172841033, 7.992581303084724, 9362.0, 30146.0, 35388.0, 9362.0, 8.152067184448242, -0.07721198350191116, -0.15545767545700073, -0.010444643907248974, -0.09598458558320999, -0.0324893444776535, 0.9963308572769165, -0.08615194261074066, -0.03959846496582031, 1.49267578125, 1.42822265625, 0.0726470947265625, 1.489013671875
43315, 4.114442348480225, -2.227277994155884, 0.8272291421890259, -0.008763841353356838, 0.015802403911948204, -44.6901969909668, -0.018599925562739372, 0.03385664150118828, -2.141977071762085, -0.8257606029510498, -0.9949985146522522, 0.0550074465572834, -1.6502235486863397, -1.6487484891713393, 7.988789509840447, 9362.0, 30146.0, 35388.0, 9362.0, 8.152067184448242, 0.038632024079561234, -0.32045087218284607, 0.042555391788482666, -0.09577067196369171, -0.031552430242300034, 0.9954285621643066, -0.08615194261074066, -0.03959846496582031, 1.49267578125, 1.469970703125, 0.1386566162109375, 1.489013671875
43325, 4.1147260665893555, -2.2255208492279053, 0.8281272053718567, -0.00893038883805275, 0.01610618829727173, -44.71162033081055, -0.01470960397273302, 0.02690023183822632, -2.1426830291748047, -0.8257598280906677, -0.9949914216995239, 0.05502244085073471, -1.647653578635983, -1.645319634206885, 7.996931203378929, 9362.0, 30146.0, 35388.0, 9362.0, 8.152067184448242, 0.004070923198014498, 0.4213142991065979, 0.07674651592969894, -0.0949283018708229, -0.032859478145837784, 0.9943839907646179, -0.08615194261074066, -0.03959846496582031, 1.49267578125, 1.36376953125, 0.017181396484375, 1.489013671875
43335, 4.115065574645996, -2.2277495861053467, 0.8299070596694946, -0.00905805453658104, 0.016340434551239014, -44.73305130004883, -0.010823315009474754, 0.01994912698864937, -2.143453598022461, -0.8257642388343811, -0.9949900507926941, 0.05500149726867676, -1.6515484038508768, -1.637141001551754, 7.986653547948587, 9362.0, 30146.0, 35388.0, 9362.0, 8.152067184448242, -0.07471882551908493, 0.12400168925523758, 0.1382990926504135, -0.09495605528354645, -0.03499426320195198, 0.9938216209411621, -0.08615194261074066, -0.03959846496582031, 1.49267578125, 1.411376953125, 0.05181884765625, 1.4912109375
43345, 4.114994049072266, -2.228386163711548, 0.830205500125885, -0.009146894328296185, 0.016505207866430283, -44.75448989868164, -0.006944389548152685, 0.0130057567730546, -2.1443393230438232, -0.8257656097412109, -0.994986891746521, 0.055004436522722244, -1.6524348104469084, -1.6450587687248515, 7.995338048552976, 9362.0, 30146.0, 35388.0, 9362.0, 8.152067184448242, 0.031033214181661606, 0.03816550597548485, 0.17971336841583252, -0.09612628072500229, -0.033446379005908966, 0.9955239295959473, -0.08004117757081985, 0.0052013397216796875, 1.496337890625, 1.30517578125, 0.0422515869140625, 1.4912109375
43355, 4.115233421325684, -2.228121042251587, 0.8302780389785767, -0.009196930564939976, 0.016600556671619415, -44.775936126708984, -0.0030628840904682875, 0.006064139772206545, -2.1452558040618896, -0.8257702589035034, -0.9949922561645508, 0.055009469389915466, -1.6469088163801715, -1.6523249621381808, 7.986404685804666, 9362.0, 30146.0, 35388.0, 9362.0, 8.152067184448242, 0.07495948672294617, -0.07624409347772598, -0.22555036842823029, -0.0982341468334198, -0.03399582952260971, 0.9964565634727478, -0.08004117757081985, 0.0052013397216796875, 1.496337890625, 1.50732421875, 0.2104644775390625, 1.49267578125
43365, 4.116678237915039, -2.228898286819458, 0.828616738319397, -0.009208111092448235, 0.016626426950097084, -44.797393798828125, 0.0008268674719147384, -0.0008900506072677672, -2.1459944248199463, -0.8257536292076111, -0.994994044303894, 0.055018290877342224, -1.6448427155537027, -1.6491646991744346, 7.983428122739604, 9362.0, 30146.0, 35388.0, 9362.0, 8.152067184448242, -0.06752576678991318, 0.2743624448776245, -0.018166659399867058, -0.09429136663675308, -0.033535607159137726, 0.9959139823913574, -0.08004117757081985, 0.0052013397216796875, 1.496337890625, 1.478759765625, 0.1546478271484375, 1.49267578125
43375, 4.116167068481445, -2.2316842079162598, 0.8284865617752075, -0.009180383756756783, 0.016582731157541275, -44.81885528564453, 0.004718334414064884, -0.007849087938666344, -2.146672248840332, -0.8257572650909424, -0.9949840903282166, 0.055031631141901016, -1.649556949526568, -1.6481839987644662, 7.992689385463042, 9362.0, 30146.0, 35388.0, 9362.0, 8.152067184448242, 0.019503120332956314, 0.06867758929729462, 0.09787962585687637, -0.09426599740982056, -0.0327242836356163, 0.9953727126121521, -0.08004117757081985, 0.0052013397216796875, 1.496337890625, 1.32275390625, 0.0251312255859375, 1.486083984375
43385, 4.116661548614502, -2.2326271533966064, 0.8293681144714355, -0.009113740175962448, 0.01646944135427475, -44.84032440185547, 0.00861025508493185, -0.01480900775641203, -2.1473731994628906, -0.8257584571838379, -0.9949979782104492, 0.05501524358987808, -1.650786200590404, -1.6461389517288865, 7.990053656272371, 9362.0, 30146.0, 35388.0, 9362.0, 8.152067184448242, -0.026791099458932877, -0.1844411939382553, -0.18143920600414276, -0.09526105225086212, -0.03289937600493431, 0.997470498085022, -0.08004117757081985, 0.0052013397216796875, 1.496337890625, 1.517578125, 0.231689453125, 1.486083984375
43395, 4.116415977478027, -2.2316620349884033, 0.8281263113021851, -0.009008166380226612, 0.01628657802939415, -44.86180114746094, 0.012504667975008488, -0.021763743832707405, -2.148132562637329, -0.8257624506950378, -0.9949831366539001, 0.05501551926136017, -1.6524861707177825, -1.6460934456933387, 7.990539539143542, 9362.0, 30146.0, 35388.0, 9362.0, 8.152067184448242, 0.060023944824934006, -0.2183503657579422, -0.0680014044046402, -0.09485218673944473, -0.031029751524329185, 0.9956563711166382, -0.08004117757081985, 0.0052013397216796875, 1.496337890625, 1.494873046875, 0.185455322265625, 1.489013671875
43405, 4.1165924072265625, -2.23077130317688, 0.8267689347267151, -0.008863608352839947, 0.01603410765528679, -44.88328552246094, 0.016406822949647903, -0.028730537742376328, -2.148736000061035, -0.8256613612174988, -0.9950157403945923, 0.0543380081653595, -1.9053395822553971, -1.868683609725423, 7.8994181798089596, 9362.0, 30146.0, 35388.0, 9362.0, 8.152067184448242, 0.008271013386547565, 0.27514931559562683, -0.1898403912782669, -0.09612131118774414, -0.03363517299294472, 0.994493842124939, -0.08004117757081985, 0.0052013397216796875, 1.496337890625, 1.4091796875, 0.04937744140625, 1.489013671875
43415, 4.115927696228027, -2.231191396713257, 0.8250440359115601, -0.008680065162479877, 0.015712019056081772, -44.90477752685547, 0.020301591604948044, -0.035687100142240524, -2.14947772026062, -0.8256494402885437, -0.995077908039093, 0.05449586361646652, -1.8457557466648968, -1.8467955975426094, 7.892439661591315, 9362.0, 30146.0, 35388.0, 9362.0, 8.152067184448242, 0.09032965451478958, -0.086575947701931, -0.0497402586042881, -0.09751500934362411, -0.03346848860383034, 0.9955146908760071, -0.08004117757081985, 0.0052013397216796875, 1.496337890625, 1.433349609375, 0.0797576904296875, 1.48828125
43425, 4.116107940673828, -2.2289209365844727, 0.8234531879425049, -0.008457604795694351, 0.01532040350139141, -44.92627716064453, 0.024190178140997887, -0.042636144906282425, -2.1503312587738037, -0.8257653713226318, -0.9949990510940552, 0.055024757981300354, -1.652871245524979, -1.649724770901912, 7.9816507351021695, 9362.0, 30146.0, 35388.0, 9362.0, 8.152067184448242, 0.18261227011680603, -0.06814558058977127, -0.23878218233585358, -0.09655490517616272, -0.032320477068424225, 0.995622992515564, -0.08004117757081985, 0.0052013397216796875, 1.496337890625, 1.18359375, 0.4842071533203125, 1.48828125
43435, 4.1160688400268555, -2.2281851768493652, 0.8226751685142517, -0.008196238428354263, 0.014859271235764027, -44.947784423828125, 0.028082871809601784, -0.04959051311016083, -2.1510956287384033, -0.8257672190666199, -0.9949917197227478, 0.055037401616573334, -1.6525794228847361, -1.644020048394708, 7.986799809554241, 9362.0, 30146.0, 35388.0, 9362.0, 8.152067184448242, 0.12228750437498093, -0.043090760707855225, -0.13361085951328278, -0.09265655279159546, -0.031859301030635834, 0.9954709410667419, -0.08004117757081985, 0.0052013397216796875, 1.496337890625, 1.16162109375, 0.643707275390625, 1.491943359375
43445, 4.117281913757324, -2.2278902530670166, 0.8235275745391846, -0.007895967923104763, 0.01432859618216753, -44.96929931640625, 0.03197123110294342, -0.05654463171958923, -2.151869297027588, -0.8257650136947632, -0.9949890375137329, 0.055013030767440796, -1.6501496368789306, -1.6462209911102264, 7.985481500454129, 9362.0, 30146.0, 35388.0, 9362.0, 8.152067184448242, -0.05892060697078705, -0.1917458325624466, -0.25564780831336975, -0.09378682076931, -0.03182794153690338, 0.9958657622337341, -0.07575320452451706, -0.11127853393554688, 1.48681640625, 1.181396484375, 0.4988555908203125, 1.491943359375
43455, 4.116844177246094, -2.227046489715576, 0.8220162391662598, -0.00755681935697794, 0.013728378340601921, -44.990821838378906, 0.035858575254678726, -0.06349889934062958, -2.1526389122009277, -0.8257540464401245, -0.9949966669082642, 0.05504592880606651, -1.6496711944090299, -1.6487896728229146, 7.994528022448778, 9362.0, 30146.0, 35388.0, 9362.0, 8.152067184448242, 0.0944286435842514, -0.043809935450553894, 0.150546595454216, -0.09357952326536179, -0.033067137002944946, 0.9965727925300598, -0.07575320452451706, -0.11127853393554688, 1.48681640625, 1.37255859375, 0.02044677734375, 1.48974609375
43465, 4.117133617401123, -2.227748155593872, 0.8221935033798218, -0.007178789004683495, 0.013058589771389961, -45.012351989746094, 0.03974726423621178, -0.07045891880989075, -2.1533586978912354, -0.825760006904602, -0.9949904084205627, 0.055037036538124084, -1.6484046365307279, -1.6411947339628625, 7.987344589053275, 9362.0, 30146.0, 35388.0, 9362.0, 8.152067184448242, -0.1154649630188942, 0.22358687222003937, 0.20991316437721252, -0.09407365322113037, -0.030663765966892242, 0.9948796033859253, -0.07575320452451706, -0.11127853393554688, 1.48681640625, 1.482421875, 0.161529541015625, 1.48974609375
43475, 4.117630958557129, -2.228926181793213, 0.8242048025131226, -0.006761873606592417, 0.012319192290306091, -45.03388977050781, 0.04363580048084259, -0.07742050290107727, -2.1540462970733643, -0.8257628083229065, -0.9949806332588196, 0.055039480328559875, -1.6483067370457447, -1.6460013829575644, 7.994208706852546, 9362.0, 30146.0, 35388.0, 9362.0, 8.152067184448242, -0.1150011494755745, -0.046571284532547, -0.2657701075077057, -0.09363322705030441, -0.03266798332333565, 0.9963711500167847, -0.07575320452451706, -0.11127853393554688, 1.48681640625, 1.18212890625, 0.49395751953125, 1.48828125
43485, 4.118310928344727, -2.228705644607544, 0.8233259916305542, -0.006306095514446497, 0.011510227806866169, -45.05543518066406, 0.04752004146575928, -0.08437217772006989, -2.1548776626586914, -0.8257664442062378, -0.9949925541877747, 0.055025968700647354, -1.64798957122215, -1.6384020967234108, 7.991324057649583, 9362.0, 30146.0, 35388.0, 9362.0, 8.152067184448242, -0.15576471388339996, -0.3535032272338867, 0.07441291958093643, -0.0932251513004303, -0.0339331217110157, 0.9961150884628296, -0.07575320452451706, -0.11127853393554688, 1.48681640625, 1.204833984375, 0.35699462890625, 1.48828125
43495, 4.1176300048828125, -2.226202964782715, 0.8238531351089478, -0.00581143656745553, 0.01063169538974762, -45.076988220214844, 0.05141162499785423, -0.09133439511060715, -2.155574321746826, -0.825760543346405, -0.9949905872344971, 0.05501602590084076, -1.6474213125573924, -1.647117502033808, 7.996232078041648, 9362.0, 30146.0, 35388.0, 9362.0, 8.152067184448242, -0.14510533213615417, -0.2856244444847107, -0.0350334607064724, -0.09398617595434189, -0.030529944226145744, 0.9967805743217468, -0.07575320452451706, -0.11127853393554688, 1.48681640625, 1.465576171875, 0.130889892578125, 1.493408203125
43505, 4.117161750793457, -2.2243289947509766, 0.8236604928970337, -0.0052778637036681175, 0.009683533571660519, -45.098548889160156, 0.05530298873782158, -0.09829788655042648, -2.1562674045562744, -0.8257706165313721, -0.9949966669082642, 0.05502728745341301, -1.651864997613393, -1.635141683490275, 7.992872606945859, 9362.0, 30146.0, 35388.0, 9362.0, 8.152067184448242, 0.0942932516336441, -0.07110820710659027, -0.07262308895587921, -0.0952894315123558, -0.030693944543600082, 0.9944645762443542, -0.07575320452451706, -0.11127853393554688, 1.48681640625, 1.326416015625, 0.022705078125, 1.493408203125
43515, 4.117787837982178, -2.2231104373931885, 0.8225218057632446, -0.004705395549535751, 0.008665737695991993, -45.120113372802734, 0.05919065326452255, -0.10526128113269806, -2.1569466590881348, -0.8257752060890198, -0.9949975609779358, 0.055009547621011734, -1.653793097467759, -1.6335395757539857, 7.991682545669268, 9362.0, 30146.0, 35388.0, 9362.0, 8.152067184448242, -0.22562053799629211, -0.014475193805992603, 0.2937510311603546, -0.09577212482690811, -0.03144371509552002, 0.9959462285041809, -0.07575320452451706, -0.11127853393554688, 1.48681640625, 1.499267578125, 0.1941070556640625, 1.487548828125
43525, 4.117285251617432, -2.22365140914917, 0.8258039951324463, -0.004094097763299942, 0.007578366901725531, -45.141685485839844, 0.06306877732276917, -0.11221291869878769, -2.1577813625335693, -0.8257572054862976, -0.9949895739555359, 0.055022284388542175, -1.6519444244652948, -1.658012581245714, 7.984257899157589, 9362.0, 30146.0, 35388.0, 9362.0, 8.152067184448242, 0.08214590698480606, 0.21564407646656036, 0.39139941334724426, -0.0966896340250969, -0.033183787018060684, 0.9954138994216919, -0.07575320452451706, -0.11127853393554688, 1.48681640625, 1.515380859375, 0.2270050048828125, 1.487548828125
43535, 4.117190361022949, -2.2248141765594482, 0.8282700181007385, -0.003444010391831398, 0.006421439349651337, -45.163265228271484, 0.06694908440113068, -0.11917237937450409, -2.1585185527801514, -0.8257611393928528, -0.9949943423271179, 0.05503459647297859, -1.6522872251396328, -1.6336931766069256, 7.989597148926227, 9362.0, 30146.0, 35388.0, 9362.0, 8.152067184448242, 0.002406704006716609, 0.37141743302345276, 0.34487417340278625, -0.09489484131336212, -0.031271062791347504, 0.9953579306602478, -0.07575320452451706, -0.11127853393554688, 1.48681640625, 1.506591796875, 0.2088775634765625, 1.493408203125
43545, 4.11719274520874, -2.2279415130615234, 0.8304619789123535, -0.0027551217935979366, 0.005194937344640493, -45.184852600097656, 0.07082896679639816, -0.12612785398960114, -2.159297466278076, -0.8257794976234436, -0.9949864149093628, 0.05500582233071327, -1.6532725932436303, -1.6354455045921839, 7.996215702180954, 9362.0, 30146.0, 35388.0, 9362.0, 8.152067184448242, 0.08503521978855133, -0.005741857923567295, -0.15765155851840973, -0.09584606438875198, -0.03176947683095932, 0.9966611862182617, -0.08649458736181259, -0.12023735046386719, 1.486083984375, 1.468505859375, 0.13604736328125, 1.493408203125
43555, 4.117978096008301, -2.2283616065979004, 0.8296359777450562, -0.002027419162914157, 0.0038988753221929073, -45.20644760131836, 0.07471181452274323, -0.13308438658714294, -2.160057544708252, -0.8257796168327332, -0.9949823021888733, 0.05501779168844223, -1.6590019360816393, -1.6385508734224459, 7.990707468557133, 9362.0, 30146.0, 35388.0, 9362.0, 8.152067184448242, -0.15254037082195282, 0.01587112434208393, 0.011989322490990162, -0.09703704714775085, -0.03242550417780876, 0.9948838353157043, -0.08649458736181259, -0.12023735046386719, 1.486083984375, 1.4091796875, 0.04937744140625, 1.4912109375
43565, 4.117212295532227, -2.227822780609131, 0.8306130170822144, -0.001260851277038455, 0.0025332337245345116, -45.228050231933594, 0.0786016434431076, -0.14004401862621307, -2.160773515701294, -0.8257551789283752, -0.9949921369552612, 0.05504601076245308, -1.6520428624724324, -1.6506742627841504, 7.9890079870025215, 9362.0, 30146.0, 35388.0, 9362.0, 8.152067184448242, 0.10379795730113983, 0.05273259058594704, 0.05629701912403107, -0.09566991776227951, -0.031233670189976692, 0.9939752817153931, -0.08649458736181259, -0.12023735046386719, 1.486083984375, 1.486083984375, 0.16845703125, 1.4912109375
43575, 4.116913795471191, -2.2287285327911377, 0.8314036726951599, -0.0004554024781100452, 0.0010980257065966725, -45.24966049194336, 0.08248824626207352, -0.14699754118919373, -2.161592483520508, -0.8257757425308228, -0.994981050491333, 0.05500805750489235, -1.657459318846272, -1.6368299558185129, 7.989959574149289, 9362.0, 30146.0, 35388.0, 9362.0, 8.152067184448242, 0.1576714962720871, -0.12507963180541992, -0.3511418402194977, -0.0948580801486969, -0.03213373199105263, 0.9934573173522949, -0.08649458736181259, -0.12023735046386719, 1.486083984375, 1.204833984375, 0.35699462890625, 1.4912109375
43585, 4.1179094314575195, -2.2291548252105713, 0.8284615874290466, 0.0003888916107825935, -0.00040668132714927197, -45.27128219604492, 0.08637063950300217, -0.15394379198551178, -2.1624948978424072, -0.8257521390914917, -0.9949794411659241, 0.05506694316864014, -1.6451554892139733, -1.6544361926203237, 7.992014926485939, 9362.0, 30146.0, 35388.0, 9362.0, 8.152067184448242, -0.02362804487347603, -0.2137078195810318, 0.08696964383125305, -0.09632805734872818, -0.03154059872031212, 0.9935756325721741, -0.08649458736181259, -0.12023735046386719, 1.486083984375, 1.503662109375, 0.2029876708984375, 1.4912109375
43605, 4.117090702056885, -2.2284185886383057, 0.8288907408714294, 0.0021939286962151527, -0.0036243873182684183, -45.314552307128906, 0.09413374960422516, -0.1678285151720047, -2.164422035217285, -0.8257588148117065, -0.9949901103973389, 0.055030565708875656, -1.6571042406130243, -1.6456190325377804, 7.983686829086527, 9362.0, 30146.0, 35388.0, 9362.0, 8.152067184448242, 0.24139153957366943, -0.17725148797035217, -0.16618658602237701, -0.0947895273566246, -0.034939780831336975, 0.9955397844314575, -0.08649458736181259, -0.12023735046386719, 1.486083984375, 1.16455078125, 0.620697021484375, 1.493408203125
43625, 4.116984844207764, -2.2297556400299072, 0.8283632397651672, 0.004154338035732508, -0.0071200476959347725, -45.35785675048828, 0.10190849006175995, -0.1817389875650406, -2.165980815887451, -0.8257660865783691, -0.9950099587440491, 0.055021874606609344, -1.646768574662036, -1.6464285445120765, 7.989830551840118, 9362.0, 30146.0, 35388.0, 9362.0, 8.152067184448242, -0.07640980184078217, 0.5185897946357727, 0.22421862185001373, -0.09489882737398148, -0.030601542443037033, 0.9935212135314941, -0.08649458736181259, -0.12023735046386719, 1.486083984375, 1.16455078125, 0.620697021484375, 1.493408203125
43635, 4.116860389709473, -2.2315304279327393, 0.8282724618911743, 0.005192859098315239, -0.008972212672233582, -45.379520416259766, 0.10579581558704376, -0.18869391083717346, -2.1667702198028564, -0.8257797360420227, -0.9949856996536255, 0.054987017065286636, -1.651633798316581, -1.6389521742419504, 7.990403865777235, 9362.0, 30146.0, 35388.0, 9362.0, 8.152067184448242, -0.031033804640173912, -0.41562846302986145, -0.10824950039386749, -0.09551183879375458, -0.029923731461167336, 0.9936771392822266, -0.08649458736181259, -0.12023735046386719, 1.486083984375, 1.16455078125, 0.620697021484375, 1.493408203125
43665, 4.116701126098633, -2.226747512817383, 0.8267149925231934, 0.008541550487279892, -0.014945507049560547, -45.44456481933594, 0.11745291948318481, -0.209535151720047, -2.1694235801696777, -0.8257745504379272, -0.9949846863746643, 0.05503029003739357, -1.6525307725905916, -1.6333022182675734, 7.994133038623786, 9362.0, 30146.0, 35388.0, 9362.0, 8.152067184448242, -0.09512998908758163, 0.14273305237293243, 0.21560999751091003, -0.09567881375551224, -0.03317328914999962, 0.9956274032592773, -0.08649458736181259, -0.12023735046386719, 1.486083984375, 1.16455078125, 0.620697021484375, 1.493408203125
43695, 4.116055965423584, -2.226071357727051, 0.8278419375419617, 0.012240119278430939, -0.021544842049479485, -45.509681701660156, 0.12912100553512573, -0.23042050004005432, -2.171462059020996, -0.8257812261581421, -0.9949808120727539, 0.05499706789851189, -1.6592893555748487, -1.6390896190966657, 7.987268059551355, 9362.0, 30146.0, 35388.0, 9362.0, 8.152067184448242, -0.210061177611351, -0.22328346967697144, -0.00807330571115017, -0.09359361976385117, -0.03349921479821205, 0.9963634610176086, -0.08649458736181259, -0.12023735046386719, 1.486083984375, 1.16455078125, 0.620697021484375, 1.49267578125
43705, 4.115779399871826, -2.22641921043396, 0.8283637166023254, 0.01355082355439663, -0.02388393133878708, -45.53139877319336, 0.13301976025104523, -0.2373974323272705, -2.171921730041504, -0.8257800936698914, -0.9949852228164673, 0.05499066039919853, -1.6597554468592635, -1.6364919053664266, 7.9920017574710425, 9362.0, 30146.0, 35388.0, 9362.0, 8.152067184448242, 0.10044784843921661, 0.05804344639182091, 0.31160566210746765, -0.09310548007488251, -0.03174798563122749, 0.9974945187568665, -0.08649458736181259, -0.12023735046386719, 1.486083984375, 1.16455078125, 0.620697021484375, 1.49267578125
43735, 4.116433620452881, -2.2223267555236816, 0.8296070098876953, 0.01771646738052368, -0.031319234520196915, -45.596580505371094, 0.14469440281391144, -0.2582995295524597, -2.173659563064575, -0.8257862329483032, -0.9949907660484314, 0.054982803761959076, -1.6594381376682912, -1.639386548075521, 7.9864985052055815, 9362.0, 30146.0, 35388.0, 9362.0, 8.152067184448242, -0.046915680170059204, -0.19259977340698242, -0.1774107962846756, -0.09647566080093384, -0.03210499510169029, 0.9968124032020569, -0.08649458736181259, -0.12023735046386719, 1.486083984375, 1.16455078125, 0.620697021484375, 1.49267578125
43755, 4.1161088943481445, -2.221910238265991, 0.8254457116127014, 0.020688021555542946, -0.03662453964352608, -45.64006805419922, 0.15246106684207916, -0.2722301185131073, -2.1748998165130615, -0.8257690072059631, -0.9949853420257568, 0.05500993877649307, -1.6479281700728545, -1.6432731202866364, 7.996190962896953, 9362.0, 30146.0, 35388.0, 9362.0, 8.17190170288086, 0.15140360593795776, 0.027287906035780907, 0.04291524738073349, -0.0954914316534996, -0.03274089843034744, 0.994327962398529, -0.07748976349830627, 0.1396007537841797, 1.50732421875, 1.16455078125, 0.620697021484375, 1.49267578125
43765, 4.117627143859863, -2.224607229232788, 0.826835036277771, 0.020688021555542946, -0.03662453964352608, -45.64006805419922, 0.15246106684207916, -0.2722301185131073, -2.1748998165130615, -0.8257714509963989, -0.9949973821640015, 0.05502218008041382, -1.6541735672795124, -1.6471096856695056, 7.987630989308927, 9362.0, 30146.0, 35388.0, 9362.0, 8.17190170288086, -0.2501070499420166, 0.07855630666017532, 0.030960073694586754, -0.09866482764482498, -0.03355247899889946, 0.995279848575592, -0.07748976349830627, 0.1396007537841797, 1.50732421875, 1.16455078125, 0.620697021484375, 1.49267578125
43785, 4.117005825042725, -2.2271831035614014, 0.8278126120567322, 0.025436270982027054, -0.04510422796010971, -45.705352783203125, 0.16409118473529816, -0.29308372735977173, -2.177377223968506, -0.8257791996002197, -0.99498450756073, 0.05500146746635437, -1.6573264294889092, -1.6431003833641853, 7.991544435785822, 9362.0, 30146.0, 35388.0, 9362.0, 8.17190170288086, -0.040912266820669174, 0.23982711136341095, 0.0747271329164505, -0.09356550872325897, -0.032175809144973755, 0.9962167143821716, -0.07748976349830627, 0.1396007537841797, 1.50732421875, 1.31689453125, 0.0298919677734375, 1.49267578125
43795, 4.118366241455078, -2.2296340465545654, 0.8289507031440735, 0.025436270982027054, -0.04510422796010971, -45.705352783203125, 0.16409118473529816, -0.29308372735977173, -2.177377223968506, -0.8257661461830139, -0.9950048923492432, 0.05501687526702881, -1.6536752754508446, -1.648029067753896, 7.9825761544486475, 9362.0, 30146.0, 35388.0, 9362.0, 8.17190170288086, -0.023841597139835358, -0.3224566876888275, 0.07544929534196854, -0.09542644768953323, -0.03209631145000458, 0.9966557621955872, -0.07748976349830627, 0.1396007537841797, 1.50732421875, 1.31689453125, 0.0298919677734375, 1.4912109375
43805, 4.118930339813232, -2.227198600769043, 0.8280015587806702, 0.028795884922146797, -0.05110519379377365, -45.7489128112793, 0.1718699187040329, -0.307010293006897, -2.1787145137786865, -0.8257759809494019, -0.9949892163276672, 0.055037036538124084, -1.6525437504724045, -1.649380398284734, 7.982705923868651, 9362.0, 30146.0, 35388.0, 9362.0, 8.17190170288086, -0.04049212485551834, 0.22363045811653137, 0.22445714473724365, -0.09627167135477066, -0.03261774033308029, 0.9990993142127991, -0.07748976349830627, 0.1396007537841797, 1.50732421875, 1.31689453125, 0.0298919677734375, 1.4912109375
43815, 4.119234085083008, -2.2295734882354736, 0.8317548036575317, 0.030534066259860992, -0.05421013757586479, -45.77070236206055, 0.17576609551906586, -0.3139784634113312, -2.1793406009674072, -0.8257689476013184, -0.9949864149093628, 0.05503346398472786, -1.650852435812494, -1.645509520466561, 7.985280204413914, 9362.0, 30146.0, 35388.0, 9362.0, 8.17190170288086, 0.17489869892597198, -0.09851684421300888, 0.0936397984623909, -0.09549885243177414, -0.03273650258779526, 0.9959462285041809, -0.07748976349830627, 0.1396007537841797, 1.50732421875, 1.31689453125, 0.0298919677734375, 1.4912109375
43825, 4.120038032531738, -2.2277863025665283, 0.8329393863677979, 0.032311223447322845, -0.057384833693504333, -45.79249954223633, 0.17966598272323608, -0.3209605813026428, -2.179781436920166, -0.8257759809494019, -0.9949764609336853, 0.05501166358590126, -1.6514649425582235, -1.6305197349708749, 7.994354775422676, 9362.0, 30146.0, 35388.0, 9362.0, 8.17190170288086, 0.32913705706596375, 0.15418748557567596, 0.3139927387237549, -0.09591435641050339, -0.03291146457195282, 0.9938725233078003, -0.07748976349830627, 0.1396007537841797, 1.50732421875, 1.31689453125, 0.0298919677734375, 1.4912109375
43835, 4.121356964111328, -2.2287163734436035, 0.8353562355041504, 0.03412735089659691, -0.06062925606966019, -45.814300537109375, 0.18355944752693176, -0.32792407274246216, -2.180488348007202, -0.8257877826690674, -0.9949840903282166, 0.05500759556889534, -1.6551780137689824, -1.6232273928750658, 7.986070375314673, 9362.0, 30146.0, 35388.0, 9362.0, 8.17190170288086, 0.08482689410448074, -0.07149243354797363, 0.22614918649196625, -0.0961403027176857, -0.031219152733683586, 0.994656503200531, -0.07748976349830627, 0.1396007537841797, 1.50732421875, 1.250244140625, 0.162445068359375, 1.4912109375
43855, 4.121382236480713, -2.2292699813842773, 0.835446834564209, 0.03787620738148689, -0.06732676923274994, -45.85792922973633, 0.19132763147354126, -0.34182894229888916, -2.182276964187622, -0.8257753252983093, -0.9949884414672852, 0.05501529201865196, -1.6537326048115335, -1.641125014327116, 7.995073758127267, 9362.0, 30146.0, 35388.0, 9362.0, 8.152067184448242, 0.13432836532592773, -0.13382484018802643, 0.17251966893672943, -0.09641342610120773, -0.03170385956764221, 0.9943811297416687, -0.07748976349830627, 0.1396007537841797, 1.50732421875, 1.250244140625, 0.162445068359375, 1.4912109375
43865, 4.1218085289001465, -2.2294154167175293, 0.8374245762825012, 0.03980891406536102, -0.07077983021736145, -45.879756927490234, 0.1952137053012848, -0.3487827777862549, -2.1831610202789307, -0.8257759809494019, -0.9949836730957031, 0.0550113208591938, -1.6547932280634445, -1.6442706474378213, 7.990139814127587, 9362.0, 30146.0, 35388.0, 9362.0, 8.152067184448242, -0.23781131207942963, 0.10988044738769531, 0.06579772382974625, -0.09496264159679413, -0.029669515788555145, 0.99521404504776, -0.07748976349830627, 0.1396007537841797, 1.50732421875, 1.250244140625, 0.162445068359375, 1.4912109375
43885, 4.120339870452881, -2.232884407043457, 0.8392132520675659, 0.04379095137119293, -0.07789462804794312, -45.92343521118164, 0.20299161970615387, -0.3627004027366638, -2.1848108768463135, -0.8257842063903809, -0.9949796199798584, 0.05500641092658043, -1.6542048824666369, -1.6363953698431999, 7.990517127933312, 9362.0, 30146.0, 35388.0, 9362.0, 8.152067184448242, -0.15856190025806427, -0.2319917231798172, -0.2575474679470062, -0.09434591978788376, -0.03443087264895439, 0.9941806197166443, -0.07748976349830627, 0.1396007537841797, 1.50732421875, 1.20263671875, 0.368988037109375, 1.48681640625
43905, 4.120934009552002, -2.2319438457489014, 0.8367605805397034, 0.04792875051498413, -0.08528793603181839, -45.96714401245117, 0.21078434586524963, -0.3766222298145294, -2.186349630355835, -0.8257939219474792, -0.9949821829795837, 0.05501718819141388, -1.6524872383857403, -1.6304560242589616, 7.994720527869096, 9362.0, 30146.0, 35388.0, 9362.0, 8.152067184448242, -0.038750093430280685, -0.0032253903336822987, -0.17116425931453705, -0.09580955654382706, -0.03299678862094879, 0.9944126605987549, -0.07748976349830627, 0.1396007537841797, 1.50732421875, 1.20263671875, 0.368988037109375, 1.487548828125
43915, 4.1205573081970215, -2.231703042984009, 0.8365573883056641, 0.050056032836437225, -0.08908891677856445, -45.989013671875, 0.21467219293117523, -0.38357388973236084, -2.187252998352051, -0.8257837891578674, -0.9949728846549988, 0.05500147119164467, -1.6591945790662055, -1.6313801584160217, 7.987507524187545, 9362.0, 30146.0, 35388.0, 9362.0, 8.152067184448242, -0.17532534897327423, 0.0623372346162796, 0.18593895435333252, -0.09603626281023026, -0.0327439047396183, 0.9952594041824341, -0.07748976349830627, 0.1396007537841797, 1.50732421875, 1.333740234375, 0.0189361572265625, 1.487548828125
43955, 4.120665073394775, -2.233388900756836, 0.8395377397537231, 0.054427310824394226, -0.09689949452877045, -46.03277587890625, 0.22245648503303528, -0.3974849581718445, -2.1889517307281494, -0.825760006904602, -0.9949856400489807, 0.0550302192568779, -1.6551629844493927, -1.6433397101893945, 7.994453732483181, 9362.0, 30146.0, 35388.0, 9362.0, 8.152067184448242, 0.08812425285577774, 0.09834293276071548, 0.003472947282716632, -0.09550689160823822, -0.03229184076189995, 0.9944230318069458, -0.07748976349830627, 0.1396007537841797, 1.50732421875, 1.333740234375, 0.0189361572265625, 1.489013671875
43965, 4.120527744293213, -2.2343156337738037, 0.8398148417472839, 0.06127637252211571, -0.10913726687431335, -46.09847640991211, 0.23414823412895203, -0.41836774349212646, -2.191232442855835, -0.8257856965065002, -0.9949904084205627, 0.05502372235059738, -1.651115440869219, -1.6319164008739335, 7.997094869144233, 9362.0, 30146.0, 35388.0, 9362.0, 8.152067184448242, 0.20892548561096191, 0.2426716834306717, 0.013419403694570065, -0.0933595597743988, -0.02985405921936035, 0.9955554604530334, -0.07748976349830627, 0.1396007537841797, 1.50732421875, 1.333740234375, 0.0189361572265625, 1.489013671875
43975, 4.121775150299072, -2.23632550239563, 0.8397434949874878, 0.06363732367753983, -0.11335571110248566, -46.120391845703125, 0.23804248869419098, -0.42532140016555786, -2.192103862762451, -0.8257725834846497, -0.9949886202812195, 0.055014580488204956, -1.6527846807457154, -1.6325179905001903, 7.993078267325073, 9362.0, 30146.0, 35388.0, 9362.0, 8.152067184448242, 0.06516723334789276, -0.2745620310306549, 0.17864219844341278, -0.0935177206993103, -0.03216807544231415, 0.996070384979248, -0.07748976349830627, 0.1396007537841797, 1.50732421875, 1.281005859375, 0.0816650390625, 1.489013671875
43985, 4.121356964111328, -2.235978126525879, 0.840965986251831, 0.06603724509477615, -0.11764372885227203, -46.14231491088867, 0.2419424057006836, -0.43228232860565186, -2.192871332168579, -0.8257565498352051, -0.9949797987937927, 0.05505096912384033, -1.648409654065857, -1.6522193336501232, 7.986782044989753, 9362.0, 30146.0, 35388.0, 9362.0, 8.152067184448242, -0.06615699082612991, -0.07148394733667374, 0.06205710396170616, -0.09417197853326797, -0.0350688099861145, 0.9962128400802612, -0.07748976349830627, 0.1396007537841797, 1.50732421875, 1.281005859375, 0.0816650390625, 1.489013671875
43995, 4.120863437652588, -2.2341694831848145, 0.8410831689834595, 0.06603724509477615, -0.11764372885227203, -46.14231491088867, 0.2419424057006836, -0.43228232860565186, -2.192871332168579, -0.8257784247398376, -0.9949827790260315, 0.05501154065132141, -1.6582004089369533, -1.6429188600645261, 7.986193817868887, 9362.0, 30146.0, 35388.0, 9362.0, 8.152067184448242, 0.17595940828323364, -0.1911398023366928, -0.18905015289783478, -0.09327299892902374, -0.034148987382650375, 0.9981998801231384, -0.07748976349830627, 0.1396007537841797, 1.50732421875, 1.281005859375, 0.0816650390625, 1.494873046875
44005, 4.122343063354492, -2.2348904609680176, 0.8396106958389282, 0.07095420360565186, -0.12642870843410492, -46.18618392944336, 0.24975407123565674, -0.4462164044380188, -2.194277286529541, -0.8257641196250916, -0.9949871301651001, 0.05503944680094719, -1.6510233010548845, -1.6399728151670843, 7.992413221833049, 9362.0, 30146.0, 35388.0, 9362.0, 8.152067184448242, -0.18662244081497192, -0.1056172177195549, 0.17846903204917908, -0.093051977455616, -0.033214036375284195, 0.9965415596961975, -0.07748976349830627, 0.1396007537841797, 1.50732421875, 1.281005859375, 0.0816650390625, 1.494873046875
44015, 4.121856212615967, -2.23469614982605, 0.8406683206558228, 0.07347129285335541, -0.1309257596731186, -46.2081298828125, 0.2536633610725403, -0.4531949758529663, -2.1948049068450928, -0.8257748484611511, -0.9949820041656494, 0.05502092465758324, -1.6584501559445968, -1.6412617426031773, 7.9912955897809494, 9362.0, 30146.0, 35388.0, 9362.0, 8.152067184448242, 0.06678244471549988, -0.1359737068414688, -0.027664994820952415, -0.09403884410858154, -0.03164871409535408, 0.993769109249115, -0.07748976349830627, 0.1396007537841797, 1.50732421875, 1.23486328125, 0.2174835205078125, 1.494873046875
44035, 4.120840072631836, -2.2375333309173584, 0.8426578044891357, 0.07862260192632675, -0.1401289701461792, -46.25204086303711, 0.26146233081817627, -0.4671165645122528, -2.196413993835449, -0.8257834911346436, -0.9949909448623657, 0.05500243231654167, -1.6561008057080802, -1.6278548729126214, 7.993834472204262, 9362.0, 30146.0, 35388.0, 9362.0, 8.152067184448242, 0.045808639377355576, 0.22915679216384888, 0.1482577919960022, -0.09367071092128754, -0.03397614508867264, 0.9949238300323486, -0.07748976349830627, 0.1396007537841797, 1.50732421875, 1.23486328125, 0.2174835205078125, 1.494873046875
44055, 4.122262001037598, -2.239870071411133, 0.8415724039077759, 0.08392982184886932, -0.14961035549640656, -46.29598617553711, 0.2692631185054779, -0.4810258448123932, -2.198176383972168, -0.8257777094841003, -0.9949806928634644, 0.05503712594509125, -1.6659500522940356, -1.6411947252285586, 7.995101886580897, 9362.0, 30146.0, 35388.0, 9362.0, 8.152067184448242, -0.06292354315519333, 0.5606479644775391, -0.2429579198360443, -0.09381506592035294, -0.03174461051821709, 0.9961025714874268, -0.0700177550315857, -0.01271820068359375, 1.494873046875, 1.23486328125, 0.2174835205078125, 1.494873046875
44065, 4.1216840744018555, -2.2425930500030518, 0.8395135402679443, 0.08664201200008392, -0.15445545315742493, -46.317970275878906, 0.2731746733188629, -0.4879937767982483, -2.1988658905029297, -0.8257738947868347, -0.9949731826782227, 0.05503416806459427, -1.6692634252548533, -1.6444779136334375, 7.996844129314251, 9362.0, 30146.0, 35388.0, 9362.0, 8.152067184448242, 0.2732316851615906, 0.07382109761238098, -0.2315979301929474, -0.09515035152435303, -0.03005479834973812, 0.9938132762908936, -0.0700177550315857, -0.01271820068359375, 1.494873046875, 1.23486328125, 0.2174835205078125, 1.494873046875
44075, 4.122605323791504, -2.243075370788574, 0.838060736656189, 0.08939331024885178, -0.15937021374702454, -46.339962005615234, 0.2770853042602539, -0.49495962262153625, -2.1996045112609863, -0.825769305229187, -0.994950532913208, 0.05502347648143768, -1.6652163144193166, -1.6415279419303488, 7.98824145318038, 9362.0, 30146.0, 35388.0, 9362.0, 8.152067184448242, 0.22154884040355682, 0.11515853554010391, 0.15012226998806, -0.09540914744138718, -0.03280730918049812, 0.9937832951545715, -0.0700177550315857, -0.01271820068359375, 1.494873046875, 1.23486328125, 0.2174835205078125, 1.494873046875
44095, 4.123044013977051, -2.2447080612182617, 0.8384122848510742, 0.09501317888498306, -0.16940845549106598, -46.38397216796875, 0.2849024534225464, -0.5088664889335632, -2.201420307159424, -0.8257646560668945, -0.9949632287025452, 0.055009469389915466, -1.6758724376470693, -1.6330817295659585, 7.993885844270623, 9362.0, 30146.0, 35388.0, 9362.0, 8.152067184448242, -0.047769807279109955, -0.15550503134727478, -0.13141988217830658, -0.09459424763917923, -0.03240404278039932, 0.9953678846359253, -0.0700177550315857, -0.01271820068359375, 1.494873046875, 1.234130859375, 0.2203521728515625, 1.487548828125
44105, 4.1226277351379395, -2.2457149028778076, 0.8393019437789917, 0.09788177162408829, -0.17453190684318542, -46.40599060058594, 0.28881579637527466, -0.515825092792511, -2.202268600463867, -0.8257780075073242, -0.9949600696563721, 0.055037036538124084, -1.6788671203016972, -1.6415625680756705, 7.990369521693422, 9362.0, 30146.0, 35388.0, 9362.0, 8.152067184448242, -0.014150960370898247, -0.3115980625152588, -0.1333007514476776, -0.09363729506731033, -0.03166741505265236, 0.9958154559135437, -0.0700177550315857, -0.01271820068359375, 1.494873046875, 1.234130859375, 0.2203521728515625, 1.487548828125
44115, 4.122813701629639, -2.2441837787628174, 0.8388754725456238, 0.10078951716423035, -0.17972497642040253, -46.428016662597656, 0.2927332818508148, -0.5227897763252258, -2.2030389308929443, -0.8257697820663452, -0.9949171543121338, 0.05496090650558472, -1.601341436288653, -1.5530035380318736, 7.977805102528447, 9362.0, 30146.0, 35388.0, 9362.0, 8.152067184448242, 0.06794703751802444, -0.431338369846344, 0.21231716871261597, -0.09503424912691116, -0.02966046892106533, 0.9957858324050903, -0.0700177550315857, -0.01271820068359375, 1.494873046875, 1.234130859375, 0.2203521728515625, 1.487548828125
44125, 4.1234307289123535, -2.241658926010132, 0.8391362428665161, 0.10078951716423035, -0.17972497642040253, -46.428016662597656, 0.2927332818508148, -0.5227897763252258, -2.2030389308929443, -0.8257728815078735, -0.9949560165405273, 0.05502839386463165, -1.675044534428597, -1.6477070605213555, 7.989668457990331, 9362.0, 30146.0, 35388.0, 9362.0, 8.152067184448242, -0.02269171178340912, -0.07206175476312637, 0.030508970841765404, -0.09358470141887665, -0.031688690185546875, 0.9941437244415283, -0.0700177550315857, -0.01271820068359375, 1.494873046875, 1.234130859375, 0.2203521728515625, 1.487548828125
44135, 4.124500274658203, -2.2436330318450928, 0.8400412797927856, 0.10672257095575333, -0.19032008945941925, -46.47209167480469, 0.3005702495574951, -0.5367201566696167, -2.2045516967773438, -0.8257752656936646, -0.9949559569358826, 0.055026307702064514, -1.6707097777359652, -1.6409116215976098, 7.995916011878579, 9362.0, 30146.0, 35388.0, 9362.0, 8.152067184448242, -0.00980305764824152, 0.02480194717645645, 0.02795467898249626, -0.09517859667539597, -0.033727191388607025, 0.9930647015571594, -0.0700177550315857, -0.01271820068359375, 1.494873046875, 1.234130859375, 0.2203521728515625, 1.494873046875
44155, 4.12460994720459, -2.2420401573181152, 0.8396008014678955, 0.1128121167421341, -0.20119360089302063, -46.51620101928711, 0.30838531255722046, -0.5506294369697571, -2.2064197063446045, -0.8257763981819153, -0.9949607253074646, 0.05503665283322334, -1.6675500333791686, -1.6431514594824534, 7.997311734221311, 9362.0, 30146.0, 35388.0, 9362.0, 8.17190170288086, 0.07876656949520111, -0.09188498556613922, -0.11039890348911285, -0.09335531294345856, -0.03293117508292198, 0.9953349232673645, -0.0700177550315857, -0.01271820068359375, 1.494873046875, 1.234130859375, 0.2203521728515625, 1.486083984375
44165, 4.125717639923096, -2.2417080402374268, 0.8395572304725647, 0.11591552942991257, -0.20673468708992004, -46.53826904296875, 0.31229692697525024, -0.5575882196426392, -2.20731258392334, -0.8257793188095093, -0.9949696660041809, 0.05502103641629219, -1.6596211894885697, -1.6377759741131115, 7.995640434154199, 9362.0, 30146.0, 35388.0, 9362.0, 8.17190170288086, -0.24954530596733093, -0.008162280544638634, 0.45903316140174866, -0.09498343616724014, -0.03392113000154495, 0.9967524409294128, -0.0700177550315857, -0.01271820068359375, 1.494873046875, 1.234130859375, 0.2203521728515625, 1.486083984375
44175, 4.125274181365967, -2.2418484687805176, 0.8416134715080261, 0.11905806511640549, -0.2123454064130783, -46.56034469604492, 0.31621024012565613, -0.5645560026168823, -2.2080774307250977, -0.8257803320884705, -0.9949675798416138, 0.055066611617803574, -1.6622667843269388, -1.628622798347834, 7.98833296933055, 9362.0, 30146.0, 35388.0, 9362.0, 8.17190170288086, -0.027598118409514427, -0.06894810497760773, -0.046692728996276855, -0.09431567788124084, -0.03408152982592583, 0.9957438111305237, -0.0700177550315857, -0.01271820068359375, 1.494873046875, 1.2685546875, 0.1099395751953125, 1.489013671875
44185, 4.1257853507995605, -2.241464614868164, 0.8417561054229736, 0.12223975360393524, -0.21802586317062378, -46.582427978515625, 0.3201279044151306, -0.5715339779853821, -2.208725929260254, -0.8258017301559448, -0.9949429631233215, 0.05493703484535217, -1.586093025663454, -1.5287821796944456, 7.977408489871683, 9362.0, 30146.0, 35388.0, 9362.0, 8.17190170288086, -0.10290001332759857, 0.5683032274246216, 0.214074045419693, -0.09642685204744339, -0.03215820714831352, 0.9949113130569458, -0.0700177550315857, -0.01271820068359375, 1.494873046875, 1.48388671875, 0.1642303466796875, 1.489013671875
44205, 4.124599456787109, -2.2458994388580322, 0.8436815738677979, 0.12872055172920227, -0.22959588468074799, -46.626617431640625, 0.3279503881931305, -0.5854660272598267, -2.2103443145751953, -0.8257888555526733, -0.9949900507926941, 0.05504544824361801, -1.6493451630010847, -1.6308169520575007, 7.991649473279484, 9362.0, 30146.0, 35388.0, 9362.0, 8.17190170288086, 0.03283638879656792, -0.0515458919107914, -0.18965397775173187, -0.0942893847823143, -0.03256018087267876, 0.9940967559814453, -0.0700177550315857, -0.01271820068359375, 1.494873046875, 1.529296875, 0.2564849853515625, 1.49267578125
44215, 4.124566555023193, -2.247314453125, 0.8435720801353455, 0.13201962411403656, -0.23548534512519836, -46.64872360229492, 0.3318646550178528, -0.5924271941184998, -2.2112081050872803, -0.8257764577865601, -0.9949991703033447, 0.0550791397690773, -1.6401003951177713, -1.6449335299399195, 7.992839566633736, 9362.0, 30146.0, 35388.0, 9362.0, 8.17190170288086, -0.004156135488301516, -0.15896151959896088, 0.15802083909511566, -0.09385664761066437, -0.031915076076984406, 0.9934559464454651, -0.0700177550315857, -0.01271820068359375, 1.494873046875, 1.16015625, 0.6554412841796875, 1.49267578125
44225, 4.124988079071045, -2.247608184814453, 0.842650294303894, 0.1353578418493271, -0.241444393992424, -46.670841217041016, 0.3357785940170288, -0.5993834137916565, -2.212129592895508, -0.825785756111145, -0.9950057864189148, 0.0550505630671978, -1.6466604491198436, -1.6372019383725842, 7.99278457318191, 9362.0, 30146.0, 35388.0, 9362.0, 8.17190170288086, 0.06381834298372269, 0.21675673127174377, 0.06306038051843643, -0.09414096921682358, -0.03394951671361923, 0.9966020584106445, -0.0700177550315857, -0.01271820068359375, 1.494873046875, 1.16015625, 0.6554412841796875, 1.49267578125
44255, 4.126353740692139, -2.247915267944336, 0.843829870223999, 0.14560763537883759, -0.2597392797470093, -46.737239837646484, 0.3475453555583954, -0.6202822923660278, -2.2144908905029297, -0.8256712555885315, -0.9950951337814331, 0.054501768201589584, -1.846537224844667, -1.8244185345892845, 7.888580757143584, 9362.0, 30146.0, 35388.0, 9362.0, 8.17190170288086, -0.08450882881879807, -0.1729118525981903, -0.12392545491456985, -0.09273690730333328, -0.031774744391441345, 0.9958014488220215, -0.10251325368881226, -0.04855918884277344, 1.491943359375, 1.16015625, 0.6554412841796875, 1.49267578125
44265, 4.125385761260986, -2.2485063076019287, 0.843447208404541, 0.14910270273685455, -0.2659769356250763, -46.7593879699707, 0.35146957635879517, -0.627250611782074, -2.2152554988861084, -0.8256806135177612, -0.9950252175331116, 0.054355911910533905, -1.9136246963686148, -1.851705345223337, 7.891059346276058, 9362.0, 30146.0, 35388.0, 9362.0, 8.17190170288086, 0.03569622337818146, -0.0700131207704544, -0.1768261343240738, -0.09383716434240341, -0.03003811649978161, 0.9954782724380493, -0.10251325368881226, -0.04855918884277344, 1.491943359375, 1.16015625, 0.6554412841796875, 1.49267578125
44275, 4.126698017120361, -2.249035358428955, 0.8421679735183716, 0.15263701975345612, -0.27228429913520813, -46.78154373168945, 0.3553943932056427, -0.6342229247093201, -2.2159948348999023, -0.8257744908332825, -0.9949975609779358, 0.05502710118889809, -1.6515641325694264, -1.6403930736815084, 7.993723520982828, 9362.0, 30146.0, 35388.0, 9362.0, 8.17190170288086, 0.05913924425840378, 0.20555341243743896, -0.09373116493225098, -0.09663841128349304, -0.0310574509203434, 0.9968555569648743, -0.10251325368881226, -0.04855918884277344, 1.491943359375, 1.16015625, 0.6554412841796875, 1.4912109375
44295, 4.127148151397705, -2.2514991760253906, 0.8454651832580566, 0.1598234325647354, -0.28510820865631104, -46.82587814331055, 0.363250195980072, -0.6481727361679077, -2.2173850536346436, -0.82578444480896, -0.994993269443512, 0.055039700120687485, -1.6546075221396914, -1.6296067843141202, 7.993281982802732, 9362.0, 30146.0, 35388.0, 9362.0, 8.17190170288086, -0.03135443851351738, -0.18006955087184906, 0.1723342388868332, -0.09441398829221725, -0.02969612181186676, 0.9965481162071228, -0.10251325368881226, -0.04855918884277344, 1.491943359375, 1.16015625, 0.6554412841796875, 1.4912109375
44305, 4.127457618713379, -2.2495529651641846, 0.8467695116996765, 0.16347558796405792, -0.2916248142719269, -46.84805679321289, 0.3671819269657135, -0.6551495790481567, -2.2180824279785156, -0.8256696462631226, -0.9950886368751526, 0.0545106865465641, -1.850030624810631, -1.843435694362256, 7.895105266397758, 9362.0, 30146.0, 35388.0, 9362.0, 8.17190170288086, 0.19871282577514648, -0.06674077361822128, 0.029915418475866318, -0.09394094347953796, -0.030106225982308388, 0.9962517619132996, -0.10251325368881226, -0.04855918884277344, 1.491943359375, 1.16015625, 0.6554412841796875, 1.4912109375
44315, 4.127904891967773, -2.2498836517333984, 0.8460623025894165, 0.167167067527771, -0.2982111871242523, -46.8702392578125, 0.371115505695343, -0.6621267795562744, -2.218766927719116, -0.8257777690887451, -0.9949779510498047, 0.05504462495446205, -1.6632381313488591, -1.6355779049764294, 7.992747969560643, 9362.0, 30146.0, 35388.0, 9362.0, 8.17190170288086, 0.1581757515668869, -0.11161796748638153, 0.080809086561203, -0.09351440519094467, -0.03226413577795029, 0.9975161552429199, -0.10251325368881226, -0.04855918884277344, 1.491943359375, 1.16015625, 0.6554412841796875, 1.4912109375
44325, 4.128053188323975, -2.2510037422180176, 0.8483684659004211, 0.17089787125587463, -0.30486735701560974, -46.89242935180664, 0.3750455677509308, -0.6691045165061951, -2.219453811645508, -0.8257733583450317, -0.9949722290039062, 0.05504125356674194, -1.6598982787572905, -1.6411683488546203, 7.991584946474535, 9362.0, 30146.0, 35388.0, 9362.0, 8.17190170288086, 0.08002325147390366, 0.39012235403060913, 0.09697721898555756, -0.09574940800666809, -0.030226852744817734, 0.994849443435669, -0.10251325368881226, -0.04855918884277344, 1.491943359375, 1.16015625, 0.6554412841796875, 1.4912109375
44335, 4.127946853637695, -2.251588821411133, 0.8492690324783325, 0.17466799914836884, -0.31159332394599915, -46.91462707519531, 0.3789803981781006, -0.6760898232460022, -2.2200441360473633, -0.8257538080215454, -0.9949658513069153, 0.05506518483161926, -1.66175324709294, -1.6584588386144503, 7.996297094850562, 9362.0, 30146.0, 35388.0, 9362.0, 8.17190170288086, -0.23321090638637543, 0.2535845935344696, 0.5098448395729065, -0.09574940800666809, -0.030226852744817734, 0.994849443435669, -0.10251325368881226, -0.04855918884277344, 1.491943359375, 1.16015625, 0.6554412841796875, 1.487548828125
44365, 4.120131015777588, -2.2536051273345947, 0.8554420471191406, 0.1862141489982605, -0.33218953013420105, -46.981266021728516, 0.3907696008682251, -0.6969966292381287, -2.2224326133728027, -0.8257542848587036, -0.9949694871902466, 0.05505393072962761, -1.6661372962702856, -1.6643431777912099, 7.993120733946853, 9362.0, 30146.0, 35388.0, 9362.0, 8.17190170288086, 0.016343317925930023, -0.15474122762680054, 0.02976142428815365, -0.09653948992490768, -0.030140461400151253, 0.9955282211303711, -0.10251325368881226, -0.04855918884277344, 1.491943359375, 1.16015625, 0.6554412841796875, 1.48828125
44375, 4.11855936050415, -2.2526068687438965, 0.8536803126335144, 0.190141499042511, -0.33919432759284973, -47.00349426269531, 0.3947013318538666, -0.7039597630500793, -2.223201274871826, -0.8256402015686035, -0.9950916171073914, 0.054558515548706055, -1.844011811708581, -1.850121790535212, 7.8953551477134924, 9362.0, 30146.0, 35388.0, 9362.0, 8.17190170288086, -0.20552724599838257, 0.08448612689971924, 0.5085824131965637, -0.09712029993534088, -0.03200110048055649, 0.9937440752983093, -0.10251325368881226, -0.04855918884277344, 1.491943359375, 1.16015625, 0.6554412841796875, 1.48828125
44385, 4.115566253662109, -2.2513411045074463, 0.8555299043655396, 0.19410817325115204, -0.3462687134742737, -47.02573013305664, 0.39863407611846924, -0.7109155654907227, -2.2240116596221924, -0.8257629871368408, -0.9949607253074646, 0.05504222586750984, -1.6796777663977482, -1.6468152670753113, 7.990586616988132, 9362.0, 30146.0, 35388.0, 9362.0, 8.17190170288086, -0.45434972643852234, 0.17362281680107117, 0.3453473746776581, -0.09759772568941116, -0.034423720091581345, 0.9953072667121887, -0.10251325368881226, -0.04855918884277344, 1.491943359375, 1.16015625, 0.6554412841796875, 1.48828125
44395, 4.111785888671875, -2.2517030239105225, 0.8564242720603943, 0.19410817325115204, -0.3462687134742737, -47.02573013305664, 0.39863407611846924, -0.7109155654907227, -2.2240116596221924, -0.8257567882537842, -0.9949710369110107, 0.0550602450966835, -1.6735495728881766, -1.6604913330644138, 7.995425537038495, 9362.0, 30146.0, 35388.0, 9362.0, 8.17190170288086, -0.490663081407547, 0.28888458013534546, 1.0483412742614746, -0.09552022814750671, -0.03274739533662796, 0.9968375563621521, -0.10251325368881226, -0.04855918884277344, 1.491943359375, 1.16015625, 0.6554412841796875, 1.4912109375
