timeTick, roll, pitch, yaw, stateX, stateY, stateZ, stateVX, stateVY, stateVZ, otX0, otY0, otZ0, otRoll0, otPitch0, otYaw0, left wing, pitch motor, yaw motor, right wing, voltage, roll rate, pitch rate, yaw rate, A_x, A_y, A_z, current, i_raw, v_raw, airflow_voltage, airflow_speed, pot_Pitch, voltage_nKF, kFFx, state, State, volt_KF
20262, -1.5363352298736572, 3.087538003921509, 79.46891784667969, 0, 0, 0, 0, 0, 0, 0, 0, 0, 0, 0, 0, 0, 0, 0, 0, 0, 0, 0, 0, 0, 0, 0, 0, 0, 0, 0, 0, 0, 0, 0, 0, 0, 0
20272, -1.5213350057601929, 3.0393245220184326, 79.5677490234375, 0.0, 0.0, 1.5910656452178955, 0.0, 0.0, -0.2505183219909668, 0, 0, 0, 0, 0, 0, 9362.0, 30146.0, 35388.0, 9362.0, 0, 1.5005457401275635, 5.669112205505371, 12.447755813598633, 0.049291424453258514, 0.01492003258317709, 0.9748460650444031, 0, 0, 0, 0, 0, 0, 0, 0, 0, 0, 0
20282, -1.5022088289260864, 2.9693973064422607, 79.73786926269531, 0.0, 0.0, 1.5937334299087524, 0.0, 0.0, 0.26677846908569336, 0, 0, 0, 0, 0, 0, 9362.0, 30146.0, 35388.0, 9362.0, 0, 1.4944654703140259, 5.3576483726501465, 14.413778305053711, 0.03798423707485199, 0.018453022465109825, 0.9823219776153564, 0, 0, 0, 1.6376953125, 0.5082244873046875, 0, 1.60107421875, 10.0, 1.0, 10.0, 1.5009403228759766
20292, -1.4946792125701904, 2.925835609436035, 79.86457061767578, 0.0, 0.0, 1.5961352586746216, 0.0, 0.0, 0.24018287658691406, 0, 0, 0, 0, 0, 0, 9362.0, 30146.0, 35388.0, 9362.0, 0, 0.6581391096115112, 4.630237579345703, 15.940340995788574, 0.035200584679841995, 0.01833799108862877, 0.9883344173431396, 0, 0, 0, 1.55712890625, 0.31793212890625, 1.497802734375, 1.6494140625, 10.0, 1.0, 10.0, 1.501291275024414
20302, -1.4894001483917236, 2.86419415473938, 80.07059478759766, 0.0, 0.0, 1.5961108207702637, 0.0, 0.0, -0.0024437904357910156, 0, 0, 0, 0, 0, 0, 9362.0, 30146.0, 35388.0, 9362.0, 0, 0.16469323635101318, 4.554084777832031, 17.436811447143555, 0.042088259011507034, 0.01685904897749424, 0.9874568581581116, 0, 0, 0, 1.646484375, 0.5300445556640625, 1.497802734375, 1.52490234375, 10.0, 1.0, 10.0, 1.5017290115356445
20312, -1.483699083328247, 2.828791379928589, 80.19844818115234, 0.0, 0.0, 1.5960896015167236, 0.0, 0.0, -0.0021219253540039062, 0, 0, 0, 0, 0, 0, 9362.0, 30146.0, 35388.0, 9362.0, 0, 0.2926439642906189, 3.95759916305542, 15.787602424621582, 0.04751427844166756, 0.024966424331068993, 0.9723311066627502, 0, 0, 0, 1.469970703125, 0.1386566162109375, 1.4970703125, 1.64501953125, 10.0, 1.0, 10.0, 1.5018137693405151
20322, -1.4772448539733887, 2.784442901611328, 80.39773559570312, 0.0, 0.0, 1.600446105003357, 0.0, 0.0, 0.4356503486633301, 0, 0, 0, 0, 0, 0, 9362.0, 30146.0, 35388.0, 9362.0, 0, 0.35133451223373413, 3.5581986904144287, 17.241994857788086, 0.05212904512882233, 0.028874006122350693, 0.9522040486335754, 0, 0, 0, 1.6435546875, 0.5228118896484375, 1.4970703125, 1.440673828125, 10.0, 1.0, 10.0, 1.5018033981323242
20332, -1.4791414737701416, 2.7638158798217773, 80.52494812011719, 0.0, 0.0, 1.6043657064437866, 0.0, 0.0, 0.39196014404296875, 0, 0, 0, 0, 0, 0, 9362.0, 30146.0, 35388.0, 9362.0, 0, -0.9643620848655701, 2.546143054962158, 15.943629264831543, 0.062305476516485214, 0.034688059240579605, 0.9327075481414795, 0, 0, 0, 1.60400390625, 0.4266204833984375, 1.496337890625, 1.6201171875, 10.0, 1.0, 10.0, 1.5022741556167603
20342, -1.4910951852798462, 2.751974105834961, 80.74226379394531, 0.0, 0.0, 1.604588270187378, 0.0, 0.0, 0.02225637435913086, 0, 0, 0, 0, 0, 0, 9362.0, 30146.0, 35388.0, 9362.0, 0, -1.4341949224472046, 1.1823171377182007, 18.338123321533203, 0.07192426174879074, 0.01872771978378296, 0.9075605273246765, 0, 0, 0, 1.587890625, 0.38861083984375, 1.496337890625, 1.64794921875, 10.0, 1.0, 10.0, 1.50252366065979
20352, -1.5027376413345337, 2.757963180541992, 80.8833236694336, 0.0, 0.0, 1.6047548055648804, 0.0, 0.0, 0.01665353775024414, 0, 0, 0, 0, 0, 0, 9362.0, 30146.0, 35388.0, 9362.0, 0, -1.2640879154205322, -0.3794509470462799, 17.47771644592285, 0.07955358177423477, 0.007615259382873774, 0.8998755216598511, 0, 0, 0, 1.611328125, 0.44427490234375, 1.493408203125, 1.63037109375, 10.0, 1.0, 10.0, 1.5030221939086914
20362, -1.5351836681365967, 2.774761438369751, 81.1100082397461, 0.0, 0.0, 1.6053884029388428, 0.0, 0.0, 0.06335973739624023, 0, 0, 0, 0, 0, 0, 9362.0, 30146.0, 35388.0, 9362.0, 8.310744285583496, -2.2147789001464844, -0.7846788167953491, 18.822559356689453, 0.08570801466703415, -0.0143448356539011, 0.8975754976272583, -0.032231513410806656, -0.09335899353027344, 1.48828125, 1.669921875, 0.589080810546875, 1.493408203125, 1.435546875, 10.0, 1.0, 10.0, 1.503230094909668
20372, -1.5608758926391602, 2.7836625576019287, 81.27674102783203, 0.0, 0.0, 1.6059153079986572, 0.0, 0.0, 0.05269050598144531, 0, 0, 0, 0, 0, 0, 9362.0, 30146.0, 35388.0, 9362.0, 8.310744285583496, -2.0624289512634277, -0.7725329995155334, 20.80291748046875, 0.08242355287075043, -0.028828106820583344, 0.9041173458099365, -0.032231513410806656, -0.09335899353027344, 1.48828125, 1.588623046875, 0.390350341796875, 1.49267578125, 1.6728515625, 10.0, 1.0, 10.0, 1.5037726163864136
20382, -1.595801591873169, 2.7752342224121094, 81.55804443359375, 0.0, 0.0, 1.602502703666687, 0.0, 0.0, -0.3412604331970215, 0, 0, 0, 0, 0, 0, 9362.0, 30146.0, 35388.0, 9362.0, 8.310744285583496, -1.6574205160140991, 0.9700806736946106, 23.677719116210938, 0.0740799754858017, -0.0259022805839777, 0.9178131818771362, -0.032231513410806656, -0.09335899353027344, 1.48828125, 1.67431640625, 0.6003570556640625, 1.49267578125, 1.62158203125, 10.0, 1.0, 10.0, 1.5041840076446533
20392, -1.6126059293746948, 2.7521114349365234, 81.75135040283203, 0.0, 0.0, 1.5994020700454712, 0.0, 0.0, -0.31006336212158203, 0, 0, 0, 0, 0, 0, 9362.0, 30146.0, 35388.0, 9362.0, 8.310744285583496, -0.9985412955284119, 2.6269915103912354, 24.333829879760742, 0.06667044013738632, -0.020839625969529152, 0.934037446975708, -0.032231513410806656, -0.09335899353027344, 1.48828125, 1.549072265625, 0.2998809814453125, 1.494873046875, 1.53955078125, 10.0, 1.0, 10.0, 1.5040805339813232
20402, -1.6217268705368042, 2.6802635192871094, 82.03268432617188, 0.0, 0.0, 1.5949448347091675, 0.0, 0.0, -0.4457235336303711, 0, 0, 0, 0, 0, 0, 9362.0, 30146.0, 35388.0, 9362.0, 8.310744285583496, 0.18642295897006989, 5.66690731048584, 23.959362030029297, 0.059096381068229675, -0.016002358868718147, 0.9693318009376526, -0.032231513410806656, -0.09335899353027344, 1.48828125, 1.51611328125, 0.2286224365234375, 1.494873046875, 1.6669921875, 10.0, 1.0, 10.0, 1.5039011240005493
20412, -1.61781907081604, 2.605236530303955, 82.20958709716797, 0.0, 0.0, 1.5909349918365479, 0.0, 0.0, -0.4009842872619629, 0, 0, 0, 0, 0, 0, 9362.0, 30146.0, 35388.0, 9362.0, 8.310744285583496, 1.0066721439361572, 8.815704345703125, 22.498594284057617, 0.04598689079284668, -0.008732273243367672, 0.9898581504821777, -0.032231513410806656, -0.09335899353027344, 1.48828125, 1.650146484375, 0.539215087890625, 1.49267578125, 1.5087890625, 10.0, 1.0, 10.0, 1.5037661790847778
20422, -1.5978487730026245, 2.461655855178833, 82.43508911132812, 0.0, 0.0, 1.585690975189209, 0.0, 0.0, -0.5244016647338867, 0, 0, 0, 0, 0, 0, 9362.0, 30146.0, 35388.0, 9362.0, 8.310744285583496, 1.6935631036758423, 11.138444900512695, 19.134889602661133, 0.03881996497511864, 0.008208810351788998, 1.0042990446090698, -0.032231513410806656, -0.09335899353027344, 1.48828125, 1.59521484375, 0.4058380126953125, 1.49267578125, 1.47509765625, 10.0, 1.0, 10.0, 1.5036594867706299
20432, -1.580664038658142, 2.3488504886627197, 82.5747299194336, 0.0, 0.0, 1.580974817276001, 0.0, 0.0, -0.4716157913208008, 0, 0, 0, 0, 0, 0, 9362.0, 30146.0, 35388.0, 9362.0, 8.310744285583496, 1.7824281454086304, 13.250591278076172, 18.07046127319336, 0.02656564489006996, 0.020779883489012718, 0.9975694417953491, -0.032231513410806656, -0.09335899353027344, 1.48828125, 1.3916015625, 0.0325927734375, 1.48974609375, 1.705078125, 10.0, 1.0, 10.0, 1.5033680200576782
20442, -1.5573712587356567, 2.15914249420166, 82.7803955078125, 0.0, 0.0, 1.5800163745880127, 0.0, 0.0, -0.09584426879882812, 0, 0, 0, 0, 0, 0, 9362.0, 30146.0, 35388.0, 9362.0, 8.310744285583496, 1.0453623533248901, 15.104469299316406, 17.1069278717041, 0.015727205201983452, 0.03720783069729805, 0.9804791808128357, -0.032231513410806656, -0.09335899353027344, 1.48828125, 1.447265625, 0.1004791259765625, 1.48974609375, 1.44287109375, 10.0, 1.0, 10.0, 1.5032718181610107
20452, -1.5460829734802246, 2.029390573501587, 82.93092346191406, 0.0, 0.0, 1.5791571140289307, 0.0, 0.0, -0.08592605590820312, 0, 0, 0, 0, 0, 0, 9362.0, 30146.0, 35388.0, 9362.0, 8.310744285583496, 0.2759372591972351, 15.180761337280273, 19.45400619506836, 0.013333595357835293, 0.04784293472766876, 0.9696595668792725, -0.032231513410806656, -0.09335899353027344, 1.48828125, 1.69189453125, 0.6463165283203125, 1.48974609375, 1.686767578125, 10.0, 1.0, 10.0, 1.5037981271743774
20462, -1.5387405157089233, 1.8220523595809937, 83.14852142333984, 0.0, 0.0, 1.5822163820266724, 0.0, 0.0, 0.3059267997741699, 0, 0, 0, 0, 0, 0, 9362.0, 30146.0, 35388.0, 9362.0, 8.310744285583496, -0.7388485074043274, 16.41448974609375, 18.50739288330078, 0.014672696590423584, 0.059041570872068405, 0.9587737321853638, -0.04157506674528122, -0.20087814331054688, 1.4794921875, 1.66845703125, 0.5852813720703125, 1.48974609375, 1.658203125, 10.0, 1.0, 10.0, 1.504237174987793
20472, -1.5441534519195557, 1.6808768510818481, 83.30280303955078, 0.0, 0.0, 1.5849725008010864, 0.0, 0.0, 0.27561187744140625, 0, 0, 0, 0, 0, 0, 9362.0, 30146.0, 35388.0, 9362.0, 8.310744285583496, -1.669364094734192, 16.957416534423828, 19.770769119262695, 0.02179078571498394, 0.040770336985588074, 0.9484683871269226, -0.04157506674528122, -0.20087814331054688, 1.4794921875, 1.5615234375, 0.3278350830078125, 1.4970703125, 1.549072265625, 10.0, 1.0, 10.0, 1.5047210454940796
20482, -1.5665439367294312, 1.4666601419448853, 83.55204772949219, 0.0, 0.0, 1.59236741065979, 0.0, 0.0, 0.7394909858703613, 0, 0, 0, 0, 0, 0, 9362.0, 30146.0, 35388.0, 9362.0, 8.310744285583496, -2.086143970489502, 17.57390785217285, 21.64785385131836, 0.031991101801395416, 0.007344028912484646, 0.9477090239524841, -0.04157506674528122, -0.20087814331054688, 1.4794921875, 1.663330078125, 0.5723114013671875, 1.4970703125, 1.499267578125, 10.0, 1.0, 10.0, 1.504754662513733
20492, -1.5899707078933716, 1.3228470087051392, 83.68232727050781, 0.0, 0.0, 1.5990158319473267, 0.0, 0.0, 0.6648421287536621, 0, 0, 0, 0, 0, 0, 9362.0, 30146.0, 35388.0, 9362.0, 8.310744285583496, -2.705979347229004, 17.85308265686035, 16.056255340576172, 0.03233185037970543, -0.021404003724455833, 0.959040105342865, -0.04157506674528122, -0.20087814331054688, 1.4794921875, 1.645751953125, 0.5281219482421875, 1.49853515625, 1.493408203125, 10.0, 1.0, 10.0, 1.5044158697128296
20502, -1.6307400465011597, 1.1063162088394165, 83.87220764160156, 0.0, 0.0, 1.601719856262207, 0.0, 0.0, 0.2704024314880371, 0, 0, 0, 0, 0, 0, 9362.0, 30146.0, 35388.0, 9362.0, 8.310744285583496, -2.700596809387207, 17.831417083740234, 15.97348403930664, 0.029032809659838676, -0.048171039670705795, 0.9715903401374817, -0.04157506674528122, -0.20087814331054688, 1.4794921875, 1.44873046875, 0.102813720703125, 1.49853515625, 1.44287109375, 10.0, 1.0, 10.0, 1.5045684576034546
20512, -1.6589022874832153, 0.9606973528862, 84.00749206542969, 0.0, 0.0, 1.6041569709777832, 0.0, 0.0, 0.2437114715576172, 0, 0, 0, 0, 0, 0, 9362.0, 30146.0, 35388.0, 9362.0, 8.310744285583496, -2.478181838989258, 17.629480361938477, 17.442903518676758, 0.019048666581511497, -0.0602211132645607, 0.9869807362556458, -0.04157506674528122, -0.20087814331054688, 1.4794921875, 1.47216796875, 0.142547607421875, 1.49560546875, 1.4619140625, 10.0, 1.0, 10.0, 1.5050143003463745
20522, -1.7023658752441406, 0.7384164929389954, 84.2152099609375, 0.0, 0.0, 1.608542561531067, 0.0, 0.0, 0.43855905532836914, 0, 0, 0, 0, 0, 0, 9362.0, 30146.0, 35388.0, 9362.0, 8.310744285583496, -3.0353851318359375, 17.83525276184082, 17.76766014099121, 0.006347182206809521, -0.044759105890989304, 1.006026029586792, -0.04157506674528122, -0.20087814331054688, 1.4794921875, 1.449462890625, 0.103973388671875, 1.49560546875, 1.58203125, 10.0, 1.0, 10.0, 1.5056737661361694
20532, -1.7225525379180908, 0.5875058174133301, 84.35025024414062, 0.0, 0.0, 1.6124929189682007, 0.0, 0.0, 0.3950357437133789, 0, 0, 0, 0, 0, 0, 9362.0, 30146.0, 35388.0, 9362.0, 8.310744285583496, -2.6573474407196045, 18.21636390686035, 17.49307632446289, 0.00014268330414779484, -0.01409647986292839, 1.0133342742919922, -0.04157506674528122, -0.20087814331054688, 1.4794921875, 1.65966796875, 0.5630340576171875, 1.5, 1.64794921875, 10.0, 1.0, 10.0, 1.5061068534851074
20542, -1.7402000427246094, 0.3707192838191986, 84.56209564208984, 0.0, 0.0, 1.614412784576416, 0.0, 0.0, 0.1919865608215332, 0, 0, 0, 0, 0, 0, 9362.0, 30146.0, 35388.0, 9362.0, 8.310744285583496, -2.2824771404266357, 17.106327056884766, 18.122285842895508, -0.013729074969887733, 0.02029719389975071, 1.00844407081604, -0.04157506674528122, -0.20087814331054688, 1.4794921875, 1.67724609375, 0.6079559326171875, 1.5, 1.57177734375, 10.0, 1.0, 10.0, 1.506656527519226
20552, -1.7477048635482788, 0.23068751394748688, 84.72126770019531, 0.0, 0.0, 1.616143822669983, 0.0, 0.0, 0.17310380935668945, 0, 0, 0, 0, 0, 0, 9362.0, 30146.0, 35388.0, 9362.0, 8.310744285583496, -2.264528274536133, 16.488540649414062, 20.276615142822266, -0.015269932337105274, 0.0327412374317646, 1.0099165439605713, -0.04157506674528122, -0.20087814331054688, 1.4794921875, 1.584228515625, 0.3801727294921875, 1.496337890625, 1.573974609375, 10.0, 1.0, 10.0, 1.5065962076187134
20562, -1.761048674583435, 0.04306210204958916, 85.0077896118164, 0.0, 0.0, 1.6095045804977417, 0.0, 0.0, -0.6639242172241211, 0, 0, 0, 0, 0, 0, 9362.0, 30146.0, 35388.0, 9362.0, 8.310744285583496, -2.487061023712158, 14.727319717407227, 23.492008209228516, -0.00542042450979352, 0.026429662480950356, 1.010873794555664, -0.04089749604463577, -0.05751800537109375, 1.4912109375, 1.64794921875, 0.533660888671875, 1.496337890625, 1.59814453125, 10.0, 1.0, 10.0, 1.5070078372955322
20572, -1.7666049003601074, -0.06082312762737274, 85.26778411865234, 0.0, 0.0, 1.6035324335098267, 0.0, 0.0, -0.5972146987915039, 0, 0, 0, 0, 0, 0, 9362.0, 30146.0, 35388.0, 9362.0, 8.310744285583496, -1.871925711631775, 11.637896537780762, 33.442169189453125, -0.009690734557807446, 0.02650308795273304, 1.0158040523529053, -0.04089749604463577, -0.05751800537109375, 1.4912109375, 1.63623046875, 0.504730224609375, 1.494140625, 1.694091796875, 10.0, 1.0, 10.0, 1.5072262287139893
20582, -1.7811329364776611, -0.17443689703941345, 85.66693115234375, 0.0, 0.0, 1.598708987236023, 0.0, 0.0, -0.4823446273803711, 0, 0, 0, 0, 0, 0, 9362.0, 30146.0, 35388.0, 9362.0, 8.310744285583496, -2.1248111724853516, 8.485017776489258, 33.33173751831055, 0.014778636395931244, 0.0021087678615003824, 1.013400673866272, -0.04089749604463577, -0.05751800537109375, 1.4912109375, 1.69775390625, 0.6619415283203125, 1.494140625, 1.661865234375, 10.0, 1.0, 10.0, 1.5076475143432617
20592, -1.7951223850250244, -0.22602449357509613, 85.9515151977539, 0.0, 0.0, 1.59437096118927, 0.0, 0.0, -0.43380260467529297, 0, 0, 0, 0, 0, 0, 9362.0, 30146.0, 35388.0, 9362.0, 8.310744285583496, -1.9529489278793335, 6.214785575866699, 35.71949768066406, 0.03497589752078056, -0.023467933759093285, 0.9944433569908142, -0.04089749604463577, -0.05751800537109375, 1.4912109375, 1.423828125, 0.066802978515625, 1.494140625, 1.40478515625, 10.0, 1.0, 10.0, 1.5082107782363892
20602, -1.8267651796340942, -0.2589367926120758, 86.39452362060547, 0.0, 0.0, 1.59437096118927, 0.0, 0.0, -0.43380260467529297, 0, 0, 0, 0, 0, 0, 9362.0, 30146.0, 35388.0, 9362.0, 8.310744285583496, -2.505932569503784, 2.49981951713562, 37.04331588745117, 0.03574290871620178, -0.043690890073776245, 0.9678483009338379, -0.04089749604463577, -0.05751800537109375, 1.4912109375, 1.5673828125, 0.3411102294921875, 1.494140625, 1.62744140625, 10.0, 1.0, 10.0, 1.508032202720642
20612, -1.849491000175476, -0.2516210079193115, 86.66136169433594, 0.0, 0.0, 1.5963150262832642, 0.0, 0.0, 0.09224414825439453, 0, 0, 0, 0, 0, 0, 9362.0, 30146.0, 35388.0, 9362.0, 8.310744285583496, -2.771456003189087, -1.1775093078613281, 33.334197998046875, 0.02865392528474331, -0.03589770570397377, 0.9493793249130249, -0.04089749604463577, -0.05751800537109375, 1.4912109375, 1.46044921875, 0.12200927734375, 1.494140625, 1.5029296875, 10.0, 1.0, 10.0, 1.5086058378219604
20622, -1.8834446668624878, -0.20442378520965576, 86.9473648071289, 0.0, 0.0, 1.596049189567566, 0.0, 0.0, -0.02658367156982422, 0, 0, 0, 0, 0, 0, 9362.0, 30146.0, 35388.0, 9362.0, 8.310744285583496, -2.542815685272217, -3.759411096572876, 23.094982147216797, 0.034178994596004486, -0.04553495720028877, 0.9441489577293396, -0.04089749604463577, -0.05751800537109375, 1.4912109375, 1.66845703125, 0.5852813720703125, 1.494140625, 1.71240234375, 10.0, 1.0, 10.0, 1.5088701248168945
20632, -1.9006251096725464, -0.16459403932094574, 87.09223937988281, 0.0, 0.0, 1.5958027839660645, 0.0, 0.0, -0.024640560150146484, 0, 0, 0, 0, 0, 0, 9362.0, 30146.0, 35388.0, 9362.0, 8.310744285583496, -1.6786246299743652, -4.863692760467529, 17.82377052307129, 0.023411285132169724, -0.04747005179524422, 0.9425148367881775, -0.04089749604463577, -0.05751800537109375, 1.4912109375, 1.48095703125, 0.1587677001953125, 1.497802734375, 1.531494140625, 10.0, 1.0, 10.0, 1.5094573497772217
20642, -1.9272005558013916, -0.09183348715305328, 87.26004028320312, 0.0, 0.0, 1.5958027839660645, 0.0, 0.0, -0.024640560150146484, 0, 0, 0, 0, 0, 0, 9362.0, 30146.0, 35388.0, 9362.0, 8.310744285583496, -1.8539071083068848, -6.257249355316162, 13.624448776245117, 0.022328143939375877, -0.05646893382072449, 0.97837233543396, -0.04089749604463577, -0.05751800537109375, 1.4912109375, 1.557861328125, 0.3195037841796875, 1.497802734375, 1.576904296875, 10.0, 1.0, 10.0, 1.5089811086654663
20652, -1.935589075088501, -0.042162396013736725, 87.36920928955078, 0.0, 0.0, 1.5870475769042969, 0.0, 0.0, -0.41457414627075195, 0, 0, 0, 0, 0, 0, 9362.0, 30146.0, 35388.0, 9362.0, 8.310744285583496, -0.8740754723548889, -5.921336650848389, 13.421714782714844, 0.03219112008810043, -0.04334724694490433, 1.020843267440796, -0.04089749604463577, -0.05751800537109375, 1.4912109375, 1.686767578125, 0.6328125, 1.49853515625, 1.47802734375, 10.0, 1.0, 10.0, 1.5094014406204224
20662, -1.9335319995880127, 0.03509966656565666, 87.55097961425781, 0.0, 0.0, 1.5838680267333984, 0.0, 0.0, -0.31795501708984375, 0, 0, 0, 0, 0, 0, 9362.0, 30146.0, 35388.0, 9362.0, 8.310744285583496, -0.3324386477470398, -5.964496612548828, 14.865527153015137, 0.03219112008810043, -0.04334724694490433, 1.020843267440796, -0.05349867790937424, 0.04104042053222656, 1.499267578125, 1.636962890625, 0.5064239501953125, 1.49853515625, 1.66845703125, 10.0, 1.0, 10.0, 1.5094014406204224
20672, -1.9223445653915405, 0.0826195776462555, 87.68093872070312, 0.0, 0.0, 1.5838680267333984, 0.0, 0.0, -0.31795501708984375, 0, 0, 0, 0, 0, 0, 9362.0, 30146.0, 35388.0, 9362.0, 8.310744285583496, -0.3324386477470398, -5.964496612548828, 14.865527153015137, 0.05823233723640442, 0.003194812685251236, 1.052564263343811, -0.05349867790937424, 0.04104042053222656, 1.499267578125, 1.636962890625, 0.5064239501953125, 1.49560546875, 1.66845703125, 10.0, 1.0, 10.0, 1.51022207736969
20682, -1.8911415338516235, 0.1537877917289734, 87.8858871459961, 0.0, 0.0, 1.5806540250778198, 0.0, 0.0, -0.03610849380493164, 0, 0, 0, 0, 0, 0, 9362.0, 30146.0, 35388.0, 9362.0, 8.310744285583496, 1.9043272733688354, -5.072132587432861, 16.706525802612305, 0.05823233723640442, 0.003194812685251236, 1.052564263343811, -0.05349867790937424, 0.04104042053222656, 1.499267578125, 1.636962890625, 0.5064239501953125, 1.49560546875, 1.66845703125, 10.0, 1.0, 10.0, 1.5100094079971313
20692, -1.8594999313354492, 0.19731351733207703, 88.04621124267578, 0.0, 0.0, 1.5803320407867432, 0.0, 0.0, -0.032198429107666016, 0, 0, 0, 0, 0, 0, 9362.0, 30146.0, 35388.0, 9362.0, 8.310744285583496, 1.9043272733688354, -5.072132587432861, 16.706525802612305, 0.07086975127458572, -0.006226738914847374, 1.0213440656661987, -0.05349867790937424, 0.04104042053222656, 1.499267578125, 1.54541015625, 0.291656494140625, 1.49560546875, 1.66845703125, 10.0, 1.0, 10.0, 1.5103709697723389
20702, -1.7986844778060913, 0.2576916515827179, 88.26220703125, 0.0, 0.0, 1.5803320407867432, 0.0, 0.0, -0.032198429107666016, 0, 0, 0, 0, 0, 0, 9362.0, 30146.0, 35388.0, 9362.0, 8.310744285583496, 4.700916290283203, -4.064598560333252, 18.00802993774414, 0.07086975127458572, -0.006226738914847374, 1.0213440656661987, -0.05349867790937424, 0.04104042053222656, 1.499267578125, 1.676513671875, 0.606201171875, 1.49560546875, 1.66845703125, 10.0, 1.0, 10.0, 1.5103709697723389
20712, -1.7444871664047241, 0.2904352843761444, 88.39396667480469, 0.0, 0.0, 1.5803320407867432, 0.0, 0.0, -0.032198429107666016, 0, 0, 0, 0, 0, 0, 9362.0, 30146.0, 35388.0, 9362.0, 8.310744285583496, 4.700916290283203, -4.064598560333252, 18.00802993774414, 0.07572218775749207, -0.025242852047085762, 1.0026798248291016, -0.05349867790937424, 0.04104042053222656, 1.499267578125, 1.435546875, 0.0829315185546875, 1.494873046875, 1.66845703125, 10.0, 1.0, 10.0, 1.5106782913208008
20722, -1.645796775817871, 0.32382187247276306, 88.56344604492188, 0.0, 0.0, 1.5727763175964355, 0.0, 0.0, -0.49381256103515625, 0, 0, 0, 0, 0, 0, 9362.0, 30146.0, 35388.0, 9362.0, 8.310744285583496, 8.19360637664795, -2.0239975452423096, 13.859220504760742, 0.06625349074602127, -0.017041314393281937, 1.0036118030548096, -0.05349867790937424, 0.04104042053222656, 1.499267578125, 1.564453125, 0.3344879150390625, 1.494873046875, 1.66845703125, 10.0, 1.0, 10.0, 1.5106782913208008
20732, -1.573314905166626, 0.32440292835235596, 88.66835021972656, 0.0, 0.0, 1.5727763175964355, 0.0, 0.0, -0.49381256103515625, 0, 0, 0, 0, 0, 0, 9362.0, 30146.0, 35388.0, 9362.0, 8.310744285583496, 8.553641319274902, 0.8148003816604614, 13.0802640914917, 0.06625349074602127, -0.017041314393281937, 1.0036118030548096, -0.05349867790937424, 0.04104042053222656, 1.499267578125, 1.625244140625, 0.477783203125, 1.494140625, 1.66845703125, 10.0, 1.0, 10.0, 1.5106782913208008
20742, -1.4610240459442139, 0.2888863980770111, 88.80956268310547, 0.0, 0.0, 1.559420108795166, 0.0, 0.0, -0.8914589881896973, 0, 0, 0, 0, 0, 0, 9362.0, 30146.0, 35388.0, 9362.0, 8.310744285583496, 8.63857364654541, 3.5236470699310303, 11.38754940032959, 0.06625349074602127, -0.017041314393281937, 1.0036118030548096, -0.05349867790937424, 0.04104042053222656, 1.499267578125, 1.669189453125, 0.5873260498046875, 1.494140625, 1.66845703125, 10.0, 1.0, 10.0, 1.5106782913208008
20752, -1.3978486061096191, 0.24001111090183258, 88.90200805664062, 0.0, 0.0, 1.5513995885849, 0.0, 0.0, -0.8020520210266113, 0, 0, 0, 0, 0, 0, 9362.0, 30146.0, 35388.0, 9362.0, 8.310744285583496, 7.237036228179932, 6.898782730102539, 11.606712341308594, 0.05513656511902809, 0.012781581841409206, 1.0483860969543457, -0.05349867790937424, 0.04104042053222656, 1.499267578125, 1.48095703125, 0.1587677001953125, 1.4912109375, 1.66845703125, 10.0, 1.0, 10.0, 1.5106782913208008
20762, -1.3628151416778564, 0.11289333552122116, 89.05809783935547, 0.0, 0.0, 1.5567677021026611, 0.0, 0.0, 0.536811351776123, 0, 0, 0, 0, 0, 0, 9362.0, 30146.0, 35388.0, 9362.0, 8.310744285583496, 2.561737537384033, 11.922282218933105, 13.277228355407715, 0.05513656511902809, 0.012781581841409206, 1.0483860969543457, -0.04031386598944664, -0.0037593841552734375, 1.49560546875, 1.57763671875, 0.3647918701171875, 1.4912109375, 1.66845703125, 10.0, 1.0, 10.0, 1.5106782913208008
20772, -1.3782638311386108, -0.007760816253721714, 89.1719970703125, 0.0, 0.0, 1.5567677021026611, 0.0, 0.0, 0.536811351776123, 0, 0, 0, 0, 0, 0, 9362.0, 30146.0, 35388.0, 9362.0, 8.310744285583496, -1.981348991394043, 16.15180206298828, 14.548439979553223, 0.05513656511902809, 0.012781581841409206, 1.0483860969543457, -0.04031386598944664, -0.0037593841552734375, 1.49560546875, 1.57763671875, 0.3647918701171875, 1.4912109375, 1.66845703125, 10.0, 1.0, 10.0, 1.5106782913208008
20782, -1.4478610754013062, -0.20738764107227325, 89.33000183105469, 0.0, 0.0, 1.5714620351791382, 0.0, 0.0, 0.9849071502685547, 0, 0, 0, 0, 0, 0, 9362.0, 30146.0, 35388.0, 9362.0, 8.310744285583496, -1.981348991394043, 16.15180206298828, 14.548439979553223, 0.07619312405586243, -0.026921071112155914, 1.0441194772720337, -0.04031386598944664, -0.0037593841552734375, 1.49560546875, 1.656005859375, 0.553802490234375, 1.4912109375, 1.66845703125, 10.0, 1.0, 10.0, 1.5106782913208008
20792, -1.5199570655822754, -0.31788572669029236, 89.41513061523438, 0.0, 0.0, 1.5803333520889282, 0.0, 0.0, 0.8871316909790039, 0, 0, 0, 0, 0, 0, 9362.0, 30146.0, 35388.0, 9362.0, 8.310744285583496, -1.981348991394043, 16.15180206298828, 14.548439979553223, 0.09030989557504654, -0.038468342274427414, 1.0423113107681274, -0.04031386598944664, -0.0037593841552734375, 1.49560546875, 1.590087890625, 0.3937835693359375, 1.4912109375, 1.66845703125, 10.0, 1.0, 10.0, 1.5128092765808105
20802, -1.6485216617584229, -0.4409523606300354, 89.5411148071289, 0.0, 0.0, 1.5834029912948608, 0.0, 0.0, 0.3069639205932617, 0, 0, 0, 0, 0, 0, 9362.0, 30146.0, 35388.0, 9362.0, 8.310744285583496, -1.981348991394043, 16.15180206298828, 14.548439979553223, 0.10686624050140381, -0.07042012363672256, 1.0456172227859497, -0.04031386598944664, -0.0037593841552734375, 1.49560546875, 1.423828125, 0.066802978515625, 1.4912109375, 1.66845703125, 10.0, 1.0, 10.0, 1.5128082036972046
20812, -1.7470500469207764, -0.4895370900630951, 89.6118392944336, 0.0, 0.0, 1.5861713886260986, 0.0, 0.0, 0.2768397331237793, 0, 0, 0, 0, 0, 0, 9362.0, 30146.0, 35388.0, 9362.0, 8.310744285583496, -11.233981132507324, 8.299614906311035, 9.194275856018066, 0.10686624050140381, -0.07042012363672256, 1.0456172227859497, -0.04031386598944664, -0.0037593841552734375, 1.49560546875, 1.423828125, 0.066802978515625, 1.49267578125, 1.66845703125, 10.0, 1.0, 10.0, 1.5128082036972046
20822, -1.895857572555542, -0.5089285969734192, 89.68028259277344, 0.0, 0.0, 1.5908712148666382, 0.0, 0.0, 0.4699826240539551, 0, 0, 0, 0, 0, 0, 9362.0, 30146.0, 35388.0, 9362.0, 8.310744285583496, -11.356855392456055, 3.7276854515075684, 5.520617485046387, 0.10686624050140381, -0.07042012363672256, 1.0456172227859497, -0.04031386598944664, -0.0037593841552734375, 1.49560546875, 1.68017578125, 0.6156768798828125, 1.49267578125, 1.66845703125, 10.0, 1.0, 10.0, 1.5128082036972046
20832, -1.9851255416870117, -0.4975546896457672, 89.7091293334961, 0.0, 0.0, 1.595116138458252, 0.0, 0.0, 0.42449235916137695, 0, 0, 0, 0, 0, 0, 9362.0, 30146.0, 35388.0, 9362.0, 8.310744285583496, -11.356855392456055, 3.7276854515075684, 5.520617485046387, 0.08018616586923599, -0.06508418917655945, 1.0483180284500122, -0.04031386598944664, -0.0037593841552734375, 1.49560546875, 1.60986328125, 0.4406585693359375, 1.49267578125, 1.66845703125, 10.0, 1.0, 10.0, 1.5128082036972046
20842, -2.0443601608276367, -0.48608091473579407, 89.66777038574219, 0.0, 0.0, 1.590201735496521, 0.0, 0.0, -0.4914402961730957, 0, 0, 0, 0, 0, 0, 9362.0, 30146.0, 35388.0, 9362.0, 8.310744285583496, -11.356855392456055, 3.7276854515075684, 5.520617485046387, 0.03896845877170563, 0.0215693898499012, 1.0349034070968628, -0.04031386598944664, -0.0037593841552734375, 1.49560546875, 1.58935546875, 0.3920440673828125, 1.49267578125, 1.601806640625, 10.0, 1.0, 10.0, 1.5128082036972046
20852, -2.01619553565979, -0.5257898569107056, 89.6141357421875, 0.0, 0.0, 1.5857806205749512, 0.0, 0.0, -0.4421114921569824, 0, 0, 0, 0, 0, 0, 9362.0, 30146.0, 35388.0, 9362.0, 8.310744285583496, -11.356855392456055, 3.7276854515075684, 5.520617485046387, 0.014075364917516708, 0.060026686638593674, 1.0541788339614868, -0.04031386598944664, -0.0037593841552734375, 1.49560546875, 1.51904296875, 0.2346954345703125, 1.49267578125, 1.601806640625, 10.0, 1.0, 10.0, 1.5147106647491455
20862, -1.9366395473480225, -0.6308028101921082, 89.52381896972656, 0.0, 0.0, 1.577985167503357, 0.0, 0.0, -0.7795453071594238, 0, 0, 0, 0, 0, 0, 9362.0, 30146.0, 35388.0, 9362.0, 8.310744285583496, 6.039490222930908, 10.72830581665039, -7.144728660583496, 0.014075364917516708, 0.060026686638593674, 1.0541788339614868, -0.029397623613476753, 0.0052013397216796875, 1.496337890625, 1.47802734375, 0.1532745361328125, 1.49267578125, 1.601806640625, 10.0, 1.0, 10.0, 1.5147106647491455
20872, -1.8818936347961426, -0.7072427868843079, 89.4611587524414, 0.0, 0.0, 1.5709922313690186, 0.0, 0.0, -0.6992936134338379, 0, 0, 0, 0, 0, 0, 9362.0, 30146.0, 35388.0, 9362.0, 8.310744285583496, 7.576780319213867, 11.570570945739746, -7.329980373382568, 0.014075364917516708, 0.060026686638593674, 1.0541788339614868, -0.029397623613476753, 0.0052013397216796875, 1.496337890625, 1.47802734375, 0.1532745361328125, 1.49267578125, 1.601806640625, 10.0, 1.0, 10.0, 1.5150461196899414
20882, -1.8002654314041138, -0.8097265958786011, 89.38069152832031, 0.0, 0.0, 1.5680147409439087, 0.0, 0.0, -0.29774904251098633, 0, 0, 0, 0, 0, 0, 9362.0, 30146.0, 35388.0, 9362.0, 8.310744285583496, 7.487054824829102, 10.315333366394043, -6.294802188873291, 0.014075364917516708, 0.060026686638593674, 1.0541788339614868, -0.029397623613476753, 0.0052013397216796875, 1.496337890625, 1.636962890625, 0.5064239501953125, 1.49267578125, 1.601806640625, 10.0, 1.0, 10.0, 1.5150461196899414
20892, -1.7462645769119263, -0.8745871782302856, 89.34900665283203, 0.0, 0.0, 1.5680147409439087, 0.0, 0.0, -0.29774904251098633, 0, 0, 0, 0, 0, 0, 9362.0, 30146.0, 35388.0, 9362.0, 8.310744285583496, 7.487054824829102, 10.315333366394043, -6.294802188873291, 0.04914813116192818, -0.010035131126642227, 1.029689073562622, -0.029397623613476753, 0.0052013397216796875, 1.496337890625, 1.69482421875, 0.6540374755859375, 1.491943359375, 1.601806640625, 10.0, 1.0, 10.0, 1.5150461196899414
20902, -1.6618261337280273, -0.9453355073928833, 89.27230834960938, 0.0, 0.0, 1.5651334524154663, 0.0, 0.0, -0.021314620971679688, 0, 0, 0, 0, 0, 0, 9362.0, 30146.0, 35388.0, 9362.0, 8.310744285583496, 7.487054824829102, 10.315333366394043, -6.294802188873291, 0.04535791650414467, 0.03252566233277321, 1.0371683835983276, -0.029397623613476753, 0.0052013397216796875, 1.496337890625, 1.538818359375, 0.2772674560546875, 1.491943359375, 1.601806640625, 10.0, 1.0, 10.0, 1.5153489112854004
20912, -1.609293818473816, -0.980820894241333, 89.20018768310547, 0.0, 0.0, 1.5649422407150269, 0.0, 0.0, -0.019121170043945312, 0, 0, 0, 0, 0, 0, 9362.0, 30146.0, 35388.0, 9362.0, 8.310744285583496, 5.401740074157715, 6.048778533935547, -8.850996971130371, 0.04535791650414467, 0.03252566233277321, 1.0371683835983276, -0.029397623613476753, 0.0052013397216796875, 1.496337890625, 1.379150390625, 0.0238189697265625, 1.4970703125, 1.601806640625, 10.0, 1.0, 10.0, 1.5153489112854004
20922, -1.543675422668457, -1.0184762477874756, 89.07086944580078, 0.0, 0.0, 1.563140630722046, 0.0, 0.0, -0.1801609992980957, 0, 0, 0, 0, 0, 0, 9362.0, 30146.0, 35388.0, 9362.0, 8.310744285583496, 5.401740074157715, 6.048778533935547, -8.850996971130371, 0.07656155526638031, 0.020019035786390305, 1.055198311805725, -0.029397623613476753, 0.0052013397216796875, 1.496337890625, 1.63623046875, 0.504730224609375, 1.4970703125, 1.601806640625, 10.0, 1.0, 10.0, 1.5153489112854004
20932, -1.5073915719985962, -1.0276899337768555, 88.9614486694336, 0.0, 0.0, 1.563140630722046, 0.0, 0.0, -0.1801609992980957, 0, 0, 0, 0, 0, 0, 9362.0, 30146.0, 35388.0, 9362.0, 8.310744285583496, 5.401740074157715, 6.048778533935547, -8.850996971130371, 0.09145401418209076, 0.022573141381144524, 1.0445555448532104, -0.029397623613476753, 0.0052013397216796875, 1.496337890625, 1.695556640625, 0.656097412109375, 1.494140625, 1.601806640625, 10.0, 1.0, 10.0, 1.5153489112854004
20942, -1.4678821563720703, -1.0248196125030518, 88.7717056274414, 0.0, 0.0, 1.5535274744033813, 0.0, 0.0, -0.8002996444702148, 0, 0, 0, 0, 0, 0, 9362.0, 30146.0, 35388.0, 9362.0, 8.310744285583496, 5.401740074157715, 6.048778533935547, -8.850996971130371, 0.09658773988485336, 0.034295808523893356, 1.0100994110107422, -0.029397623613476753, 0.0052013397216796875, 1.496337890625, 1.61572265625, 0.45465087890625, 1.494140625, 1.601806640625, 10.0, 1.0, 10.0, 1.5165858268737793
20952, -1.4255138635635376, -1.0432980060577393, 88.61199188232422, 0.0, 0.0, 1.5535274744033813, 0.0, 0.0, -0.8002996444702148, 0, 0, 0, 0, 0, 0, 9362.0, 30146.0, 35388.0, 9362.0, 8.310744285583496, 2.953263759613037, 4.1928324699401855, -20.231529235839844, 0.09658773988485336, 0.034295808523893356, 1.0100994110107422, -0.029397623613476753, 0.0052013397216796875, 1.496337890625, 1.62451171875, 0.475982666015625, 1.494140625, 1.601806640625, 10.0, 1.0, 10.0, 1.5165858268737793
21022, -0.302731454372406, -2.132723808288574, 87.14559936523438, 0.0, 0.0, 1.5535274744033813, 0.0, 0.0, -0.8002996444702148, 0, 0, 0, 0, 0, 0, 9362.0, 30146.0, 35388.0, 9362.0, 8.310744285583496, 2.953263759613037, 4.1928324699401855, -20.231529235839844, 0.09658773988485336, 0.034295808523893356, 1.0100994110107422, -0.029397623613476753, 0.0052013397216796875, 1.496337890625, 1.62451171875, 0.475982666015625, 1.494140625, 1.601806640625, 10.0, 1.0, 10.0, 1.5165858268737793
21032, -0.10269052535295486, -2.1555533409118652, 86.98995971679688, 0.0, 0.0, 1.5465575456619263, 0.0, 0.0, -0.14646053314208984, 0, 0, 0, 0, 0, 0, 9362.0, 30146.0, 35388.0, 9362.0, 8.310744285583496, 23.67691993713379, 3.598069429397583, -19.316308975219727, 0.09658773988485336, 0.034295808523893356, 1.0100994110107422, -0.029397623613476753, 0.0052013397216796875, 1.496337890625, 1.62451171875, 0.475982666015625, 1.494140625, 1.601806640625, 10.0, 1.0, 10.0, 1.5206321477890015
21042, 0.23875771462917328, -2.1377463340759277, 86.77538299560547, 0.0, 0.0, 1.5512558221817017, 0.0, 0.0, 0.46982765197753906, 0, 0, 0, 0, 0, 0, 9362.0, 30146.0, 35388.0, 9362.0, 8.310744285583496, 27.052961349487305, -0.8056398034095764, -17.61798667907715, 0.09658773988485336, 0.034295808523893356, 1.0100994110107422, -0.029397623613476753, 0.0052013397216796875, 1.496337890625, 1.740234375, 0.7806243896484375, 1.494140625, 1.601806640625, 10.0, 1.0, 10.0, 1.5206321477890015
21052, 0.49171847105026245, -2.096203327178955, 86.6515121459961, 0.0, 0.0, 1.5554819107055664, 0.0, 0.0, 0.4226088523864746, 0, 0, 0, 0, 0, 0, 9362.0, 30146.0, 35388.0, 9362.0, 8.310744285583496, 30.190776824951172, -4.398464679718018, -15.925751686096191, 0.09658773988485336, 0.034295808523893356, 1.0100994110107422, -0.029397623613476753, 0.0052013397216796875, 1.496337890625, 1.70361328125, 0.6776885986328125, 1.494140625, 1.601806640625, 10.0, 1.0, 10.0, 1.5206321477890015
21062, 0.8852392435073853, -1.9901341199874878, 86.4631576538086, 0.0, 0.0, 1.560922384262085, 0.0, 0.0, 0.5440473556518555, 0, 0, 0, 0, 0, 0, 9362.0, 30146.0, 35388.0, 9362.0, 8.310744285583496, 31.72524070739746, -8.531396865844727, -15.309292793273926, 0.09658773988485336, 0.034295808523893356, 1.0100994110107422, -0.0459827184677124, 0.03208160400390625, 1.49853515625, 1.7490234375, 0.8068389892578125, 1.494140625, 1.601806640625, 10.0, 1.0, 10.0, 1.5206321477890015
21072, 1.1331709623336792, -1.8858510255813599, 86.27456665039062, 0.0, 0.0, 1.560922384262085, 0.0, 0.0, 0.5440473556518555, 0, 0, 0, 0, 0, 0, 9362.0, 30146.0, 35388.0, 9362.0, 8.310744285583496, 31.72524070739746, -8.531396865844727, -15.309292793273926, -0.024154143407940865, 0.05757163465023041, 1.0171856880187988, -0.0459827184677124, 0.03208160400390625, 1.49853515625, 1.7490234375, 0.8068389892578125, 1.49560546875, 1.601806640625, 10.0, 1.0, 10.0, 1.523190975189209
21082, 1.4712536334991455, -1.68312406539917, 85.94258117675781, 0.0, 0.0, 1.560922384262085, 0.0, 0.0, 0.5440473556518555, 0, 0, 0, 0, 0, 0, 9362.0, 30146.0, 35388.0, 9362.0, 8.310744285583496, 28.693424224853516, -17.31277084350586, -27.354248046875, -0.01532063353806734, 0.0345132015645504, 1.0502800941467285, -0.0459827184677124, 0.03208160400390625, 1.49853515625, 1.49853515625, 0.1927032470703125, 1.49560546875, 1.601806640625, 10.0, 1.0, 10.0, 1.523190975189209
21092, 1.671905517578125, -1.529171109199524, 85.72661590576172, 0.0, 0.0, 1.560922384262085, 0.0, 0.0, 0.5440473556518555, 0, 0, 0, 0, 0, 0, 9362.0, 30146.0, 35388.0, 9362.0, 8.310744285583496, 25.447107315063477, -19.786449432373047, -26.5816650390625, -0.01532063353806734, 0.0345132015645504, 1.0502800941467285, -0.0459827184677124, 0.03208160400390625, 1.49853515625, 1.512451171875, 0.2209625244140625, 1.49560546875, 1.601806640625, 10.0, 1.0, 10.0, 1.523190975189209
21102, 1.9170407056808472, -1.2550009489059448, 85.42436981201172, 0.0, 0.0, 1.6014723777770996, 0.0, 0.0, 1.066911220550537, 0, 0, 0, 0, 0, 0, 9362.0, 30146.0, 35388.0, 9362.0, 8.310744285583496, 21.217973709106445, -23.76455307006836, -25.307607650756836, -0.01532063353806734, 0.0345132015645504, 1.0502800941467285, -0.0459827184677124, 0.03208160400390625, 1.49853515625, 1.751220703125, 0.8134918212890625, 1.49560546875, 1.601806640625, 10.0, 1.0, 10.0, 1.523262619972229
21112, 2.041408061981201, -1.0634900331497192, 85.28624725341797, 0.0, 0.0, 1.6014723777770996, 0.0, 0.0, 1.066911220550537, 0, 0, 0, 0, 0, 0, 9362.0, 30146.0, 35388.0, 9362.0, 8.310744285583496, 16.582019805908203, -24.637697219848633, -15.534710884094238, -0.01532063353806734, 0.0345132015645504, 1.0502800941467285, -0.0459827184677124, 0.03208160400390625, 1.49853515625, 1.71533203125, 0.709686279296875, 1.4970703125, 1.601806640625, 10.0, 1.0, 10.0, 1.523262619972229
21122, 2.163917064666748, -0.8268129825592041, 85.06251525878906, 0.0, 0.0, 1.6230063438415527, 0.0, 0.0, 1.1925697326660156, 0, 0, 0, 0, 0, 0, 9362.0, 30146.0, 35388.0, 9362.0, 8.310744285583496, 16.582019805908203, -24.637697219848633, -15.534710884094238, -0.009452124126255512, 0.012058266438543797, 1.0028218030929565, -0.0459827184677124, 0.03208160400390625, 1.49853515625, 1.69189453125, 0.6463165283203125, 1.4970703125, 1.601806640625, 10.0, 1.0, 10.0, 1.523262619972229
21132, 2.212674140930176, -0.7046217918395996, 84.86800384521484, 0.0, 0.0, 1.6230063438415527, 0.0, 0.0, 1.1925697326660156, 0, 0, 0, 0, 0, 0, 9362.0, 30146.0, 35388.0, 9362.0, 8.310744285583496, 16.582019805908203, -24.637697219848633, -15.534710884094238, -0.009452124126255512, 0.012058266438543797, 1.0028218030929565, -0.0459827184677124, 0.03208160400390625, 1.49853515625, 1.681640625, 0.619354248046875, 1.49267578125, 1.601806640625, 10.0, 1.0, 10.0, 1.5251705646514893
21142, 2.2731435298919678, -0.5993427634239197, 84.55355072021484, 0.0, 0.0, 1.6362826824188232, 0.0, 0.0, 0.2545595169067383, 0, 0, 0, 0, 0, 0, 9362.0, 30146.0, 35388.0, 9362.0, 8.310744285583496, 5.680899620056152, -9.276873588562012, -26.255891799926758, -0.009452124126255512, 0.012058266438543797, 1.0028218030929565, -0.0459827184677124, 0.03208160400390625, 1.49853515625, 1.65380859375, 0.548309326171875, 1.49267578125, 1.601806640625, 10.0, 1.0, 10.0, 1.5251705646514893
21152, 2.331202507019043, -0.5813531279563904, 84.4006576538086, 0.0, 0.0, 1.6362826824188232, 0.0, 0.0, 0.2545595169067383, 0, 0, 0, 0, 0, 0, 9362.0, 30146.0, 35388.0, 9362.0, 8.310744285583496, 7.744690895080566, -1.9108446836471558, -18.89097023010254, -0.009452124126255512, 0.012058266438543797, 1.0028218030929565, -0.0459827184677124, 0.03208160400390625, 1.49853515625, 1.734375, 0.7635955810546875, 1.50146484375, 1.601806640625, 10.0, 1.0, 10.0, 1.5251705646514893
21162, 2.4861714839935303, -0.6108202338218689, 84.23287963867188, 0.0, 0.0, 1.6433616876602173, 0.0, 0.0, 0.4790306091308594, 0, 0, 0, 0, 0, 0, 9362.0, 30146.0, 35388.0, 9362.0, 8.310744285583496, 12.780387878417969, 2.6225481033325195, -14.647395133972168, 0.01772516965866089, 0.0435139499604702, 0.9851864576339722, -0.046974096447229385, 0.0052013397216796875, 1.496337890625, 1.72119140625, 0.726104736328125, 1.50146484375, 1.601806640625, 10.0, 1.0, 10.0, 1.5251705646514893
21172, 2.6565470695495605, -0.6435676217079163, 84.15705108642578, 0.0, 0.0, 1.6476706266403198, 0.0, 0.0, 0.4308938980102539, 0, 0, 0, 0, 0, 0, 9362.0, 30146.0, 35388.0, 9362.0, 8.310744285583496, 12.780387878417969, 2.6225481033325195, -14.647395133972168, 0.0020925027783960104, 0.06006255000829697, 0.9917681813240051, -0.046974096447229385, 0.0052013397216796875, 1.496337890625, 1.72119140625, 0.726104736328125, 1.50146484375, 1.601806640625, 10.0, 1.0, 10.0, 1.5270121097564697
21182, 2.997260570526123, -0.6972436308860779, 84.08570098876953, 0.0, 0.0, 1.6613878011703491, 0.0, 0.0, 1.3717174530029297, 0, 0, 0, 0, 0, 0, 9362.0, 30146.0, 35388.0, 9362.0, 8.310744285583496, 28.414011001586914, 3.862633228302002, -6.2712531089782715, -0.01719634048640728, 0.052838120609521866, 1.0056110620498657, -0.046974096447229385, 0.0052013397216796875, 1.496337890625, 1.72119140625, 0.726104736328125, 1.50146484375, 1.601806640625, 10.0, 1.0, 10.0, 1.5270121097564697
21192, 3.2619504928588867, -0.723530650138855, 84.0308837890625, 0.0, 0.0, 1.6613878011703491, 0.0, 0.0, 1.3717174530029297, 0, 0, 0, 0, 0, 0, 9362.0, 30146.0, 35388.0, 9362.0, 8.310744285583496, 33.84215545654297, 2.2292189598083496, -6.910971164703369, -0.01719634048640728, 0.052838120609521866, 1.0056110620498657, -0.046974096447229385, 0.0052013397216796875, 1.496337890625, 1.72119140625, 0.726104736328125, 1.491943359375, 1.601806640625, 10.0, 1.0, 10.0, 1.5270121097564697
21202, 3.674987316131592, -0.7369698882102966, 83.91295623779297, 0.0, 0.0, 1.6744471788406372, 0.0, 0.0, 0.07162094116210938, 0, 0, 0, 0, 0, 0, 9362.0, 30146.0, 35388.0, 9362.0, 8.310744285583496, 35.86637878417969, -0.7379521727561951, -9.786231994628906, -0.01719634048640728, 0.052838120609521866, 1.0056110620498657, -0.046974096447229385, 0.0052013397216796875, 1.496337890625, 1.572509765625, 0.3528594970703125, 1.491943359375, 1.64794921875, 10.0, 1.0, 10.0, 1.5270121097564697
21212, 3.931640625, -0.7393712401390076, 83.81919860839844, 0.0, 0.0, 1.6750895977020264, 0.0, 0.0, 0.06424188613891602, 0, 0, 0, 0, 0, 0, 9362.0, 30146.0, 35388.0, 9362.0, 8.310744285583496, 35.86637878417969, -0.7379521727561951, -9.786231994628906, -0.04631840065121651, 0.021479079499840736, 1.0066418647766113, -0.046974096447229385, 0.0052013397216796875, 1.496337890625, 1.679443359375, 0.613677978515625, 1.49560546875, 1.64794921875, 10.0, 1.0, 10.0, 1.5287871360778809
21222, 4.247749328613281, -0.7531644701957703, 83.6048355102539, 0.0, 0.0, 1.6756644248962402, 0.0, 0.0, 0.05748271942138672, 0, 0, 0, 0, 0, 0, 9362.0, 30146.0, 35388.0, 9362.0, 8.310744285583496, 27.67079734802246, -0.6815537214279175, -19.22638511657715, -0.04631840065121651, 0.021479079499840736, 1.0066418647766113, -0.046974096447229385, 0.0052013397216796875, 1.496337890625, 1.679443359375, 0.613677978515625, 1.49560546875, 1.64794921875, 10.0, 1.0, 10.0, 1.5287871360778809
21232, 4.406374454498291, -0.7827638387680054, 83.46527099609375, 0.0, 0.0, 1.6756644248962402, 0.0, 0.0, 0.05748271942138672, 0, 0, 0, 0, 0, 0, 9362.0, 30146.0, 35388.0, 9362.0, 8.310744285583496, 27.67079734802246, -0.6815537214279175, -19.22638511657715, -0.0060519143007695675, 0.043503858149051666, 1.015209674835205, -0.046974096447229385, 0.0052013397216796875, 1.496337890625, 1.6875, 0.634674072265625, 1.4970703125, 1.64794921875, 10.0, 1.0, 10.0, 1.5287871360778809
21242, 4.58059549331665, -0.8586751818656921, 83.28472137451172, 0.0, 0.0, 1.6733593940734863, 0.0, 0.0, -0.2820253372192383, 0, 0, 0, 0, 0, 0, 9362.0, 30146.0, 35388.0, 9362.0, 8.310744285583496, 27.67079734802246, -0.6815537214279175, -19.22638511657715, 0.002146723447367549, 0.05100739747285843, 0.9836790561676025, -0.046974096447229385, 0.0052013397216796875, 1.496337890625, 1.593017578125, 0.400604248046875, 1.4970703125, 1.64794921875, 10.0, 1.0, 10.0, 1.5299559831619263
21252, 4.660982131958008, -0.9297418594360352, 83.2004165649414, 0.0, 0.0, 1.6733593940734863, 0.0, 0.0, -0.2820253372192383, 0, 0, 0, 0, 0, 0, 9362.0, 30146.0, 35388.0, 9362.0, 8.310744285583496, 27.67079734802246, -0.6815537214279175, -19.22638511657715, -0.0021763271652162075, 0.0484553687274456, 0.9829654693603516, -0.046974096447229385, 0.0052013397216796875, 1.496337890625, 1.447998046875, 0.1016693115234375, 1.4970703125, 1.64794921875, 10.0, 1.0, 10.0, 1.530009388923645
21262, 4.757199764251709, -1.0629279613494873, 83.19229888916016, 0.0, 0.0, 1.6733593940734863, 0.0, 0.0, -0.2820253372192383, 0, 0, 0, 0, 0, 0, 9362.0, 30146.0, 35388.0, 9362.0, 8.310744285583496, 27.67079734802246, -0.6815537214279175, -19.22638511657715, -0.0021763271652162075, 0.0484553687274456, 0.9829654693603516, -0.053672268986701965, -0.2187976837158203, 1.47802734375, 1.46044921875, 0.12200927734375, 1.4970703125, 1.64794921875, 10.0, 1.0, 10.0, 1.5297712087631226
21272, 4.815788745880127, -1.1628801822662354, 83.19004821777344, 0.0, 0.0, 1.6733593940734863, 0.0, 0.0, -0.2820253372192383, 0, 0, 0, 0, 0, 0, 9362.0, 30146.0, 35388.0, 9362.0, 8.310744285583496, 8.156081199645996, 11.981746673583984, -1.0868151187896729, -0.0021763271652162075, 0.0484553687274456, 0.9829654693603516, -0.053672268986701965, -0.2187976837158203, 1.47802734375, 1.46044921875, 0.12200927734375, 1.4970703125, 1.64794921875, 10.0, 1.0, 10.0, 1.5297712087631226
21282, 4.921120643615723, -1.2850512266159058, 83.16514587402344, 0.0, 0.0, 1.6614857912063599, 0.0, 0.0, -0.39424896240234375, 0, 0, 0, 0, 0, 0, 9362.0, 30146.0, 35388.0, 9362.0, 8.310744285583496, 9.13582992553711, 9.275651931762695, -2.8772904872894287, -0.0021763271652162075, 0.0484553687274456, 0.9829654693603516, -0.053672268986701965, -0.2187976837158203, 1.47802734375, 1.46044921875, 0.12200927734375, 1.4970703125, 1.64794921875, 10.0, 1.0, 10.0, 1.5297712087631226
21292, 5.0019025802612305, -1.3391445875167847, 83.14226531982422, 0.0, 0.0, 1.6579355001449585, 0.0, 0.0, -0.3550291061401367, 0, 0, 0, 0, 0, 0, 9362.0, 30146.0, 35388.0, 9362.0, 8.310744285583496, 9.13582992553711, 9.275651931762695, -2.8772904872894287, -0.04709790274500847, 0.09847190976142883, 1.0227246284484863, -0.053672268986701965, -0.2187976837158203, 1.47802734375, 1.5087890625, 0.21337890625, 1.4970703125, 1.64794921875, 10.0, 1.0, 10.0, 1.5309885740280151
21302, 5.134586334228516, -1.3654286861419678, 83.10079956054688, 0.0, 0.0, 1.6454415321350098, 0.0, 0.0, -1.249396800994873, 0, 0, 0, 0, 0, 0, 9362.0, 30146.0, 35388.0, 9362.0, 8.310744285583496, 10.541796684265137, 1.5061140060424805, -4.775642395019531, -0.03795602545142174, 0.1072392538189888, 1.0358327627182007, -0.053672268986701965, -0.2187976837158203, 1.47802734375, 1.392333984375, 0.03314208984375, 1.4970703125, 1.64794921875, 10.0, 1.0, 10.0, 1.5309885740280151
21312, 5.228401184082031, -1.3492109775543213, 83.07040405273438, 0.0, 0.0, 1.6341956853866577, 0.0, 0.0, -1.124584674835205, 0, 0, 0, 0, 0, 0, 9362.0, 30146.0, 35388.0, 9362.0, 8.310744285583496, 10.541796684265137, 1.5061140060424805, -4.775642395019531, -0.03457938879728317, 0.1084151417016983, 1.038474678993225, -0.053672268986701965, -0.2187976837158203, 1.47802734375, 1.50439453125, 0.2044219970703125, 1.4970703125, 1.64794921875, 10.0, 1.0, 10.0, 1.5305187702178955
21322, 5.374994277954102, -1.263309121131897, 82.95783996582031, 0.0, 0.0, 1.6333720684051514, 0.0, 0.0, -0.08236169815063477, 0, 0, 0, 0, 0, 0, 9362.0, 30146.0, 35388.0, 9362.0, 8.310744285583496, 10.541796684265137, 1.5061140060424805, -4.775642395019531, -0.018157728016376495, 0.10370910912752151, 1.0331206321716309, -0.053672268986701965, -0.2187976837158203, 1.47802734375, 1.40185546875, 0.0417938232421875, 1.4970703125, 1.64794921875, 10.0, 1.0, 10.0, 1.5301587581634521
21332, 5.477380275726318, -1.1702831983566284, 82.84916687011719, 0.0, 0.0, 1.6333720684051514, 0.0, 0.0, -0.08236169815063477, 0, 0, 0, 0, 0, 0, 9362.0, 30146.0, 35388.0, 9362.0, 8.310744285583496, 10.541796684265137, 1.5061140060424805, -4.775642395019531, -0.020718589425086975, 0.08928019553422928, 1.0230543613433838, -0.053672268986701965, -0.2187976837158203, 1.47802734375, 1.60986328125, 0.4406585693359375, 1.4970703125, 1.64794921875, 10.0, 1.0, 10.0, 1.5301587581634521
21342, 5.627577304840088, -1.004730224609375, 82.62100982666016, 0.0, 0.0, 1.633598804473877, 0.0, 0.0, 0.09692907333374023, 0, 0, 0, 0, 0, 0, 9362.0, 30146.0, 35388.0, 9362.0, 8.310744285583496, 10.541796684265137, 1.5061140060424805, -4.775642395019531, -0.019457822665572166, 0.04581410065293312, 1.0084080696105957, -0.053672268986701965, -0.2187976837158203, 1.47802734375, 1.405517578125, 0.0454254150390625, 1.4970703125, 1.64794921875, 10.0, 1.0, 10.0, 1.5302302837371826
21352, 5.7236456871032715, -0.8860799670219421, 82.44318389892578, 0.0, 0.0, 1.6344692707061768, 0.0, 0.0, 0.08704662322998047, 0, 0, 0, 0, 0, 0, 9362.0, 30146.0, 35388.0, 9362.0, 8.310744285583496, 10.541796684265137, 1.5061140060424805, -4.775642395019531, -0.020655501633882523, 0.016706358641386032, 1.0011471509933472, -0.053672268986701965, -0.2187976837158203, 1.47802734375, 1.519775390625, 0.236236572265625, 1.4970703125, 1.64794921875, 10.0, 1.0, 10.0, 1.5298988819122314
21362, 5.847304344177246, -0.7082588076591492, 82.22626495361328, 0.0, 0.0, 1.6401710510253906, 0.0, 0.0, 0.5701780319213867, 0, 0, 0, 0, 0, 0, 9362.0, 30146.0, 35388.0, 9362.0, 8.310744285583496, 10.541796684265137, 1.5061140060424805, -4.775642395019531, -0.009786907583475113, -0.006589063443243504, 0.9788587689399719, -0.0614749975502491, -0.11127853393554688, 1.48681640625, 1.399658203125, 0.0396575927734375, 1.4970703125, 1.64794921875, 10.0, 1.0, 10.0, 1.5298988819122314
21372, 5.910904884338379, -0.5871284604072571, 82.12423706054688, 0.0, 0.0, 1.6453007459640503, 0.0, 0.0, 0.5129694938659668, 0, 0, 0, 0, 0, 0, 9362.0, 30146.0, 35388.0, 9362.0, 8.310744285583496, 10.541796684265137, 1.5061140060424805, -4.775642395019531, -0.004796891938894987, -0.023885829374194145, 0.9609048366546631, -0.0614749975502491, -0.11127853393554688, 1.48681640625, 1.399658203125, 0.0396575927734375, 1.4970703125, 1.64794921875, 10.0, 1.0, 10.0, 1.5298908948898315
21382, 5.971367835998535, -0.4156886637210846, 82.01732635498047, 0.0, 0.0, 1.6493642330169678, 0.0, 0.0, 0.40634870529174805, 0, 0, 0, 0, 0, 0, 9362.0, 30146.0, 35388.0, 9362.0, 8.310744285583496, 8.037245750427246, -14.90789794921875, -7.19296932220459, -0.004796891938894987, -0.023885829374194145, 0.9609048366546631, -0.0614749975502491, -0.11127853393554688, 1.48681640625, 1.399658203125, 0.0396575927734375, 1.4970703125, 1.64794921875, 10.0, 1.0, 10.0, 1.5298908948898315
21392, 5.987410545349121, -0.30828359723091125, 81.96852111816406, 0.0, 0.0, 1.6493642330169678, 0.0, 0.0, 0.40634870529174805, 0, 0, 0, 0, 0, 0, 9362.0, 30146.0, 35388.0, 9362.0, 8.310744285583496, 5.006918430328369, -13.529912948608398, -4.735939979553223, -0.004796891938894987, -0.023885829374194145, 0.9609048366546631, -0.0614749975502491, -0.11127853393554688, 1.48681640625, 1.676513671875, 0.606201171875, 1.4970703125, 1.64794921875, 10.0, 1.0, 10.0, 1.5298908948898315
21402, 5.970828056335449, -0.1675649732351303, 81.95134735107422, 0.0, 0.0, 1.6513855457305908, 0.0, 0.0, -0.16340017318725586, 0, 0, 0, 0, 0, 0, 9362.0, 30146.0, 35388.0, 9362.0, 8.310744285583496, 5.006918430328369, -13.529912948608398, -4.735939979553223, 0.02739741839468479, 0.0008935849764384329, 1.0517550706863403, -0.0614749975502491, -0.11127853393554688, 1.48681640625, 1.37841796875, 0.023406982421875, 1.4970703125, 1.64794921875, 10.0, 1.0, 10.0, 1.5301259756088257
21412, 5.945693492889404, -0.09615955501794815, 81.97591400146484, 0.0, 0.0, 1.6513855457305908, 0.0, 0.0, -0.16340017318725586, 0, 0, 0, 0, 0, 0, 9362.0, 30146.0, 35388.0, 9362.0, 8.310744285583496, -1.4926501512527466, -7.430512428283691, 3.9958572387695312, 0.02739741839468479, 0.0008935849764384329, 1.0517550706863403, -0.0614749975502491, -0.11127853393554688, 1.48681640625, 1.37841796875, 0.023406982421875, 1.49560546875, 1.64794921875, 10.0, 1.0, 10.0, 1.5301259756088257
21422, 5.918030261993408, 0.00871831364929676, 81.93218231201172, 0.0, 0.0, 1.6486092805862427, 0.0, 0.0, -0.1305103302001953, 0, 0, 0, 0, 0, 0, 9362.0, 30146.0, 35388.0, 9362.0, 8.310744285583496, -1.5196247100830078, -8.141940116882324, -4.16945743560791, 0.02739741839468479, 0.0008935849764384329, 1.0517550706863403, -0.0614749975502491, -0.11127853393554688, 1.48681640625, 1.675048828125, 0.6022186279296875, 1.49560546875, 1.64794921875, 10.0, 1.0, 10.0, 1.5302996635437012
21432, 5.919443607330322, 0.07425210624933243, 81.8582992553711, 0.0, 0.0, 1.6474436521530151, 0.0, 0.0, -0.1165628433227539, 0, 0, 0, 0, 0, 0, 9362.0, 30146.0, 35388.0, 9362.0, 8.310744285583496, -1.5196247100830078, -8.141940116882324, -4.16945743560791, 0.043966326862573624, 0.10492528975009918, 1.0460551977157593, -0.0614749975502491, -0.11127853393554688, 1.48681640625, 1.44287109375, 0.0936279296875, 1.49560546875, 1.64794921875, 10.0, 1.0, 10.0, 1.530587911605835
21442, 5.94538688659668, 0.15510162711143494, 81.6358642578125, 0.0, 0.0, 1.6414835453033447, 0.0, 0.0, -0.596010684967041, 0, 0, 0, 0, 0, 0, 9362.0, 30146.0, 35388.0, 9362.0, 8.310744285583496, 2.363973379135132, -7.921502113342285, -18.40163230895996, 0.043966326862573624, 0.10492528975009918, 1.0460551977157593, -0.0614749975502491, -0.11127853393554688, 1.48681640625, 1.44287109375, 0.0936279296875, 1.49560546875, 1.64794921875, 10.0, 1.0, 10.0, 1.530587911605835
21452, 5.978182792663574, 0.20291051268577576, 81.46600341796875, 0.0, 0.0, 1.6361321210861206, 0.0, 0.0, -0.5351424217224121, 0, 0, 0, 0, 0, 0, 9362.0, 30146.0, 35388.0, 9362.0, 8.310744285583496, 2.363973379135132, -7.921502113342285, -18.40163230895996, 0.04002091661095619, 0.0735846608877182, 1.0520912408828735, -0.0614749975502491, -0.11127853393554688, 1.48681640625, 1.587890625, 0.38861083984375, 1.49560546875, 1.64794921875, 10.0, 1.0, 10.0, 1.530631422996521
21462, 6.04561710357666, 0.27530694007873535, 81.236083984375, 0.0, 0.0, 1.624769926071167, 0.0, 0.0, -1.1362195014953613, 0, 0, 0, 0, 0, 0, 9362.0, 30146.0, 35388.0, 9362.0, 8.310744285583496, 2.363973379135132, -7.921502113342285, -18.40163230895996, 0.031748563051223755, 0.047523133456707, 1.027838945388794, -0.0614749975502491, -0.11127853393554688, 1.48681640625, 1.458251953125, 0.1184234619140625, 1.49560546875, 1.64794921875, 10.0, 1.0, 10.0, 1.530631422996521
21492, 6.119360446929932, 0.3376409709453583, 80.89556121826172, 0.0, 0.0, 1.624769926071167, 0.0, 0.0, -1.1362195014953613, 0, 0, 0, 0, 0, 0, 9362.0, 30146.0, 35388.0, 9362.0, 8.310744285583496, 2.363973379135132, -7.921502113342285, -18.40163230895996, 0.031748563051223755, 0.047523133456707, 1.027838945388794, -0.0614749975502491, -0.11127853393554688, 1.48681640625, 1.458251953125, 0.1184234619140625, 1.49560546875, 1.64794921875, 10.0, 1.0, 10.0, 1.530631422996521
21502, 6.066510200500488, 0.25536757707595825, 80.72418212890625, 0.0, 0.0, 1.624769926071167, 0.0, 0.0, -1.1362195014953613, 0, 0, 0, 0, 0, 0, 9362.0, 30146.0, 35388.0, 9362.0, 8.310744285583496, -2.6791810989379883, 6.282989025115967, -15.118297576904297, 0.031748563051223755, 0.047523133456707, 1.027838945388794, -0.0614749975502491, -0.11127853393554688, 1.48681640625, 1.458251953125, 0.1184234619140625, 1.49560546875, 1.64794921875, 10.0, 1.0, 10.0, 1.5309277772903442
21512, 6.001530647277832, 0.16327667236328125, 80.5822525024414, 0.0, 0.0, 1.624769926071167, 0.0, 0.0, -1.1362195014953613, 0, 0, 0, 0, 0, 0, 9362.0, 30146.0, 35388.0, 9362.0, 8.310744285583496, -6.425212860107422, 10.26077938079834, -18.208459854125977, 0.031748563051223755, 0.047523133456707, 1.027838945388794, -0.0614749975502491, -0.11127853393554688, 1.48681640625, 1.458251953125, 0.1184234619140625, 1.49560546875, 1.64794921875, 10.0, 1.0, 10.0, 1.5309277772903442
21522, 5.862167835235596, -0.03862494230270386, 80.23744201660156, 0.0, 0.0, 1.5823475122451782, 0.0, 0.0, -0.5560398101806641, 0, 0, 0, 0, 0, 0, 9362.0, 30146.0, 35388.0, 9362.0, 8.310744285583496, -9.843334197998047, 14.253005027770996, -33.37916946411133, 0.024198826402425766, 0.011112188920378685, 0.9688409566879272, -0.0614749975502491, -0.11127853393554688, 1.48681640625, 1.458251953125, 0.1184234619140625, 1.49560546875, 1.64794921875, 10.0, 1.0, 10.0, 1.5309277772903442
21532, 5.7577948570251465, -0.2015528678894043, 80.05571746826172, 0.0, 0.0, 1.577337384223938, 0.0, 0.0, -0.5010128021240234, 0, 0, 0, 0, 0, 0, 9362.0, 30146.0, 35388.0, 9362.0, 8.310744285583496, -9.843334197998047, 14.253005027770996, -33.37916946411133, 0.052629318088293076, -0.007035821210592985, 0.9935505390167236, -0.0614749975502491, -0.11127853393554688, 1.48681640625, 1.458251953125, 0.1184234619140625, 1.4970703125, 1.64794921875, 10.0, 1.0, 10.0, 1.530966877937317
21542, 5.593099594116211, -0.49508512020111084, 79.73180389404297, 0.0, 0.0, 1.5744669437408447, 0.0, 0.0, -0.28704404830932617, 0, 0, 0, 0, 0, 0, 9362.0, 30146.0, 35388.0, 9362.0, 8.310744285583496, -9.843334197998047, 14.253005027770996, -33.37916946411133, 0.06149464473128319, -0.02037810906767845, 1.0546791553497314, -0.0614749975502491, -0.11127853393554688, 1.48681640625, 1.458251953125, 0.1184234619140625, 1.4970703125, 1.64794921875, 10.0, 1.0, 10.0, 1.530966877937317
21552, 5.492579936981201, -0.7295316457748413, 79.57543182373047, 0.0, 0.0, 1.5744669437408447, 0.0, 0.0, -0.28704404830932617, 0, 0, 0, 0, 0, 0, 9362.0, 30146.0, 35388.0, 9362.0, 8.310744285583496, -9.962349891662598, 28.955476760864258, -21.81983757019043, 0.06149464473128319, -0.02037810906767845, 1.0546791553497314, -0.0614749975502491, -0.11127853393554688, 1.48681640625, 1.68310546875, 0.6232757568359375, 1.494140625, 1.64794921875, 10.0, 1.0, 10.0, 1.530966877937317
21562, 5.3660664558410645, -1.1222831010818481, 79.38143920898438, 0.0, 0.0, 1.5674161911010742, 0.0, 0.0, -0.44661760330200195, 0, 0, 0, 0, 0, 0, 9362.0, 30146.0, 35388.0, 9362.0, 8.310744285583496, -9.962349891662598, 28.955476760864258, -21.81983757019043, 0.04642575979232788, 0.013753212057054043, 1.0928832292556763, -0.04290224611759186, -0.13815879821777344, 1.484619140625, 1.3505859375, 0.0153045654296875, 1.494140625, 1.64794921875, 10.0, 1.0, 10.0, 1.530966877937317
21572, 5.29871129989624, -1.390882968902588, 79.26884460449219, 0.0, 0.0, 1.5634360313415527, 0.0, 0.0, -0.39801597595214844, 0, 0, 0, 0, 0, 0, 9362.0, 30146.0, 35388.0, 9362.0, 8.310744285583496, -9.962349891662598, 28.955476760864258, -21.81983757019043, 0.04642575979232788, 0.013753212057054043, 1.0928832292556763, -0.04290224611759186, -0.13815879821777344, 1.484619140625, 1.3505859375, 0.0153045654296875, 1.494140625, 1.64794921875, 10.0, 1.0, 10.0, 1.530848741531372
21582, 5.213906288146973, -1.7839351892471313, 79.10157012939453, 0.0, 0.0, 1.5642515420913696, 0.0, 0.0, 0.08155107498168945, 0, 0, 0, 0, 0, 0, 9362.0, 30146.0, 35388.0, 9362.0, 8.310744285583496, -5.499560356140137, 32.43572235107422, -16.91853904724121, 0.04642575979232788, 0.013753212057054043, 1.0928832292556763, -0.04290224611759186, -0.13815879821777344, 1.484619140625, 1.60986328125, 0.4406585693359375, 1.494140625, 1.64794921875, 10.0, 1.0, 10.0, 1.5310935974121094
21592, 5.157365322113037, -2.0488953590393066, 78.96277618408203, 0.0, 0.0, 1.5649832487106323, 0.0, 0.0, 0.07317066192626953, 0, 0, 0, 0, 0, 0, 9362.0, 30146.0, 35388.0, 9362.0, 8.310744285583496, -5.499560356140137, 32.43572235107422, -16.91853904724121, 0.013413820415735245, 0.05949288606643677, 0.9795805215835571, -0.04290224611759186, -0.13815879821777344, 1.484619140625, 1.569580078125, 0.3462371826171875, 1.494140625, 1.64794921875, 10.0, 1.0, 10.0, 1.5311803817749023
