timeTick, roll, pitch, yaw, stateX, stateY, stateZ, stateVX, stateVY, stateVZ, otX0, otY0, otZ0, otRoll0, otPitch0, otYaw0, left wing, pitch motor, yaw motor, right wing, voltage, roll rate, pitch rate, yaw rate, A_x, A_y, A_z, current, i_raw, v_raw, airflow_voltage, airflow_speed, pot_Pitch, voltage_nKF, kFFx, state, State, volt_KF
75167, -0.9074134230613708, -4.024281024932861, 1.0003620386123657, 0, 0, 0, 0, 0, 0, 0, 0, 0, 0, 0, 0, 0, 0, 0, 0, 0, 0, 0, 0, 0, 0, 0, 0, 0, 0, 0, 0, 0, 0, 0, 0, 0, 0
75177, -0.9081323146820068, -4.023542404174805, 1.0006651878356934, 0.0, 0.0, 1.1166285276412964, 0.0, 0.0, -0.43805837631225586, 0, 0, 0, 0, 0, 0, 9362.0, 30146.0, 35388.0, 9362.0, 0, 0, 0, 0, 0, 0, 0, 0, 0, 0, 0, 0, 0, 0, 0, 0, 0, 0
75187, -0.9080893397331238, -4.020242691040039, 0.9986990094184875, 0.0, 0.0, 1.112686038017273, 0.0, 0.0, -0.39424896240234375, 0, 0, 0, 0, 0, 0, 9362.0, 30146.0, 35388.0, 9362.0, 0, -0.16014766693115234, -0.2481652796268463, -0.26183101534843445, -0.06680768728256226, -0.014401806518435478, 0.9991883635520935, 0, 0, 0, 0, 0, 0, 0, 0, 0, 0, 0
75197, -0.9064540863037109, -4.018561363220215, 0.9991464018821716, 0.0, 0.0, 1.105857014656067, 0.0, 0.0, -0.6829023361206055, 0, 0, 0, 0, 0, 0, 9362.0, 30146.0, 35388.0, 9362.0, 0, 0.18352684378623962, -0.13211865723133087, 0.04795040190219879, -0.0689074918627739, -0.013567748479545116, 0.9986881613731384, 0, 0, 0, 1.184326171875, 0.479400634765625, 0, 1.35498046875, 10.0, 1.0, 10.0, 1.4359384775161743
75207, -0.9074996709823608, -4.01670503616333, 0.9989627003669739, 0.0, 0.0, 1.0997108221054077, 0.0, 0.0, -0.614619255065918, 0, 0, 0, 0, 0, 0, 9362.0, 30146.0, 35388.0, 9362.0, 0, -0.0824173241853714, 0.19243717193603516, -0.025462614372372627, -0.06747425347566605, -0.015611309558153152, 1.000932216644287, 0, 0, 0, 1.34912109375, 0.015380859375, 1.4970703125, 1.2451171875, 10.0, 1.0, 10.0, 1.435736060142517
75217, -0.9077685475349426, -4.015806674957275, 0.9976584315299988, 0.0, 0.0, 1.100740909576416, 0.0, 0.0, 0.10300874710083008, 0, 0, 0, 0, 0, 0, 9362.0, 30146.0, 35388.0, 9362.0, 0, 0.008005796000361443, -0.023099329322576523, -0.12825854122638702, -0.06895844638347626, -0.016627926379442215, 0.9982814192771912, 0, 0, 0, 1.46630859375, 0.132171630859375, 1.4970703125, 1.4677734375, 10.0, 1.0, 10.0, 1.4355828762054443
75227, -0.9084035754203796, -4.018401145935059, 0.9982756972312927, 0.0, 0.0, 1.1016680002212524, 0.0, 0.0, 0.09270906448364258, 0, 0, 0, 0, 0, 0, 9362.0, 30146.0, 35388.0, 9362.0, 0, -0.1315263956785202, 0.18616144359111786, 0.06781197339296341, -0.06964156776666641, -0.014715136960148811, 0.9967098832130432, 0, 0, 0, 1.51171875, 0.21942138671875, 1.494873046875, 1.53515625, 10.0, 1.0, 10.0, 1.4359643459320068
75237, -0.907915472984314, -4.019152641296387, 0.9954889416694641, 0.0, 0.0, 1.0997684001922607, 0.0, 0.0, -0.18996000289916992, 0, 0, 0, 0, 0, 0, 9362.0, 30146.0, 35388.0, 9362.0, 0, 0.23813922703266144, 0.11577398329973221, -0.5019556879997253, -0.06927522271871567, -0.013892724178731441, 0.9976110458374023, 0, 0, 0, 1.12939453125, 0.9347991943359375, 1.494873046875, 1.224609375, 10.0, 1.0, 10.0, 1.436069369316101
75247, -0.9069963693618774, -4.016149997711182, 0.9970802664756775, 0.0, 0.0, 1.0980587005615234, 0.0, 0.0, -0.17096996307373047, 0, 0, 0, 0, 0, 0, 9362.0, 30146.0, 35388.0, 9362.0, 0, 0.163863867521286, -0.3402039110660553, 0.08799588680267334, -0.06968601793050766, -0.015767058357596397, 0.9962466955184937, 0, 0, 0, 1.241455078125, 0.192626953125, 1.48974609375, 1.276611328125, 10.0, 1.0, 10.0, 1.4360214471817017
75257, -0.9078701138496399, -4.015202045440674, 0.9957855343818665, 0.0, 0.0, 1.0926923751831055, 0.0, 0.0, -0.5366325378417969, 0, 0, 0, 0, 0, 0, 9362.0, 30146.0, 35388.0, 9362.0, 0, -0.1158226877450943, -0.19059427082538605, -0.1519332081079483, -0.0684828981757164, -0.01700088568031788, 0.997262179851532, 0, 0, 0, 1.571044921875, 0.349578857421875, 1.48974609375, 1.544677734375, 10.0, 1.0, 10.0, 1.4359967708587646
75267, -0.9074673056602478, -4.016267776489258, 0.9964928030967712, 0.0, 0.0, 1.0878626108169556, 0.0, 0.0, -0.48297643661499023, 0, 0, 0, 0, 0, 0, 9362.0, 30146.0, 35388.0, 9362.0, 8.350414276123047, -0.07178956270217896, 0.1179814264178276, 0.07789035886526108, -0.06736396253108978, -0.015363353304564953, 0.9965462684631348, 0, 0, 0, 1.31689453125, 0.0298919677734375, 1.494140625, 1.3447265625, 10.0, 1.0, 10.0, 1.4362497329711914
75277, -0.907737135887146, -4.013303279876709, 0.9963418245315552, 0.0, 0.0, 1.0835158824920654, 0.0, 0.0, -0.43467283248901367, 0, 0, 0, 0, 0, 0, 9362.0, 30146.0, 35388.0, 9362.0, 8.350414276123047, -0.06920288503170013, -0.41037309169769287, -0.031589191406965256, -0.06789741665124893, -0.016118913888931274, 0.9953078627586365, -0.07345550507307053, 0.05000114440917969, 1.5, 1.4736328125, 0.1452178955078125, 1.494140625, 1.530029296875, 10.0, 1.0, 10.0, 1.4364393949508667
75287, -0.9066989421844482, -4.015444755554199, 0.9960742592811584, 0.0, 0.0, 1.0796037912368774, 0.0, 0.0, -0.39120912551879883, 0, 0, 0, 0, 0, 0, 9362.0, 30146.0, 35388.0, 9362.0, 8.350414276123047, 0.15411143004894257, 0.34439218044281006, -0.029544569551944733, -0.07063251733779907, -0.015607880428433418, 0.9974800944328308, -0.07345550507307053, 0.05000114440917969, 1.5, 1.4443359375, 0.0959930419921875, 1.493408203125, 1.4560546875, 10.0, 1.0, 10.0, 1.436822772026062
75297, -0.9077315926551819, -4.0120320320129395, 0.9942446351051331, 0.0, 0.0, 1.0728020668029785, 0.0, 0.0, -0.6801724433898926, 0, 0, 0, 0, 0, 0, 9362.0, 30146.0, 35388.0, 9362.0, 8.350414276123047, -0.05784151703119278, -0.35717326402664185, -0.29240718483924866, -0.06676479429006577, -0.014323134906589985, 0.9976839423179626, -0.07345550507307053, 0.05000114440917969, 1.5, 1.358642578125, 0.0159912109375, 1.493408203125, 1.2626953125, 10.0, 1.0, 10.0, 1.4370406866073608
75307, -0.9073594212532043, -4.011562824249268, 0.9962335228919983, 0.0, 0.0, 1.0666805505752563, 0.0, 0.0, -0.6121516227722168, 0, 0, 0, 0, 0, 0, 9362.0, 30146.0, 35388.0, 9362.0, 8.350414276123047, -0.08945728838443756, 0.1845400482416153, 0.22592362761497498, -0.06745853275060654, -0.01570442132651806, 0.9994938969612122, -0.07345550507307053, 0.05000114440917969, 1.5, 1.22314453125, 0.2666778564453125, 1.491943359375, 1.4736328125, 10.0, 1.0, 10.0, 1.4371215105056763
75317, -0.9079633355140686, -4.008946418762207, 0.9951756000518799, 0.0, 0.0, 1.0693732500076294, 0.0, 0.0, 0.2692699432373047, 0, 0, 0, 0, 0, 0, 9362.0, 30146.0, 35388.0, 9362.0, 8.350414276123047, 0.033409930765628815, -0.31880781054496765, -0.13468071818351746, -0.07025285065174103, -0.017566803842782974, 0.9973235726356506, -0.07345550507307053, 0.05000114440917969, 1.5, 1.51025390625, 0.2164154052734375, 1.491943359375, 1.5322265625, 10.0, 1.0, 10.0, 1.4364944696426392
75327, -0.9090901613235474, -4.005838394165039, 0.9940507411956787, 0.0, 0.0, 1.0717966556549072, 0.0, 0.0, 0.2423405647277832, 0, 0, 0, 0, 0, 0, 9362.0, 30146.0, 35388.0, 9362.0, 8.350414276123047, -0.14259746670722961, -0.22647801041603088, 0.02850385196506977, -0.06964253634214401, -0.01608501747250557, 0.9985392689704895, -0.07345550507307053, 0.05000114440917969, 1.5, 1.505126953125, 0.205902099609375, 1.491943359375, 1.379150390625, 10.0, 1.0, 10.0, 1.4357260465621948
75337, -0.9090667963027954, -4.006480693817139, 0.9930472373962402, 0.0, 0.0, 1.0783522129058838, 0.0, 0.0, 0.6555557250976562, 0, 0, 0, 0, 0, 0, 9362.0, 30146.0, 35388.0, 9362.0, 8.350414276123047, -0.12237553298473358, 0.12439929693937302, -0.2193230390548706, -0.07070069015026093, -0.014248226769268513, 0.9978392124176025, -0.07345550507307053, 0.05000114440917969, 1.5, 1.4560546875, 0.1147003173828125, 1.491943359375, 1.51171875, 10.0, 1.0, 10.0, 1.435184359550476
75347, -0.909476637840271, -4.005566596984863, 0.9934406876564026, 0.0, 0.0, 1.0842522382736206, 0.0, 0.0, 0.5900025367736816, 0, 0, 0, 0, 0, 0, 9362.0, 30146.0, 35388.0, 9362.0, 8.350414276123047, -0.13588304817676544, -0.014638486318290234, 0.04879438504576683, -0.06959724426269531, -0.014761921018362045, 0.9972947239875793, -0.07345550507307053, 0.05000114440917969, 1.5, 1.3330078125, 0.0191650390625, 1.49560546875, 1.53515625, 10.0, 1.0, 10.0, 1.4354699850082397
75357, -0.9094641208648682, -4.0043182373046875, 0.9917675852775574, 0.0, 0.0, 1.0890153646469116, 0.0, 0.0, 0.47631263732910156, 0, 0, 0, 0, 0, 0, 9362.0, 30146.0, 35388.0, 9362.0, 8.350414276123047, 0.14827579259872437, -0.1630808413028717, -0.267911434173584, -0.07051615417003632, -0.01488680299371481, 0.998112678527832, -0.07345550507307053, 0.05000114440917969, 1.5, 1.532958984375, 0.2644195556640625, 1.49560546875, 1.360107421875, 10.0, 1.0, 10.0, 1.4357593059539795
75367, -0.9085323810577393, -4.006955146789551, 0.9919397234916687, 0.0, 0.0, 1.0933022499084473, 0.0, 0.0, 0.42868852615356445, 0, 0, 0, 0, 0, 0, 9362.0, 30146.0, 35388.0, 9362.0, 8.350414276123047, 0.23030219972133636, 0.2990395128726959, -0.010351831093430519, -0.06964342296123505, -0.01539607159793377, 0.9990676045417786, -0.07345550507307053, 0.05000114440917969, 1.5, 1.5029296875, 0.201446533203125, 1.493408203125, 1.382080078125, 10.0, 1.0, 10.0, 1.4352775812149048
75377, -0.9087280035018921, -4.008690357208252, 0.9933155179023743, 0.0, 0.0, 1.1015348434448242, 0.0, 0.0, 0.8232593536376953, 0, 0, 0, 0, 0, 0, 9362.0, 30146.0, 35388.0, 9362.0, 8.350414276123047, -0.13451814651489258, 0.2636186182498932, 0.21481730043888092, -0.06809081137180328, -0.016832245513796806, 1.0004024505615234, -0.07001287490129471, 0.023120880126953125, 1.497802734375, 1.497802734375, 0.19122314453125, 1.493408203125, 1.42822265625, 10.0, 1.0, 10.0, 1.4350864887237549
75387, -0.9099330902099609, -4.008118629455566, 0.9942917227745056, 0.0, 0.0, 1.1089441776275635, 0.0, 0.0, 0.7409334182739258, 0, 0, 0, 0, 0, 0, 9362.0, 30146.0, 35388.0, 9362.0, 8.350414276123047, -0.15661774575710297, -0.05193411186337471, -0.027779361233115196, -0.06898083537817001, -0.018170978873968124, 0.9967228174209595, -0.07001287490129471, 0.023120880126953125, 1.497802734375, 1.48828125, 0.172576904296875, 1.49267578125, 1.21435546875, 10.0, 1.0, 10.0, 1.4346277713775635
75397, -0.9101796746253967, -4.007830619812012, 0.9958993196487427, 0.0, 0.0, 1.1172529458999634, 0.0, 0.0, 0.8308768272399902, 0, 0, 0, 0, 0, 0, 9362.0, 30146.0, 35388.0, 9362.0, 8.350414276123047, -0.09468050301074982, -0.013221337459981441, 0.23583675920963287, -0.06984689086675644, -0.01405083853751421, 0.9969755411148071, -0.07001287490129471, 0.023120880126953125, 1.497802734375, 1.273681640625, 0.0975494384765625, 1.49267578125, 1.49560546875, 10.0, 1.0, 10.0, 1.4347763061523438
75407, -0.9091929197311401, -4.005143165588379, 0.9947752356529236, 0.0, 0.0, 1.1247309446334839, 0.0, 0.0, 0.7477998733520508, 0, 0, 0, 0, 0, 0, 9362.0, 30146.0, 35388.0, 9362.0, 8.350414276123047, 0.02965540625154972, -0.3589628040790558, -0.14242768287658691, -0.06839732080698013, -0.014647888019680977, 0.9949488639831543, -0.07001287490129471, 0.023120880126953125, 1.497802734375, 1.53662109375, 0.27239990234375, 1.491943359375, 1.3037109375, 10.0, 1.0, 10.0, 1.4345567226409912
75417, -0.9094952940940857, -4.0069355964660645, 0.9969666600227356, 0.0, 0.0, 1.125993013381958, 0.0, 0.0, 0.1262068748474121, 0, 0, 0, 0, 0, 0, 9362.0, 30146.0, 35388.0, 9362.0, 8.350414276123047, -0.027347059920430183, 0.31770285964012146, 0.42357486486434937, -0.07025493681430817, -0.01576125994324684, 0.9979361295700073, -0.07001287490129471, 0.023120880126953125, 1.497802734375, 1.17041015625, 0.5762939453125, 1.491943359375, 1.415771484375, 10.0, 1.0, 10.0, 1.4348095655441284
75427, -0.9097297191619873, -4.004587173461914, 0.9962437748908997, 0.0, 0.0, 1.1271289587020874, 0.0, 0.0, 0.11359453201293945, 0, 0, 0, 0, 0, 0, 9362.0, 30146.0, 35388.0, 9362.0, 8.350414276123047, -0.03846884146332741, -0.28385740518569946, -0.0866558775305748, -0.070692278444767, -0.01591033674776554, 0.999284029006958, -0.07001287490129471, 0.023120880126953125, 1.497802734375, 1.52490234375, 0.247039794921875, 1.496337890625, 1.2509765625, 10.0, 1.0, 10.0, 1.4343147277832031
75437, -0.9100688695907593, -4.004474639892578, 0.9956952929496765, 0.0, 0.0, 1.1308852434158325, 0.0, 0.0, 0.3756284713745117, 0, 0, 0, 0, 0, 0, 9362.0, 30146.0, 35388.0, 9362.0, 8.350414276123047, -0.0074705323204398155, 0.027129508554935455, -0.11887353658676147, -0.0692618116736412, -0.01722501777112484, 0.998960554599762, -0.07001287490129471, 0.023120880126953125, 1.497802734375, 1.402587890625, 0.0425262451171875, 1.496337890625, 1.482421875, 10.0, 1.0, 10.0, 1.43459153175354
75447, -0.9111904501914978, -4.004744529724121, 0.9977182149887085, 0.0, 0.0, 1.1342658996582031, 0.0, 0.0, 0.33806562423706055, 0, 0, 0, 0, 0, 0, 9362.0, 30146.0, 35388.0, 9362.0, 8.350414276123047, -0.1289065033197403, 0.094377800822258, 0.23341885209083557, -0.06963835656642914, -0.017084507271647453, 0.9977495670318604, -0.07001287490129471, 0.023120880126953125, 1.497802734375, 1.532958984375, 0.2644195556640625, 1.4912109375, 1.41943359375, 10.0, 1.0, 10.0, 1.4344788789749146
75457, -0.9109451770782471, -4.005934238433838, 0.9957584738731384, 0.0, 0.0, 1.1329340934753418, 0.0, 0.0, -0.1331806182861328, 0, 0, 0, 0, 0, 0, 9362.0, 30146.0, 35388.0, 9362.0, 8.350414276123047, 0.06603793054819107, 0.32824453711509705, -0.29251936078071594, -0.0690762922167778, -0.015451000072062016, 0.9959819912910461, -0.07001287490129471, 0.023120880126953125, 1.497802734375, 1.500732421875, 0.1970977783203125, 1.4912109375, 1.25390625, 10.0, 1.0, 10.0, 1.434089183807373
75467, -0.910454273223877, -4.006171226501465, 0.9947860836982727, 0.0, 0.0, 1.1317354440689087, 0.0, 0.0, -0.11986494064331055, 0, 0, 0, 0, 0, 0, 9362.0, 30146.0, 35388.0, 9362.0, 8.350414276123047, -0.03406864032149315, 0.23444516956806183, 0.09579189866781235, -0.06890695542097092, -0.014354652725160122, 0.9971634149551392, -0.07001287490129471, 0.023120880126953125, 1.497802734375, 1.4443359375, 0.0959930419921875, 1.494140625, 1.50439453125, 10.0, 1.0, 10.0, 1.4339295625686646
75477, -0.9105727076530457, -4.006598472595215, 0.9962345361709595, 0.0, 0.0, 1.1339374780654907, 0.0, 0.0, 0.22020339965820312, 0, 0, 0, 0, 0, 0, 9362.0, 30146.0, 35388.0, 9362.0, 8.350414276123047, -0.043312035501003265, 0.14903827011585236, 0.14967964589595795, -0.06907512247562408, -0.01537333894520998, 0.9993557929992676, -0.06424912065267563, -0.1291980743408203, 1.4853515625, 1.459716796875, 0.120849609375, 1.494140625, 1.519775390625, 10.0, 1.0, 10.0, 1.4339323043823242
75487, -0.9105406999588013, -4.0056633949279785, 0.9986348748207092, 0.0, 0.0, 1.1359193325042725, 0.0, 0.0, 0.19818544387817383, 0, 0, 0, 0, 0, 0, 9362.0, 30146.0, 35388.0, 9362.0, 8.350414276123047, -0.05702444165945053, 0.07552162557840347, 0.22772929072380066, -0.06750940531492233, -0.013956349343061447, 0.99724280834198, -0.06424912065267563, -0.1291980743408203, 1.4853515625, 1.273681640625, 0.0975494384765625, 1.493408203125, 1.475830078125, 10.0, 1.0, 10.0, 1.4341987371444702
75497, -0.9110448360443115, -4.006723403930664, 0.9974744915962219, 0.0, 0.0, 1.1371562480926514, 0.0, 0.0, 0.12369155883789062, 0, 0, 0, 0, 0, 0, 9362.0, 30146.0, 35388.0, 9362.0, 8.350414276123047, -0.10393928736448288, 0.1497601717710495, -0.17945097386837006, -0.06719290465116501, -0.014223421923816204, 0.9961317777633667, -0.06424912065267563, -0.1291980743408203, 1.4853515625, 1.2626953125, 0.1252593994140625, 1.493408203125, 1.35498046875, 10.0, 1.0, 10.0, 1.4343255758285522
75507, -0.9118469953536987, -4.008639812469482, 0.9980929493904114, 0.0, 0.0, 1.1382694244384766, 0.0, 0.0, 0.11131763458251953, 0, 0, 0, 0, 0, 0, 9362.0, 30146.0, 35388.0, 9362.0, 8.350414276123047, -0.035306259989738464, 0.2944580018520355, 0.18387067317962646, -0.06737371534109116, -0.017651716247200966, 0.9964313507080078, -0.06424912065267563, -0.1291980743408203, 1.4853515625, 1.412841796875, 0.0534515380859375, 1.489013671875, 1.470703125, 10.0, 1.0, 10.0, 1.434306263923645
75517, -0.9109926819801331, -4.0078277587890625, 0.9975977540016174, 0.0, 0.0, 1.1398180723190308, 0.0, 0.0, 0.15486478805541992, 0, 0, 0, 0, 0, 0, 9362.0, 30146.0, 35388.0, 9362.0, 8.350414276123047, 0.28152304887771606, -0.005578705575317144, -0.025574402883648872, -0.06531636416912079, -0.017207583412528038, 0.9955701231956482, -0.06424912065267563, -0.1291980743408203, 1.4853515625, 1.5087890625, 0.21337890625, 1.489013671875, 1.352783203125, 10.0, 1.0, 10.0, 1.434106707572937
75527, -0.912538468837738, -4.010199546813965, 0.9992074966430664, 0.0, 0.0, 1.1412118673324585, 0.0, 0.0, 0.13937950134277344, 0, 0, 0, 0, 0, 0, 9362.0, 30146.0, 35388.0, 9362.0, 8.350414276123047, 0.023305799812078476, 0.4037713408470154, 0.27284109592437744, -0.06762200593948364, -0.015495427884161472, 0.997556209564209, -0.06424912065267563, -0.1291980743408203, 1.4853515625, 1.339599609375, 0.0168914794921875, 1.491943359375, 1.5615234375, 10.0, 1.0, 10.0, 1.4342846870422363
75537, -0.9139728546142578, -4.011536121368408, 1.0002985000610352, 0.0, 0.0, 1.1435599327087402, 0.0, 0.0, 0.23480653762817383, 0, 0, 0, 0, 0, 0, 9362.0, 30146.0, 35388.0, 9362.0, 8.350414276123047, -0.1945970356464386, 0.14693303406238556, 0.13491658866405487, -0.06762200593948364, -0.015495427884161472, 0.997556209564209, -0.06424912065267563, -0.1291980743408203, 1.4853515625, 1.272216796875, 0.1009979248046875, 1.491943359375, 1.47509765625, 10.0, 1.0, 10.0, 1.4342846870422363
75547, -0.9130921959877014, -4.013479232788086, 0.9991326332092285, 0.0, 0.0, 1.1435599327087402, 0.0, 0.0, 0.23480653762817383, 0, 0, 0, 0, 0, 0, 9362.0, 30146.0, 35388.0, 9362.0, 8.350414276123047, -0.1945970356464386, 0.14693303406238556, 0.13491658866405487, -0.06979835033416748, -0.015835631638765335, 0.996070921421051, -0.06424912065267563, -0.1291980743408203, 1.4853515625, 1.57470703125, 0.3579864501953125, 1.491943359375, 1.20703125, 10.0, 1.0, 10.0, 1.4342846870422363
75557, -0.9134661555290222, -4.012727737426758, 1.0004459619522095, 0.0, 0.0, 1.1508558988571167, 0.0, 0.0, 0.5182743072509766, 0, 0, 0, 0, 0, 0, 9362.0, 30146.0, 35388.0, 9362.0, 8.350414276123047, -0.1945970356464386, 0.14693303406238556, 0.13491658866405487, -0.06979835033416748, -0.015835631638765335, 0.996070921421051, -0.06424912065267563, -0.1291980743408203, 1.4853515625, 1.21875, 0.286834716796875, 1.491943359375, 1.20703125, 10.0, 1.0, 10.0, 1.4342846870422363
75577, -0.9115829467773438, -4.013911247253418, 1.001883864402771, 0.0, 0.0, 1.1580779552459717, 0.0, 0.0, 0.25576353073120117, 0, 0, 0, 0, 0, 0, 9362.0, 30146.0, 35388.0, 9362.0, 8.350414276123047, -0.1945970356464386, 0.14693303406238556, 0.13491658866405487, -0.07075578719377518, -0.01636025495827198, 0.9969369769096375, -0.06424912065267563, -0.1291980743408203, 1.4853515625, 1.298583984375, 0.051055908203125, 1.49267578125, 1.3857421875, 10.0, 1.0, 10.0, 1.4342846870422363
75587, -0.9107328653335571, -4.0150041580200195, 1.00238037109375, 0.0, 0.0, 1.1580779552459717, 0.0, 0.0, 0.25576353073120117, 0, 0, 0, 0, 0, 0, 9362.0, 30146.0, 35388.0, 9362.0, 8.350414276123047, -0.1945970356464386, 0.14693303406238556, 0.13491658866405487, -0.06930743157863617, -0.018493765965104103, 0.9943920373916626, -0.06424912065267563, -0.1291980743408203, 1.4853515625, 1.400390625, 0.04034423828125, 1.4970703125, 1.55419921875, 10.0, 1.0, 10.0, 1.4342846870422363
75617, -0.9120900630950928, -4.0115580558776855, 1.0000890493392944, 0.0, 0.0, 1.158584713935852, 0.0, 0.0, -0.05365610122680664, 0, 0, 0, 0, 0, 0, 9362.0, 30146.0, 35388.0, 9362.0, 8.350414276123047, 0.029789524152874947, -0.5871713757514954, -0.4090546667575836, -0.06957443058490753, -0.015133260749280453, 0.9961614608764648, -0.06424912065267563, -0.1291980743408203, 1.4853515625, 1.55126953125, 0.304718017578125, 1.4970703125, 1.30078125, 10.0, 1.0, 10.0, 1.4338418245315552
75627, -0.9123152494430542, -4.014176845550537, 0.998993992805481, 0.0, 0.0, 1.158584713935852, 0.0, 0.0, -0.05365610122680664, 0, 0, 0, 0, 0, 0, 9362.0, 30146.0, 35388.0, 9362.0, 8.350414276123047, 0.029789524152874947, -0.5871713757514954, -0.4090546667575836, -0.06950557231903076, -0.017269205302000046, 0.9975112080574036, -0.06424912065267563, -0.1291980743408203, 1.4853515625, 1.4677734375, 0.1347198486328125, 1.494140625, 1.5029296875, 10.0, 1.0, 10.0, 1.4338418245315552
75637, -0.911928653717041, -4.0152411460876465, 0.9991122484207153, 0.0, 0.0, 1.158584713935852, 0.0, 0.0, -0.05365610122680664, 0, 0, 0, 0, 0, 0, 9362.0, 30146.0, 35388.0, 9362.0, 8.350414276123047, 0.16723419725894928, 0.19163577258586884, 0.0785587877035141, -0.06950557231903076, -0.017269205302000046, 0.9975112080574036, -0.06424912065267563, -0.1291980743408203, 1.4853515625, 1.23486328125, 0.2174835205078125, 1.494140625, 1.44140625, 10.0, 1.0, 10.0, 1.4338418245315552
75647, -0.913554847240448, -4.013550281524658, 0.9963456392288208, 0.0, 0.0, 1.158584713935852, 0.0, 0.0, -0.05365610122680664, 0, 0, 0, 0, 0, 0, 9362.0, 30146.0, 35388.0, 9362.0, 8.350414276123047, 0.16723419725894928, 0.19163577258586884, 0.0785587877035141, -0.06829122453927994, -0.016229107975959778, 0.9960342049598694, -0.06424912065267563, -0.1291980743408203, 1.4853515625, 1.56591796875, 0.337738037109375, 1.494140625, 1.393798828125, 10.0, 1.0, 10.0, 1.4338418245315552
75657, -0.91363126039505, -4.016071319580078, 0.9968051910400391, 0.0, 0.0, 1.1563773155212402, 0.0, 0.0, -0.08988380432128906, 0, 0, 0, 0, 0, 0, 9362.0, 30146.0, 35388.0, 9362.0, 8.350414276123047, 0.16723419725894928, 0.19163577258586884, 0.0785587877035141, -0.06829122453927994, -0.016229107975959778, 0.9960342049598694, -0.06424912065267563, -0.1291980743408203, 1.4853515625, 1.241455078125, 0.192626953125, 1.494140625, 1.393798828125, 10.0, 1.0, 10.0, 1.4335603713989258
75667, -0.913948655128479, -4.018773078918457, 0.996634840965271, 0.0, 0.0, 1.1563773155212402, 0.0, 0.0, -0.08988380432128906, 0, 0, 0, 0, 0, 0, 9362.0, 30146.0, 35388.0, 9362.0, 8.350414276123047, 0.16723419725894928, 0.19163577258586884, 0.0785587877035141, -0.07085119932889938, -0.018035996705293655, 0.9968336820602417, -0.06424912065267563, -0.1291980743408203, 1.4853515625, 1.51171875, 0.21942138671875, 1.48974609375, 1.5234375, 10.0, 1.0, 10.0, 1.4335603713989258
75677, -0.9128762483596802, -4.017814636230469, 0.9967371225357056, 0.0, 0.0, 1.158121109008789, 0.0, 0.0, 0.25527477264404297, 0, 0, 0, 0, 0, 0, 9362.0, 30146.0, 35388.0, 9362.0, 8.350414276123047, 0.16723419725894928, 0.19163577258586884, 0.0785587877035141, -0.06966893374919891, -0.0155625119805336, 0.9999842643737793, -0.06424912065267563, -0.1291980743408203, 1.4853515625, 1.330078125, 0.0206298828125, 1.48974609375, 1.5234375, 10.0, 1.0, 10.0, 1.433320164680481
75687, -0.9113206267356873, -4.019413948059082, 0.9962342381477356, 0.0, 0.0, 1.158121109008789, 0.0, 0.0, 0.25527477264404297, 0, 0, 0, 0, 0, 0, 9362.0, 30146.0, 35388.0, 9362.0, 8.350414276123047, 0.16723419725894928, 0.19163577258586884, 0.0785587877035141, -0.0683622658252716, -0.01491102296859026, 0.9960811138153076, -0.06424912065267563, -0.1291980743408203, 1.4853515625, 1.390869140625, 0.0319671630859375, 1.493408203125, 1.353515625, 10.0, 1.0, 10.0, 1.433320164680481
75697, -0.9110184907913208, -4.019763946533203, 0.9953579902648926, 0.0, 0.0, 1.158121109008789, 0.0, 0.0, 0.25527477264404297, 0, 0, 0, 0, 0, 0, 9362.0, 30146.0, 35388.0, 9362.0, 8.350414276123047, 0.16723419725894928, 0.19163577258586884, 0.0785587877035141, -0.0683622658252716, -0.01491102296859026, 0.9960811138153076, -0.06424912065267563, -0.1291980743408203, 1.4853515625, 1.141845703125, 0.81378173828125, 1.493408203125, 1.42529296875, 10.0, 1.0, 10.0, 1.4339250326156616
75707, -0.9105873703956604, -4.020014762878418, 0.9960082769393921, 0.0, 0.0, 1.158121109008789, 0.0, 0.0, 0.25527477264404297, 0, 0, 0, 0, 0, 0, 9362.0, 30146.0, 35388.0, 9362.0, 8.350414276123047, 0.16723419725894928, 0.19163577258586884, 0.0785587877035141, -0.0683622658252716, -0.01491102296859026, 0.9960811138153076, -0.06424912065267563, -0.1291980743408203, 1.4853515625, 1.518310546875, 0.2331390380859375, 1.49267578125, 1.2744140625, 10.0, 1.0, 10.0, 1.433351993560791
75717, -0.909743070602417, -4.01932954788208, 0.99625164270401, 0.0, 0.0, 1.1487705707550049, 0.0, 0.0, -1.038217544555664, 0, 0, 0, 0, 0, 0, 9362.0, 30146.0, 35388.0, 9362.0, 8.350414276123047, 0.16723419725894928, 0.19163577258586884, 0.0785587877035141, -0.0683622658252716, -0.01491102296859026, 0.9960811138153076, -0.06424912065267563, -0.1291980743408203, 1.4853515625, 1.45458984375, 0.11224365234375, 1.49267578125, 1.354248046875, 10.0, 1.0, 10.0, 1.4329195022583008
75767, -0.9096905589103699, -4.012688159942627, 0.9977073073387146, 0.0, 0.0, 1.1191246509552002, 0.0, 0.0, -0.951838493347168, 0, 0, 0, 0, 0, 0, 9362.0, 30146.0, 35388.0, 9362.0, 8.350414276123047, 0.16723419725894928, 0.19163577258586884, 0.0785587877035141, -0.06827709823846817, -0.014606745913624763, 0.9985326528549194, -0.06424912065267563, -0.1291980743408203, 1.4853515625, 1.553466796875, 0.309661865234375, 1.493408203125, 1.283203125, 10.0, 1.0, 10.0, 1.4329195022583008
75787, -0.9088556170463562, -4.012453079223633, 0.999011754989624, 0.0, 0.0, 1.1055822372436523, 0.0, 0.0, -0.497591495513916, 0, 0, 0, 0, 0, 0, 9362.0, 30146.0, 35388.0, 9362.0, 8.350414276123047, 0.16723419725894928, 0.19163577258586884, 0.0785587877035141, -0.06683968752622604, -0.016411179676651955, 0.9967668652534485, -0.08518748730421066, -0.021678924560546875, 1.494140625, 1.33154296875, 0.0198516845703125, 1.497802734375, 1.52490234375, 10.0, 1.0, 10.0, 1.4327809810638428
75797, -0.91036057472229, -4.015318870544434, 0.9995405673980713, 0.0, 0.0, 1.1055822372436523, 0.0, 0.0, -0.497591495513916, 0, 0, 0, 0, 0, 0, 9362.0, 30146.0, 35388.0, 9362.0, 8.350414276123047, 0.16723419725894928, 0.19163577258586884, 0.0785587877035141, -0.06683968752622604, -0.016411179676651955, 0.9967668652534485, -0.08518748730421066, -0.021678924560546875, 1.494140625, 1.20556640625, 0.3530731201171875, 1.497802734375, 1.28759765625, 10.0, 1.0, 10.0, 1.4334008693695068
75807, -0.9097399115562439, -4.0168890953063965, 0.9970791339874268, 0.0, 0.0, 1.1055822372436523, 0.0, 0.0, -0.497591495513916, 0, 0, 0, 0, 0, 0, 9362.0, 30146.0, 35388.0, 9362.0, 8.350414276123047, 0.16723419725894928, 0.19163577258586884, 0.0785587877035141, -0.06936359405517578, -0.016882948577404022, 0.996664822101593, -0.08518748730421066, -0.021678924560546875, 1.494140625, 1.513916015625, 0.224029541015625, 1.497802734375, 1.5380859375, 10.0, 1.0, 10.0, 1.4334008693695068
75817, -0.9096300601959229, -4.016587257385254, 0.9958955645561218, 0.0, 0.0, 1.0858944654464722, 0.0, 0.0, -0.33959150314331055, 0, 0, 0, 0, 0, 0, 9362.0, 30146.0, 35388.0, 9362.0, 8.350414276123047, 0.16723419725894928, 0.19163577258586884, 0.0785587877035141, -0.06676001846790314, -0.016031956300139427, 0.9963611364364624, -0.08518748730421066, -0.021678924560546875, 1.494140625, 1.335205078125, 0.018280029296875, 1.497802734375, 1.5146484375, 10.0, 1.0, 10.0, 1.4334008693695068
75827, -0.9097619652748108, -4.015623569488525, 0.9954427480697632, 0.0, 0.0, 1.0858944654464722, 0.0, 0.0, -0.33959150314331055, 0, 0, 0, 0, 0, 0, 9362.0, 30146.0, 35388.0, 9362.0, 8.350414276123047, 0.16723419725894928, 0.19163577258586884, 0.0785587877035141, -0.06676001846790314, -0.016031956300139427, 0.9963611364364624, -0.08518748730421066, -0.021678924560546875, 1.494140625, 1.286865234375, 0.070281982421875, 1.497802734375, 1.41943359375, 10.0, 1.0, 10.0, 1.4333053827285767
75847, -0.9106417894363403, -4.016159534454346, 0.9932980537414551, 0.0, 0.0, 1.0735259056091309, 0.0, 0.0, -0.9312272071838379, 0, 0, 0, 0, 0, 0, 9362.0, 30146.0, 35388.0, 9362.0, 8.350414276123047, 0.16723419725894928, 0.19163577258586884, 0.0785587877035141, -0.06987183541059494, -0.018028078600764275, 0.9977635741233826, -0.08518748730421066, -0.021678924560546875, 1.494140625, 1.55419921875, 0.311279296875, 1.49560546875, 1.28466796875, 10.0, 1.0, 10.0, 1.432788372039795
75857, -0.9110865592956543, -4.015897750854492, 0.9924764037132263, 0.0, 0.0, 1.0663506984710693, 0.0, 0.0, 0.12059211730957031, 0, 0, 0, 0, 0, 0, 9362.0, 30146.0, 35388.0, 9362.0, 8.350414276123047, 0.16723419725894928, 0.19163577258586884, 0.0785587877035141, -0.06997286528348923, -0.014822695404291153, 0.9976633191108704, -0.08518748730421066, -0.021678924560546875, 1.494140625, 1.55419921875, 0.311279296875, 1.49560546875, 1.541015625, 10.0, 1.0, 10.0, 1.432788372039795
75867, -0.9110642075538635, -4.014196872711182, 0.9931581020355225, 0.0, 0.0, 1.0663506984710693, 0.0, 0.0, 0.12059211730957031, 0, 0, 0, 0, 0, 0, 9362.0, 30146.0, 35388.0, 9362.0, 8.350414276123047, 0.16723419725894928, 0.19163577258586884, 0.0785587877035141, -0.06997286528348923, -0.014822695404291153, 0.9976633191108704, -0.08518748730421066, -0.021678924560546875, 1.494140625, 1.500732421875, 0.1970977783203125, 1.494873046875, 1.250244140625, 10.0, 1.0, 10.0, 1.432788372039795
75877, -0.9103851318359375, -4.012325286865234, 0.9928334355354309, 0.0, 0.0, 1.0678659677505493, 0.0, 0.0, 0.0429987907409668, 0, 0, 0, 0, 0, 0, 9362.0, 30146.0, 35388.0, 9362.0, 8.350414276123047, 0.16723419725894928, 0.19163577258586884, 0.0785587877035141, -0.06979035586118698, -0.015509363263845444, 0.9963977336883545, -0.08518748730421066, -0.021678924560546875, 1.494140625, 1.40185546875, 0.0417938232421875, 1.494873046875, 1.547607421875, 10.0, 1.0, 10.0, 1.432788372039795
75887, -0.9104704856872559, -4.0125813484191895, 0.9944892525672913, 0.0, 0.0, 1.0678659677505493, 0.0, 0.0, 0.0429987907409668, 0, 0, 0, 0, 0, 0, 9362.0, 30146.0, 35388.0, 9362.0, 8.350414276123047, 0.16723419725894928, 0.19163577258586884, 0.0785587877035141, -0.06783106178045273, -0.014163393527269363, 0.9946730732917786, -0.08518748730421066, -0.021678924560546875, 1.494140625, 1.3388671875, 0.017120361328125, 1.49560546875, 1.52490234375, 10.0, 1.0, 10.0, 1.432788372039795
75907, -0.9118425250053406, -4.011157035827637, 0.9944794774055481, 0.0, 0.0, 1.083459496498108, 0.0, 0.0, 0.7203102111816406, 0, 0, 0, 0, 0, 0, 9362.0, 30146.0, 35388.0, 9362.0, 8.350414276123047, 0.16723419725894928, 0.19163577258586884, 0.0785587877035141, -0.06929678469896317, -0.016297830268740654, 0.9945847392082214, -0.08518748730421066, -0.021678924560546875, 1.494140625, 1.26123046875, 0.129302978515625, 1.494873046875, 1.5439453125, 10.0, 1.0, 10.0, 1.4333698749542236
75917, -0.9113227725028992, -4.010239601135254, 0.9921329617500305, 0.0, 0.0, 1.0921295881271362, 0.0, 0.0, 0.867009162902832, 0, 0, 0, 0, 0, 0, 9362.0, 30146.0, 35388.0, 9362.0, 8.350414276123047, 0.16723419725894928, 0.19163577258586884, 0.0785587877035141, -0.06929678469896317, -0.016297830268740654, 0.9945847392082214, -0.08518748730421066, -0.021678924560546875, 1.494140625, 1.543212890625, 0.286834716796875, 1.494873046875, 1.3095703125, 10.0, 1.0, 10.0, 1.4332773685455322
75927, -0.910006582736969, -4.01085901260376, 0.9942032694816589, 0.0, 0.0, 1.0921295881271362, 0.0, 0.0, 0.867009162902832, 0, 0, 0, 0, 0, 0, 9362.0, 30146.0, 35388.0, 9362.0, 8.350414276123047, 0.16723419725894928, 0.19163577258586884, 0.0785587877035141, -0.06929678469896317, -0.016297830268740654, 0.9945847392082214, -0.08518748730421066, -0.021678924560546875, 1.494140625, 1.43408203125, 0.080810546875, 1.49853515625, 1.55712890625, 10.0, 1.0, 10.0, 1.4335689544677734
75937, -0.9107151031494141, -4.0094895362854, 0.9925007820129395, 0.0, 0.0, 1.0998469591140747, 0.0, 0.0, -0.008571147918701172, 0, 0, 0, 0, 0, 0, 9362.0, 30146.0, 35388.0, 9362.0, 8.350414276123047, 0.16723419725894928, 0.19163577258586884, 0.0785587877035141, -0.06929678469896317, -0.016297830268740654, 0.9945847392082214, -0.08518748730421066, -0.021678924560546875, 1.494140625, 1.527099609375, 0.2517852783203125, 1.49853515625, 1.396728515625, 10.0, 1.0, 10.0, 1.4335057735443115
75947, -0.9110146164894104, -4.00960636138916, 0.9936760663986206, 0.0, 0.0, 1.0998469591140747, 0.0, 0.0, -0.008571147918701172, 0, 0, 0, 0, 0, 0, 9362.0, 30146.0, 35388.0, 9362.0, 8.350414276123047, 0.16723419725894928, 0.19163577258586884, 0.0785587877035141, -0.06803329288959503, -0.01536319125443697, 0.9974702596664429, -0.08518748730421066, -0.021678924560546875, 1.494140625, 1.4560546875, 0.1147003173828125, 1.49560546875, 1.552734375, 10.0, 1.0, 10.0, 1.4335057735443115
75957, -0.9106979370117188, -4.008612632751465, 0.9931115508079529, 0.0, 0.0, 1.1007940769195557, 0.0, 0.0, 0.10242462158203125, 0, 0, 0, 0, 0, 0, 9362.0, 30146.0, 35388.0, 9362.0, 8.350414276123047, 0.16723419725894928, 0.19163577258586884, 0.0785587877035141, -0.06839249283075333, -0.01513078436255455, 0.9981414675712585, -0.08518748730421066, -0.021678924560546875, 1.494140625, 1.417236328125, 0.058624267578125, 1.49560546875, 1.573974609375, 10.0, 1.0, 10.0, 1.4335057735443115
75967, -0.9101605415344238, -4.008241653442383, 0.9931167364120483, 0.0, 0.0, 1.1007940769195557, 0.0, 0.0, 0.10242462158203125, 0, 0, 0, 0, 0, 0, 9362.0, 30146.0, 35388.0, 9362.0, 8.350414276123047, 0.16723419725894928, 0.19163577258586884, 0.0785587877035141, -0.06977137178182602, -0.015615330077707767, 0.9968970417976379, -0.08518748730421066, -0.021678924560546875, 1.494140625, 1.234130859375, 0.2203521728515625, 1.497802734375, 1.4912109375, 10.0, 1.0, 10.0, 1.4335057735443115
75977, -0.909665048122406, -4.008514881134033, 0.990923285484314, 0.0, 0.0, 1.0948901176452637, 0.0, 0.0, -0.6825685501098633, 0, 0, 0, 0, 0, 0, 9362.0, 30146.0, 35388.0, 9362.0, 8.350414276123047, 0.16723419725894928, 0.19163577258586884, 0.0785587877035141, -0.06929416209459305, -0.015017404220998287, 0.9947643876075745, -0.08518748730421066, -0.021678924560546875, 1.494140625, 1.259033203125, 0.135589599609375, 1.497802734375, 1.524169921875, 10.0, 1.0, 10.0, 1.4335057735443115
75987, -0.9091582298278809, -4.006403923034668, 0.9914290308952332, 0.0, 0.0, 1.0948901176452637, 0.0, 0.0, -0.6825685501098633, 0, 0, 0, 0, 0, 0, 9362.0, 30146.0, 35388.0, 9362.0, 8.350414276123047, 0.16723419725894928, 0.19163577258586884, 0.0785587877035141, -0.06929416209459305, -0.015017404220998287, 0.9947643876075745, -0.08518748730421066, -0.021678924560546875, 1.494140625, 1.259033203125, 0.135589599609375, 1.491943359375, 1.2861328125, 10.0, 1.0, 10.0, 1.4349391460418701
75997, -0.9099363684654236, -4.007142543792725, 0.991732120513916, 0.0, 0.0, 1.0815777778625488, 0.0, 0.0, -0.7169246673583984, 0, 0, 0, 0, 0, 0, 9362.0, 30146.0, 35388.0, 9362.0, 8.350414276123047, 0.16723419725894928, 0.19163577258586884, 0.0785587877035141, -0.06824515014886856, -0.017105447128415108, 0.9986553192138672, -0.08518748730421066, -0.021678924560546875, 1.494140625, 1.38134765625, 0.025177001953125, 1.491943359375, 1.562255859375, 10.0, 1.0, 10.0, 1.4349391460418701
76007, -0.9093903303146362, -4.007070064544678, 0.990422785282135, 0.0, 0.0, 1.0815777778625488, 0.0, 0.0, -0.7169246673583984, 0, 0, 0, 0, 0, 0, 9362.0, 30146.0, 35388.0, 9362.0, 8.350414276123047, 0.16723419725894928, 0.19163577258586884, 0.0785587877035141, -0.06923997402191162, -0.016614124178886414, 0.9975523352622986, -0.08518748730421066, -0.021678924560546875, 1.494140625, 1.446533203125, 0.09930419921875, 1.491943359375, 1.25537109375, 10.0, 1.0, 10.0, 1.4349391460418701
76017, -0.9100233316421509, -4.006401062011719, 0.9900550842285156, 0.0, 0.0, 1.077520489692688, 0.0, 0.0, 0.2395033836364746, 0, 0, 0, 0, 0, 0, 9362.0, 30146.0, 35388.0, 9362.0, 8.350414276123047, 0.16723419725894928, 0.19163577258586884, 0.0785587877035141, -0.07148122787475586, -0.016485486179590225, 0.9961122274398804, -0.08518748730421066, -0.021678924560546875, 1.494140625, 1.47802734375, 0.1532745361328125, 1.491943359375, 1.55419921875, 10.0, 1.0, 10.0, 1.4349391460418701
76027, -0.9093425273895264, -4.011305809020996, 0.9919365644454956, 0.0, 0.0, 1.077520489692688, 0.0, 0.0, 0.2395033836364746, 0, 0, 0, 0, 0, 0, 9362.0, 30146.0, 35388.0, 9362.0, 8.350414276123047, 0.16723419725894928, 0.19163577258586884, 0.0785587877035141, -0.0722818598151207, -0.014309041202068329, 0.9957486987113953, -0.08518748730421066, -0.021678924560546875, 1.494140625, 1.263427734375, 0.1233062744140625, 1.494873046875, 1.55419921875, 10.0, 1.0, 10.0, 1.4364080429077148
76037, -0.9102312326431274, -4.010168075561523, 0.9918768405914307, 0.0, 0.0, 1.0766947269439697, 0.0, 0.0, -0.29813051223754883, 0, 0, 0, 0, 0, 0, 9362.0, 30146.0, 35388.0, 9362.0, 8.350414276123047, 0.16723419725894928, 0.19163577258586884, 0.0785587877035141, -0.0722818598151207, -0.014309041202068329, 0.9957486987113953, -0.08518748730421066, -0.021678924560546875, 1.494140625, 1.212158203125, 0.3188018798828125, 1.494873046875, 1.55419921875, 10.0, 1.0, 10.0, 1.4368146657943726
76047, -0.9108595848083496, -4.009152412414551, 0.9915842413902283, 0.0, 0.0, 1.0740115642547607, 0.0, 0.0, -0.26831626892089844, 0, 0, 0, 0, 0, 0, 9362.0, 30146.0, 35388.0, 9362.0, 8.350414276123047, 0.16723419725894928, 0.19163577258586884, 0.0785587877035141, -0.06822497397661209, -0.017819592729210854, 0.9976270198822021, -0.08518748730421066, -0.021678924560546875, 1.494140625, 1.3974609375, 0.03759765625, 1.493408203125, 1.55419921875, 10.0, 1.0, 10.0, 1.4367551803588867
76067, -0.9094160795211792, -4.008697986602783, 0.9902254939079285, 0.0, 0.0, 1.0776115655899048, 0.0, 0.0, 0.3600001335144043, 0, 0, 0, 0, 0, 0, 9362.0, 30146.0, 35388.0, 9362.0, 8.350414276123047, 0.16723419725894928, 0.19163577258586884, 0.0785587877035141, -0.06952708959579468, -0.01590515859425068, 0.9969341158866882, -0.08518748730421066, -0.021678924560546875, 1.494140625, 1.516845703125, 0.23004150390625, 1.490478515625, 1.2685546875, 10.0, 1.0, 10.0, 1.4367551803588867
76087, -0.9092462658882141, -4.005143165588379, 0.9914336800575256, 0.0, 0.0, 1.084861159324646, 0.0, 0.0, 0.40096044540405273, 0, 0, 0, 0, 0, 0, 9362.0, 30146.0, 35388.0, 9362.0, 8.350414276123047, 0.16723419725894928, 0.19163577258586884, 0.0785587877035141, -0.06818996369838715, -0.01656484603881836, 0.9952540397644043, -0.08113829046487808, -0.021678924560546875, 1.494140625, 1.505859375, 0.2073974609375, 1.493408203125, 1.297119140625, 10.0, 1.0, 10.0, 1.4358915090560913
76097, -0.9100964069366455, -4.004508018493652, 0.9893676042556763, 0.0, 0.0, 1.0884368419647217, 0.0, 0.0, -0.0033020973205566406, 0, 0, 0, 0, 0, 0, 9362.0, 30146.0, 35388.0, 9362.0, 8.350414276123047, 0.16723419725894928, 0.19163577258586884, 0.0785587877035141, -0.06964525580406189, -0.017908042296767235, 0.9988572001457214, -0.08113829046487808, -0.021678924560546875, 1.494140625, 1.34619140625, 0.015594482421875, 1.493408203125, 1.530029296875, 10.0, 1.0, 10.0, 1.4358915090560913
76127, -0.9097574949264526, -4.003759384155273, 0.9887135028839111, 0.0, 0.0, 1.09770667552948, 0.0, 0.0, 0.4405021667480469, 0, 0, 0, 0, 0, 0, 9362.0, 30146.0, 35388.0, 9362.0, 8.350414276123047, 0.16723419725894928, 0.19163577258586884, 0.0785587877035141, -0.06734853237867355, -0.01602810062468052, 0.9984992146492004, -0.08113829046487808, -0.021678924560546875, 1.494140625, 1.22314453125, 0.2666778564453125, 1.494140625, 1.546875, 10.0, 1.0, 10.0, 1.4356244802474976
76137, -0.9097665548324585, -4.002833366394043, 0.9892637729644775, 0.0, 0.0, 1.0951095819473267, 0.0, 0.0, -0.25970935821533203, 0, 0, 0, 0, 0, 0, 9362.0, 30146.0, 35388.0, 9362.0, 8.350414276123047, 0.16723419725894928, 0.19163577258586884, 0.0785587877035141, -0.06939835846424103, -0.01594282127916813, 0.997006356716156, -0.08113829046487808, -0.021678924560546875, 1.494140625, 1.499267578125, 0.1941070556640625, 1.494140625, 1.5380859375, 10.0, 1.0, 10.0, 1.4356244802474976
76147, -0.9097442030906677, -4.002370834350586, 0.9904212951660156, 0.0, 0.0, 1.0951095819473267, 0.0, 0.0, -0.25970935821533203, 0, 0, 0, 0, 0, 0, 9362.0, 30146.0, 35388.0, 9362.0, 8.350414276123047, 0.16723419725894928, 0.19163577258586884, 0.0785587877035141, -0.06768647581338882, -0.015670491382479668, 0.9961539506912231, -0.08113829046487808, -0.021678924560546875, 1.494140625, 1.4150390625, 0.05596923828125, 1.496337890625, 1.53515625, 10.0, 1.0, 10.0, 1.4356244802474976
76167, -0.9111270308494568, -4.007848262786865, 0.9900748133659363, 0.0, 0.0, 1.0951095819473267, 0.0, 0.0, -0.25970935821533203, 0, 0, 0, 0, 0, 0, 9362.0, 30146.0, 35388.0, 9362.0, 8.350414276123047, 0.16723419725894928, 0.19163577258586884, 0.0785587877035141, -0.0675666555762291, -0.015407303348183632, 0.9976511597633362, -0.08113829046487808, -0.021678924560546875, 1.494140625, 1.52197265625, 0.2408599853515625, 1.496337890625, 1.253173828125, 10.0, 1.0, 10.0, 1.4356244802474976
76187, -0.911161482334137, -4.006487846374512, 0.9902428388595581, 0.0, 0.0, 1.0944803953170776, 0.0, 0.0, 0.05105733871459961, 0, 0, 0, 0, 0, 0, 9362.0, 30146.0, 35388.0, 9362.0, 8.350414276123047, 0.16723419725894928, 0.19163577258586884, 0.0785587877035141, -0.06974697858095169, -0.015713272616267204, 0.9973910450935364, -0.07396034151315689, -0.030637741088867188, 1.493408203125, 1.49853515625, 0.1927032470703125, 1.49267578125, 1.532958984375, 10.0, 1.0, 10.0, 1.4356244802474976
76197, -0.9103759527206421, -4.005564212799072, 0.9893642663955688, 0.0, 0.0, 1.0904322862625122, 0.0, 0.0, -0.45076608657836914, 0, 0, 0, 0, 0, 0, 9362.0, 30146.0, 35388.0, 9362.0, 8.350414276123047, 0.16723419725894928, 0.19163577258586884, 0.0785587877035141, -0.06841318309307098, -0.01627282239496708, 0.9953120946884155, -0.07396034151315689, -0.030637741088867188, 1.493408203125, 1.1982421875, 0.3938140869140625, 1.49267578125, 1.532958984375, 10.0, 1.0, 10.0, 1.4354124069213867
76207, -0.9087398648262024, -4.005313873291016, 0.987895131111145, 0.0, 0.0, 1.0904322862625122, 0.0, 0.0, -0.45076608657836914, 0, 0, 0, 0, 0, 0, 9362.0, 30146.0, 35388.0, 9362.0, 8.350414276123047, 0.16723419725894928, 0.19163577258586884, 0.0785587877035141, -0.06743456423282623, -0.0166365597397089, 0.9967750906944275, -0.07396034151315689, -0.030637741088867188, 1.493408203125, 1.398193359375, 0.03826904296875, 1.490478515625, 1.552734375, 10.0, 1.0, 10.0, 1.4354124069213867
76217, -0.9086901545524597, -4.0058441162109375, 0.988101065158844, 0.0, 0.0, 1.080536961555481, 0.0, 0.0, -0.5838394165039062, 0, 0, 0, 0, 0, 0, 9362.0, 30146.0, 35388.0, 9362.0, 8.350414276123047, 0.16723419725894928, 0.19163577258586884, 0.0785587877035141, -0.06814329326152802, -0.015407023951411247, 0.9986010193824768, -0.07396034151315689, -0.030637741088867188, 1.493408203125, 1.4619140625, 0.1246185302734375, 1.490478515625, 1.414306640625, 10.0, 1.0, 10.0, 1.4354124069213867
76227, -0.9078893065452576, -4.007559776306152, 0.9888073205947876, 0.0, 0.0, 1.080536961555481, 0.0, 0.0, -0.5838394165039062, 0, 0, 0, 0, 0, 0, 9362.0, 30146.0, 35388.0, 9362.0, 8.350414276123047, 0.0644763857126236, 0.24800565838813782, 0.0592232346534729, -0.06814329326152802, -0.015407023951411247, 0.9986010193824768, -0.07396034151315689, -0.030637741088867188, 1.493408203125, 1.5380859375, 0.2755889892578125, 1.493408203125, 1.44140625, 10.0, 1.0, 10.0, 1.4354124069213867
76237, -0.9079254865646362, -4.0081071853637695, 0.9887137413024902, 0.0, 0.0, 1.0721936225891113, 0.0, 0.0, -0.3088712692260742, 0, 0, 0, 0, 0, 0, 9362.0, 30146.0, 35388.0, 9362.0, 8.350414276123047, 0.0644763857126236, 0.24800565838813782, 0.0592232346534729, -0.06814329326152802, -0.015407023951411247, 0.9986010193824768, -0.07396034151315689, -0.030637741088867188, 1.493408203125, 1.55419921875, 0.311279296875, 1.493408203125, 1.598876953125, 10.0, 1.0, 10.0, 1.4346388578414917
76247, -0.9079830050468445, -4.004112243652344, 0.9862871766090393, 0.0, 0.0, 1.0721936225891113, 0.0, 0.0, -0.3088712692260742, 0, 0, 0, 0, 0, 0, 9362.0, 30146.0, 35388.0, 9362.0, 8.350414276123047, 0.0644763857126236, 0.24800565838813782, 0.0592232346534729, -0.06814329326152802, -0.015407023951411247, 0.9986010193824768, -0.07396034151315689, -0.030637741088867188, 1.493408203125, 1.5205078125, 0.237762451171875, 1.494140625, 1.467041015625, 10.0, 1.0, 10.0, 1.434151530265808
76257, -0.9098570346832275, -4.001808166503906, 0.9845434427261353, 0.0, 0.0, 1.0669119358062744, 0.0, 0.0, -0.2501845359802246, 0, 0, 0, 0, 0, 0, 9362.0, 30146.0, 35388.0, 9362.0, 8.350414276123047, 0.0644763857126236, 0.24800565838813782, 0.0592232346534729, -0.06814329326152802, -0.015407023951411247, 0.9986010193824768, -0.07396034151315689, -0.030637741088867188, 1.493408203125, 1.530029296875, 0.2581329345703125, 1.494140625, 1.1982421875, 10.0, 1.0, 10.0, 1.4335546493530273
76267, -0.9098137021064758, -3.999687910079956, 0.9829978942871094, 0.0, 0.0, 1.0669119358062744, 0.0, 0.0, -0.2501845359802246, 0, 0, 0, 0, 0, 0, 9362.0, 30146.0, 35388.0, 9362.0, 8.350414276123047, 0.0644763857126236, 0.24800565838813782, 0.0592232346534729, -0.06814329326152802, -0.015407023951411247, 0.9986010193824768, -0.07396034151315689, -0.030637741088867188, 1.493408203125, 1.530029296875, 0.2581329345703125, 1.493408203125, 1.3740234375, 10.0, 1.0, 10.0, 1.4335546493530273
76287, -0.9100933074951172, -4.005439758300781, 0.985131561756134, 0.0, 0.0, 1.062633752822876, 0.0, 0.0, -0.20265579223632812, 0, 0, 0, 0, 0, 0, 9362.0, 30146.0, 35388.0, 9362.0, 8.350414276123047, 0.0644763857126236, 0.24800565838813782, 0.0592232346534729, -0.06814329326152802, -0.015407023951411247, 0.9986010193824768, -0.0759321004152298, -0.31735801696777344, 1.469970703125, 1.54833984375, 0.298126220703125, 1.49560546875, 1.3125, 10.0, 1.0, 10.0, 1.432784080505371
76297, -0.9115998148918152, -4.004671096801758, 0.9857942461967468, 0.0, 0.0, 1.0613555908203125, 0.0, 0.0, 0.054574012756347656, 0, 0, 0, 0, 0, 0, 9362.0, 30146.0, 35388.0, 9362.0, 8.350414276123047, 0.0644763857126236, 0.24800565838813782, 0.0592232346534729, -0.07062091678380966, -0.016790255904197693, 0.9962074160575867, -0.0759321004152298, -0.31735801696777344, 1.469970703125, 1.48388671875, 0.1642303466796875, 1.49560546875, 1.549072265625, 10.0, 1.0, 10.0, 1.432784080505371
76307, -0.9113429188728333, -4.003171920776367, 0.9858988523483276, 0.0, 0.0, 1.0613555908203125, 0.0, 0.0, 0.054574012756347656, 0, 0, 0, 0, 0, 0, 9362.0, 30146.0, 35388.0, 9362.0, 8.350414276123047, 0.0644763857126236, 0.24800565838813782, 0.0592232346534729, -0.07062091678380966, -0.016790255904197693, 0.9962074160575867, -0.0759321004152298, -0.31735801696777344, 1.469970703125, 1.549072265625, 0.2998809814453125, 1.494873046875, 1.304443359375, 10.0, 1.0, 10.0, 1.4325213432312012
76317, -0.9122676849365234, -4.004266262054443, 0.9854581356048584, 0.0, 0.0, 1.0573675632476807, 0.0, 0.0, -0.44791698455810547, 0, 0, 0, 0, 0, 0, 9362.0, 30146.0, 35388.0, 9362.0, 8.350414276123047, 0.0644763857126236, 0.24800565838813782, 0.0592232346534729, -0.06876488029956818, -0.01538013108074665, 0.9957653284072876, -0.0759321004152298, -0.31735801696777344, 1.469970703125, 1.585693359375, 0.383544921875, 1.494873046875, 1.388671875, 10.0, 1.0, 10.0, 1.4325213432312012
76327, -0.9115769863128662, -4.006831645965576, 0.9861590266227722, 0.0, 0.0, 1.0573675632476807, 0.0, 0.0, -0.44791698455810547, 0, 0, 0, 0, 0, 0, 9362.0, 30146.0, 35388.0, 9362.0, 8.350414276123047, 0.0644763857126236, 0.24800565838813782, 0.0592232346534729, -0.06730426847934723, -0.014208215288817883, 0.9961336255073547, -0.0759321004152298, -0.31735801696777344, 1.469970703125, 1.320556640625, 0.02685546875, 1.49560546875, 1.538818359375, 10.0, 1.0, 10.0, 1.4325213432312012
76337, -0.9115984439849854, -4.007071495056152, 0.9852956533432007, 0.0, 0.0, 1.05353581905365, 0.0, 0.0, 0.01995563507080078, 0, 0, 0, 0, 0, 0, 9362.0, 30146.0, 35388.0, 9362.0, 8.350414276123047, 0.0644763857126236, 0.24800565838813782, 0.0592232346534729, -0.06859564781188965, -0.01496806088835001, 0.9973816275596619, -0.0759321004152298, -0.31735801696777344, 1.469970703125, 1.3154296875, 0.03118896484375, 1.49560546875, 1.52783203125, 10.0, 1.0, 10.0, 1.4325213432312012
76347, -0.9119169116020203, -4.009104251861572, 0.9867831468582153, 0.0, 0.0, 1.05353581905365, 0.0, 0.0, 0.01995563507080078, 0, 0, 0, 0, 0, 0, 9362.0, 30146.0, 35388.0, 9362.0, 8.350414276123047, 0.0644763857126236, 0.24800565838813782, 0.0592232346534729, -0.06944912672042847, -0.01395035907626152, 0.9985166788101196, -0.0759321004152298, -0.31735801696777344, 1.469970703125, 1.298583984375, 0.051055908203125, 1.49560546875, 1.48388671875, 10.0, 1.0, 10.0, 1.4325213432312012
76357, -0.9113125205039978, -4.007956027984619, 0.9883247017860413, 0.0, 0.0, 1.055517315864563, 0.0, 0.0, 0.18019676208496094, 0, 0, 0, 0, 0, 0, 9362.0, 30146.0, 35388.0, 9362.0, 8.350414276123047, 0.0644763857126236, 0.24800565838813782, 0.0592232346534729, -0.06948885321617126, -0.01717105321586132, 0.9980762600898743, -0.0759321004152298, -0.31735801696777344, 1.469970703125, 1.29345703125, 0.05889892578125, 1.49560546875, 1.534423828125, 10.0, 1.0, 10.0, 1.4325213432312012
76387, -0.9108632802963257, -4.002727031707764, 0.9835299253463745, 0.0, 0.0, 1.0547711849212646, 0.0, 0.0, -0.23679733276367188, 0, 0, 0, 0, 0, 0, 9362.0, 30146.0, 35388.0, 9362.0, 8.350414276123047, 0.0644763857126236, 0.24800565838813782, 0.0592232346534729, -0.0686010867357254, -0.014914112165570259, 0.9965208768844604, -0.09416812658309937, -0.18295860290527344, 1.48095703125, 1.540283203125, 0.280364990234375, 1.494873046875, 1.37109375, 10.0, 1.0, 10.0, 1.4332786798477173
76397, -0.9100788235664368, -4.003785133361816, 0.9845011830329895, 0.0, 0.0, 1.0550962686538696, 0.0, 0.0, 0.24563074111938477, 0, 0, 0, 0, 0, 0, 9362.0, 30146.0, 35388.0, 9362.0, 8.350414276123047, 0.0644763857126236, 0.24800565838813782, 0.0592232346534729, -0.0686010867357254, -0.014914112165570259, 0.9965208768844604, -0.09416812658309937, -0.18295860290527344, 1.48095703125, 1.552001953125, 0.3063201904296875, 1.494873046875, 1.3740234375, 10.0, 1.0, 10.0, 1.4330129623413086
76407, -0.9105227589607239, -4.006460666656494, 0.9843440055847168, 0.0, 0.0, 1.0550962686538696, 0.0, 0.0, 0.24563074111938477, 0, 0, 0, 0, 0, 0, 9362.0, 30146.0, 35388.0, 9362.0, 8.350414276123047, 0.0644763857126236, 0.24800565838813782, 0.0592232346534729, -0.0686010867357254, -0.014914112165570259, 0.9965208768844604, -0.09416812658309937, -0.18295860290527344, 1.48095703125, 1.56298828125, 0.3311767578125, 1.49560546875, 1.292724609375, 10.0, 1.0, 10.0, 1.4326533079147339
76417, -0.9101623892784119, -4.004612445831299, 0.9834247827529907, 0.0, 0.0, 1.0571094751358032, 0.0, 0.0, -0.019752979278564453, 0, 0, 0, 0, 0, 0, 9362.0, 30146.0, 35388.0, 9362.0, 8.350414276123047, 0.0644763857126236, 0.24800565838813782, 0.0592232346534729, -0.0686010867357254, -0.014914112165570259, 0.9965208768844604, -0.09416812658309937, -0.18295860290527344, 1.48095703125, 1.569580078125, 0.3462371826171875, 1.49560546875, 1.396728515625, 10.0, 1.0, 10.0, 1.4324913024902344
76427, -0.9097985029220581, -4.00466251373291, 0.9846706986427307, 0.0, 0.0, 1.0571094751358032, 0.0, 0.0, -0.019752979278564453, 0, 0, 0, 0, 0, 0, 9362.0, 30146.0, 35388.0, 9362.0, 8.350414276123047, 0.0644763857126236, 0.24800565838813782, 0.0592232346534729, -0.0686010867357254, -0.014914112165570259, 0.9965208768844604, -0.09416812658309937, -0.18295860290527344, 1.48095703125, 1.553466796875, 0.309661865234375, 1.493408203125, 1.395263671875, 10.0, 1.0, 10.0, 1.4325333833694458
76437, -0.9098763465881348, -4.003598213195801, 0.9842163324356079, 0.0, 0.0, 1.0605992078781128, 0.0, 0.0, 0.3667593002319336, 0, 0, 0, 0, 0, 0, 9362.0, 30146.0, 35388.0, 9362.0, 8.350414276123047, 0.0644763857126236, 0.24800565838813782, 0.0592232346534729, -0.0686010867357254, -0.014914112165570259, 0.9965208768844604, -0.09416812658309937, -0.18295860290527344, 1.48095703125, 1.512451171875, 0.2209625244140625, 1.493408203125, 1.610595703125, 10.0, 1.0, 10.0, 1.4322978258132935
76447, -0.9094903469085693, -4.001799583435059, 0.9827104210853577, 0.0, 0.0, 1.0605992078781128, 0.0, 0.0, 0.3667593002319336, 0, 0, 0, 0, 0, 0, 9362.0, 30146.0, 35388.0, 9362.0, 8.350414276123047, 0.0644763857126236, 0.24800565838813782, 0.0592232346534729, -0.0686010867357254, -0.014914112165570259, 0.9965208768844604, -0.09416812658309937, -0.18295860290527344, 1.48095703125, 1.516845703125, 0.23004150390625, 1.496337890625, 1.2099609375, 10.0, 1.0, 10.0, 1.4317970275878906
76457, -0.9118044972419739, -3.9997379779815674, 0.9829419851303101, 0.0, 0.0, 1.0608559846878052, 0.0, 0.0, -0.304412841796875, 0, 0, 0, 0, 0, 0, 9362.0, 30146.0, 35388.0, 9362.0, 8.350414276123047, 0.0644763857126236, 0.24800565838813782, 0.0592232346534729, -0.0686010867357254, -0.014914112165570259, 0.9965208768844604, -0.09416812658309937, -0.18295860290527344, 1.48095703125, 1.50439453125, 0.2044219970703125, 1.496337890625, 1.538818359375, 10.0, 1.0, 10.0, 1.4311821460723877
76467, -0.9126881957054138, -4.000018119812012, 0.9818388819694519, 0.0, 0.0, 1.0608559846878052, 0.0, 0.0, -0.304412841796875, 0, 0, 0, 0, 0, 0, 9362.0, 30146.0, 35388.0, 9362.0, 8.350414276123047, 0.0644763857126236, 0.24800565838813782, 0.0592232346534729, -0.06954305619001389, -0.017175327986478806, 0.9985203742980957, -0.09416812658309937, -0.18295860290527344, 1.48095703125, 1.5205078125, 0.237762451171875, 1.49267578125, 1.573974609375, 10.0, 1.0, 10.0, 1.4311821460723877
76487, -0.9134495258331299, -4.0020880699157715, 0.9840074777603149, 0.0, 0.0, 1.053463339805603, 0.0, 0.0, -0.4652976989746094, 0, 0, 0, 0, 0, 0, 9362.0, 30146.0, 35388.0, 9362.0, 8.350414276123047, 0.0644763857126236, 0.24800565838813782, 0.0592232346534729, -0.06873723864555359, -0.016195233911275864, 0.9958033561706543, -0.07783546298742294, 0.03208160400390625, 1.49853515625, 1.515380859375, 0.2270050048828125, 1.494873046875, 1.5029296875, 10.0, 1.0, 10.0, 1.430797815322876
76497, -0.9128418564796448, -4.003666400909424, 0.9855534434318542, 0.0, 0.0, 1.043866515159607, 0.0, 0.0, -0.540924072265625, 0, 0, 0, 0, 0, 0, 9362.0, 30146.0, 35388.0, 9362.0, 8.350414276123047, 0.0644763857126236, 0.24800565838813782, 0.0592232346534729, -0.06873723864555359, -0.016195233911275864, 0.9958033561706543, -0.07783546298742294, 0.03208160400390625, 1.49853515625, 1.411376953125, 0.05181884765625, 1.494873046875, 1.3798828125, 10.0, 1.0, 10.0, 1.430658221244812
76507, -0.9119461178779602, -4.0066237449646, 0.9848610162734985, 0.0, 0.0, 1.043866515159607, 0.0, 0.0, -0.540924072265625, 0, 0, 0, 0, 0, 0, 9362.0, 30146.0, 35388.0, 9362.0, 8.350414276123047, 0.0644763857126236, 0.24800565838813782, 0.0592232346534729, -0.0688297376036644, -0.01614256389439106, 0.9947486519813538, -0.07783546298742294, 0.03208160400390625, 1.49853515625, 1.316162109375, 0.030517578125, 1.493408203125, 1.43115234375, 10.0, 1.0, 10.0, 1.430658221244812
76517, -0.9128907918930054, -4.008507251739502, 0.9859399199485779, 0.0, 0.0, 1.043866515159607, 0.0, 0.0, -0.540924072265625, 0, 0, 0, 0, 0, 0, 9362.0, 30146.0, 35388.0, 9362.0, 8.350414276123047, 0.0644763857126236, 0.24800565838813782, 0.0592232346534729, -0.0688297376036644, -0.01614256389439106, 0.9947486519813538, -0.07783546298742294, 0.03208160400390625, 1.49853515625, 1.50732421875, 0.2104644775390625, 1.493408203125, 1.35498046875, 10.0, 1.0, 10.0, 1.4313398599624634
76527, -0.9141942858695984, -4.007288932800293, 0.9879392385482788, 0.0, 0.0, 1.043866515159607, 0.0, 0.0, -0.540924072265625, 0, 0, 0, 0, 0, 0, 9362.0, 30146.0, 35388.0, 9362.0, 8.350414276123047, 0.0644763857126236, 0.24800565838813782, 0.0592232346534729, -0.0688297376036644, -0.01614256389439106, 0.9947486519813538, -0.07783546298742294, 0.03208160400390625, 1.49853515625, 1.276611328125, 0.0910186767578125, 1.494873046875, 1.360107421875, 10.0, 1.0, 10.0, 1.4313832521438599
76547, -0.9148145914077759, -4.008524417877197, 0.9882522225379944, 0.0, 0.0, 1.0369666814804077, 0.0, 0.0, 0.6293416023254395, 0, 0, 0, 0, 0, 0, 9362.0, 30146.0, 35388.0, 9362.0, 8.350414276123047, 0.0644763857126236, 0.24800565838813782, 0.0592232346534729, -0.069151870906353, -0.015347725711762905, 0.9984325170516968, -0.07783546298742294, 0.03208160400390625, 1.49853515625, 1.2275390625, 0.24749755859375, 1.491943359375, 1.406982421875, 10.0, 1.0, 10.0, 1.431296944618225
76557, -0.9150643348693848, -4.009851932525635, 0.9897337555885315, 0.0, 0.0, 1.0493688583374023, 0.0, 0.0, 0.6738066673278809, 0, 0, 0, 0, 0, 0, 9362.0, 30146.0, 35388.0, 9362.0, 8.350414276123047, 0.0644763857126236, 0.24800565838813782, 0.0592232346534729, -0.06861178576946259, -0.01679888740181923, 0.9954342842102051, -0.07783546298742294, 0.03208160400390625, 1.49853515625, 1.5205078125, 0.237762451171875, 1.491943359375, 1.535888671875, 10.0, 1.0, 10.0, 1.431296944618225
76567, -0.9137384295463562, -4.011089324951172, 0.9902732968330383, 0.0, 0.0, 1.0554331541061401, 0.0, 0.0, 0.6064295768737793, 0, 0, 0, 0, 0, 0, 9362.0, 30146.0, 35388.0, 9362.0, 8.350414276123047, 0.0644763857126236, 0.24800565838813782, 0.0592232346534729, -0.07031052559614182, -0.017486389726400375, 0.9982976913452148, -0.07783546298742294, 0.03208160400390625, 1.49853515625, 1.41064453125, 0.0509490966796875, 1.491943359375, 1.535888671875, 10.0, 1.0, 10.0, 1.431296944618225
76587, -0.9139570593833923, -4.011776447296143, 0.9920989274978638, 0.0, 0.0, 1.0565165281295776, 0.0, 0.0, 0.10833740234375, 0, 0, 0, 0, 0, 0, 9362.0, 30146.0, 35388.0, 9362.0, 8.350414276123047, 0.0644763857126236, 0.24800565838813782, 0.0592232346534729, -0.07031052559614182, -0.017486389726400375, 0.9982976913452148, -0.0767192542552948, -0.13815879821777344, 1.484619140625, 1.51318359375, 0.2224273681640625, 1.4912109375, 1.396728515625, 10.0, 1.0, 10.0, 1.4312433004379272
76597, -0.9140200614929199, -4.012974262237549, 0.9933769106864929, 0.0, 0.0, 1.0561820268630981, 0.0, 0.0, -0.13096332550048828, 0, 0, 0, 0, 0, 0, 9362.0, 30146.0, 35388.0, 9362.0, 8.350414276123047, 0.0644763857126236, 0.24800565838813782, 0.0592232346534729, -0.07031052559614182, -0.017486389726400375, 0.9982976913452148, -0.0767192542552948, -0.13815879821777344, 1.484619140625, 1.327880859375, 0.0218353271484375, 1.4912109375, 1.396728515625, 10.0, 1.0, 10.0, 1.4315528869628906
76617, -0.9134567975997925, -4.013058662414551, 0.993962287902832, 0.0, 0.0, 1.0490213632583618, 0.0, 0.0, -0.5982041358947754, 0, 0, 0, 0, 0, 0, 9362.0, 30146.0, 35388.0, 9362.0, 8.350414276123047, 0.0644763857126236, 0.24800565838813782, 0.0592232346534729, -0.06740919500589371, -0.016854990273714066, 0.9974421262741089, -0.0767192542552948, -0.13815879821777344, 1.484619140625, 1.5439453125, 0.2884979248046875, 1.5, 1.3359375, 10.0, 1.0, 10.0, 1.4318115711212158
76647, -0.9130806922912598, -4.013271808624268, 0.9939627051353455, 0.0, 0.0, 1.0393388271331787, 0.0, 0.0, -0.4298686981201172, 0, 0, 0, 0, 0, 0, 9362.0, 30146.0, 35388.0, 9362.0, 8.350414276123047, 0.0644763857126236, 0.24800565838813782, 0.0592232346534729, -0.06793951243162155, -0.015197678469121456, 0.9967594146728516, -0.0767192542552948, -0.13815879821777344, 1.484619140625, 1.470703125, 0.1399383544921875, 1.493408203125, 1.508056640625, 10.0, 1.0, 10.0, 1.4324785470962524
76657, -0.9128595590591431, -4.013269901275635, 0.993506908416748, 0.0, 0.0, 1.031441330909729, 0.0, 0.0, -0.40286779403686523, 0, 0, 0, 0, 0, 0, 9362.0, 30146.0, 35388.0, 9362.0, 8.350414276123047, 0.0644763857126236, 0.24800565838813782, 0.0592232346534729, -0.07013960182666779, -0.014659391716122627, 0.998123049736023, -0.0767192542552948, -0.13815879821777344, 1.484619140625, 1.46337890625, 0.1270751953125, 1.493408203125, 1.54248046875, 10.0, 1.0, 10.0, 1.4324785470962524
