timeTick, roll, pitch, yaw, stateX, stateY, stateZ, stateVX, stateVY, stateVZ, otX0, otY0, otZ0, otRoll0, otPitch0, otYaw0, left wing, pitch motor, yaw motor, right wing, voltage, roll rate, pitch rate, yaw rate, A_x, A_y, A_z, current, i_raw, v_raw, airflow_voltage, airflow_speed, pot_Pitch, voltage_nKF, kFFx, state, State, volt_KF
18937, -0.747044563293457, -3.885662317276001, 0.8205372095108032, 0, 0, 0, 0, 0, 0, -0.8301847577095032, -0.9668052792549133, 0.05669119954109192, -1.2880823581061724, 0.23286389368266214, -88.58048775769385, 0, 0, 0, 0, 0, 0, 0, 0, 0, 0, 0, 0, 0, 0, 0, 0, 0, 0, 0, 0, 0, 0
18947, -0.7466741800308228, -3.8885481357574463, 0.8214435577392578, -0.0013411559630185366, -0.0002780950744636357, -6.000807285308838, -0.0203554704785347, -0.004221838898956776, -0.6931079626083374, -0.8301919102668762, -0.9667903780937195, 0.05670662224292755, -1.283124709310919, 0.2230594153155323, -88.58125762013228, 9362.0, 30146.0, 35388.0, 9362.0, 0, -0.09741605818271637, 0.08502324670553207, -0.02326839230954647, -0.08470914512872696, -0.03806901350617409, 0.9950209856033325, 0, 0, 0, 0, 0, 0, 0, 0, 0, 0, 0
18957, -0.7470960021018982, -3.8901195526123047, 0.8226760029792786, -0.0015117432922124863, -0.00031347907497547567, -6.007741928100586, -0.013762060552835464, -0.002854855265468359, -0.6938554048538208, -0.8301968574523926, -0.966772198677063, 0.056723907589912415, -1.2819637865818971, 0.23973799520922512, -88.57896859446718, 9362.0, 30146.0, 35388.0, 9362.0, 0, -0.17550982534885406, -0.02568216808140278, -0.23252560198307037, -0.08542677760124207, -0.03605462983250618, 0.9956184029579163, 0, 0, 0, 1.316162109375, 0.030517578125, 0, 1.40771484375, 10.0, 1.0, 10.0, 1.3855066299438477
18967, -0.746867835521698, -3.8921942710876465, 0.8222960233688354, -0.0016163645777851343, -0.0003351939667481929, -6.014684200286865, -0.0071622515097260475, -0.0014879819937050343, -0.6945810317993164, -0.8301270008087158, -0.9668371081352234, 0.05672194063663483, -1.2686014952173799, 0.254829910650443, -88.63573523734212, 9362.0, 30146.0, 35388.0, 9362.0, 0, -0.09060057252645493, 0.541491687297821, -0.0008988949120976031, -0.08386461436748505, -0.03683861345052719, 0.9977340698242188, 0, 0, 0, 1.446533203125, 0.09930419921875, 1.494140625, 1.26416015625, 10.0, 1.0, 10.0, 1.3853803873062134
18977, -0.7472404837608337, -3.891279697418213, 0.8228276968002319, -0.0016549318097531796, -0.0003432267694734037, -6.021633148193359, -0.0005512152565643191, -0.00011862092651426792, -0.6951805353164673, -0.830142617225647, -0.9668567180633545, 0.05670547112822533, -1.2764340402739094, 0.23801746320364714, -88.6474522118752, 9362.0, 30146.0, 35388.0, 9362.0, 0, -0.012708598747849464, -0.5213431715965271, -0.0010712443618103862, -0.08384686708450317, -0.037392985075712204, 0.9947637319564819, 0, 0, 0, 1.374755859375, 0.021392822265625, 1.494140625, 1.3359375, 10.0, 1.0, 10.0, 1.385447382926941
18987, -0.7474548816680908, -3.8916523456573486, 0.8230507969856262, -0.0016273489454761147, -0.0003375633095856756, -6.028587818145752, 0.006067773327231407, 0.0012513751862570643, -0.695715069770813, -0.8301464915275574, -0.9668328762054443, 0.05673317238688469, -1.2809130240725684, 0.2523135643701835, -88.63135664436943, 9362.0, 30146.0, 35388.0, 9362.0, 0, -0.06127965822815895, 0.36257344484329224, 0.10864270478487015, -0.08450529724359512, -0.038444630801677704, 0.9954458475112915, 0, 0, 0, 1.376220703125, 0.0222930908203125, 1.490478515625, 1.450927734375, 10.0, 1.0, 10.0, 1.3853424787521362
18997, -0.747913658618927, -3.8928892612457275, 0.8247379660606384, -0.0015336530050262809, -0.00031821077573113143, -6.035548686981201, 0.012671425007283688, 0.0026191575452685356, -0.6964524388313293, -0.8301897644996643, -0.966779887676239, 0.05669008567929268, -1.2873895967704123, 0.24939001218911017, -88.58338149786775, 9362.0, 30146.0, 35388.0, 9362.0, 0, -0.013587172143161297, -0.22957119345664978, -0.08474905788898468, -0.0854930654168129, -0.03856370598077774, 0.9965020418167114, 0, 0, 0, 1.323486328125, 0.024688720703125, 1.490478515625, 1.41796875, 10.0, 1.0, 10.0, 1.3853532075881958
19007, -0.7475150227546692, -3.8918299674987793, 0.8248149752616882, -0.001373876933939755, -0.0002851700410246849, -6.042516231536865, 0.019283732399344444, 0.003989184275269508, -0.6970708966255188, -0.8301376104354858, -0.9668488502502441, 0.05670017749071121, -1.271808043235087, 0.24213179836849008, -88.6355819972357, 9362.0, 30146.0, 35388.0, 9362.0, 0, -0.15360571444034576, -0.09805145114660263, 0.06412158906459808, -0.08499526232481003, -0.03787962347269058, 0.9966195225715637, 0, 0, 0, 1.3681640625, 0.0185394287109375, 1.493408203125, 1.417236328125, 10.0, 1.0, 10.0, 1.3852980136871338
19017, -0.7475990653038025, -3.8936758041381836, 0.8243489265441895, -0.0011479498352855444, -0.0002384203253313899, -6.049489974975586, 0.02590169757604599, 0.005360770039260387, -0.6976369619369507, -0.8301348686218262, -0.9668569564819336, 0.05672527477145195, -1.2699203092059688, 0.24108170573774146, -88.63501113482302, 9362.0, 30146.0, 35388.0, 9362.0, 0, -0.0026881019584834576, 0.2387799173593521, -0.04176926985383034, -0.08409480005502701, -0.038788143545389175, 0.9961274266242981, 0, 0, 0, 1.392333984375, 0.03314208984375, 1.493408203125, 1.365966796875, 10.0, 1.0, 10.0, 1.3854193687438965
19027, -0.7473945617675781, -3.892881393432617, 0.824941873550415, -0.0008558732224628329, -0.00017796261818148196, -6.056469440460205, 0.03251361474394798, 0.006730719469487667, -0.698265552520752, -0.8301283121109009, -0.9668365120887756, 0.05672580376267433, -1.2625082970074917, 0.25431812886935745, -88.63264951700819, 9362.0, 30146.0, 35388.0, 9362.0, 0, -0.1323564499616623, -0.16326598823070526, -0.007310632616281509, -0.08303914219141006, -0.03862679377198219, 0.9946712255477905, 0, 0, 0, 1.367431640625, 0.0183258056640625, 1.4912109375, 1.3330078125, 10.0, 1.0, 10.0, 1.3854650259017944
19037, -0.7481032609939575, -3.8924002647399902, 0.8256322145462036, -0.0004976675845682621, -0.00010380597814219072, -6.063455104827881, 0.03912749141454697, 0.00810067355632782, -0.698911726474762, -0.8302019834518433, -0.9667914509773254, 0.056734610348939896, -1.2851251891427775, 0.22732909234454723, -88.58213019546433, 9362.0, 30146.0, 35388.0, 9362.0, 8.370248794555664, -0.28053462505340576, -0.14211921393871307, -0.0765962079167366, -0.08623158186674118, -0.03876767307519913, 0.9955652952194214, -0.07581482082605362, -0.1291980743408203, 1.4853515625, 1.412109375, 0.0526123046875, 1.4912109375, 1.368896484375, 10.0, 1.0, 10.0, 1.3854823112487793
19047, -0.7484714388847351, -3.891808271408081, 0.8249495029449463, -7.335486588999629e-05, -1.5956436982378364e-05, -6.07044792175293, 0.04573504626750946, 0.00946931354701519, -0.699630856513977, -0.8301416039466858, -0.9668659567832947, 0.056751370429992676, -1.2742390933530698, 0.23509147572201528, -88.63294378757955, 9362.0, 30146.0, 35388.0, 9362.0, 8.370248794555664, -0.08305865526199341, -0.2059013545513153, -0.10402747988700867, -0.08793254941701889, -0.03641476482152939, 0.9959947466850281, -0.07581482082605362, -0.1291980743408203, 1.4853515625, 1.38427734375, 0.027099609375, 1.493408203125, 1.339599609375, 10.0, 1.0, 10.0, 1.3855254650115967
19057, -0.7492972016334534, -3.8905928134918213, 0.8264927864074707, 0.00041705043986439705, 8.559029083698988e-05, -6.077447414398193, 0.05234602838754654, 0.010839948430657387, -0.7002873420715332, -0.8301955461502075, -0.9667902588844299, 0.05673348903656006, -1.2777125697754075, 0.23705946081696538, -88.57307610386114, 9362.0, 30146.0, 35388.0, 9362.0, 8.370248794555664, -0.21351459622383118, -0.12236631661653519, 0.36793026328086853, -0.08344505727291107, -0.03640668839216232, 0.9945257306098938, -0.07581482082605362, -0.1291980743408203, 1.4853515625, 1.395263671875, 0.035675048828125, 1.493408203125, 1.352783203125, 10.0, 1.0, 10.0, 1.3855613470077515
19067, -0.7491883635520935, -3.888052463531494, 0.827060341835022, 0.0009735592757351696, 0.00020084576681256294, -6.084453582763672, 0.05895572528243065, 0.012211325578391552, -0.7009474635124207, -0.8301755785942078, -0.96677565574646, 0.056702520698308945, -1.2816789226086045, 0.2526225357722467, -88.58294229937829, 9362.0, 30146.0, 35388.0, 9362.0, 8.370248794555664, -0.0011542870197445154, -0.2760790288448334, 0.13303007185459137, -0.08330796658992767, -0.039304107427597046, 0.9953785538673401, -0.07581482082605362, -0.1291980743408203, 1.4853515625, 1.3798828125, 0.0243377685546875, 1.48974609375, 1.45751953125, 10.0, 1.0, 10.0, 1.3854303359985352
19077, -0.7488628625869751, -3.8883402347564697, 0.8252578377723694, 0.001596120884642005, 0.00032981581171043217, -6.091466903686523, 0.06555663049221039, 0.013582753948867321, -0.7017064094543457, -0.8301974534988403, -0.9668108224868774, 0.05672555789351463, -1.2891192402025786, 0.22547532244925605, -88.57654244975639, 9362.0, 30146.0, 35388.0, 9362.0, 8.370248794555664, 0.1588078886270523, -0.13506005704402924, -0.20786333084106445, -0.08494289964437485, -0.038690220564603806, 0.9947614669799805, -0.07581482082605362, -0.1291980743408203, 1.4853515625, 1.364501953125, 0.0173492431640625, 1.48974609375, 1.436279296875, 10.0, 1.0, 10.0, 1.3852880001068115
19087, -0.7489400506019592, -3.8890860080718994, 0.8260526657104492, 0.002284684916958213, 0.00047250237548723817, -6.098487377166748, 0.07215623557567596, 0.014954350888729095, -0.7024206519126892, -0.8301489353179932, -0.9668354392051697, 0.05673510581254959, -1.26884367770673, 0.2553874879463933, -88.63090673428374, 9362.0, 30146.0, 35388.0, 9362.0, 8.370248794555664, 0.05625713989138603, 0.0675770491361618, 0.09947965294122696, -0.08655305951833725, -0.039410240948200226, 0.9947705864906311, -0.07581482082605362, -0.1291980743408203, 1.4853515625, 1.354248046875, 0.0154266357421875, 1.49267578125, 1.412841796875, 10.0, 1.0, 10.0, 1.3854585886001587
19097, -0.7492455840110779, -3.8910138607025146, 0.8254614472389221, 0.0030392543412745, 0.0006289024604484439, -6.105515003204346, 0.07875759154558182, 0.016325760632753372, -0.7031159996986389, -0.8301421999931335, -0.966833770275116, 0.05673462897539139, -1.2684203978552322, 0.25726200895542206, -88.64050980910497, 9362.0, 30146.0, 35388.0, 9362.0, 8.370248794555664, 0.041085384786129, 0.31564661860466003, 0.09454939514398575, -0.08712373673915863, -0.0365825891494751, 0.9958176016807556, -0.07581482082605362, -0.1291980743408203, 1.4853515625, 1.3271484375, 0.022308349609375, 1.49267578125, 1.41064453125, 10.0, 1.0, 10.0, 1.3855699300765991
19107, -0.7497323751449585, -3.892037868499756, 0.8254328370094299, 0.003859849413856864, 0.0007990191224962473, -6.112549781799316, 0.08536142110824585, 0.017697496339678764, -0.7037942409515381, -0.8301401138305664, -0.9668369889259338, 0.05673817917704582, -1.2726716886559075, 0.2558022473598953, -88.63249398797689, 9362.0, 30146.0, 35388.0, 9362.0, 8.370248794555664, -0.10579529404640198, 0.13653871417045593, -0.03468752279877663, -0.08569108694791794, -0.03749805688858032, 0.9937694668769836, -0.07581482082605362, -0.1291980743408203, 1.4853515625, 1.421630859375, 0.0640716552734375, 1.490478515625, 1.423095703125, 10.0, 1.0, 10.0, 1.3855657577514648
19117, -0.7488423585891724, -3.8930113315582275, 0.8235693573951721, 0.004746474791318178, 0.00098285055719316, -6.11959171295166, 0.09196364134550095, 0.01906878501176834, -0.704544186592102, -0.8301407098770142, -0.9668354988098145, 0.05673067271709442, -1.2651229587691795, 0.25731962194842595, -88.63300209685886, 9362.0, 30146.0, 35388.0, 9362.0, 8.370248794555664, 0.24261975288391113, 0.17482663691043854, -0.203362375497818, -0.0867500901222229, -0.03894520550966263, 0.9934135675430298, -0.07581482082605362, -0.1291980743408203, 1.4853515625, 1.39306640625, 0.0337982177734375, 1.490478515625, 1.300048828125, 10.0, 1.0, 10.0, 1.385495901107788
19127, -0.7481317520141602, -3.8934760093688965, 0.8239611387252808, 0.005699073895812035, 0.0011803873348981142, -6.126641750335693, 0.09855625033378601, 0.020438358187675476, -0.7054621577262878, -0.8301451802253723, -0.9668533802032471, 0.05670582503080368, -1.2738631077278242, 0.24588863179499754, -88.63542002725909, 9362.0, 30146.0, 35388.0, 9362.0, 8.370248794555664, 0.06504017859697342, 0.13408903777599335, 0.021691611036658287, -0.08628622442483902, -0.0395512580871582, 0.9949511885643005, -0.07581482082605362, -0.1291980743408203, 1.4853515625, 1.33740234375, 0.0175323486328125, 1.489013671875, 1.402587890625, 10.0, 1.0, 10.0, 1.385585904121399
19137, -0.7482820153236389, -3.89068865776062, 0.8242965936660767, 0.00671764463186264, 0.0013916188618168235, -6.133700370788574, 0.10515782982110977, 0.021807996556162834, -0.7062726616859436, -0.8302488327026367, -0.966816782951355, 0.05670936033129692, -1.287385479631001, 0.22409205844587632, -88.59039178004826, 9362.0, 30146.0, 35388.0, 9362.0, 8.370248794555664, -0.13598819077014923, -0.340010404586792, -0.23263977468013763, -0.08440177887678146, -0.0384807251393795, 0.9955132007598877, -0.09505007416009903, 0.04104042053222656, 1.499267578125, 1.4150390625, 0.05596923828125, 1.489013671875, 1.34912109375, 10.0, 1.0, 10.0, 1.3855558633804321
19147, -0.7473689317703247, -3.8906893730163574, 0.8252779245376587, 0.007802269887179136, 0.0016165482811629772, -6.140766620635986, 0.11176732182502747, 0.02317792922258377, -0.7069792747497559, -0.830258846282959, -0.9667929410934448, 0.05671023204922676, -1.2895525061322808, 0.23457843971110037, -88.590407185103, 9362.0, 30146.0, 35388.0, 9362.0, 8.370248794555664, -0.043360598385334015, -0.012613938190042973, 0.12544620037078857, -0.08367455750703812, -0.038128696382045746, 0.9958798289299011, -0.09505007416009903, 0.04104042053222656, 1.499267578125, 1.41796875, 0.05950927734375, 1.48828125, 1.305908203125, 10.0, 1.0, 10.0, 1.3857184648513794
19157, -0.7470406889915466, -3.889803171157837, 0.829223096370697, 0.00895298644900322, 0.0018551823450252414, -6.147839546203613, 0.11837594211101532, 0.02454899251461029, -0.7076270580291748, -0.8302327990531921, -0.9668181538581848, 0.056725531816482544, -1.293146544756325, 0.21411693137918064, -88.60148672895926, 9362.0, 30146.0, 35388.0, 9362.0, 8.370248794555664, -0.00245697982609272, -0.2966415584087372, 0.38077953457832336, -0.08820284903049469, -0.03605281561613083, 0.9941621422767639, -0.09505007416009903, 0.04104042053222656, 1.499267578125, 1.37548828125, 0.021820068359375, 1.48828125, 1.346923828125, 10.0, 1.0, 10.0, 1.385732650756836
19167, -0.7467608451843262, -3.892066478729248, 0.8316896557807922, 0.010169764049351215, 0.0021075145341455936, -6.154919624328613, 0.12497953325510025, 0.025917919352650642, -0.7083481550216675, -0.8301856517791748, -0.9668605327606201, 0.056696463376283646, -1.2684016177798434, 0.24091374166994228, -88.6530088414237, 9362.0, 30146.0, 35388.0, 9362.0, 8.370248794555664, -0.025115901604294777, 0.48513099551200867, 0.20490095019340515, -0.08605411648750305, -0.038876403123140335, 0.9946708083152771, -0.09505007416009903, 0.04104042053222656, 1.499267578125, 1.319091796875, 0.0279998779296875, 1.491943359375, 1.3916015625, 10.0, 1.0, 10.0, 1.385793685913086
19177, -0.7463446259498596, -3.8926684856414795, 0.832081139087677, 0.011452540755271912, 0.002373529365286231, -6.1620073318481445, 0.13157567381858826, 0.02728532999753952, -0.709156334400177, -0.8302523493766785, -0.966795802116394, 0.056710291653871536, -1.2847902517426892, 0.2367013620491889, -88.58193971088868, 9362.0, 30146.0, 35388.0, 9362.0, 8.370248794555664, 0.20084723830223083, 0.24286116659641266, -0.03727135807275772, -0.08552095293998718, -0.04074139893054962, 0.997189462184906, -0.09505007416009903, 0.04104042053222656, 1.499267578125, 1.409912109375, 0.0501251220703125, 1.491943359375, 1.4091796875, 10.0, 1.0, 10.0, 1.3856996297836304
19187, -0.746366560459137, -3.892885208129883, 0.8331955075263977, 0.012801357544958591, 0.002653229981660843, -6.169102191925049, 0.13818760216236115, 0.02865484170615673, -0.70978844165802, -0.8302558660507202, -0.9667977690696716, 0.056709807366132736, -1.2843712935899112, 0.23769134204295028, -88.59224346956151, 9362.0, 30146.0, 35388.0, 9362.0, 8.370248794555664, -0.12062007188796997, 0.2331109195947647, -0.1493452936410904, -0.08731488138437271, -0.03951190784573555, 0.997464120388031, -0.09505007416009903, 0.04104042053222656, 1.499267578125, 1.3681640625, 0.0185394287109375, 1.48828125, 1.401123046875, 10.0, 1.0, 10.0, 1.3858264684677124
19197, -0.7460842728614807, -3.8912088871002197, 0.8351690769195557, 0.014216373674571514, 0.002946638036519289, -6.176202297210693, 0.1448156088590622, 0.030026903375983238, -0.7101983428001404, -0.8302405476570129, -0.9668475985527039, 0.05668588727712631, -1.278443529086905, 0.2574211741991519, -88.63282368107767, 9362.0, 30146.0, 35388.0, 9362.0, 8.370248794555664, 0.07888458669185638, -0.4921814799308777, 0.15595434606075287, -0.08593222498893738, -0.03676193952560425, 0.9965255856513977, -0.09505007416009903, 0.04104042053222656, 1.499267578125, 1.3916015625, 0.0325927734375, 1.48828125, 1.294189453125, 10.0, 1.0, 10.0, 1.3859435319900513
19207, -0.7466633915901184, -3.8921656608581543, 0.8360397219657898, 0.015697630122303963, 0.003253759117797017, -6.18330717086792, 0.1514357030391693, 0.03139752149581909, -0.7107303142547607, -0.8302767276763916, -0.9668145179748535, 0.05666675418615341, -1.2897859906094757, 0.2236423234158451, -88.57692404764464, 9362.0, 30146.0, 35388.0, 9362.0, 8.370248794555664, -0.09950552880764008, 0.35590386390686035, 0.15495094656944275, -0.08419743180274963, -0.03828730806708336, 0.9931648969650269, -0.09505007416009903, 0.04104042053222656, 1.499267578125, 1.292724609375, 0.060089111328125, 1.486083984375, 1.3916015625, 10.0, 1.0, 10.0, 1.385900616645813
19217, -0.7467406988143921, -3.8950612545013428, 0.8360599875450134, 0.017244989052414894, 0.003574567614123225, -6.190418243408203, 0.15803612768650055, 0.0327642560005188, -0.7115085124969482, -0.8302991390228271, -0.9667893648147583, 0.056685760617256165, -1.2838576249143585, 0.24259201849127976, -88.57511567478043, 9362.0, 30146.0, 35388.0, 9362.0, 8.370248794555664, -0.25316962599754333, 0.14874215424060822, -0.11718130111694336, -0.08504343032836914, -0.03836461901664734, 0.9951283931732178, -0.09505007416009903, 0.04104042053222656, 1.499267578125, 1.41357421875, 0.0542449951171875, 1.486083984375, 1.3271484375, 10.0, 1.0, 10.0, 1.3858836889266968
19227, -0.7469525337219238, -3.893244743347168, 0.8352462649345398, 0.018858352676033974, 0.003909047227352858, -6.197537422180176, 0.16463638842105865, 0.03413163498044014, -0.7123135328292847, -0.8302730321884155, -0.9668017029762268, 0.05668974295258522, -1.2861437948292977, 0.24412067674560944, -88.57149518191392, 9362.0, 30146.0, 35388.0, 9362.0, 8.370248794555664, 0.05456818267703056, -0.12060905247926712, -0.11489948630332947, -0.0849880799651146, -0.03783030807971954, 0.9963122010231018, -0.09505007416009903, 0.04104042053222656, 1.499267578125, 1.32568359375, 0.0232086181640625, 1.494140625, 1.398193359375, 10.0, 1.0, 10.0, 1.3859864473342896
19237, -0.7482856512069702, -3.893284559249878, 0.8353167176246643, 0.020537812262773514, 0.004257216118276119, -6.2046637535095215, 0.17125557363033295, 0.035502005368471146, -0.7129130363464355, -0.8302790522575378, -0.9668063521385193, 0.0566808246076107, -1.2833847081105871, 0.22029491797144374, -88.5740975759776, 9362.0, 30146.0, 35388.0, 9362.0, 8.370248794555664, -0.13244423270225525, 0.030338197946548462, -0.2279873788356781, -0.08728507161140442, -0.03789259120821953, 0.9955373406410217, -0.08242138475179672, -0.10231781005859375, 1.487548828125, 1.433349609375, 0.0797576904296875, 1.494140625, 1.42236328125, 10.0, 1.0, 10.0, 1.3861169815063477
19247, -0.7491763830184937, -3.8925015926361084, 0.8359183669090271, 0.022283434867858887, 0.004619087092578411, -6.211796283721924, 0.17786905169487, 0.03687216341495514, -0.7135511040687561, -0.8303082585334778, -0.9667375087738037, 0.05658086761832237, -1.2833564697730129, 0.27963077288060845, -88.56818638388661, 9362.0, 30146.0, 35388.0, 9362.0, 8.370248794555664, -0.0879678949713707, -0.112520731985569, -0.12379779666662216, -0.08778824657201767, -0.03844516724348068, 0.9955577254295349, -0.08242138475179672, -0.10231781005859375, 1.487548828125, 1.3212890625, 0.026214599609375, 1.487548828125, 1.42822265625, 10.0, 1.0, 10.0, 1.3861790895462036
19257, -0.7496705651283264, -3.890355110168457, 0.836006224155426, 0.024095166474580765, 0.004994665272533894, -6.218935489654541, 0.18447726964950562, 0.03824356570839882, -0.7142664194107056, -0.8302865624427795, -0.9667928814888, 0.05667560547590256, -1.2906750356359484, 0.2353788136835533, -88.57456994708522, 9362.0, 30146.0, 35388.0, 9362.0, 8.370248794555664, -0.0972958654165268, -0.3504500985145569, -0.15640342235565186, -0.08494482189416885, -0.04038938507437706, 0.9961749315261841, -0.08242138475179672, -0.10231781005859375, 1.487548828125, 1.30517578125, 0.0422515869140625, 1.487548828125, 1.404052734375, 10.0, 1.0, 10.0, 1.386250376701355
19267, -0.7490822672843933, -3.891054391860962, 0.8348614573478699, 0.024095166474580765, 0.004994665272533894, -6.218935489654541, 0.18447726964950562, 0.03824356570839882, -0.7142664194107056, -0.8302812576293945, -0.966789960861206, 0.05667077749967575, -1.2760730018973583, 0.2399187571014636, -88.57201783185698, 9362.0, 30146.0, 35388.0, 9362.0, 8.370248794555664, -0.028270112350583076, 0.15495511889457703, -0.11214235424995422, -0.08650828897953033, -0.037572044879198074, 0.9954021573066711, -0.08242138475179672, -0.10231781005859375, 1.487548828125, 1.376220703125, 0.0222930908203125, 1.48974609375, 1.404052734375, 10.0, 1.0, 10.0, 1.386250376701355
19287, -0.7483616471290588, -3.893815040588379, 0.8345930576324463, 0.024095166474580765, 0.004994665272533894, -6.218935489654541, 0.18447726964950562, 0.03824356570839882, -0.7142664194107056, -0.8302988409996033, -0.9668076038360596, 0.056651048362255096, -1.2918072316563318, 0.22773862916869803, -88.56922590767894, 9362.0, 30146.0, 35388.0, 9362.0, 8.370248794555664, -0.19011305272579193, 0.06426247954368591, -0.13358362019062042, -0.08468504995107651, -0.03528484329581261, 0.9941259026527405, -0.08242138475179672, -0.10231781005859375, 1.487548828125, 1.3623046875, 0.0167999267578125, 1.48974609375, 1.404052734375, 10.0, 1.0, 10.0, 1.386439561843872
19297, -0.7485883831977844, -3.8945045471191406, 0.8332105278968811, 0.024095166474580765, 0.004994665272533894, -6.218935489654541, 0.18447726964950562, 0.03824356570839882, -0.7142664194107056, -0.8302356004714966, -0.9668381214141846, 0.05665748566389084, -1.278298797159149, 0.26388205003300413, -88.62908409456786, 9362.0, 30146.0, 35388.0, 9362.0, 8.370248794555664, -0.10885822027921677, -0.07169342786073685, -0.1963365375995636, -0.08509981632232666, -0.035917118191719055, 0.993855357170105, -0.08242138475179672, -0.10231781005859375, 1.487548828125, 1.3623046875, 0.0167999267578125, 1.48974609375, 1.404052734375, 10.0, 1.0, 10.0, 1.386439561843872
19307, -0.7481169700622559, -3.8955576419830322, 0.8340165615081787, 0.024095166474580765, 0.004994665272533894, -6.218935489654541, 0.18447726964950562, 0.03824356570839882, -0.7142664194107056, -0.8302126526832581, -0.9668159484863281, 0.05670585110783577, -1.2757695620529463, 0.24811023446406466, -88.59379170024796, 9362.0, 30146.0, 35388.0, 9362.0, 8.370248794555664, 0.09408256411552429, -0.00402609771117568, 0.12363874167203903, -0.08767277002334595, -0.036006420850753784, 0.9943590760231018, -0.08242138475179672, -0.10231781005859375, 1.487548828125, 1.3623046875, 0.0167999267578125, 1.494873046875, 1.404052734375, 10.0, 1.0, 10.0, 1.3864301443099976
19317, -0.7470862865447998, -3.8952181339263916, 0.8328210711479187, 0.024095166474580765, 0.004994665272533894, -6.218935489654541, 0.18447726964950562, 0.03824356570839882, -0.7142664194107056, -0.830233633518219, -0.9668390154838562, 0.05667896941304207, -1.278497755041221, 0.2604751840721633, -88.62623045567548, 9362.0, 30146.0, 35388.0, 9362.0, 8.370248794555664, 0.18079833686351776, 0.27864840626716614, -0.06824202835559845, -0.08430277556180954, -0.03849024698138237, 0.9929507374763489, -0.08242138475179672, -0.10231781005859375, 1.487548828125, 1.3623046875, 0.0167999267578125, 1.494873046875, 1.404052734375, 10.0, 1.0, 10.0, 1.3864301443099976
19327, -0.7473257184028625, -3.894047260284424, 0.8337340950965881, 0.024095166474580765, 0.004994665272533894, -6.218935489654541, 0.18447726964950562, 0.03824356570839882, -0.7142664194107056, -0.8302873373031616, -0.966795027256012, 0.05666683614253998, -1.289375881012083, 0.2227497684566231, -88.57921735026693, 9362.0, 30146.0, 35388.0, 9362.0, 8.370248794555664, -0.06199527159333229, -0.12071508169174194, 0.2399827390909195, -0.08430277556180954, -0.03849024698138237, 0.9929507374763489, -0.08242138475179672, -0.10231781005859375, 1.487548828125, 1.3623046875, 0.0167999267578125, 1.4912109375, 1.404052734375, 10.0, 1.0, 10.0, 1.3863859176635742
19337, -0.7472407221794128, -3.893484592437744, 0.8318817019462585, 0.04096699878573418, 0.00849313847720623, -6.276313781738281, 0.2373066544532776, 0.04920811951160431, -0.7205410599708557, -0.8302925825119019, -0.9667903184890747, 0.056657154113054276, -1.2891128952934983, 0.22994612936767567, -88.57574248196089, 9362.0, 30146.0, 35388.0, 9362.0, 8.370248794555664, 0.04430929571390152, -0.035096894949674606, -0.07818757742643356, -0.0857759490609169, -0.03519504889845848, 0.9939866065979004, -0.06654595583677292, -0.09335899353027344, 1.48828125, 1.3623046875, 0.0167999267578125, 1.4912109375, 1.404052734375, 10.0, 1.0, 10.0, 1.3863859176635742
19347, -0.746253490447998, -3.8936595916748047, 0.8298230767250061, 0.04096699878573418, 0.00849313847720623, -6.276313781738281, 0.2373066544532776, 0.04920811951160431, -0.7205410599708557, -0.830293595790863, -0.9667778015136719, 0.05667382851243019, -1.2860294319033332, 0.24226928030574868, -88.57255146449403, 9362.0, 30146.0, 35388.0, 9362.0, 8.370248794555664, 0.04430929571390152, -0.035096894949674606, -0.07818757742643356, -0.08501572161912918, -0.03839544951915741, 0.9971188902854919, -0.06654595583677292, -0.09335899353027344, 1.48828125, 1.3623046875, 0.0167999267578125, 1.4912109375, 1.404052734375, 10.0, 1.0, 10.0, 1.3863999843597412
19357, -0.7453810572624207, -3.894885301589966, 0.8296917676925659, 0.04584522172808647, 0.009504667483270168, -6.290740013122559, 0.25051814317703247, 0.051944948732852936, -0.7220737338066101, -0.8302306532859802, -0.9668592810630798, 0.056651532649993896, -1.2748499621466198, 0.2425781423077069, -88.63015395018682, 9362.0, 30146.0, 35388.0, 9362.0, 8.370248794555664, 0.09442657232284546, 0.21778921782970428, 0.1608913391828537, -0.08485708385705948, -0.040232207626104355, 0.9977231621742249, -0.06654595583677292, -0.09335899353027344, 1.48828125, 1.3623046875, 0.0167999267578125, 1.4912109375, 1.404052734375, 10.0, 1.0, 10.0, 1.3863999843597412
19367, -0.7454200387001038, -3.8944263458251953, 0.8295071125030518, 0.04584522172808647, 0.009504667483270168, -6.290740013122559, 0.25051814317703247, 0.051944948732852936, -0.7220737338066101, -0.8302948474884033, -0.9667368531227112, 0.05657246708869934, -1.2895974330878126, 0.2741384573323842, -88.57254441028174, 9362.0, 30146.0, 35388.0, 9362.0, 8.370248794555664, 0.0656944289803505, -0.02214816026389599, -0.10735860466957092, -0.08468856662511826, -0.03815632313489914, 0.9986392259597778, -0.06654595583677292, -0.09335899353027344, 1.48828125, 1.352783203125, 0.015350341796875, 1.4912109375, 1.404052734375, 10.0, 1.0, 10.0, 1.3863999843597412
19377, -0.7438711524009705, -3.89056396484375, 0.8298565745353699, 0.05098812282085419, 0.01057097502052784, -6.305190563201904, 0.2637747526168823, 0.05468546971678734, -0.7229684591293335, -0.8302940726280212, -0.9667325615882874, 0.056583527475595474, -1.2925490374441322, 0.2761718589525515, -88.57015863569627, 9362.0, 30146.0, 35388.0, 9362.0, 8.370248794555664, 0.2629511058330536, -0.4567466974258423, -0.03759123012423515, -0.0848286896944046, -0.038381535559892654, 0.9943796992301941, -0.06654595583677292, -0.09335899353027344, 1.48828125, 1.352783203125, 0.015350341796875, 1.4912109375, 1.404052734375, 10.0, 1.0, 10.0, 1.3863999843597412
19387, -0.7436930537223816, -3.893178701400757, 0.8324940204620361, 0.05098812282085419, 0.01057097502052784, -6.305190563201904, 0.2637747526168823, 0.05468546971678734, -0.7229684591293335, -0.8302818536758423, -0.966774046421051, 0.05668126419186592, -1.2884026307869918, 0.23951793991554382, -88.57110515823922, 9362.0, 30146.0, 35388.0, 9362.0, 8.370248794555664, -0.03343632444739342, 0.5445534586906433, 0.5005009770393372, -0.08528483659029007, -0.039415258914232254, 0.9947109818458557, -0.06654595583677292, -0.09335899353027344, 1.48828125, 1.34033203125, 0.0166168212890625, 1.4912109375, 1.404052734375, 10.0, 1.0, 10.0, 1.386295199394226
19397, -0.7440381050109863, -3.8954970836639404, 0.8332741856575012, 0.056395888328552246, 0.011692007072269917, -6.319663047790527, 0.27699053287506104, 0.05741509050130844, -0.72437584400177, -0.8302895426750183, -0.966725766658783, 0.05657016858458519, -1.2855838059399636, 0.2827050878038335, -88.58122431274677, 9362.0, 30146.0, 35388.0, 9362.0, 8.370248794555664, -0.15219101309776306, 0.2086830735206604, 0.1752488613128662, -0.08528483659029007, -0.039415258914232254, 0.9947109818458557, -0.06654595583677292, -0.09335899353027344, 1.48828125, 1.34033203125, 0.0166168212890625, 1.4912109375, 1.404052734375, 10.0, 1.0, 10.0, 1.386040449142456
19407, -0.744653046131134, -3.8958253860473633, 0.8314950466156006, 0.056395888328552246, 0.011692007072269917, -6.319663047790527, 0.27699053287506104, 0.05741509050130844, -0.72437584400177, -0.8302809596061707, -0.9667755365371704, 0.05667277052998543, -1.2851495916112006, 0.24062784054123654, -88.57329451413611, 9362.0, 30146.0, 35388.0, 9362.0, 8.370248794555664, -0.1674010455608368, -0.04939894750714302, -0.1722537726163864, -0.08871617913246155, -0.03697451204061508, 0.9966959953308105, -0.06654595583677292, -0.09335899353027344, 1.48828125, 1.34033203125, 0.0166168212890625, 1.494140625, 1.404052734375, 10.0, 1.0, 10.0, 1.386040449142456
19417, -0.7440516352653503, -3.896027088165283, 0.8321442604064941, 0.056395888328552246, 0.011692007072269917, -6.319663047790527, 0.27699053287506104, 0.05741509050130844, -0.72437584400177, -0.8302905559539795, -0.9667799472808838, 0.056655365973711014, -1.2952454974547596, 0.24425424887883196, -88.57092554383868, 9362.0, 30146.0, 35388.0, 9362.0, 8.370248794555664, 0.10522287338972092, 0.11959115415811539, 0.24715135991573334, -0.08760383725166321, -0.037247441709041595, 0.9961050152778625, -0.06654595583677292, -0.09335899353027344, 1.48828125, 1.32275390625, 0.0251312255859375, 1.494140625, 1.404052734375, 10.0, 1.0, 10.0, 1.386040449142456
19427, -0.744907021522522, -3.8946292400360107, 0.8309168815612793, 0.056395888328552246, 0.011692007072269917, -6.319663047790527, 0.27699053287506104, 0.05741509050130844, -0.72437584400177, -0.8302856087684631, -0.9667786955833435, 0.056654851883649826, -1.2858182715460167, 0.24555073523265492, -88.56650633424118, 9362.0, 30146.0, 35388.0, 9362.0, 8.370248794555664, -0.11292730271816254, -0.30506592988967896, -0.12295433133840561, -0.08598605543375015, -0.037989694625139236, 0.9944895505905151, -0.06654595583677292, -0.09335899353027344, 1.48828125, 1.32275390625, 0.0251312255859375, 1.494140625, 1.404052734375, 10.0, 1.0, 10.0, 1.386040449142456
19447, -0.7440793514251709, -3.8893213272094727, 0.8292308449745178, 0.056395888328552246, 0.011692007072269917, -6.319663047790527, 0.27699053287506104, 0.05741509050130844, -0.72437584400177, -0.8302342295646667, -0.9668611884117126, 0.056627534329891205, -1.2789371162337457, 0.2506220505867134, -88.6328649294745, 9362.0, 30146.0, 35388.0, 9362.0, 8.370248794555664, -0.046760812401771545, -0.18107832968235016, -0.25856512784957886, -0.08373449742794037, -0.035997018218040466, 0.9938439726829529, -0.07778038829565048, 0.014162063598632812, 1.4970703125, 1.32275390625, 0.0251312255859375, 1.491943359375, 1.404052734375, 10.0, 1.0, 10.0, 1.3857524394989014
19457, -0.7437707781791687, -3.8920938968658447, 0.8290093541145325, 0.056395888328552246, 0.011692007072269917, -6.319663047790527, 0.27699053287506104, 0.05741509050130844, -0.72437584400177, -0.8302380442619324, -0.9668446779251099, 0.05667710676789284, -1.2797328603593794, 0.2670554493151087, -88.63401089769744, 9362.0, 30146.0, 35388.0, 9362.0, 8.370248794555664, 0.10650468617677689, 0.21657823026180267, -0.10468176752328873, -0.08427956700325012, -0.038957931101322174, 0.9941463470458984, -0.07778038829565048, 0.014162063598632812, 1.4970703125, 1.32275390625, 0.0251312255859375, 1.491943359375, 1.404052734375, 10.0, 1.0, 10.0, 1.3858132362365723
19467, -0.7439358830451965, -3.893536329269409, 0.8281564712524414, 0.056395888328552246, 0.011692007072269917, -6.319663047790527, 0.27699053287506104, 0.05741509050130844, -0.72437584400177, -0.8302900791168213, -0.9668047428131104, 0.05665015056729317, -1.2954819602882566, 0.23158500639220847, -88.57051259571124, 9362.0, 30146.0, 35388.0, 9362.0, 8.370248794555664, -0.13896027207374573, 0.04235508665442467, -0.06696660071611404, -0.0843876302242279, -0.03798844665288925, 0.9962745308876038, -0.07778038829565048, 0.014162063598632812, 1.4970703125, 1.32275390625, 0.0251312255859375, 1.491943359375, 1.404052734375, 10.0, 1.0, 10.0, 1.3858132362365723
19477, -0.7440599799156189, -3.8951122760772705, 0.8299270868301392, 0.08067154139280319, 0.01672184281051159, -6.37782621383667, 0.32986974716186523, 0.06832490116357803, -0.7300162315368652, -0.8302913904190063, -0.9667935371398926, 0.05665901303291321, -1.2911119569043954, 0.2419255451904121, -88.57326285913823, 9362.0, 30146.0, 35388.0, 9362.0, 8.370248794555664, -0.028244540095329285, 0.20577868819236755, 0.18074923753738403, -0.08427782356739044, -0.036258794367313385, 0.9962146878242493, -0.07778038829565048, 0.014162063598632812, 1.4970703125, 1.32275390625, 0.0251312255859375, 1.491943359375, 1.404052734375, 10.0, 1.0, 10.0, 1.385899305343628
19487, -0.7438873052597046, -3.8942184448242188, 0.829513430595398, 0.08067154139280319, 0.01672184281051159, -6.37782621383667, 0.32986974716186523, 0.06832490116357803, -0.7300162315368652, -0.8303018808364868, -0.9667866230010986, 0.05664980039000511, -1.2805142267792096, 0.24582330940816632, -88.57489881694863, 9362.0, 30146.0, 35388.0, 9362.0, 8.370248794555664, -0.059475868940353394, -0.17795345187187195, 0.15640674531459808, -0.08403073996305466, -0.035571008920669556, 0.9948269724845886, -0.07778038829565048, 0.014162063598632812, 1.4970703125, 1.32275390625, 0.0251312255859375, 1.491943359375, 1.404052734375, 10.0, 1.0, 10.0, 1.385899305343628
19497, -0.7444755434989929, -3.8958444595336914, 0.8302720785140991, 0.08740124106407166, 0.018115630373358727, -6.392438888549805, 0.3431006371974945, 0.0710538849234581, -0.7312941551208496, -0.8302913308143616, -0.9667961001396179, 0.05663911625742912, -1.292072496958647, 0.22741889085509115, -88.57008250049378, 9362.0, 30146.0, 35388.0, 9362.0, 8.370248794555664, -0.278872549533844, 0.31954488158226013, 0.022649545222520828, -0.08487904071807861, -0.039500895887613297, 0.993861198425293, -0.07778038829565048, 0.014162063598632812, 1.4970703125, 1.32275390625, 0.0251312255859375, 1.491943359375, 1.404052734375, 10.0, 1.0, 10.0, 1.385899305343628
19507, -0.7448121905326843, -3.8971712589263916, 0.8314376473426819, 0.08740124106407166, 0.018115630373358727, -6.392438888549805, 0.3431006371974945, 0.0710538849234581, -0.7312941551208496, -0.8302839398384094, -0.9667789340019226, 0.056673239916563034, -1.2908587954517738, 0.24139579903885533, -88.5700586700053, 9362.0, 30146.0, 35388.0, 9362.0, 8.370248794555664, -0.02568811923265457, 0.14259466528892517, 0.0630868673324585, -0.08334261178970337, -0.0362066887319088, 0.9965883493423462, -0.07778038829565048, 0.014162063598632812, 1.4970703125, 1.32275390625, 0.0251312255859375, 1.494140625, 1.404052734375, 10.0, 1.0, 10.0, 1.385899305343628
19517, -0.7443615794181824, -3.8959431648254395, 0.8314276933670044, 0.08740124106407166, 0.018115630373358727, -6.392438888549805, 0.3431006371974945, 0.0710538849234581, -0.7312941551208496, -0.8302962183952332, -0.9667829871177673, 0.056642383337020874, -1.2954237565824962, 0.23612279601877617, -88.57411885811317, 9362.0, 30146.0, 35388.0, 9362.0, 8.370248794555664, -0.1300751268863678, -0.21945548057556152, -0.08619722723960876, -0.08540835231542587, -0.03698769956827164, 0.9965783357620239, -0.07778038829565048, 0.014162063598632812, 1.4970703125, 1.32275390625, 0.0251312255859375, 1.494140625, 1.404052734375, 10.0, 1.0, 10.0, 1.385899305343628
19527, -0.7435996532440186, -3.8966593742370605, 0.8323029279708862, 0.08740124106407166, 0.018115630373358727, -6.392438888549805, 0.3431006371974945, 0.0710538849234581, -0.7312941551208496, -0.8302860260009766, -0.9667972922325134, 0.05664913356304169, -1.2926658627814276, 0.2442444285566978, -88.56352500983121, 9362.0, 30146.0, 35388.0, 9362.0, 8.370248794555664, 0.08664524555206299, 0.26881951093673706, 0.31339606642723083, -0.08601630479097366, -0.03921204432845116, 0.9971756935119629, -0.07778038829565048, 0.014162063598632812, 1.4970703125, 1.32275390625, 0.0251312255859375, 1.494140625, 1.404052734375, 10.0, 1.0, 10.0, 1.385899305343628
19547, -0.7428656816482544, -3.8951854705810547, 0.8321016430854797, 0.08740124106407166, 0.018115630373358727, -6.392438888549805, 0.3431006371974945, 0.0710538849234581, -0.7312941551208496, -0.8302765488624573, -0.9667855501174927, 0.05665689334273338, -1.2890797963690699, 0.24684446495859902, -88.5777966308305, 9362.0, 30146.0, 35388.0, 9362.0, 8.370248794555664, -0.10367162525653839, -0.24238933622837067, 0.06188112124800682, -0.08397062122821808, -0.03656566143035889, 0.9939427375793457, -0.061635348945856094, -0.11127853393554688, 1.48681640625, 1.330078125, 0.0206298828125, 1.494140625, 1.3740234375, 10.0, 1.0, 10.0, 1.3854987621307373
19557, -0.7426912188529968, -3.895418882369995, 0.8325616717338562, 0.08740124106407166, 0.018115630373358727, -6.392438888549805, 0.3431006371974945, 0.0710538849234581, -0.7312941551208496, -0.8302571773529053, -0.9667924642562866, 0.05667775496840477, -1.2764865616817918, 0.24783401617523282, -88.56816506968951, 9362.0, 30146.0, 35388.0, 9362.0, 8.370248794555664, 0.15021207928657532, 0.23603594303131104, -0.038527291268110275, -0.08310969173908234, -0.03776367008686066, 0.9957795739173889, -0.061635348945856094, -0.11127853393554688, 1.48681640625, 1.330078125, 0.0206298828125, 1.494140625, 1.3740234375, 10.0, 1.0, 10.0, 1.3854948282241821
19567, -0.7434574365615845, -3.8940622806549072, 0.8330999612808228, 0.08740124106407166, 0.018115630373358727, -6.392438888549805, 0.3431006371974945, 0.0710538849234581, -0.7312941551208496, -0.8302941918373108, -0.9667887091636658, 0.05665936321020126, -1.2924685304166723, 0.23871889642626343, -88.56857785204502, 9362.0, 30146.0, 35388.0, 9362.0, 8.370248794555664, -0.2120646983385086, -0.4323747456073761, -0.0789036676287651, -0.08539057523012161, -0.03892436996102333, 0.9952102899551392, -0.061635348945856094, -0.11127853393554688, 1.48681640625, 1.330078125, 0.0206298828125, 1.494140625, 1.3740234375, 10.0, 1.0, 10.0, 1.3854948282241821
19577, -0.7431045174598694, -3.892763137817383, 0.831737756729126, 0.08740124106407166, 0.018115630373358727, -6.392438888549805, 0.3431006371974945, 0.0710538849234581, -0.7312941551208496, -0.8302426934242249, -0.9668622612953186, 0.05662524700164795, -1.276141103278211, 0.24990317343005586, -88.63482199289751, 9362.0, 30146.0, 35388.0, 9362.0, 8.370248794555664, 0.16416263580322266, -0.00021324593399185687, 0.026290468871593475, -0.08573334664106369, -0.038262300193309784, 0.9948520064353943, -0.061635348945856094, -0.11127853393554688, 1.48681640625, 1.330078125, 0.0206298828125, 1.494140625, 1.3740234375, 10.0, 1.0, 10.0, 1.3854948282241821
19587, -0.7436962723731995, -3.893005609512329, 0.8331753015518188, 0.08740124106407166, 0.018115630373358727, -6.392438888549805, 0.3431006371974945, 0.0710538849234581, -0.7312941551208496, -0.8302896618843079, -0.9667742252349854, 0.0566776804625988, -1.2879596628130536, 0.23531837781345644, -88.57383948829722, 9362.0, 30146.0, 35388.0, 9362.0, 8.370248794555664, 0.030040383338928223, 0.05980054289102554, 0.2302563190460205, -0.08446406573057175, -0.03958367183804512, 0.9963656663894653, -0.061635348945856094, -0.11127853393554688, 1.48681640625, 1.294189453125, 0.0578155517578125, 1.494140625, 1.3740234375, 10.0, 1.0, 10.0, 1.3854169845581055
19607, -0.7433062791824341, -3.8976433277130127, 0.8356446027755737, 0.08740124106407166, 0.018115630373358727, -6.392438888549805, 0.3431006371974945, 0.0710538849234581, -0.7312941551208496, -0.8302353620529175, -0.9668465852737427, 0.056653134524822235, -1.275422041230048, 0.25879332740021255, -88.63568723306615, 9362.0, 30146.0, 35388.0, 9362.0, 8.370248794555664, -0.06071087718009949, 0.17472143471240997, -0.004438560921698809, -0.0849616527557373, -0.0375102274119854, 0.9960029125213623, -0.061635348945856094, -0.11127853393554688, 1.48681640625, 1.294189453125, 0.0578155517578125, 1.491943359375, 1.3740234375, 10.0, 1.0, 10.0, 1.3855706453323364
19617, -0.7430766224861145, -3.895307779312134, 0.8345116972923279, 0.1333368867635727, 0.02762434631586075, -6.480668544769287, 0.42248815298080444, 0.08742290735244751, -0.7391412258148193, -0.8302926421165466, -0.9667889475822449, 0.056656938046216965, -1.2969072747201718, 0.2433968129528239, -88.56647040000828, 9362.0, 30146.0, 35388.0, 9362.0, 8.370248794555664, -0.03213200345635414, -0.3893388509750366, -0.3099818527698517, -0.084583580493927, -0.03650536760687828, 0.9962764382362366, -0.061635348945856094, -0.11127853393554688, 1.48681640625, 1.294189453125, 0.0578155517578125, 1.491943359375, 1.3740234375, 10.0, 1.0, 10.0, 1.3855706453323364
19647, -0.7437376379966736, -3.8972129821777344, 0.8389087319374084, 0.1419190615415573, 0.029400086030364037, -6.495463848114014, 0.43572625517845154, 0.09015048295259476, -0.7404178977012634, -0.8302368521690369, -0.9668601751327515, 0.05665130168199539, -1.269872298475157, 0.24393461066665623, -88.63846726613444, 9362.0, 30146.0, 35388.0, 9362.0, 8.370248794555664, -0.03844621777534485, 0.05514891818165779, 0.3978862464427948, -0.08526203781366348, -0.038190972059965134, 0.9957783818244934, -0.061635348945856094, -0.11127853393554688, 1.48681640625, 1.314697265625, 0.0319061279296875, 1.491943359375, 1.3740234375, 10.0, 1.0, 10.0, 1.3855808973312378
19657, -0.7449538111686707, -3.8954944610595703, 0.8398759961128235, 0.1419190615415573, 0.029400086030364037, -6.495463848114014, 0.43572625517845154, 0.09015048295259476, -0.7404178977012634, -0.8302868604660034, -0.96678626537323, 0.05665822699666023, -1.2910137498335774, 0.24035922425872513, -88.57374263544683, 9362.0, 30146.0, 35388.0, 9362.0, 8.370248794555664, -0.21943920850753784, -0.26889631152153015, -0.09861935675144196, -0.08653461188077927, -0.03777393698692322, 0.995561420917511, -0.061635348945856094, -0.11127853393554688, 1.48681640625, 1.314697265625, 0.0319061279296875, 1.491943359375, 1.3740234375, 10.0, 1.0, 10.0, 1.3854176998138428
19667, -0.7445802688598633, -3.8946802616119385, 0.8383834362030029, 0.1419190615415573, 0.029400086030364037, -6.495463848114014, 0.43572625517845154, 0.09015048295259476, -0.7404178977012634, -0.8302764296531677, -0.9667976498603821, 0.056646037846803665, -1.2942708073110651, 0.24517458602190345, -88.57686571483879, 9362.0, 30146.0, 35388.0, 9362.0, 8.370248794555664, 0.029446644708514214, -0.0026229906361550093, -0.21413108706474304, -0.08623277395963669, -0.03928181901574135, 0.994202196598053, -0.061635348945856094, -0.11127853393554688, 1.48681640625, 1.314697265625, 0.0319061279296875, 1.48828125, 1.3740234375, 10.0, 1.0, 10.0, 1.3854176998138428
19677, -0.7442296743392944, -3.8945441246032715, 0.8400384187698364, 0.15987759828567505, 0.03311530500650406, -6.525130748748779, 0.4621931314468384, 0.09561074525117874, -0.7430419921875, -0.8302802443504333, -0.9667720794677734, 0.056653786450624466, -1.2816205958272466, 0.24242075930411033, -88.57613827153254, 9362.0, 30146.0, 35388.0, 9362.0, 8.370248794555664, 0.10371029376983643, 0.12388027459383011, 0.26913776993751526, -0.0860491394996643, -0.037637144327163696, 0.9947836995124817, -0.061635348945856094, -0.11127853393554688, 1.48681640625, 1.314697265625, 0.0319061279296875, 1.48828125, 1.3740234375, 10.0, 1.0, 10.0, 1.3853402137756348
19687, -0.7453501224517822, -3.89284610748291, 0.8420358300209045, 0.15987759828567505, 0.03311530500650406, -6.525130748748779, 0.4621931314468384, 0.09561074525117874, -0.7430419921875, -0.8302863836288452, -0.9668055772781372, 0.0566532164812088, -1.2882053382977041, 0.23018038640381633, -88.5759463784602, 9362.0, 30146.0, 35388.0, 9362.0, 8.370248794555664, -0.19273675978183746, -0.30243217945098877, 0.27308908104896545, -0.0860537514090538, -0.03750171884894371, 0.9955487847328186, -0.061635348945856094, -0.11127853393554688, 1.48681640625, 1.314697265625, 0.0319061279296875, 1.493408203125, 1.3740234375, 10.0, 1.0, 10.0, 1.3854396343231201
19697, -0.7441602349281311, -3.8927619457244873, 0.8431316614151001, 0.15987759828567505, 0.03311530500650406, -6.525130748748779, 0.4621931314468384, 0.09561074525117874, -0.7430419921875, -0.8302874565124512, -0.9667827486991882, 0.05665437504649162, -1.2927946417931444, 0.24209062031775375, -88.57736414992347, 9362.0, 30146.0, 35388.0, 9362.0, 8.370248794555664, 0.14519312977790833, 0.05429621413350105, -0.12323378771543503, -0.08707506209611893, -0.03550282120704651, 0.9958420991897583, -0.061635348945856094, -0.11127853393554688, 1.48681640625, 1.314697265625, 0.0319061279296875, 1.493408203125, 1.3740234375, 10.0, 1.0, 10.0, 1.3854396343231201
19707, -0.744149923324585, -3.891819715499878, 0.842822790145874, 0.15987759828567505, 0.03311530500650406, -6.525130748748779, 0.4621931314468384, 0.09561074525117874, -0.7430419921875, -0.8302918672561646, -0.9667823314666748, 0.056672561913728714, -1.287714577047191, 0.24349612413720934, -88.57401769865197, 9362.0, 30146.0, 35388.0, 9362.0, 8.370248794555664, -0.0731596127152443, -0.3412293493747711, -0.0739506259560585, -0.08685997128486633, -0.03833160549402237, 0.9961999654769897, -0.061635348945856094, -0.11127853393554688, 1.48681640625, 1.314697265625, 0.0319061279296875, 1.48974609375, 1.3359375, 10.0, 1.0, 10.0, 1.3854396343231201
19717, -0.7450574040412903, -3.8904781341552734, 0.8426663875579834, 0.1788940280675888, 0.037048980593681335, -6.554911136627197, 0.4886332154273987, 0.10107491165399551, -0.7458388209342957, -0.8302263617515564, -0.9668598771095276, 0.05665910243988037, -1.2784694507659458, 0.2453602297081261, -88.64661527447167, 9362.0, 30146.0, 35388.0, 9362.0, 8.370248794555664, -0.08720123022794724, -0.3619445264339447, -0.0225771963596344, -0.08604416996240616, -0.03629779443144798, 0.9948011040687561, -0.061635348945856094, -0.11127853393554688, 1.48681640625, 1.314697265625, 0.0319061279296875, 1.48974609375, 1.3359375, 10.0, 1.0, 10.0, 1.3854396343231201
19727, -0.7453662157058716, -3.8897757530212402, 0.8418609499931335, 0.1788940280675888, 0.037048980593681335, -6.554911136627197, 0.4886332154273987, 0.10107491165399551, -0.7458388209342957, -0.8302345871925354, -0.9668662548065186, 0.05664360523223877, -1.2768084197674276, 0.24497964338110023, -88.62768729705965, 9362.0, 30146.0, 35388.0, 9362.0, 8.370248794555664, -0.13374018669128418, -0.23002345860004425, -0.09448113292455673, -0.08385545760393143, -0.03838174417614937, 0.9958106875419617, -0.061635348945856094, -0.11127853393554688, 1.48681640625, 1.3154296875, 0.03118896484375, 1.48974609375, 1.3359375, 10.0, 1.0, 10.0, 1.3852407932281494
19737, -0.7454654574394226, -3.8878629207611084, 0.8415738940238953, 0.18879881501197815, 0.03909779340028763, -6.5698418617248535, 0.5018434524536133, 0.10380677133798599, -0.7472516894340515, -0.830295741558075, -0.9667346477508545, 0.05658009648323059, -1.2969034756132816, 0.28048888182371456, -88.5678503917291, 9362.0, 30146.0, 35388.0, 9362.0, 8.370248794555664, -0.01867704652249813, -0.11700650304555893, -0.19051416218280792, -0.08493045717477798, -0.03555675968527794, 0.9951300024986267, -0.061635348945856094, -0.11127853393554688, 1.48681640625, 1.3154296875, 0.03118896484375, 1.48974609375, 1.3359375, 10.0, 1.0, 10.0, 1.3852407932281494
19747, -0.746073842048645, -3.8861660957336426, 0.8422842621803284, 0.18879881501197815, 0.03909779340028763, -6.5698418617248535, 0.5018434524536133, 0.10380677133798599, -0.7472516894340515, -0.8302778005599976, -0.966777503490448, 0.056636516004800797, -1.2936740596902077, 0.2524794342245116, -88.57053686365818, 9362.0, 30146.0, 35388.0, 9362.0, 8.370248794555664, 0.03529208526015282, -0.2612873315811157, 0.10699152946472168, -0.08624810725450516, -0.036699384450912476, 0.9981552362442017, -0.061635348945856094, -0.11127853393554688, 1.48681640625, 1.3154296875, 0.03118896484375, 1.48974609375, 1.3359375, 10.0, 1.0, 10.0, 1.3852407932281494
19757, -0.7449908256530762, -3.887054920196533, 0.8427004814147949, 0.19896778464317322, 0.041201282292604446, -6.584799766540527, 0.515056848526001, 0.10654349625110626, -0.7485012412071228, -0.8302865624427795, -0.9667937159538269, 0.05665799230337143, -1.293451447619282, 0.2362349071709673, -88.57902403212384, 9362.0, 30146.0, 35388.0, 9362.0, 8.370248794555664, 0.2154824584722519, 0.1909334361553192, 0.18671338260173798, -0.08571047335863113, -0.037924449890851974, 0.996268093585968, -0.061635348945856094, -0.11127853393554688, 1.48681640625, 1.3154296875, 0.03118896484375, 1.48974609375, 1.3359375, 10.0, 1.0, 10.0, 1.3852407932281494
19777, -0.7447249889373779, -3.8883039951324463, 0.8421503305435181, 0.20940108597278595, 0.043359559029340744, -6.599780559539795, 0.5282708406448364, 0.10928229987621307, -0.7496294975280762, -0.830232560634613, -0.9668440222740173, 0.05664920061826706, -1.2781594590160157, 0.26578730515038274, -88.62938025749783, 9362.0, 30146.0, 35388.0, 9362.0, 8.370248794555664, -0.02331915684044361, 0.06215183064341545, -0.012004747986793518, -0.08493807166814804, -0.03882354870438576, 0.9956927299499512, -0.061635348945856094, -0.11127853393554688, 1.48681640625, 1.27880859375, 0.086212158203125, 1.48974609375, 1.3359375, 10.0, 1.0, 10.0, 1.3846752643585205
19787, -0.745428740978241, -3.8888094425201416, 0.8402541279792786, 0.20940108597278595, 0.043359559029340744, -6.599780559539795, 0.5282708406448364, 0.10928229987621307, -0.7496294975280762, -0.830280601978302, -0.9668108820915222, 0.05666320025920868, -1.2876361990573593, 0.23297488795341792, -88.5722813216891, 9362.0, 30146.0, 35388.0, 9362.0, 8.370248794555664, -0.05234001576900482, 0.06585158407688141, -0.13514162600040436, -0.08482427150011063, -0.0403856597840786, 0.9952322244644165, -0.061635348945856094, -0.11127853393554688, 1.48681640625, 1.27880859375, 0.086212158203125, 1.491943359375, 1.3359375, 10.0, 1.0, 10.0, 1.3846752643585205
19797, -0.7443698644638062, -3.8871710300445557, 0.8411146402359009, 0.20940108597278595, 0.043359559029340744, -6.599780559539795, 0.5282708406448364, 0.10928229987621307, -0.7496294975280762, -0.8302358984947205, -0.9668362140655518, 0.05664840340614319, -1.2783994349845704, 0.26080061004199706, -88.63644522523532, 9362.0, 30146.0, 35388.0, 9362.0, 8.370248794555664, 0.07661706209182739, -0.3709503412246704, 0.010717274621129036, -0.08587465435266495, -0.03668271750211716, 0.9954856634140015, -0.061635348945856094, -0.11127853393554688, 1.48681640625, 1.376220703125, 0.0222930908203125, 1.491943359375, 1.3359375, 10.0, 1.0, 10.0, 1.3846752643585205
19807, -0.7439596652984619, -3.8865280151367188, 0.8393274545669556, 0.20940108597278595, 0.043359559029340744, -6.599780559539795, 0.5282708406448364, 0.10928229987621307, -0.7496294975280762, -0.8302363753318787, -0.9668532013893127, 0.05665385723114014, -1.271867027724748, 0.24540462183540512, -88.62733429480876, 9362.0, 30146.0, 35388.0, 9362.0, 8.370248794555664, 0.052439965307712555, -0.059596531093120575, -0.11630866676568985, -0.08638542890548706, -0.037248581647872925, 0.995204508304596, -0.061635348945856094, -0.11127853393554688, 1.48681640625, 1.376220703125, 0.0222930908203125, 1.48681640625, 1.3359375, 10.0, 1.0, 10.0, 1.3847179412841797
19817, -0.7445831298828125, -3.8853507041931152, 0.8403880596160889, 0.20940108597278595, 0.043359559029340744, -6.599780559539795, 0.5282708406448364, 0.10928229987621307, -0.7496294975280762, -0.8302754759788513, -0.9667832255363464, 0.056675683706998825, -1.2869613201656902, 0.23813684735745255, -88.57087914140936, 9362.0, 30146.0, 35388.0, 9362.0, 8.370248794555664, -0.11675479263067245, -0.1845787614583969, 0.09058002382516861, -0.08638542890548706, -0.037248581647872925, 0.995204508304596, -0.061635348945856094, -0.11127853393554688, 1.48681640625, 1.376220703125, 0.0222930908203125, 1.48681640625, 1.3359375, 10.0, 1.0, 10.0, 1.3847179412841797
19847, -0.7471558451652527, -3.885061264038086, 0.8447110652923584, 0.20940108597278595, 0.043359559029340744, -6.599780559539795, 0.5282708406448364, 0.10928229987621307, -0.7496294975280762, -0.8302897214889526, -0.9667361974716187, 0.05657421797513962, -1.2857088310686497, 0.2789848892559803, -88.57406306078897, 9362.0, 30146.0, 35388.0, 9362.0, 8.370248794555664, -0.11367814987897873, -0.27164679765701294, -0.12687751650810242, -0.08712130039930344, -0.0378202460706234, 0.9941366910934448, -0.05735965073108673, -0.021678924560546875, 1.494140625, 1.376220703125, 0.0222930908203125, 1.493408203125, 1.3359375, 10.0, 1.0, 10.0, 1.384718418121338
19857, -0.7466984987258911, -3.8833303451538086, 0.8448600172996521, 0.2537752687931061, 0.05253949761390686, -6.6599626541137695, 0.5810741186141968, 0.12021570652723312, -0.7549917697906494, -0.8303037285804749, -0.966719388961792, 0.05658883973956108, -1.2869845060799314, 0.27518272080172324, -88.57361288495346, 9362.0, 30146.0, 35388.0, 9362.0, 8.370248794555664, 0.08276012539863586, 0.059029556810855865, 0.06811140477657318, -0.08538821339607239, -0.03677830845117569, 0.9947066903114319, -0.05735965073108673, -0.021678924560546875, 1.494140625, 1.376220703125, 0.0222930908203125, 1.493408203125, 1.3359375, 10.0, 1.0, 10.0, 1.384718418121338
19877, -0.7476674318313599, -3.885310173034668, 0.849848747253418, 0.2655285894870758, 0.054971206933259964, -6.675076961517334, 0.5942578315734863, 0.12295553088188171, -0.7564432621002197, -0.8302913904190063, -0.9667788743972778, 0.05665273219347, -1.2846350418734993, 0.23893139384927053, -88.57512457737886, 9362.0, 30146.0, 35388.0, 9362.0, 8.370248794555664, 0.019497497007250786, -0.09422869980335236, 0.06558489054441452, -0.0845181792974472, -0.03638629987835884, 0.9948462843894958, -0.05735965073108673, -0.021678924560546875, 1.494140625, 1.376220703125, 0.0222930908203125, 1.491943359375, 1.3359375, 10.0, 1.0, 10.0, 1.3846557140350342
19887, -0.7489543557167053, -3.883430242538452, 0.8499224781990051, 0.2655285894870758, 0.054971206933259964, -6.675076961517334, 0.5942578315734863, 0.12295553088188171, -0.7564432621002197, -0.8302254676818848, -0.9668543338775635, 0.056669771671295166, -1.278600918585029, 0.2537931168204466, -88.6305808888093, 9362.0, 30146.0, 35388.0, 9362.0, 8.370248794555664, -0.11486277729272842, -0.2669088542461395, -0.1789921224117279, -0.08326893299818039, -0.038442276418209076, 0.995479166507721, -0.05735965073108673, -0.021678924560546875, 1.494140625, 1.376220703125, 0.0222930908203125, 1.491943359375, 1.3359375, 10.0, 1.0, 10.0, 1.3846557140350342
19897, -0.7485739588737488, -3.882866621017456, 0.8507616519927979, 0.2655285894870758, 0.054971206933259964, -6.675076961517334, 0.5942578315734863, 0.12295553088188171, -0.7564432621002197, -0.8302245736122131, -0.966840922832489, 0.05666431039571762, -1.2728443605038495, 0.2596689598921955, -88.64053624563635, 9362.0, 30146.0, 35388.0, 9362.0, 8.370248794555664, 0.16823750734329224, -0.06902045756578445, 0.1579066962003708, -0.08203820884227753, -0.03992995619773865, 0.9948440790176392, -0.05735965073108673, -0.021678924560546875, 1.494140625, 1.31103515625, 0.0355682373046875, 1.491943359375, 1.3359375, 10.0, 1.0, 10.0, 1.3846347332000732
19907, -0.7493627071380615, -3.879795789718628, 0.8493737578392029, 0.2655285894870758, 0.054971206933259964, -6.675076961517334, 0.5942578315734863, 0.12295553088188171, -0.7564432621002197, -0.8302390575408936, -0.96685791015625, 0.05666731297969818, -1.2781505674761984, 0.2439269250052689, -88.62643203020927, 9362.0, 30146.0, 35388.0, 9362.0, 8.370248794555664, 0.16823750734329224, -0.06902045756578445, 0.1579066962003708, -0.08583422750234604, -0.03794778138399124, 0.9959493279457092, -0.05735965073108673, -0.021678924560546875, 1.494140625, 1.31103515625, 0.0355682373046875, 1.491943359375, 1.3359375, 10.0, 1.0, 10.0, 1.38450288772583
19917, -0.7504009008407593, -3.8809943199157715, 0.8502015471458435, 0.2898264229297638, 0.05999922752380371, -6.705389976501465, 0.6206305027008057, 0.12844711542129517, -0.7592333555221558, -0.8302324414253235, -0.9668641686439514, 0.0566258579492569, -1.2785759586188168, 0.2544469855260729, -88.63198895623798, 9362.0, 30146.0, 35388.0, 9362.0, 8.370248794555664, -0.15367457270622253, 0.28561726212501526, 0.009437122382223606, -0.08601529151201248, -0.036605335772037506, 0.998751163482666, -0.05735965073108673, -0.021678924560546875, 1.494140625, 1.31103515625, 0.0355682373046875, 1.491943359375, 1.3359375, 10.0, 1.0, 10.0, 1.3845021724700928
19927, -0.7509902119636536, -3.8834409713745117, 0.8494760990142822, 0.2898264229297638, 0.05999922752380371, -6.705389976501465, 0.6206305027008057, 0.12844711542129517, -0.7592333555221558, -0.8302255272865295, -0.9668636918067932, 0.056639231741428375, -1.2784281752195146, 0.2492610136966107, -88.63130780294073, 9362.0, 30146.0, 35388.0, 9362.0, 8.370248794555664, -0.15459467470645905, 0.19096815586090088, -0.008352619595825672, -0.08641071617603302, -0.03726116567850113, 0.9978421926498413, -0.05735965073108673, -0.021678924560546875, 1.494140625, 1.31103515625, 0.0355682373046875, 1.491943359375, 1.3359375, 10.0, 1.0, 10.0, 1.3845021724700928
19947, -0.7524646520614624, -3.882545232772827, 0.8495833873748779, 0.2898264229297638, 0.05999922752380371, -6.705389976501465, 0.6206305027008057, 0.12844711542129517, -0.7592333555221558, -0.830296516418457, -0.9667887091636658, 0.05667004734277725, -1.289984941911317, 0.2454768860016543, -88.56709350149377, 9362.0, 30146.0, 35388.0, 9362.0, 8.370248794555664, 0.02593584917485714, 0.04363461583852768, 0.14488111436367035, -0.08443119376897812, -0.03719571977853775, 0.9947700500488281, -0.04621795192360878, 0.0052013397216796875, 1.496337890625, 1.382080078125, 0.0256195068359375, 1.49267578125, 1.3359375, 10.0, 1.0, 10.0, 1.384234070777893
19957, -0.7518237829208374, -3.882704496383667, 0.8493200540542603, 0.31517985463142395, 0.06524743884801865, -6.735797882080078, 0.6470210552215576, 0.13396131992340088, -0.7615577578544617, -0.8302397727966309, -0.9668511748313904, 0.056668512523174286, -1.2816281455268148, 0.244694843164325, -88.63570730828992, 9362.0, 30146.0, 35388.0, 9362.0, 8.370248794555664, 0.16680248081684113, -0.10791124403476715, -0.10818912088871002, -0.08443119376897812, -0.03719571977853775, 0.9947700500488281, -0.04621795192360878, 0.0052013397216796875, 1.496337890625, 1.382080078125, 0.0256195068359375, 1.49267578125, 1.3359375, 10.0, 1.0, 10.0, 1.3841432332992554
