timeTick, roll, pitch, yaw, stateX, stateY, stateZ, stateVX, stateVY, stateVZ, otX0, otY0, otZ0, otRoll0, otPitch0, otYaw0, left wing, pitch motor, yaw motor, right wing, voltage, roll rate, pitch rate, yaw rate, A_x, A_y, A_z, current, i_raw, v_raw, airflow_voltage, airflow_speed, pot_Pitch, voltage_nKF, kFFx, state, State, volt_KF
35076, -1.625350832939148, -4.006061553955078, 6.162257671356201, 0, 0, 0, 0, 0, 0, -0.8305467963218689, -0.9636328816413879, 0.05759894475340843, -0.3361828773710656, -0.36733872671979384, -88.97657330051243, 0, 0, 0, 0, 0, 0, 0, 0, 0, 0, 0, 0, 0, 0, 0, 0, 0, 0, 0, 0, 0, 0
35086, -1.6255239248275757, -4.008386135101318, 6.161691188812256, -0.0011218565050512552, -0.0006038741557858884, -15.782004356384277, -0.049598563462495804, -0.026698455214500427, -0.9415716528892517, -0.8305491805076599, -0.9637094736099243, 0.0576256699860096, -0.3459254029723492, -0.4280191527489592, -88.97332831074101, 9362.0, 30146.0, 35388.0, 9362.0, 0, -0.051621101796627045, 0.3246186077594757, -0.034702472388744354, -0.06437273323535919, -0.01980467326939106, 0.997921884059906, 0, 0, 0, 0, 0, 0, 0, 0, 0, 0, 0
35096, -1.62588369846344, -4.010488986968994, 6.1624064445495605, -0.001585344667546451, -0.0008533844957128167, -15.791422843933105, -0.043099064379930496, -0.023203685879707336, -0.9420453310012817, -0.8305382132530212, -0.9637109041213989, 0.05763445794582367, -0.34379164375774435, -0.42903746376407526, -88.9800516710714, 9362.0, 30146.0, 35388.0, 9362.0, 0, -0.1655118763446808, 0.08888301998376846, -0.0023143826983869076, -0.06429950147867203, -0.01915201172232628, 0.9970026612281799, 0, 0, 0, 1.41064453125, 0.0509490966796875, 0, 1.389404296875, 10.0, 1.0, 10.0, 1.4278621673583984
35106, -1.6261528730392456, -4.010485649108887, 6.1629719734191895, -0.0019838321022689342, -0.0010679514380171895, -15.800846099853516, -0.03659849986433983, -0.019709615036845207, -0.9425613880157471, -0.8305505514144897, -0.9636386036872864, 0.057585228234529495, -0.3363041227962732, -0.3691179999870826, -88.9714237703687, 9362.0, 30146.0, 35388.0, 9362.0, 0, 0.060405731201171875, 0.020800327882170677, 0.015271124430000782, -0.06497259438037872, -0.016020318493247032, 0.995913565158844, 0, 0, 0, 1.411376953125, 0.05181884765625, 1.49267578125, 1.357177734375, 10.0, 1.0, 10.0, 1.4277753829956055
35116, -1.6259089708328247, -4.011047840118408, 6.162615776062012, -0.0023173438385128975, -0.0012475976254791021, -15.810275077819824, -0.0301038958132267, -0.01621955633163452, -0.9432189464569092, -0.8305408358573914, -0.9637020826339722, 0.057628288865089417, -0.3501114161635774, -0.43063891460357695, -88.96889482902358, 9362.0, 30146.0, 35388.0, 9362.0, 0, -0.09220100939273834, -0.17728479206562042, 0.02818910777568817, -0.06467321515083313, -0.015674429014325142, 0.9975031614303589, 0, 0, 0, 1.39892578125, 0.0390167236328125, 1.49267578125, 1.39892578125, 10.0, 1.0, 10.0, 1.4275964498519897
35126, -1.6263868808746338, -4.01339864730835, 6.162760257720947, -0.0025858927983790636, -0.0013923313235864043, -15.819710731506348, -0.023605890572071075, -0.012727231718599796, -0.9438248872756958, -0.8305491209030151, -0.9636042714118958, 0.05755913257598877, -0.3462787932509561, -0.36642869545045187, -88.98021412718182, 9362.0, 30146.0, 35388.0, 9362.0, 0, -0.06795381754636765, 0.29366692900657654, 0.020225482061505318, -0.0635041743516922, -0.019312182441353798, 0.996742308139801, 0, 0, 0, 1.41943359375, 0.0612945556640625, 1.496337890625, 1.402587890625, 10.0, 1.0, 10.0, 1.4275360107421875
35136, -1.6261790990829468, -4.012899875640869, 6.162931442260742, -0.002789432881399989, -0.0015021307626739144, -15.82915210723877, -0.01710214465856552, -0.00923263467848301, -0.9443594813346863, -0.8305296897888184, -0.963699996471405, 0.05764244869351387, -0.3412737295233686, -0.4254210604920843, -88.98551061401142, 9362.0, 30146.0, 35388.0, 9362.0, 0, 0.2090795785188675, 0.09695128351449966, 0.10668637603521347, -0.061764199286699295, -0.02116488292813301, 0.9969871044158936, 0, 0, 0, 1.426025390625, 0.069732666015625, 1.496337890625, 1.40478515625, 10.0, 1.0, 10.0, 1.4274249076843262
35146, -1.6258289813995361, -4.015222072601318, 6.16264009475708, -0.0029279219452291727, -0.0015769811579957604, -15.838598251342773, -0.010595696978271008, -0.0057374294847249985, -0.944912314414978, -0.8305538892745972, -0.963628351688385, 0.057568520307540894, -0.3458068552714419, -0.363946543507808, -88.97384771994993, 9362.0, 30146.0, 35388.0, 9362.0, 0, -0.11175292730331421, 0.36609402298927307, 0.09032610803842545, -0.062444936484098434, -0.01920999027788639, 0.9988059401512146, 0, 0, 0, 1.439208984375, 0.0882415771484375, 1.496337890625, 1.405517578125, 10.0, 1.0, 10.0, 1.427323341369629
35156, -1.6249496936798096, -4.0199761390686035, 6.163149356842041, -0.0030013201758265495, -0.001616865280084312, -15.848050117492676, -0.004083956591784954, -0.0022394319530576468, -0.9453738331794739, -0.830536961555481, -0.9637154340744019, 0.057617682963609695, -0.34417055072162867, -0.4281932677475311, -88.9815887526308, 9362.0, 30146.0, 35388.0, 9362.0, 0, 0.1503748893737793, 0.639163613319397, 0.11828344315290451, -0.06156099960207939, -0.018424198031425476, 0.9982990622520447, 0, 0, 0, 1.40771484375, 0.0478363037109375, 1.496337890625, 1.39599609375, 10.0, 1.0, 10.0, 1.42727530002594
35166, -1.6251593828201294, -4.018857002258301, 6.162108421325684, -0.0030095684342086315, -0.001621763687580824, -15.857505798339844, 0.002434262540191412, 0.0012598158791661263, -0.9457980394363403, -0.8305472135543823, -0.9635875821113586, 0.05755337327718735, -0.3438739608396474, -0.33202116286429373, -88.98985061006387, 9362.0, 30146.0, 35388.0, 9362.0, 0, -0.07590342313051224, -0.24950100481510162, -0.09398403763771057, -0.06045292317867279, -0.020973745733499527, 0.9993200898170471, 0, 0, 0, 1.424560546875, 0.0678253173828125, 1.4912109375, 1.387939453125, 10.0, 1.0, 10.0, 1.4271326065063477
35176, -1.6256667375564575, -4.020351886749268, 6.162550449371338, -0.002952578943222761, -0.0015916646225377917, -15.866965293884277, 0.008963706903159618, 0.0047598788514733315, -0.9461787343025208, -0.8305357694625854, -0.963703453540802, 0.05763644725084305, -0.3488811000839036, -0.4315024912054639, -88.98039198374273, 9362.0, 30146.0, 35388.0, 9362.0, 8.370248794555664, 0.02019248716533184, 0.09965686500072479, -0.02647051215171814, -0.06259077042341232, -0.01772775501012802, 0.9972540140151978, -0.03173302114009857, -0.021678924560546875, 1.494140625, 1.39892578125, 0.0390167236328125, 1.4912109375, 1.40771484375, 10.0, 1.0, 10.0, 1.4270111322402954
35186, -1.6252214908599854, -4.021570205688477, 6.164108753204346, -0.00283033330924809, -0.0015265803085640073, -15.876429557800293, 0.015485389158129692, 0.00825704075396061, -0.9466460347175598, -0.8305425643920898, -0.9637019634246826, 0.057661183178424835, -0.3435552811343022, -0.4243893285585614, -88.9884755315779, 9362.0, 30146.0, 35388.0, 9362.0, 8.370248794555664, 0.05209614709019661, 0.16913853585720062, 0.15153494477272034, -0.06474445015192032, -0.018339304253458977, 0.9970549941062927, -0.03173302114009857, -0.021678924560546875, 1.494140625, 1.37109375, 0.0197906494140625, 1.49560546875, 1.40771484375, 10.0, 1.0, 10.0, 1.4269177913665771
35196, -1.6248916387557983, -4.01767110824585, 6.162961006164551, -0.0026428832206875086, -0.0014265315840020776, -15.88589859008789, 0.0220045056194067, 0.011752880178391933, -0.947187066078186, -0.8305917978286743, -0.9635071158409119, 0.05751202628016472, -0.3231620245825402, -0.27932643100908194, -88.96846657671469, 9362.0, 30146.0, 35388.0, 9362.0, 8.370248794555664, 0.047309696674346924, -0.15443064272403717, -0.12031485140323639, -0.06687453389167786, -0.01735328696668148, 0.9982064366340637, -0.03173302114009857, -0.021678924560546875, 1.494140625, 1.41796875, 0.05950927734375, 1.49560546875, 1.379150390625, 10.0, 1.0, 10.0, 1.4267923831939697
35206, -1.6242767572402954, -4.01821756362915, 6.160187244415283, -0.0023902186658233404, -0.0012915192637592554, -15.895373344421387, 0.0285284873098135, 0.0152494627982378, -0.9476884603500366, -0.8305491805076599, -0.9636121392250061, 0.057597775012254715, -0.34113852730740296, -0.3668127370046932, -88.97702252858613, 9362.0, 30146.0, 35388.0, 9362.0, 8.370248794555664, -0.018806494772434235, -0.17715509235858917, -0.5505290031433105, -0.06491328775882721, -0.018976466730237007, 0.9984285235404968, -0.03173302114009857, -0.021678924560546875, 1.494140625, 1.420166015625, 0.0621337890625, 1.493408203125, 1.387939453125, 10.0, 1.0, 10.0, 1.4267113208770752
35216, -1.6237300634384155, -4.018139362335205, 6.1582865715026855, -0.0020723151974380016, -0.0011215312406420708, -15.904851913452148, 0.035052377730607986, 0.018747836351394653, -0.9480955600738525, -0.8305509686470032, -0.9637155532836914, 0.057633183896541595, -0.34386525936223383, -0.4206857421628172, -88.97825585116554, 9362.0, 30146.0, 35388.0, 9362.0, 8.370248794555664, 0.015193442814052105, -0.0704101100564003, -0.022906938567757607, -0.06299281865358353, -0.019809164106845856, 0.9981986284255981, -0.03173302114009857, -0.021678924560546875, 1.494140625, 1.399658203125, 0.0396575927734375, 1.493408203125, 1.39892578125, 10.0, 1.0, 10.0, 1.4264709949493408
35226, -1.623052716255188, -4.019443511962891, 6.157360553741455, -0.0016891984269022942, -0.0009165827068500221, -15.914335250854492, 0.041571080684661865, 0.02224164642393589, -0.9485975503921509, -0.8305431604385376, -0.9636235237121582, 0.05758409574627876, -0.34210829484399913, -0.3668662108560454, -88.97983022167098, 9362.0, 30146.0, 35388.0, 9362.0, 8.370248794555664, -0.017426928505301476, -0.2793666124343872, -0.31780293583869934, -0.061158716678619385, -0.01950821466743946, 0.9991834163665771, -0.03173302114009857, -0.021678924560546875, 1.494140625, 1.390869140625, 0.0319671630859375, 1.49267578125, 1.43701171875, 10.0, 1.0, 10.0, 1.4263516664505005
35236, -1.6242743730545044, -4.0240068435668945, 6.157204627990723, -0.0012408506590873003, -0.0006766784936189651, -15.923823356628418, 0.04809854179620743, 0.025739086791872978, -0.9489691257476807, -0.8305039405822754, -0.9636228084564209, 0.0575890950858593, -0.3273185832243606, -0.36826697598993974, -88.96433608157959, 9362.0, 30146.0, 35388.0, 9362.0, 8.370248794555664, -0.011142143048346043, 0.4527444541454315, -0.02525605447590351, -0.0639486312866211, -0.018539534881711006, 0.9989234805107117, -0.03173302114009857, -0.021678924560546875, 1.494140625, 1.398193359375, 0.03826904296875, 1.49267578125, 1.3740234375, 10.0, 1.0, 10.0, 1.4263205528259277
35246, -1.6231894493103027, -4.0228352546691895, 6.156883239746094, -0.0007272166549228132, -0.00040180518408305943, -15.93331527709961, 0.05462823063135147, 0.02923554927110672, -0.9493423104286194, -0.8305073976516724, -0.9636213183403015, 0.05760907381772995, -0.33475853599145483, -0.36772949892923634, -88.9596720043356, 9362.0, 30146.0, 35388.0, 9362.0, 8.370248794555664, 0.1738230288028717, -0.2030518651008606, -0.04151960089802742, -0.06389414519071579, -0.019220497459173203, 0.9991207122802734, -0.03173302114009857, -0.021678924560546875, 1.494140625, 1.330078125, 0.0206298828125, 1.496337890625, 1.37548828125, 10.0, 1.0, 10.0, 1.4261716604232788
35256, -1.6243594884872437, -4.022670269012451, 6.156708717346191, -0.00014825130347162485, -9.19544545467943e-05, -15.942811012268066, 0.06116485968232155, 0.03273454308509827, -0.9497247934341431, -0.8305046558380127, -0.9636173844337463, 0.057590875774621964, -0.3277572121300943, -0.3713228947445941, -88.96186739969632, 9362.0, 30146.0, 35388.0, 9362.0, 8.370248794555664, -0.03258116915822029, -0.22886696457862854, -0.1777368038892746, -0.06163613498210907, -0.017674781382083893, 0.9998567700386047, -0.03173302114009857, -0.021678924560546875, 1.494140625, 1.3681640625, 0.0185394287109375, 1.496337890625, 1.417236328125, 10.0, 1.0, 10.0, 1.426046371459961
35266, -1.6236861944198608, -4.023949146270752, 6.155322551727295, 0.0004961122176609933, 0.0002528975310269743, -15.952309608459473, 0.067707858979702, 0.03623585402965546, -0.9499853849411011, -0.8304946422576904, -0.9637011885643005, 0.05764249712228775, -0.33820091971355015, -0.4381901155323362, -88.95663001333965, 9362.0, 30146.0, 35388.0, 9362.0, 8.370248794555664, 0.04568259418010712, 0.19345970451831818, 0.027565574273467064, -0.06305723637342453, -0.01975809969007969, 0.9969395995140076, -0.03173302114009857, -0.021678924560546875, 1.494140625, 1.37841796875, 0.023406982421875, 1.49560546875, 1.443603515625, 10.0, 1.0, 10.0, 1.4259607791900635
35276, -1.6243993043899536, -4.024933815002441, 6.154877185821533, 0.0012058132560923696, 0.0006327240262180567, -15.961812019348145, 0.07423242926597595, 0.039729297161102295, -0.9505155682563782, -0.8305115103721619, -0.9636136293411255, 0.05757506936788559, -0.328635832701009, -0.3639584556254363, -88.95805573325246, 9362.0, 30146.0, 35388.0, 9362.0, 8.370248794555664, -0.14405474066734314, 0.022902043536305428, -0.06800440698862076, -0.06487083435058594, -0.02182992734014988, 0.9974871277809143, -0.04741450399160385, -0.08439826965332031, 1.489013671875, 1.423095703125, 0.06591796875, 1.49560546875, 1.41357421875, 10.0, 1.0, 10.0, 1.4259032011032104
35286, -1.6254092454910278, -4.028233528137207, 6.157166957855225, 0.001980765722692013, 0.0010474763112142682, -15.971320152282715, 0.08075807988643646, 0.043221116065979004, -0.9510642886161804, -0.8305104970932007, -0.9636051654815674, 0.057565830647945404, -0.3301496063575932, -0.35687838840399877, -88.95651621930054, 9362.0, 30146.0, 35388.0, 9362.0, 8.370248794555664, -0.08092525601387024, 0.32523563504219055, 0.4695732295513153, -0.06251513212919235, -0.01973031833767891, 0.9982243776321411, -0.04741450399160385, -0.08439826965332031, 1.489013671875, 1.393798828125, 0.0344085693359375, 1.48974609375, 1.4033203125, 10.0, 1.0, 10.0, 1.4257556200027466
35296, -1.625235676765442, -4.030087471008301, 6.158989906311035, 0.0028210124000906944, 0.0014971696073189378, -15.980833053588867, 0.08729109913110733, 0.046717800199985504, -0.9515236020088196, -0.8305030465126038, -0.9637118577957153, 0.057634901255369186, -0.3338777567260744, -0.4228709070885657, -88.96175357817738, 9362.0, 30146.0, 35388.0, 9362.0, 8.370248794555664, -0.12797054648399353, -0.07352382689714432, 0.0964241474866867, -0.06364382803440094, -0.02009444311261177, 0.9975285530090332, -0.04741450399160385, -0.08439826965332031, 1.489013671875, 1.37548828125, 0.021820068359375, 1.48974609375, 1.43115234375, 10.0, 1.0, 10.0, 1.4256339073181152
35306, -1.6250873804092407, -4.028563976287842, 6.158217430114746, 0.0037266092840582132, 0.0019818393047899008, -15.990350723266602, 0.09382813423871994, 0.05021631345152855, -0.9520028829574585, -0.8305152654647827, -0.9636131525039673, 0.05756101757287979, -0.3388576973760755, -0.3613175148431367, -88.95724364554361, 9362.0, 30146.0, 35388.0, 9362.0, 8.370248794555664, -0.15200094878673553, 0.03962443768978119, -0.15235421061515808, -0.06237760931253433, -0.017977414652705193, 0.996319055557251, -0.04741450399160385, -0.08439826965332031, 1.489013671875, 1.421630859375, 0.0640716552734375, 1.49560546875, 1.43408203125, 10.0, 1.0, 10.0, 1.425588846206665
35316, -1.6254655122756958, -4.028931140899658, 6.156659126281738, 0.004697546828538179, 0.002501471433788538, -15.999874114990234, 0.10035942494869232, 0.053709983825683594, -0.9526157975196838, -0.8305054306983948, -0.9637026786804199, 0.05764614790678024, -0.32806411420266074, -0.4302658175089391, -88.96970866309157, 9362.0, 30146.0, 35388.0, 9362.0, 8.370248794555664, -0.18956704437732697, -0.16304419934749603, -0.11790226399898529, -0.06490761041641235, -0.017442991957068443, 0.9981505870819092, -0.04741450399160385, -0.08439826965332031, 1.489013671875, 1.3916015625, 0.0325927734375, 1.49560546875, 1.40185546875, 10.0, 1.0, 10.0, 1.425525426864624
35326, -1.6257216930389404, -4.028696060180664, 6.157528400421143, 0.005733814090490341, 0.0030560526065528393, -16.009403228759766, 0.10689406841993332, 0.05720606446266174, -0.9531421661376953, -0.8304857611656189, -0.963692307472229, 0.05764591321349144, -0.33666624854348554, -0.43457096547513174, -88.96013865972287, 9362.0, 30146.0, 35388.0, 9362.0, 8.370248794555664, -0.006472941022366285, 0.007119454443454742, 0.18941418826580048, -0.06327907741069794, -0.01702604442834854, 0.9968265891075134, -0.04741450399160385, -0.08439826965332031, 1.489013671875, 1.35498046875, 0.01556396484375, 1.49267578125, 1.433349609375, 10.0, 1.0, 10.0, 1.425543189048767
35336, -1.62545645236969, -4.029742240905762, 6.158119201660156, 0.006835439708083868, 0.003645602148026228, -16.018938064575195, 0.11343103647232056, 0.06070392206311226, -0.9536409378051758, -0.8304977416992188, -0.9637081027030945, 0.05763409659266472, -0.33497746442694626, -0.4290453871208797, -88.96535849063838, 9362.0, 30146.0, 35388.0, 9362.0, 8.370248794555664, 0.14533214271068573, -0.02429390512406826, 0.0019598028156906366, -0.06291472166776657, -0.017334790900349617, 0.9985116720199585, -0.04741450399160385, -0.08439826965332031, 1.489013671875, 1.405517578125, 0.0454254150390625, 1.49267578125, 1.390869140625, 10.0, 1.0, 10.0, 1.4255609512329102
35346, -1.625060796737671, -4.028745174407959, 6.158571243286133, 0.008002440445125103, 0.004270136822015047, -16.02847671508789, 0.11996909230947495, 0.06420309096574783, -0.9541160464286804, -0.830510139465332, -0.9636111855506897, 0.05759081244468689, -0.3340404255497939, -0.36364660556097306, -88.9590536752395, 9362.0, 30146.0, 35388.0, 9362.0, 8.370248794555664, -0.01363418623805046, -0.14444658160209656, 0.017700569704174995, -0.06423119455575943, -0.018126126378774643, 0.9969350099563599, -0.04741450399160385, -0.08439826965332031, 1.489013671875, 1.395263671875, 0.035675048828125, 1.493408203125, 1.377685546875, 10.0, 1.0, 10.0, 1.4255462884902954
35356, -1.6251094341278076, -4.0296525955200195, 6.156911373138428, 0.008002440445125103, 0.004270136822015047, -16.02847671508789, 0.11996909230947495, 0.06420309096574783, -0.9541160464286804, -0.830548107624054, -0.9635103344917297, 0.057506710290908813, -0.31593141017239584, -0.2866460617498774, -88.95092663342882, 9362.0, 30146.0, 35388.0, 9362.0, 8.370248794555664, -0.0847049355506897, 0.22857534885406494, 0.08682109415531158, -0.06423119455575943, -0.018126126378774643, 0.9969350099563599, -0.04741450399160385, -0.08439826965332031, 1.489013671875, 1.395263671875, 0.035675048828125, 1.493408203125, 1.377685546875, 10.0, 1.0, 10.0, 1.4255462884902954
35366, -1.6249315738677979, -4.029563903808594, 6.156493663787842, 0.008002440445125103, 0.004270136822015047, -16.02847671508789, 0.11996909230947495, 0.06420309096574783, -0.9541160464286804, -0.8305178284645081, -0.9636205434799194, 0.05758131295442581, -0.3328561447107044, -0.36937247796601014, -88.95979411860647, 9362.0, 30146.0, 35388.0, 9362.0, 8.370248794555664, -0.0847049355506897, 0.22857534885406494, 0.08682109415531158, -0.06423119455575943, -0.018126126378774643, 0.9969350099563599, -0.04741450399160385, -0.08439826965332031, 1.489013671875, 1.38720703125, 0.0291900634765625, 1.493408203125, 1.377685546875, 10.0, 1.0, 10.0, 1.4253252744674683
35376, -1.6248600482940674, -4.029244899749756, 6.15817403793335, 0.01189565658569336, 0.00635359575971961, -16.0571231842041, 0.13958050310611725, 0.07469449192285538, -0.9556419849395752, -0.8305081725120544, -0.9636209607124329, 0.05757683143019676, -0.33960692609629806, -0.3733486186959283, -88.94879633469128, 9362.0, 30146.0, 35388.0, 9362.0, 8.370248794555664, -0.0847049355506897, 0.22857534885406494, 0.08682109415531158, -0.06672666221857071, -0.018437840044498444, 1.0001296997070312, -0.04741450399160385, -0.08439826965332031, 1.489013671875, 1.38720703125, 0.0291900634765625, 1.493408203125, 1.377685546875, 10.0, 1.0, 10.0, 1.4253252744674683
35386, -1.6241955757141113, -4.030642032623291, 6.158679485321045, 0.01189565658569336, 0.00635359575971961, -16.0571231842041, 0.13958050310611725, 0.07469449192285538, -0.9556419849395752, -0.8305028676986694, -0.9637044668197632, 0.05764235928654671, -0.3312576972354072, -0.42846626107066754, -88.96128804800784, 9362.0, 30146.0, 35388.0, 9362.0, 8.370248794555664, -0.07822126895189285, -0.04219130799174309, 0.027336928993463516, -0.06383796781301498, -0.01915142685174942, 0.9977371692657471, -0.04741450399160385, -0.08439826965332031, 1.489013671875, 1.38720703125, 0.0291900634765625, 1.4970703125, 1.377685546875, 10.0, 1.0, 10.0, 1.4253252744674683
35396, -1.6243987083435059, -4.029893398284912, 6.158789157867432, 0.01189565658569336, 0.00635359575971961, -16.0571231842041, 0.13958050310611725, 0.07469449192285538, -0.9556419849395752, -0.8305280208587646, -0.9636166095733643, 0.057519469410181046, -0.32272249653665463, -0.24924788468868542, -88.88014616775426, 9362.0, 30146.0, 35388.0, 9362.0, 8.370248794555664, -0.14414392411708832, -0.14322049915790558, 0.01215823832899332, -0.06574594974517822, -0.02108658477663994, 0.9977215528488159, -0.04741450399160385, -0.08439826965332031, 1.489013671875, 1.386474609375, 0.028656005859375, 1.4970703125, 1.377685546875, 10.0, 1.0, 10.0, 1.4253252744674683
35406, -1.6244629621505737, -4.0309157371521, 6.160289764404297, 0.01189565658569336, 0.00635359575971961, -16.0571231842041, 0.13958050310611725, 0.07469449192285538, -0.9556419849395752, -0.8305208086967468, -0.9636115431785583, 0.05757242441177368, -0.3330248985778878, -0.36553717224572324, -88.96045683741131, 9362.0, 30146.0, 35388.0, 9362.0, 8.370248794555664, -0.11875884979963303, 0.04525389149785042, 0.13095422089099884, -0.06574594974517822, -0.02108658477663994, 0.9977215528488159, -0.04741450399160385, -0.08439826965332031, 1.489013671875, 1.386474609375, 0.028656005859375, 1.49267578125, 1.377685546875, 10.0, 1.0, 10.0, 1.4253252744674683
35416, -1.6246402263641357, -4.031670570373535, 6.159648418426514, 0.018002651631832123, 0.009621502831578255, -16.095378875732422, 0.16576430201530457, 0.08869712054729462, -0.9571977257728577, -0.8304973840713501, -0.9635782241821289, 0.057525504380464554, -0.3326981746709047, -0.3473652959857816, -88.96217747936655, 9362.0, 30146.0, 35388.0, 9362.0, 8.370248794555664, 0.1607338786125183, 0.03580896183848381, 0.004643733147531748, -0.06445332616567612, -0.02042420580983162, 0.999435305595398, -0.04741450399160385, -0.08439826965332031, 1.489013671875, 1.386474609375, 0.028656005859375, 1.49267578125, 1.377685546875, 10.0, 1.0, 10.0, 1.4253252744674683
35426, -1.6252436637878418, -4.0327630043029785, 6.161175727844238, 0.018002651631832123, 0.009621502831578255, -16.095378875732422, 0.16576430201530457, 0.08869712054729462, -0.9571977257728577, -0.8305213451385498, -0.9636163711547852, 0.05758592113852501, -0.3330376734062874, -0.36705033588060587, -88.96830581068431, 9362.0, 30146.0, 35388.0, 9362.0, 8.370248794555664, -0.002159558469429612, 0.2624879479408264, 0.19441980123519897, -0.06576737761497498, -0.01971077360212803, 0.9992501139640808, -0.04741450399160385, -0.08439826965332031, 1.489013671875, 1.386474609375, 0.028656005859375, 1.494140625, 1.377685546875, 10.0, 1.0, 10.0, 1.4253252744674683
35436, -1.6243219375610352, -4.033686637878418, 6.161920547485352, 0.02144896797835827, 0.011465499177575111, -16.11452865600586, 0.17886805534362793, 0.09570294618606567, -0.957870602607727, -0.8305103182792664, -0.9637079238891602, 0.05763097107410431, -0.3357206288036218, -0.42799692047654503, -88.96361031537853, 9362.0, 30146.0, 35388.0, 9362.0, 8.370248794555664, 0.18190166354179382, 0.06054205074906349, 0.036520831286907196, -0.06576737761497498, -0.01971077360212803, 0.9992501139640808, -0.04741450399160385, -0.08439826965332031, 1.489013671875, 1.386474609375, 0.028656005859375, 1.494140625, 1.377685546875, 10.0, 1.0, 10.0, 1.4245948791503906
35446, -1.6233031749725342, -4.033776760101318, 6.1613616943359375, 0.023270411416888237, 0.012440047226846218, -16.124109268188477, 0.18542075157165527, 0.09920670837163925, -0.9582285284996033, -0.8305132985115051, -0.9636175632476807, 0.05758317559957504, -0.3287628795283037, -0.3658091924612279, -88.95797753326043, 9362.0, 30146.0, 35388.0, 9362.0, 8.370248794555664, 0.12867866456508636, 0.1837359219789505, -0.04595565050840378, -0.0636548176407814, -0.018970729783177376, 0.9991993308067322, -0.04741450399160385, -0.08439826965332031, 1.489013671875, 1.386474609375, 0.028656005859375, 1.49853515625, 1.377685546875, 10.0, 1.0, 10.0, 1.4245948791503906
35456, -1.624352216720581, -4.033158779144287, 6.161032676696777, 0.025157373398542404, 0.01344961579889059, -16.13369369506836, 0.19197151064872742, 0.10270699113607407, -0.9586424231529236, -0.8305116295814514, -0.9636183977127075, 0.057555004954338074, -0.33421723924872104, -0.3655107457702229, -88.96933046845083, 9362.0, 30146.0, 35388.0, 9362.0, 8.370248794555664, -0.051644232124090195, -0.31703415513038635, -0.07379746437072754, -0.0636548176407814, -0.018970729783177376, 0.9991993308067322, -0.04741450399160385, -0.08439826965332031, 1.489013671875, 1.386474609375, 0.028656005859375, 1.49853515625, 1.377685546875, 10.0, 1.0, 10.0, 1.4243288040161133
35466, -1.6248652935028076, -4.031805038452148, 6.160866737365723, 0.025157373398542404, 0.01344961579889059, -16.13369369506836, 0.19197151064872742, 0.10270699113607407, -0.9586424231529236, -0.8305424451828003, -0.9634963870048523, 0.05749058350920677, -0.3118224548006089, -0.2871665433978876, -88.94903745641797, 9362.0, 30146.0, 35388.0, 9362.0, 8.370248794555664, 0.004107192624360323, -0.17000797390937805, -0.010204835794866085, -0.06365250796079636, -0.01915510930120945, 0.9973323941230774, -0.04741450399160385, -0.08439826965332031, 1.489013671875, 1.386474609375, 0.028656005859375, 1.49267578125, 1.377685546875, 10.0, 1.0, 10.0, 1.4243017435073853
35486, -1.6247882843017578, -4.034320831298828, 6.160919189453125, 0.029127877205610275, 0.015573767013847828, -16.152873992919922, 0.20507407188415527, 0.1097065731883049, -0.9594459533691406, -0.8305075764656067, -0.9637050628662109, 0.0576399564743042, -0.33779821902396934, -0.423749909483945, -88.95887708852314, 9362.0, 30146.0, 35388.0, 9362.0, 8.370248794555664, 0.040667373687028885, -0.016279077157378197, -0.19904351234436035, -0.06378372758626938, -0.019731732085347176, 0.9976885318756104, -0.0525033213198185, 0.0052013397216796875, 1.496337890625, 1.386474609375, 0.028656005859375, 1.48974609375, 1.377685546875, 10.0, 1.0, 10.0, 1.4243017435073853
35496, -1.624253273010254, -4.035258769989014, 6.16065788269043, 0.0333600677549839, 0.01783778890967369, -16.172075271606445, 0.21814802289009094, 0.11669755727052689, -0.9606040120124817, -0.8305093050003052, -0.9637094140052795, 0.05763893947005272, -0.33910545051489105, -0.4252646607567101, -88.96872549702444, 9362.0, 30146.0, 35388.0, 9362.0, 8.370248794555664, -0.02575460635125637, 0.2935692369937897, 0.19197459518909454, -0.06378372758626938, -0.019731732085347176, 0.9976885318756104, -0.0525033213198185, 0.0052013397216796875, 1.496337890625, 1.386474609375, 0.028656005859375, 1.48974609375, 1.377685546875, 10.0, 1.0, 10.0, 1.4236724376678467
35506, -1.623686671257019, -4.035309314727783, 6.162108421325684, 0.0333600677549839, 0.01783778890967369, -16.172075271606445, 0.21814802289009094, 0.11669755727052689, -0.9606040120124817, -0.8305145502090454, -0.9636235237121582, 0.057583361864089966, -0.3334568561758948, -0.3684419113554327, -88.9588385577127, 9362.0, 30146.0, 35388.0, 9362.0, 8.370248794555664, -0.02575460635125637, 0.2935692369937897, 0.19197459518909454, -0.06244240701198578, -0.019702231511473656, 0.9949085712432861, -0.0525033213198185, 0.0052013397216796875, 1.496337890625, 1.396728515625, 0.0370025634765625, 1.496337890625, 1.377685546875, 10.0, 1.0, 10.0, 1.423575758934021
35516, -1.6237610578536987, -4.033566474914551, 6.162023067474365, 0.03785387799143791, 0.02024165354669094, -16.191299438476562, 0.23122690618038177, 0.12368518114089966, -0.9618238806724548, -0.8305158615112305, -0.963621199131012, 0.0575789250433445, -0.3346596311359218, -0.36397154628321005, -88.96308850208963, 9362.0, 30146.0, 35388.0, 9362.0, 8.370248794555664, -0.13474003970623016, -0.25797054171562195, 0.09510115534067154, -0.06244240701198578, -0.019702231511473656, 0.9949085712432861, -0.0525033213198185, 0.0052013397216796875, 1.496337890625, 1.396728515625, 0.0370025634765625, 1.496337890625, 1.377685546875, 10.0, 1.0, 10.0, 1.423575758934021
35526, -1.6247652769088745, -4.032655239105225, 6.162270545959473, 0.03785387799143791, 0.02024165354669094, -16.191299438476562, 0.23122690618038177, 0.12368518114089966, -0.9618238806724548, -0.8305109739303589, -0.9636944532394409, 0.05762535333633423, -0.3332382717437085, -0.4282505547784581, -88.9705547523367, 9362.0, 30146.0, 35388.0, 9362.0, 8.370248794555664, -0.022079072892665863, 0.056450795382261276, 0.12412336468696594, -0.06536412239074707, -0.018765242770314217, 0.9963940978050232, -0.0525033213198185, 0.0052013397216796875, 1.496337890625, 1.3388671875, 0.017120361328125, 1.496337890625, 1.377685546875, 10.0, 1.0, 10.0, 1.423575758934021
35536, -1.6252169609069824, -4.030930042266846, 6.163209915161133, 0.03785387799143791, 0.02024165354669094, -16.191299438476562, 0.23122690618038177, 0.12368518114089966, -0.9618238806724548, -0.8305076360702515, -0.9636152386665344, 0.057597339153289795, -0.3305630125472811, -0.3600122946114368, -88.95082585207925, 9362.0, 30146.0, 35388.0, 9362.0, 8.370248794555664, 0.07532236725091934, -0.21857908368110657, 0.13025274872779846, -0.06536412239074707, -0.018765242770314217, 0.9963940978050232, -0.0525033213198185, 0.0052013397216796875, 1.496337890625, 1.3388671875, 0.017120361328125, 1.496337890625, 1.377685546875, 10.0, 1.0, 10.0, 1.423575758934021
35546, -1.6249831914901733, -4.033112525939941, 6.165921688079834, 0.03785387799143791, 0.02024165354669094, -16.191299438476562, 0.23122690618038177, 0.12368518114089966, -0.9618238806724548, -0.8304925560951233, -0.9637076258659363, 0.05764979124069214, -0.3337850386836352, -0.43134175674538255, -88.96464140854579, 9362.0, 30146.0, 35388.0, 9362.0, 8.370248794555664, 0.016973033547401428, 0.09286345541477203, 0.005219027865678072, -0.06536412239074707, -0.018765242770314217, 0.9963940978050232, -0.0525033213198185, 0.0052013397216796875, 1.496337890625, 1.405517578125, 0.0454254150390625, 1.49853515625, 1.377685546875, 10.0, 1.0, 10.0, 1.423575758934021
35556, -1.625364065170288, -4.032383918762207, 6.165714263916016, 0.04762568697333336, 0.02546832337975502, -16.229825973510742, 0.2573578953742981, 0.1376509815454483, -0.9644864797592163, -0.8305057883262634, -0.9637036323547363, 0.05762788653373718, -0.3348744184500256, -0.4326156637677627, -88.96759909150396, 9362.0, 30146.0, 35388.0, 9362.0, 8.370248794555664, -0.07568569481372833, 0.11111053824424744, 0.012143826112151146, -0.06627556681632996, -0.020170709118247032, 0.9980285167694092, -0.0525033213198185, 0.0052013397216796875, 1.496337890625, 1.405517578125, 0.0454254150390625, 1.49853515625, 1.377685546875, 10.0, 1.0, 10.0, 1.423575758934021
35566, -1.6250463724136353, -4.031887054443359, 6.165574073791504, 0.04762568697333336, 0.02546832337975502, -16.229825973510742, 0.2573578953742981, 0.1376509815454483, -0.9644864797592163, -0.8305031061172485, -0.963697075843811, 0.05764409154653549, -0.3320468964908396, -0.43339892689436965, -88.96696512543134, 9362.0, 30146.0, 35388.0, 9362.0, 8.370248794555664, -0.057666879147291183, -0.5100092887878418, -0.10369204729795456, -0.06627556681632996, -0.020170709118247032, 0.9980285167694092, -0.0525033213198185, 0.0052013397216796875, 1.496337890625, 1.405517578125, 0.0454254150390625, 1.49560546875, 1.377685546875, 10.0, 1.0, 10.0, 1.4228299856185913
35586, -1.6256722211837769, -4.032034397125244, 6.1646623611450195, 0.05290363356471062, 0.028291277587413788, -16.249126434326172, 0.27043864130973816, 0.14464612305164337, -0.9655634760856628, -0.8304994106292725, -0.9636965394020081, 0.05764441564679146, -0.3338963511971334, -0.4288559072423368, -88.96371608991461, 9362.0, 30146.0, 35388.0, 9362.0, 8.370248794555664, -0.07093434035778046, -0.09297003597021103, 0.022860903292894363, -0.061978086829185486, -0.01883014850318432, 0.9970601797103882, -0.06637316942214966, -0.07543754577636719, 1.48974609375, 1.405517578125, 0.0454254150390625, 1.49560546875, 1.377685546875, 10.0, 1.0, 10.0, 1.4228562116622925
35596, -1.6259284019470215, -4.035110950469971, 6.16657018661499, 0.05844304338097572, 0.03125407546758652, -16.268449783325195, 0.28350213170051575, 0.15163378417491913, -0.9668468832969666, -0.8305126428604126, -0.9636233448982239, 0.05757886916399002, -0.32907882750290113, -0.3634488104793263, -88.95850985222128, 9362.0, 30146.0, 35388.0, 9362.0, 8.370248794555664, 0.03406449407339096, 0.20154428482055664, 0.13576802611351013, -0.061978086829185486, -0.01883014850318432, 0.9970601797103882, -0.06637316942214966, -0.07543754577636719, 1.48974609375, 1.405517578125, 0.0454254150390625, 1.49560546875, 1.377685546875, 10.0, 1.0, 10.0, 1.4226082563400269
35606, -1.625001311302185, -4.0326313972473145, 6.166470527648926, 0.05844304338097572, 0.03125407546758652, -16.268449783325195, 0.28350213170051575, 0.15163378417491913, -0.9668468832969666, -0.8305222988128662, -0.9636258482933044, 0.05757801979780197, -0.3338806915540092, -0.3633689031579763, -88.95998234652161, 9362.0, 30146.0, 35388.0, 9362.0, 8.370248794555664, 0.03406449407339096, 0.20154428482055664, 0.13576802611351013, -0.06440196931362152, -0.017848793417215347, 0.9981922507286072, -0.06637316942214966, -0.07543754577636719, 1.48974609375, 1.405517578125, 0.0454254150390625, 1.49267578125, 1.377685546875, 10.0, 1.0, 10.0, 1.4225080013275146
35616, -1.6250218152999878, -4.033868312835693, 6.168193817138672, 0.06424392014741898, 0.0343567356467247, -16.287796020507812, 0.2965891659259796, 0.15863366425037384, -0.9678663015365601, -0.8305158615112305, -0.9636052250862122, 0.05757119134068489, -0.3339560045214061, -0.3658311069409024, -88.96068961330312, 9362.0, 30146.0, 35388.0, 9362.0, 8.370248794555664, -0.1014503464102745, 0.06413140892982483, 0.25273606181144714, -0.06440196931362152, -0.017848793417215347, 0.9981922507286072, -0.06637316942214966, -0.07543754577636719, 1.48974609375, 1.405517578125, 0.0454254150390625, 1.49267578125, 1.377685546875, 10.0, 1.0, 10.0, 1.4225080013275146
35626, -1.625754952430725, -4.031490325927734, 6.166508674621582, 0.06424392014741898, 0.0343567356467247, -16.287796020507812, 0.2965891659259796, 0.15863366425037384, -0.9678663015365601, -0.8304924964904785, -0.9636964201927185, 0.057633426040410995, -0.33302970940633636, -0.4301941893918695, -88.96247899692221, 9362.0, 30146.0, 35388.0, 9362.0, 8.370248794555664, -0.04838139936327934, -0.1240651085972786, -0.323551207780838, -0.06311148405075073, -0.01769344136118889, 0.9980898499488831, -0.06637316942214966, -0.07543754577636719, 1.48974609375, 1.3271484375, 0.022308349609375, 1.5, 1.377685546875, 10.0, 1.0, 10.0, 1.4225080013275146
35636, -1.6260260343551636, -4.032236576080322, 6.166633129119873, 0.07030673325061798, 0.03759947791695595, -16.307159423828125, 0.30969247221946716, 0.16564010083675385, -0.9686295390129089, -0.830510139465332, -0.9637001752853394, 0.057617221027612686, -0.33763401603274545, -0.4280802760175675, -88.95953123616279, 9362.0, 30146.0, 35388.0, 9362.0, 8.370248794555664, -0.07357809692621231, 0.24487626552581787, 0.28656378388404846, -0.06311148405075073, -0.01769344136118889, 0.9980898499488831, -0.06637316942214966, -0.07543754577636719, 1.48974609375, 1.3271484375, 0.022308349609375, 1.5, 1.377685546875, 10.0, 1.0, 10.0, 1.4225080013275146
35656, -1.6266872882843018, -4.032664775848389, 6.167773246765137, 0.07663140445947647, 0.040982283651828766, -16.326541900634766, 0.3227793872356415, 0.17264269292354584, -0.9695640206336975, -0.8305571675300598, -0.963502049446106, 0.05751298740506172, -0.31442174398260114, -0.28712125671088984, -88.94682367381536, 9362.0, 30146.0, 35388.0, 9362.0, 8.370248794555664, 0.1129833310842514, 0.1107247993350029, 0.30115631222724915, -0.06400272995233536, -0.018625520169734955, 1.0001004934310913, -0.06637316942214966, -0.07543754577636719, 1.48974609375, 1.408447265625, 0.0485382080078125, 1.49853515625, 1.377685546875, 10.0, 1.0, 10.0, 1.4225080013275146
35666, -1.626871943473816, -4.032563209533691, 6.167191028594971, 0.07663140445947647, 0.040982283651828766, -16.326541900634766, 0.3227793872356415, 0.17264269292354584, -0.9695640206336975, -0.8305073976516724, -0.9636154770851135, 0.05758807063102722, -0.32579688823813713, -0.3659597679020976, -88.97439867898144, 9362.0, 30146.0, 35388.0, 9362.0, 8.370248794555664, 0.16380897164344788, -0.01323345210403204, -0.18615330755710602, -0.06156662479043007, -0.01863325946033001, 0.9965012669563293, -0.06637316942214966, -0.07543754577636719, 1.48974609375, 1.408447265625, 0.0485382080078125, 1.496337890625, 1.377685546875, 10.0, 1.0, 10.0, 1.4225080013275146
35676, -1.627211093902588, -4.0327863693237305, 6.168778896331787, 0.08321806788444519, 0.04450531676411629, -16.34593963623047, 0.33587846159935, 0.17965538799762726, -0.9703409075737, -0.8305104374885559, -0.9636959433555603, 0.057639457285404205, -0.33488121996541126, -0.43508169427789767, -88.96210011520034, 9362.0, 30146.0, 35388.0, 9362.0, 8.370248794555664, 0.16380897164344788, -0.01323345210403204, -0.18615330755710602, -0.06156662479043007, -0.01863325946033001, 0.9965012669563293, -0.053068213164806366, 0.05000114440917969, 1.5, 1.408447265625, 0.0485382080078125, 1.496337890625, 1.377685546875, 10.0, 1.0, 10.0, 1.4225080013275146
35686, -1.6266213655471802, -4.031635761260986, 6.168607711791992, 0.08321806788444519, 0.04450531676411629, -16.34593963623047, 0.33587846159935, 0.17965538799762726, -0.9703409075737, -0.8305116295814514, -0.9636955857276917, 0.05762087553739548, -0.32745118888817304, -0.42913339163163755, -88.96585510105012, 9362.0, 30146.0, 35388.0, 9362.0, 8.370248794555664, 0.1403367519378662, -0.28596657514572144, 0.2625216841697693, -0.06388542056083679, -0.019418666139245033, 0.996759295463562, -0.053068213164806366, 0.05000114440917969, 1.5, 1.408447265625, 0.0485382080078125, 1.49560546875, 1.377685546875, 10.0, 1.0, 10.0, 1.4225080013275146
35696, -1.624749779701233, -4.0302252769470215, 6.167419910430908, 0.09006622433662415, 0.048168331384658813, -16.365360260009766, 0.34893670678138733, 0.1866462379693985, -0.9717334508895874, -0.8305078744888306, -0.9637215733528137, 0.05760587006807327, -0.34529753953639303, -0.3411053989560173, -88.89654341049611, 9362.0, 30146.0, 35388.0, 9362.0, 8.370248794555664, 0.1269574910402298, -0.1352238953113556, -0.018369507044553757, -0.06356646865606308, -0.018922271206974983, 0.9976062774658203, -0.053068213164806366, 0.05000114440917969, 1.5, 1.408447265625, 0.0485382080078125, 1.49560546875, 1.377685546875, 10.0, 1.0, 10.0, 1.4225080013275146
35706, -1.6250993013381958, -4.031137466430664, 6.167867660522461, 0.09006622433662415, 0.048168331384658813, -16.365360260009766, 0.34893670678138733, 0.1866462379693985, -0.9717334508895874, -0.830499529838562, -0.9637007713317871, 0.05763467028737068, -0.3317258666087977, -0.4328251663119147, -88.96442749291052, 9362.0, 30146.0, 35388.0, 9362.0, 8.370248794555664, -0.05788944661617279, 0.2581831216812134, 0.05339134857058525, -0.06356646865606308, -0.018922271206974983, 0.9976062774658203, -0.053068213164806366, 0.05000114440917969, 1.5, 1.408447265625, 0.0485382080078125, 1.493408203125, 1.377685546875, 10.0, 1.0, 10.0, 1.4213992357254028
35716, -1.6246767044067383, -4.029573917388916, 6.168426036834717, 0.09717575460672379, 0.05197126418352127, -16.38480567932129, 0.36201268434524536, 0.19364391267299652, -0.9727835059165955, -0.8305204510688782, -0.9636132121086121, 0.05755750089883804, -0.33139608436956025, -0.3679964975793837, -88.9628312195879, 9362.0, 30146.0, 35388.0, 9362.0, 8.370248794555664, -0.05788944661617279, 0.2581831216812134, 0.05339134857058525, -0.06370989978313446, -0.021425284445285797, 0.997954249382019, -0.053068213164806366, 0.05000114440917969, 1.5, 1.3857421875, 0.0280914306640625, 1.493408203125, 1.377685546875, 10.0, 1.0, 10.0, 1.4213792085647583
35726, -1.6248754262924194, -4.02773380279541, 6.169149875640869, 0.09717575460672379, 0.05197126418352127, -16.38480567932129, 0.36201268434524536, 0.19364391267299652, -0.9727835059165955, -0.8305106163024902, -0.9636991620063782, 0.057632382959127426, -0.34081124071939994, -0.42645989203776935, -88.96187638580659, 9362.0, 30146.0, 35388.0, 9362.0, 8.370248794555664, -0.12116380035877228, -0.14801056683063507, 0.1804555356502533, -0.06370989978313446, -0.021425284445285797, 0.997954249382019, -0.053068213164806366, 0.05000114440917969, 1.5, 1.3857421875, 0.0280914306640625, 1.48974609375, 1.377685546875, 10.0, 1.0, 10.0, 1.4213792085647583
35736, -1.6249456405639648, -4.028961658477783, 6.1674957275390625, 0.09717575460672379, 0.05197126418352127, -16.38480567932129, 0.36201268434524536, 0.19364391267299652, -0.9727835059165955, -0.8305310010910034, -0.963590681552887, 0.05761466547846794, -0.3296553437376418, -0.36265434063207636, -88.96991850806847, 9362.0, 30146.0, 35388.0, 9362.0, 8.370248794555664, 0.03349241986870766, 0.09455636888742447, -0.12172307819128036, -0.06370989978313446, -0.021425284445285797, 0.997954249382019, -0.053068213164806366, 0.05000114440917969, 1.5, 1.36376953125, 0.017181396484375, 1.48974609375, 1.377685546875, 10.0, 1.0, 10.0, 1.4211474657058716
35746, -1.6254329681396484, -4.029323577880859, 6.169352054595947, 0.09717575460672379, 0.05197126418352127, -16.38480567932129, 0.36201268434524536, 0.19364391267299652, -0.9727835059165955, -0.830490231513977, -0.9637255072593689, 0.057605765759944916, -0.32397461020278867, -0.4297370459460126, -88.92422768410293, 9362.0, 30146.0, 35388.0, 9362.0, 8.370248794555664, 0.03349241986870766, 0.09455636888742447, -0.12172307819128036, -0.060545530170202255, -0.01995428465306759, 0.9992474317550659, -0.053068213164806366, 0.05000114440917969, 1.5, 1.3623046875, 0.0167999267578125, 1.48974609375, 1.377685546875, 10.0, 1.0, 10.0, 1.4211474657058716
35756, -1.624626636505127, -4.029935359954834, 6.17054557800293, 0.11217930167913437, 0.05999688431620598, -16.423757553100586, 0.38816389441490173, 0.20763833820819855, -0.9747375249862671, -0.8305094242095947, -0.9636995792388916, 0.05762135237455368, -0.33553271679969754, -0.4218530273741976, -88.96139785208125, 9362.0, 30146.0, 35388.0, 9362.0, 8.370248794555664, 0.07549914717674255, -0.19154678285121918, 0.02281107008457184, -0.060545530170202255, -0.01995428465306759, 0.9992474317550659, -0.053068213164806366, 0.05000114440917969, 1.5, 1.3623046875, 0.0167999267578125, 1.48974609375, 1.36962890625, 10.0, 1.0, 10.0, 1.4211474657058716
35766, -1.624559760093689, -4.030358791351318, 6.1689229011535645, 0.11609366536140442, 0.062090784311294556, -16.43350601196289, 0.3947088122367859, 0.21114200353622437, -0.975117027759552, -0.8305489420890808, -0.9637002348899841, 0.05763573944568634, -0.35434091512938815, -0.42114543412097305, -88.9776506142719, 9362.0, 30146.0, 35388.0, 9362.0, 8.370248794555664, 0.03292636573314667, 0.11348007619380951, 0.1420067697763443, -0.06475147604942322, -0.01840183511376381, 0.996938943862915, -0.053068213164806366, 0.05000114440917969, 1.5, 1.3623046875, 0.0167999267578125, 1.490478515625, 1.36962890625, 10.0, 1.0, 10.0, 1.4211474657058716
35786, -1.6263625621795654, -4.03036642074585, 6.168080806732178, 0.12007343024015427, 0.06421968340873718, -16.443260192871094, 0.4012439548969269, 0.2146383672952652, -0.9756603240966797, -0.8305498957633972, -0.9636423587799072, 0.05756799131631851, -0.341687840496788, -0.36836221251687107, -88.97868716642252, 9362.0, 30146.0, 35388.0, 9362.0, 8.370248794555664, 0.03292636573314667, 0.11348007619380951, 0.1420067697763443, -0.06352009624242783, -0.018477633595466614, 0.9993462562561035, -0.051071085035800934, -0.021678924560546875, 1.494140625, 1.3623046875, 0.0167999267578125, 1.48974609375, 1.36962890625, 10.0, 1.0, 10.0, 1.4205495119094849
35796, -1.6274455785751343, -4.034066200256348, 6.169457912445068, 0.1282290369272232, 0.06858240067958832, -16.462783813476562, 0.4143235981464386, 0.22163866460323334, -0.9765904545783997, -0.8305523991584778, -0.9637078642845154, 0.05762764811515808, -0.3432347358802934, -0.4263325816434076, -88.98485327429643, 9362.0, 30146.0, 35388.0, 9362.0, 8.370248794555664, -0.21904556453227997, 0.3421221971511841, 0.2852132320404053, -0.0653136596083641, -0.018830830231308937, 0.9971666932106018, -0.051071085035800934, -0.021678924560546875, 1.494140625, 1.3623046875, 0.0167999267578125, 1.48974609375, 1.36962890625, 10.0, 1.0, 10.0, 1.4205495119094849
35806, -1.627289891242981, -4.035600185394287, 6.168900966644287, 0.1282290369272232, 0.06858240067958832, -16.462783813476562, 0.4143235981464386, 0.22163866460323334, -0.9765904545783997, -0.8305734992027283, -0.9636725187301636, 0.05766894668340683, -0.3484878402144052, -0.4181031043644623, -88.99202160408196, 9362.0, 30146.0, 35388.0, 9362.0, 8.370248794555664, 0.07024186849594116, 0.21596090495586395, 0.0552947036921978, -0.06364142149686813, -0.018676944077014923, 0.9969033002853394, -0.051071085035800934, -0.021678924560546875, 1.494140625, 1.3623046875, 0.0167999267578125, 1.48974609375, 1.36962890625, 10.0, 1.0, 10.0, 1.4205495119094849
35816, -1.6265618801116943, -4.039846897125244, 6.168856620788574, 0.1282290369272232, 0.06858240067958832, -16.462783813476562, 0.4143235981464386, 0.22163866460323334, -0.9765904545783997, -0.8305627703666687, -0.9636062383651733, 0.05755041167140007, -0.34143398908854056, -0.36752198548182946, -88.9781012836056, 9362.0, 30146.0, 35388.0, 9362.0, 8.370248794555664, 0.09771861135959625, 0.4836830496788025, 0.07131048291921616, -0.06364142149686813, -0.018676944077014923, 0.9969033002853394, -0.051071085035800934, -0.021678924560546875, 1.494140625, 1.3623046875, 0.0167999267578125, 1.48974609375, 1.36962890625, 10.0, 1.0, 10.0, 1.4205495119094849
35826, -1.6260216236114502, -4.039871692657471, 6.169595241546631, 0.1282290369272232, 0.06858240067958832, -16.462783813476562, 0.4143235981464386, 0.22163866460323334, -0.9765904545783997, -0.8305636048316956, -0.9636150002479553, 0.057549234479665756, -0.344774526826701, -0.37098963523936845, -88.97762111591489, 9362.0, 30146.0, 35388.0, 9362.0, 8.370248794555664, -0.11356528103351593, -0.07638195902109146, 0.10374860465526581, -0.06364142149686813, -0.018676944077014923, 0.9969033002853394, -0.051071085035800934, -0.021678924560546875, 1.494140625, 1.38720703125, 0.0291900634765625, 1.497802734375, 1.36962890625, 10.0, 1.0, 10.0, 1.4205495119094849
35836, -1.6244521141052246, -4.040608882904053, 6.169437408447266, 0.14532525837421417, 0.07772804796695709, -16.501888275146484, 0.44049543142318726, 0.23564280569553375, -0.978782594203949, -0.8305817246437073, -0.9635995626449585, 0.05761601775884628, -0.3475904832513151, -0.3594723921798959, -88.99264403727837, 9362.0, 30146.0, 35388.0, 9362.0, 8.370248794555664, 0.4416860044002533, 0.23879621922969818, 0.009285866282880306, -0.06364142149686813, -0.018676944077014923, 0.9969033002853394, -0.051071085035800934, -0.021678924560546875, 1.494140625, 1.38720703125, 0.0291900634765625, 1.497802734375, 1.36962890625, 10.0, 1.0, 10.0, 1.4205495119094849
35846, -1.623692512512207, -4.039618492126465, 6.16989803314209, 0.14532525837421417, 0.07772804796695709, -16.501888275146484, 0.44049543142318726, 0.23564280569553375, -0.978782594203949, -0.8305618762969971, -0.9636228084564209, 0.05755000188946724, -0.33776782443993153, -0.36512616122186614, -88.98237547621858, 9362.0, 30146.0, 35388.0, 9362.0, 8.370248794555664, 0.07792486995458603, 0.0934862345457077, 0.1920599639415741, -0.06364142149686813, -0.018676944077014923, 0.9969033002853394, -0.051071085035800934, -0.021678924560546875, 1.494140625, 1.3740234375, 0.0210723876953125, 1.497802734375, 1.36962890625, 10.0, 1.0, 10.0, 1.4205495119094849
35856, -1.6233958005905151, -4.0384650230407715, 6.16920280456543, 0.15426631271839142, 0.08251096308231354, -16.521472930908203, 0.4536144435405731, 0.24264894425868988, -0.9796637892723083, -0.8305578231811523, -0.9636225700378418, 0.057557612657547, -0.34353999780201, -0.35817069519981715, -88.98664270984112, 9362.0, 30146.0, 35388.0, 9362.0, 8.370248794555664, 0.07792486995458603, 0.0934862345457077, 0.1920599639415741, -0.06393427401781082, -0.015910480171442032, 0.9971596002578735, -0.051071085035800934, -0.021678924560546875, 1.494140625, 1.40185546875, 0.0417938232421875, 1.497802734375, 1.36962890625, 10.0, 1.0, 10.0, 1.4199837446212769
35866, -1.6222082376480103, -4.039744853973389, 6.170591831207275, 0.15426631271839142, 0.08251096308231354, -16.521472930908203, 0.4536144435405731, 0.24264894425868988, -0.9796637892723083, -0.8305371999740601, -0.9637112021446228, 0.05762089416384697, -0.34631795092202516, -0.4225441461133812, -88.98477598013834, 9362.0, 30146.0, 35388.0, 9362.0, 8.370248794555664, 0.2485966980457306, -0.09518084675073624, 0.05464565381407738, -0.06393427401781082, -0.015910480171442032, 0.9971596002578735, -0.051071085035800934, -0.021678924560546875, 1.494140625, 1.40185546875, 0.0417938232421875, 1.49267578125, 1.36962890625, 10.0, 1.0, 10.0, 1.4199837446212769
35896, -1.6200979948043823, -4.042351722717285, 6.173589706420898, 0.17293497920036316, 0.09249656647443771, -16.56070327758789, 0.47981223464012146, 0.25662338733673096, -0.9819936752319336, -0.830549955368042, -0.9637105464935303, 0.057601071894168854, -0.34925008933211166, -0.42805128325815645, -88.98527946165677, 9362.0, 30146.0, 35388.0, 9362.0, 8.370248794555664, 0.12646044790744781, 0.08590531349182129, 0.1346493661403656, -0.06429171562194824, -0.020290235057473183, 0.9962902069091797, -0.06152068451046944, -0.05751800537109375, 1.4912109375, 1.40185546875, 0.0417938232421875, 1.49267578125, 1.36962890625, 10.0, 1.0, 10.0, 1.4198553562164307
35906, -1.619958758354187, -4.042053699493408, 6.174811363220215, 0.17293497920036316, 0.09249656647443771, -16.56070327758789, 0.47981223464012146, 0.25662338733673096, -0.9819936752319336, -0.8305613398551941, -0.9636344909667969, 0.05754560977220535, -0.341040941396383, -0.36445095552514317, -88.983844892204, 9362.0, 30146.0, 35388.0, 9362.0, 8.370248794555664, 0.01269526407122612, 0.1283104568719864, 0.10444633662700653, -0.06429171562194824, -0.020290235057473183, 0.9962902069091797, -0.06152068451046944, -0.05751800537109375, 1.4912109375, 1.40185546875, 0.0417938232421875, 1.490478515625, 1.36962890625, 10.0, 1.0, 10.0, 1.4197065830230713
35916, -1.6198331117630005, -4.042284965515137, 6.175317764282227, 0.17293497920036316, 0.09249656647443771, -16.56070327758789, 0.47981223464012146, 0.25662338733673096, -0.9819936752319336, -0.8305627703666687, -0.9637104868888855, 0.05762513726949692, -0.3459079816156865, -0.42358970132056584, -88.97095108395779, 9362.0, 30146.0, 35388.0, 9362.0, 8.370248794555664, 0.01269526407122612, 0.1283104568719864, 0.10444633662700653, -0.06429171562194824, -0.020290235057473183, 0.9962902069091797, -0.06152068451046944, -0.05751800537109375, 1.4912109375, 1.40185546875, 0.0417938232421875, 1.490478515625, 1.36962890625, 10.0, 1.0, 10.0, 1.4196178913116455
35926, -1.6195755004882812, -4.042641639709473, 6.176911354064941, 0.17293497920036316, 0.09249656647443771, -16.56070327758789, 0.47981223464012146, 0.25662338733673096, -0.9819936752319336, -0.8305556178092957, -0.9636275768280029, 0.05756320431828499, -0.34751415301508554, -0.366618234050776, -88.9839382560249, 9362.0, 30146.0, 35388.0, 9362.0, 8.370248794555664, 0.01269526407122612, 0.1283104568719864, 0.10444633662700653, -0.06326234340667725, -0.02091369591653347, 0.9975000619888306, -0.06152068451046944, -0.05751800537109375, 1.4912109375, 1.40185546875, 0.0417938232421875, 1.4912109375, 1.36962890625, 10.0, 1.0, 10.0, 1.4196178913116455
35936, -1.6189184188842773, -4.042769908905029, 6.1769490242004395, 0.19265176355838776, 0.10304073989391327, -16.60002899169922, 0.5060333013534546, 0.270588219165802, -0.9842168092727661, -0.83054119348526, -0.963689923286438, 0.05762409791350365, -0.3494425870309826, -0.4279494504198169, -88.9861291375881, 9362.0, 30146.0, 35388.0, 9362.0, 8.370248794555664, 0.04417883977293968, -0.1267203539609909, -0.16031359136104584, -0.06409316509962082, -0.018299879506230354, 0.9985950589179993, -0.06152068451046944, -0.05751800537109375, 1.4912109375, 1.40185546875, 0.0417938232421875, 1.4912109375, 1.36962890625, 10.0, 1.0, 10.0, 1.4196178913116455
35946, -1.6192055940628052, -4.045011043548584, 6.179844856262207, 0.19265176355838776, 0.10304073989391327, -16.60002899169922, 0.5060333013534546, 0.270588219165802, -0.9842168092727661, -0.8305698037147522, -0.9636229872703552, 0.05752798542380333, -0.3453772248677294, -0.3661877880851705, -88.98440053716655, 9362.0, 30146.0, 35388.0, 9362.0, 8.370248794555664, -0.12175960093736649, 0.2012392282485962, 0.42418015003204346, -0.06340640783309937, -0.01676728017628193, 0.9975132346153259, -0.06152068451046944, -0.05751800537109375, 1.4912109375, 1.3623046875, 0.0167999267578125, 1.496337890625, 1.36962890625, 10.0, 1.0, 10.0, 1.4192911386489868
35956, -1.6183300018310547, -4.045553207397461, 6.182560443878174, 0.20290367305278778, 0.10852237045764923, -16.619722366333008, 0.5191596150398254, 0.2775757610797882, -0.9851300716400146, -0.8305944800376892, -0.9637131094932556, 0.05761199817061424, -0.36727407170879717, -0.42627047002577, -88.94748116661484, 9362.0, 30146.0, 35388.0, 9362.0, 8.370248794555664, 0.21007785201072693, 0.009996561333537102, 0.30160245299339294, -0.06293932348489761, -0.018588684499263763, 0.9970273971557617, -0.06152068451046944, -0.05751800537109375, 1.4912109375, 1.408447265625, 0.0485382080078125, 1.496337890625, 1.36962890625, 10.0, 1.0, 10.0, 1.4191967248916626
35966, -1.6177575588226318, -4.044675827026367, 6.182903289794922, 0.20812804996967316, 0.11131557077169418, -16.62957763671875, 0.5257154107093811, 0.28106456995010376, -0.9857502579689026, -0.8306080102920532, -0.9637207984924316, 0.05758112668991089, -0.3616992282651327, -0.4227183362075948, -88.95684961143488, 9362.0, 30146.0, 35388.0, 9362.0, 8.370248794555664, 0.15678153932094574, 0.05551398918032646, -0.0005063057178631425, -0.06242256239056587, -0.02093384601175785, 0.9972419738769531, -0.06152068451046944, -0.05751800537109375, 1.4912109375, 1.39013671875, 0.0314483642578125, 1.493408203125, 1.36962890625, 10.0, 1.0, 10.0, 1.4191967248916626
35976, -1.6169047355651855, -4.044658660888672, 6.181695938110352, 0.21341802179813385, 0.11414366960525513, -16.63943862915039, 0.5322776436805725, 0.2845548391342163, -0.9862901568412781, -0.8306000828742981, -0.9637160897254944, 0.05758995562791824, -0.35529085927383885, -0.4286457643921153, -88.94573641661324, 9362.0, 30146.0, 35388.0, 9362.0, 8.370248794555664, 0.15678153932094574, 0.05551398918032646, -0.0005063057178631425, -0.06071925908327103, -0.019669651985168457, 0.9982371926307678, -0.04808098450303078, -0.15607833862304688, 1.483154296875, 1.38134765625, 0.025177001953125, 1.493408203125, 1.3447265625, 10.0, 1.0, 10.0, 1.4190068244934082
35986, -1.6170227527618408, -4.043682098388672, 6.181686878204346, 0.21341802179813385, 0.11414366960525513, -16.63943862915039, 0.5322776436805725, 0.2845548391342163, -0.9862901568412781, -0.8306409120559692, -0.9635115265846252, 0.05748210474848747, -0.3365828973337684, -0.28333182519938305, -88.94281828432257, 9362.0, 30146.0, 35388.0, 9362.0, 8.370248794555664, 0.08178844302892685, -0.1063515692949295, -0.037013959139585495, -0.06370045989751816, -0.01826205477118492, 0.9967994689941406, -0.04808098450303078, -0.15607833862304688, 1.483154296875, 1.38134765625, 0.025177001953125, 1.49267578125, 1.3447265625, 10.0, 1.0, 10.0, 1.4190068244934082
35996, -1.617164134979248, -4.044065475463867, 6.181674480438232, 0.22419486939907074, 0.11990457773208618, -16.6591739654541, 0.5454037189483643, 0.29153358936309814, -0.9873092174530029, -0.830592155456543, -0.9637066125869751, 0.05759064108133316, -0.3602023879966095, -0.4274302461923867, -88.95236773717636, 9362.0, 30146.0, 35388.0, 9362.0, 8.370248794555664, -0.06190680339932442, 0.04445797950029373, -0.03722169250249863, -0.06313936412334442, -0.0163232684135437, 0.9973188638687134, -0.04808098450303078, -0.15607833862304688, 1.483154296875, 1.3623046875, 0.0167999267578125, 1.49267578125, 1.37841796875, 10.0, 1.0, 10.0, 1.4188827276229858
36006, -1.6175734996795654, -4.044824600219727, 6.180145263671875, 0.22968168556690216, 0.12283734232187271, -16.669050216674805, 0.5519604086875916, 0.2950197458267212, -0.9878896474838257, -0.8306068181991577, -0.9636294841766357, 0.05753474682569504, -0.3524303031655435, -0.3589884019780243, -88.9455530195774, 9362.0, 30146.0, 35388.0, 9362.0, 8.370248794555664, 0.031204828992486, 0.35149508714675903, -0.0754159614443779, -0.06449553370475769, -0.018084805458784103, 0.9963105320930481, -0.04808098450303078, -0.15607833862304688, 1.483154296875, 1.358642578125, 0.0159912109375, 1.49267578125, 1.37841796875, 10.0, 1.0, 10.0, 1.4188827276229858
36016, -1.616836667060852, -4.046355247497559, 6.179811954498291, 0.2352340817451477, 0.12580497562885284, -16.678932189941406, 0.5585195422172546, 0.2985069155693054, -0.9884440898895264, -0.8306044340133667, -0.9636377692222595, 0.05754590779542923, -0.35196799178869037, -0.3664649585749089, -88.94315024113186, 9362.0, 30146.0, 35388.0, 9362.0, 8.370248794555664, 0.15166829526424408, 0.05480464920401573, 0.16636507213115692, -0.06337986141443253, -0.021068254485726357, 0.9964860081672668, -0.04808098450303078, -0.15607833862304688, 1.483154296875, 1.42236328125, 0.0649566650390625, 1.49267578125, 1.40771484375, 10.0, 1.0, 10.0, 1.4185978174209595
36026, -1.616815447807312, -4.048555850982666, 6.177727699279785, 0.24085204303264618, 0.1288074553012848, -16.688819885253906, 0.5650715231895447, 0.30199041962623596, -0.9891232252120972, -0.8306147456169128, -0.9637101888656616, 0.057556383311748505, -0.35769911639208973, -0.4220359285725124, -88.9441591717163, 9362.0, 30146.0, 35388.0, 9362.0, 8.370248794555664, -0.01650477945804596, 0.2596651315689087, -0.3246018886566162, -0.06152328848838806, -0.018185066059231758, 0.9958831667900085, -0.04808098450303078, -0.15607833862304688, 1.483154296875, 1.389404296875, 0.03082275390625, 1.493408203125, 1.40771484375, 10.0, 1.0, 10.0, 1.4185978174209595
36036, -1.6165305376052856, -4.048099517822266, 6.179071426391602, 0.2465355545282364, 0.13184478878974915, -16.698713302612305, 0.5716298818588257, 0.3054746687412262, -0.9897496104240417, -0.8305962681770325, -0.9636434316635132, 0.05756326764822006, -0.3553183326233148, -0.36498586761359775, -88.94710936781324, 9362.0, 30146.0, 35388.0, 9362.0, 8.370248794555664, 0.16218356788158417, 0.0023430194705724716, 0.12946172058582306, -0.06280802935361862, -0.017614228650927544, 0.9961686134338379, -0.04808098450303078, -0.15607833862304688, 1.483154296875, 1.3857421875, 0.0280914306640625, 1.493408203125, 1.40771484375, 10.0, 1.0, 10.0, 1.4183815717697144
36046, -1.6159127950668335, -4.050063610076904, 6.178622245788574, 0.2522846460342407, 0.13491694629192352, -16.708614349365234, 0.5781864523887634, 0.308956503868103, -0.9904571771621704, -0.8306218981742859, -0.9636389017105103, 0.05752970278263092, -0.3610433730193756, -0.36769097528735983, -88.94595702158465, 9362.0, 30146.0, 35388.0, 9362.0, 8.370248794555664, 0.12403210997581482, 0.2201417088508606, -0.011406284756958485, -0.06576256453990936, -0.018029969185590744, 0.9961599707603455, -0.04808098450303078, -0.15607833862304688, 1.483154296875, 1.3798828125, 0.0243377685546875, 1.491943359375, 1.40771484375, 10.0, 1.0, 10.0, 1.4183478355407715
