timeTick, roll, pitch, yaw, stateX, stateY, stateZ, stateVX, stateVY, stateVZ, otX0, otY0, otZ0, otRoll0, otPitch0, otYaw0, left wing, pitch motor, yaw motor, right wing, voltage, roll rate, pitch rate, yaw rate, A_x, A_y, A_z, current, i_raw, v_raw, airflow_voltage, airflow_speed, pot_Pitch, voltage_nKF, kFFx, state, State, volt_KF
17526, -1.2304238080978394, 2.6908397674560547, 3.1335222721099854, 0, 0, 0, 0, 0, 0, -0.82047438621521, -0.9699766039848328, 0.057810746133327484, -2.2053413813687, 0.42032891965789076, -94.24870195116343, 0, 0, 0, 0, 0, 0, 0, 0, 0, 0, 0, 0, 0, 0, 0, 0, 0, 0, 0, 0, 0, 0
17536, -1.2319494485855103, 2.6939539909362793, 3.1338372230529785, 0.0013441730989143252, -0.0005293142166920006, -8.591699600219727, 0.03779058903455734, -0.014883369207382202, -1.0803500413894653, -0.8204561471939087, -0.9699748754501343, 0.05781279504299164, -2.2159781481199023, 0.42682003509125366, -94.24492100861131, 9362.0, 30146.0, 35388.0, 9362.0, 0, 0.24567028880119324, 0.5444887280464172, 0.2865998446941376, -0.1029592975974083, -0.03388359025120735, 0.9924117922782898, 0, 0, 0, 1.341796875, 0.0162811279296875, 0, 0, 0, 0, 0, 0
17546, -1.2304999828338623, 2.6899960041046143, 3.1345021724700928, 0.001698630629107356, -0.0006689346628263593, -8.602505683898926, 0.03310094028711319, -0.013040754944086075, -1.0809592008590698, -0.8204647898674011, -0.9699771404266357, 0.05781476944684982, -2.211576030336023, 0.43335456383397286, -94.24947542982247, 9362.0, 30146.0, 35388.0, 9362.0, 0, -0.041913583874702454, 0.14929595589637756, -0.17875337600708008, -0.10076475888490677, -0.03321234509348869, 0.992631733417511, 0, 0, 0, 1.34912109375, 0.015380859375, 1.493408203125, 1.37841796875, 10.0, 1.0, 10.0, 1.3948302268981934
17556, -1.230789303779602, 2.6893138885498047, 3.1324894428253174, 0.0020062325056642294, -0.0007901443168520927, -8.613319396972656, 0.028419336304068565, -0.011201215907931328, -1.081850290298462, -0.8204516768455505, -0.9699881076812744, 0.057817164808511734, -2.2129312715786016, 0.43207491873943127, -94.2549868526232, 9362.0, 30146.0, 35388.0, 9362.0, 0, -0.0013614203780889511, 0.1595427542924881, 0.09571921080350876, -0.10468835383653641, -0.032029714435338974, 0.9927253127098083, 0, 0, 0, 1.27001953125, 0.10626220703125, 1.493408203125, 1.3798828125, 10.0, 1.0, 10.0, 1.3946821689605713
17566, -1.2305768728256226, 2.689422369003296, 3.1331915855407715, 0.002267036586999893, -0.0008929630857892334, -8.624141693115234, 0.02374153770506382, -0.009362378157675266, -1.082675576210022, -0.8204604387283325, -0.9699817895889282, 0.0578133761882782, -2.2142010471121294, 0.43122491307758537, -94.24737669012335, 9362.0, 30146.0, 35388.0, 9362.0, 0, -0.06283830851316452, -0.4098571538925171, 0.25110310316085815, -0.10403647273778915, -0.031947799026966095, 0.9927181005477905, 0, 0, 0, 1.42529296875, 0.0688018798828125, 1.4970703125, 1.42236328125, 10.0, 1.0, 10.0, 1.3942784070968628
17576, -1.231839895248413, 2.690791368484497, 3.134500503540039, 0.002481070812791586, -0.0009773906785994768, -8.63497257232666, 0.019065285101532936, -0.007523202337324619, -1.083509922027588, -0.8204496502876282, -0.9700121283531189, 0.057824648916721344, -2.211316431364952, 0.4351128400466848, -94.26153049850465, 9362.0, 30146.0, 35388.0, 9362.0, 0, -0.19241729378700256, -0.2340974658727646, -0.2611185908317566, -0.10232451558113098, -0.03251764178276062, 0.9931864142417908, 0, 0, 0, 1.3359375, 0.01806640625, 1.4970703125, 1.35791015625, 10.0, 1.0, 10.0, 1.394378900527954
17586, -1.232736349105835, 2.691722869873047, 3.1322293281555176, 0.00264834426343441, -0.0010434298310428858, -8.645812034606934, 0.014389407820999622, -0.005684743169695139, -1.0843560695648193, -0.8205054998397827, -0.9702407121658325, 0.05788612365722656, -2.1656151167281847, 0.282784467700651, -94.25294595609938, 9362.0, 30146.0, 35388.0, 9362.0, 0, -0.0039788056164979935, 0.22670158743858337, 0.19814985990524292, -0.10420925170183182, -0.03030310571193695, 0.9937825798988342, 0, 0, 0, 1.385009765625, 0.0276336669921875, 1.494140625, 1.40771484375, 10.0, 1.0, 10.0, 1.394189715385437
17596, -1.2320902347564697, 2.6884713172912598, 3.132612943649292, 0.002768830629065633, -0.0010910684941336513, -8.656659126281738, 0.00970794539898634, -0.0038428183179348707, -1.085135579109192, -0.8204696178436279, -0.9699633121490479, 0.05782225728034973, -2.2128770577142793, 0.4280496475523137, -94.24546277715234, 9362.0, 30146.0, 35388.0, 9362.0, 0, -0.04792151227593422, -0.08165281265974045, 0.40662556886672974, -0.10254590958356857, -0.03363550081849098, 0.9932225942611694, 0, 0, 0, 1.342529296875, 0.0161895751953125, 1.494140625, 1.3447265625, 10.0, 1.0, 10.0, 1.3941600322723389
17606, -1.2325319051742554, 2.687335968017578, 3.134333372116089, 0.0028424966149032116, -0.0011202807072550058, -8.66751480102539, 0.005025214049965143, -0.001999654108658433, -1.085924506187439, -0.8204659223556519, -0.9699844121932983, 0.057808227837085724, -2.2041562411925435, 0.4353749030728693, -94.24461817210006, 9362.0, 30146.0, 35388.0, 9362.0, 0, -0.029128920286893845, 0.05158504098653793, -0.10800572484731674, -0.1007402241230011, -0.03363780677318573, 0.9944088459014893, 0, 0, 0, 1.282470703125, 0.0786590576171875, 1.49267578125, 1.405517578125, 10.0, 1.0, 10.0, 1.3939929008483887
17616, -1.2328659296035767, 2.6870341300964355, 3.13360857963562, 0.0028693675994873047, -0.0011310671688988805, -8.678378105163574, 0.0003488950023893267, -0.00015777949010953307, -1.0867310762405396, -0.8205152750015259, -0.9702004194259644, 0.057909443974494934, -2.1739070881459295, 0.2636202529510001, -94.24519175006978, 9362.0, 30146.0, 35388.0, 9362.0, 0, 0.18642477691173553, -0.1941383183002472, -0.15432004630565643, -0.10193051397800446, -0.03392582759261131, 0.9928132891654968, 0, 0, 0, 1.4150390625, 0.05596923828125, 1.49267578125, 1.2685546875, 10.0, 1.0, 10.0, 1.393631935119629
17626, -1.2321223020553589, 2.687469244003296, 3.1309876441955566, 0.0028494647704064846, -0.0011234234552830458, -8.689249038696289, -0.004329460673034191, 0.001686579897068441, -1.0874555110931396, -0.8205205202102661, -0.9702011942863464, 0.05787591263651848, -2.1680462502106277, 0.26750465865308115, -94.24148723256883, 9362.0, 30146.0, 35388.0, 9362.0, 8.350414276123047, 0.054619308561086655, -0.23435454070568085, -0.16528862714767456, -0.10080792009830475, -0.03305007889866829, 0.9931285977363586, -0.028800401836633682, -0.0037593841552734375, 1.49560546875, 1.3857421875, 0.0280914306640625, 1.49560546875, 1.470703125, 10.0, 1.0, 10.0, 1.393701195716858
17636, -1.2323603630065918, 2.6898930072784424, 3.1295852661132812, 0.00278279697522521, -0.001097339321859181, -8.700127601623535, -0.009003995917737484, 0.0035304720513522625, -1.088247299194336, -0.8204619884490967, -0.969977617263794, 0.05782608687877655, -2.2167050036068576, 0.4204774809488754, -94.24221429046968, 9362.0, 30146.0, 35388.0, 9362.0, 8.350414276123047, -0.22634801268577576, 0.23179952800273895, 0.09789472073316574, -0.1029147207736969, -0.0349486880004406, 0.9930700659751892, -0.028800401836633682, -0.0037593841552734375, 1.49560546875, 1.449462890625, 0.103973388671875, 1.49560546875, 1.2216796875, 10.0, 1.0, 10.0, 1.393675446510315
17646, -1.2325446605682373, 2.6873722076416016, 3.132495403289795, 0.0026693788822740316, -0.0010528209386393428, -8.711013793945312, -0.013679537922143936, 0.0053733293898403645, -1.0890313386917114, -0.8205140829086304, -0.9702043533325195, 0.057869911193847656, -2.165858925241925, 0.26494082312021305, -94.24218134813417, 9362.0, 30146.0, 35388.0, 9362.0, 8.350414276123047, -0.009746083989739418, 0.10149351507425308, 0.031845152378082275, -0.10487298667430878, -0.03213880583643913, 0.9911244511604309, -0.028800401836633682, -0.0037593841552734375, 1.49560546875, 1.31103515625, 0.0355682373046875, 1.49267578125, 1.352783203125, 10.0, 1.0, 10.0, 1.3938559293746948
17656, -1.2322726249694824, 2.685443162918091, 3.133493661880493, 0.0025091939605772495, -0.000989875989034772, -8.721908569335938, -0.01835758239030838, 0.007215425837785006, -1.089852213859558, -0.8204594254493713, -0.9699744582176208, 0.057819679379463196, -2.2104210734979057, 0.4349663213965016, -94.24307255337158, 9362.0, 30146.0, 35388.0, 9362.0, 8.350414276123047, -0.06304293870925903, 0.21939191222190857, -0.013813027180731297, -0.10045268386602402, -0.03355393558740616, 0.9930978417396545, -0.028800401836633682, -0.0037593841552734375, 1.49560546875, 1.43408203125, 0.080810546875, 1.49267578125, 1.236328125, 10.0, 1.0, 10.0, 1.3935880661010742
17666, -1.2323288917541504, 2.683758497238159, 3.1330456733703613, 0.002302283886820078, -0.000908522168174386, -8.73281192779541, -0.023024465888738632, 0.009055253118276596, -1.090816855430603, -0.8204650282859802, -0.9699710011482239, 0.05782131850719452, -2.209691370583136, 0.4286220067010049, -94.24365185682353, 9362.0, 30146.0, 35388.0, 9362.0, 8.350414276123047, 0.08519036322832108, 0.18773630261421204, -0.10245446115732193, -0.10219711065292358, -0.035029344260692596, 0.9945546388626099, -0.028800401836633682, -0.0037593841552734375, 1.49560546875, 1.316162109375, 0.030517578125, 1.49267578125, 1.437744140625, 10.0, 1.0, 10.0, 1.3937190771102905
17676, -1.2319414615631104, 2.6829276084899902, 3.130974292755127, 0.0020486873108893633, -0.0008087584865279496, -8.74372386932373, -0.02769484557211399, 0.010897519998252392, -1.091639757156372, -0.8205169439315796, -0.9702030420303345, 0.05788817256689072, -2.165228770753049, 0.27127597146608196, -94.2515128419289, 9362.0, 30146.0, 35388.0, 9362.0, 8.350414276123047, -0.1298837661743164, -0.12418578565120697, -0.0792079046368599, -0.1040462777018547, -0.035321835428476334, 0.9943337440490723, -0.028800401836633682, -0.0037593841552734375, 1.49560546875, 1.276611328125, 0.0910186767578125, 1.49267578125, 1.24951171875, 10.0, 1.0, 10.0, 1.3934682607650757
17686, -1.2329216003417969, 2.6833293437957764, 3.131709575653076, 0.0017483672127127647, -0.0006905572372488678, -8.754643440246582, -0.03236910700798035, 0.012742902152240276, -1.092320442199707, -0.8204619884490967, -0.969979465007782, 0.05779561400413513, -2.2063683480049927, 0.4255077537643217, -94.23876181975267, 9362.0, 30146.0, 35388.0, 9362.0, 8.350414276123047, 0.001520315883681178, 0.1857404261827469, 0.2054605484008789, -0.10287981480360031, -0.0338323675096035, 0.9947806000709534, -0.028800401836633682, -0.0037593841552734375, 1.49560546875, 1.420166015625, 0.0621337890625, 1.49267578125, 1.470703125, 10.0, 1.0, 10.0, 1.3930904865264893
17696, -1.232912540435791, 2.6818273067474365, 3.1332499980926514, 0.0014013139298185706, -0.0005539049161598086, -8.765569686889648, -0.03704157471656799, 0.014587492682039738, -1.0930087566375732, -0.8204604983329773, -0.9699869155883789, 0.05779973417520523, -2.210522873698698, 0.43260399581225784, -94.24688955830273, 9362.0, 30146.0, 35388.0, 9362.0, 8.350414276123047, -0.058500953018665314, 0.08075134456157684, 0.36118367314338684, -0.10302969068288803, -0.030885782092809677, 0.9928873181343079, -0.028800401836633682, -0.0037593841552734375, 1.49560546875, 1.31689453125, 0.0298919677734375, 1.49267578125, 1.333740234375, 10.0, 1.0, 10.0, 1.3931779861450195
17706, -1.2333871126174927, 2.680299997329712, 3.133251667022705, 0.0010075282771140337, -0.00039879739051684737, -8.776503562927246, -0.041715625673532486, 0.01643388532102108, -1.0936814546585083, -0.8204622268676758, -0.9699796438217163, 0.057798415422439575, -2.2178580578859894, 0.44013676403542945, -94.24745604632503, 9362.0, 30146.0, 35388.0, 9362.0, 8.350414276123047, 0.13861176371574402, -0.08746892958879471, -0.15359173715114594, -0.1044541671872139, -0.03210989385843277, 0.992759108543396, -0.028800401836633682, -0.0037593841552734375, 1.49560546875, 1.273681640625, 0.0975494384765625, 1.48974609375, 1.241455078125, 10.0, 1.0, 10.0, 1.3929314613342285
17716, -1.2322615385055542, 2.680215358734131, 3.1321280002593994, 0.0005670440150424838, -0.00022523762891069055, -8.787444114685059, -0.046381235122680664, 0.01827806793153286, -1.0944771766662598, -0.820456862449646, -0.9699692130088806, 0.05782308429479599, -2.209061826948114, 0.4334106861853968, -94.24574318932858, 9362.0, 30146.0, 35388.0, 9362.0, 8.350414276123047, -0.0726364254951477, 0.4782503545284271, 0.028149640187621117, -0.1032881811261177, -0.03329680860042572, 0.9924020767211914, -0.028800401836633682, -0.0037593841552734375, 1.49560546875, 1.45458984375, 0.11224365234375, 1.48974609375, 1.431884765625, 10.0, 1.0, 10.0, 1.3925460577011108
17726, -1.231919288635254, 2.6782121658325195, 3.1320571899414062, 7.992371683940291e-05, -3.3234216971322894e-05, -8.798393249511719, -0.05104278400540352, 0.020122725516557693, -1.0953031778335571, -0.8205217123031616, -0.9702038168907166, 0.05785614252090454, -2.1716046975910883, 0.26895361617948765, -94.24355115869479, 9362.0, 30146.0, 35388.0, 9362.0, 8.370248794555664, 0.044005271047353745, -0.10756140947341919, 0.08522449433803558, -0.09960298240184784, -0.03462737426161766, 0.9933449029922485, -0.02962140180170536, -0.10231781005859375, 1.487548828125, 1.47509765625, 0.147857666015625, 1.49560546875, 1.301513671875, 10.0, 1.0, 10.0, 1.3927465677261353
17736, -1.2312296628952026, 2.677877426147461, 3.1334619522094727, -0.00045381003292277455, 0.00017720650066621602, -8.80935001373291, -0.05570398271083832, 0.021965429186820984, -1.0961315631866455, -0.8204932808876038, -0.9702402949333191, 0.05789283290505409, -2.1662184728983895, 0.2774154163706726, -94.25901407822383, 9362.0, 30146.0, 35388.0, 9362.0, 8.370248794555664, 0.04152225703001022, 0.1753649115562439, -0.029242273420095444, -0.10045835375785828, -0.03837849944829941, 0.9938187599182129, -0.02962140180170536, -0.10231781005859375, 1.487548828125, 1.351318359375, 0.0153350830078125, 1.49560546875, 1.417236328125, 10.0, 1.0, 10.0, 1.3930126428604126
17746, -1.230783462524414, 2.676602840423584, 3.133641004562378, -0.0010341501329094172, 0.0004060768405906856, -8.82031536102295, -0.060364075005054474, 0.02380853332579136, -1.0969122648239136, -0.8204712271690369, -0.9699716567993164, 0.057816747575998306, -2.2120847231707583, 0.42901662756972314, -94.24493639881216, 9362.0, 30146.0, 35388.0, 9362.0, 8.370248794555664, 0.053704578429460526, -0.1810447722673416, 0.2701287865638733, -0.10215583443641663, -0.03612291440367699, 0.9929329752922058, -0.02962140180170536, -0.10231781005859375, 1.487548828125, 1.45166015625, 0.107452392578125, 1.49560546875, 1.32568359375, 10.0, 1.0, 10.0, 1.3928779363632202
17756, -1.2312510013580322, 2.677400588989258, 3.1344351768493652, -0.0016610934399068356, 0.0006533739506267011, -8.83128833770752, -0.06502459943294525, 0.025650888681411743, -1.0976706743240356, -0.8205068111419678, -0.9702078700065613, 0.05787832289934158, -2.1622279766512755, 0.26844640063873726, -94.24525809722691, 9362.0, 30146.0, 35388.0, 9362.0, 8.370248794555664, 0.12416333705186844, 0.6255561113357544, 0.22574922442436218, -0.10067369043827057, -0.03168993815779686, 0.9917888045310974, -0.02962140180170536, -0.10231781005859375, 1.487548828125, 1.44287109375, 0.0936279296875, 1.49560546875, 1.402587890625, 10.0, 1.0, 10.0, 1.3930678367614746
17766, -1.2315722703933716, 2.675882339477539, 3.135662078857422, -0.002334616146981716, 0.0009190855198539793, -8.842268943786621, -0.06967991590499878, 0.027491355314850807, -1.0984917879104614, -0.8205084204673767, -0.9701946377754211, 0.05789007246494293, -2.166516640565958, 0.2658046376761831, -94.24530293875705, 9362.0, 30146.0, 35388.0, 9362.0, 8.370248794555664, 0.022902704775333405, -0.10987473279237747, -0.031494248658418655, -0.10136303305625916, -0.03304720297455788, 0.9924445748329163, -0.02962140180170536, -0.10231781005859375, 1.487548828125, 1.43701171875, 0.085052490234375, 1.491943359375, 1.44287109375, 10.0, 1.0, 10.0, 1.3932286500930786
17776, -1.2318580150604248, 2.677804946899414, 3.1358559131622314, -0.0030546747148036957, 0.0012031954247504473, -8.85325813293457, -0.0743318498134613, 0.02933051995933056, -1.0994142293930054, -0.8204506635665894, -0.9699830412864685, 0.05781491845846176, -2.2151504890170313, 0.4319740407738948, -94.24460671278761, 9362.0, 30146.0, 35388.0, 9362.0, 8.370248794555664, -0.0447649285197258, -0.003482755273580551, 0.025958286598324776, -0.10270577669143677, -0.033161602914333344, 0.9918043613433838, -0.02962140180170536, -0.10231781005859375, 1.487548828125, 1.36083984375, 0.016387939453125, 1.491943359375, 1.42236328125, 10.0, 1.0, 10.0, 1.3933700323104858
17786, -1.2322291135787964, 2.6786930561065674, 3.1353650093078613, -0.0038212486542761326, 0.0015057033160701394, -8.864256858825684, -0.07898294180631638, 0.031171053647994995, -1.1003004312515259, -0.8204551339149475, -0.969982922077179, 0.05781896412372589, -2.2031759831015205, 0.42402360792408444, -94.25008844317259, 9362.0, 30146.0, 35388.0, 9362.0, 8.370248794555664, 0.09485262632369995, 0.03165404126048088, -0.23861588537693024, -0.10163954645395279, -0.03388335555791855, 0.9906157851219177, -0.02962140180170536, -0.10231781005859375, 1.487548828125, 1.3330078125, 0.0191650390625, 1.4912109375, 1.437744140625, 10.0, 1.0, 10.0, 1.3932650089263916
17796, -1.2317293882369995, 2.679436206817627, 3.133497953414917, -0.004634334240108728, 0.0018266118131577969, -8.875264167785645, -0.0836341604590416, 0.03301067650318146, -1.1012530326843262, -0.8204678893089294, -0.9699720144271851, 0.05779769644141197, -2.203378819176536, 0.43171605259820467, -94.23520994833605, 9362.0, 30146.0, 35388.0, 9362.0, 8.370248794555664, -0.08598384261131287, 0.09599790722131729, -0.06828594952821732, -0.1017656922340393, -0.035038068890571594, 0.9949593544006348, -0.02962140180170536, -0.10231781005859375, 1.487548828125, 1.46337890625, 0.1270751953125, 1.4912109375, 1.44287109375, 10.0, 1.0, 10.0, 1.3930704593658447
17806, -1.2322158813476562, 2.6803877353668213, 3.1335370540618896, -0.0054939244873821735, 0.0021659135818481445, -8.886281967163086, -0.08828383684158325, 0.03484981507062912, -1.1022683382034302, -0.8206401467323303, -0.9702004194259644, 0.05805765464901924, -2.0606191027358074, 0.23303512337392362, -94.19731734009011, 9362.0, 30146.0, 35388.0, 9362.0, 8.370248794555664, 0.2538164258003235, -0.0018166018417105079, -0.07400766760110855, -0.1032910943031311, -0.03435361012816429, 0.9936639070510864, -0.02962140180170536, -0.10231781005859375, 1.487548828125, 1.3623046875, 0.0167999267578125, 1.48974609375, 1.44287109375, 10.0, 1.0, 10.0, 1.3932974338531494
17816, -1.2291640043258667, 2.6816282272338867, 3.1336824893951416, -0.006400094833225012, 0.0025236334186047316, -8.897308349609375, -0.09295026957988739, 0.03669416531920433, -1.1029590368270874, -0.820461630821228, -0.9699685573577881, 0.057801004499197006, -2.2123920168582845, 0.4325778330848209, -94.24704236032326, 9362.0, 30146.0, 35388.0, 9362.0, 8.370248794555664, -0.22648294270038605, -0.13822101056575775, 0.24023619294166565, -0.10261089354753494, -0.033474236726760864, 0.9929508566856384, -0.02962140180170536, -0.10231781005859375, 1.487548828125, 1.27587890625, 0.092620849609375, 1.48974609375, 1.318359375, 10.0, 1.0, 10.0, 1.3931974172592163
17826, -1.2303316593170166, 2.6811861991882324, 3.1357221603393555, -0.007352924905717373, 0.0028997953049838543, -8.908341407775879, -0.09761570394039154, 0.03853822499513626, -1.103705883026123, -0.8204413652420044, -0.9700374007225037, 0.05783843994140625, -2.211341949284286, 0.43080974204980294, -94.25162917895935, 9362.0, 30146.0, 35388.0, 9362.0, 8.370248794555664, -0.13398829102516174, 0.07432020455598831, 0.1811279058456421, -0.10413070023059845, -0.03287563472986221, 0.9937236905097961, -0.049621183425188065, -0.18295860290527344, 1.48095703125, 1.464111328125, 0.1283111572265625, 1.48974609375, 1.27880859375, 10.0, 1.0, 10.0, 1.3928189277648926
17856, -1.2309818267822266, 2.6779637336730957, 3.1363019943237305, -0.0093985041603446, 0.0037073111161589622, -8.930432319641113, -0.10694264620542526, 0.04221447557210922, -1.1053483486175537, -0.820626437664032, -0.9702456593513489, 0.05806531757116318, -2.05319377542615, 0.2376573178044339, -94.20190010847567, 9362.0, 30146.0, 35388.0, 9362.0, 8.370248794555664, 0.20004133880138397, 0.23070642352104187, -0.07228086143732071, -0.10276351869106293, -0.03300191089510918, 0.9922925233840942, -0.049621183425188065, -0.18295860290527344, 1.48095703125, 1.437744140625, 0.086029052734375, 1.493408203125, 1.400390625, 10.0, 1.0, 10.0, 1.3928189277648926
17876, -1.2289904356002808, 2.676456928253174, 3.1379234790802, -0.0093985041603446, 0.0037073111161589622, -8.930432319641113, -0.10694264620542526, 0.04221447557210922, -1.1053483486175537, -0.8205215930938721, -0.9702179431915283, 0.05787217989563942, -2.1622363051578604, 0.2637521578393489, -94.24400884795163, 9362.0, 30146.0, 35388.0, 9362.0, 8.370248794555664, 0.021823547780513763, 0.27895522117614746, -0.06457875669002533, -0.10276351869106293, -0.03300191089510918, 0.9922925233840942, -0.049621183425188065, -0.18295860290527344, 1.48095703125, 1.4208984375, 0.063079833984375, 1.493408203125, 1.400390625, 10.0, 1.0, 10.0, 1.3928189277648926
17916, -1.2280731201171875, 2.6733133792877197, 3.1390812397003174, -0.018026025965809822, 0.007113106548786163, -9.0079984664917, -0.13955780863761902, 0.05509209632873535, -1.1106631755828857, -0.820464015007019, -0.9699795246124268, 0.05781816691160202, -2.209190009104953, 0.42751207771522104, -94.2506853700798, 9362.0, 30146.0, 35388.0, 9362.0, 8.370248794555664, 0.058520037680864334, 0.08000141382217407, -0.17064006626605988, -0.10348440706729889, -0.03151271864771843, 0.9953667521476746, -0.049621183425188065, -0.18295860290527344, 1.48095703125, 1.443603515625, 0.0948486328125, 1.493408203125, 1.45166015625, 10.0, 1.0, 10.0, 1.3928189277648926
17936, -1.2277910709381104, 2.6724326610565186, 3.137413263320923, -0.02091037854552269, 0.00825170986354351, -9.03022575378418, -0.14887507259845734, 0.05876850336790085, -1.1120067834854126, -0.8204489946365356, -0.9700400233268738, 0.05783317610621452, -2.200487571375663, 0.41941751663136984, -94.25588968820293, 9362.0, 30146.0, 35388.0, 9362.0, 8.370248794555664, -0.019505014643073082, 0.009238987229764462, 0.01872672140598297, -0.10373017191886902, -0.03284372761845589, 0.9911916255950928, -0.049621183425188065, -0.18295860290527344, 1.48095703125, 1.443603515625, 0.0948486328125, 1.493408203125, 1.34326171875, 10.0, 1.0, 10.0, 1.3928189277648926
17996, -1.2284988164901733, 2.673133373260498, 3.1367011070251465, -0.028934761881828308, 0.011419451795518398, -9.085938453674316, -0.17210635542869568, 0.06794660538434982, -1.1164146661758423, -0.8204618692398071, -0.9699738025665283, 0.05781296640634537, -2.2089457839065285, 0.4328014477899558, -94.24357981887725, 9362.0, 30146.0, 35388.0, 9362.0, 8.370248794555664, -0.019397180527448654, -0.32438644766807556, -0.06279494613409042, -0.10322127491235733, -0.03316354379057884, 0.993948221206665, -0.049621183425188065, -0.18295860290527344, 1.48095703125, 1.35791015625, 0.015869140625, 1.49267578125, 1.43994140625, 10.0, 1.0, 10.0, 1.3933383226394653
18036, -1.2300225496292114, 2.674724817276001, 3.139589786529541, -0.03812142834067345, 0.015046554617583752, -9.141858100891113, -0.19536982476711273, 0.077140212059021, -1.120285153388977, -0.8204644918441772, -0.9699926376342773, 0.05780930072069168, -2.206954543283014, 0.4205937140730782, -94.23538213694783, 9362.0, 30146.0, 35388.0, 9362.0, 8.370248794555664, 0.13176938891410828, -0.534848153591156, -0.10653414577245712, -0.10310772806406021, -0.03381241858005524, 0.9942398071289062, -0.049621183425188065, -0.18295860290527344, 1.48095703125, 1.27294921875, 0.099334716796875, 1.494140625, 1.445068359375, 10.0, 1.0, 10.0, 1.3933383226394653
18056, -1.2281336784362793, 2.676809310913086, 3.1404826641082764, -0.03812142834067345, 0.015046554617583752, -9.141858100891113, -0.19536982476711273, 0.077140212059021, -1.120285153388977, -0.8205146789550781, -0.9702005982398987, 0.05786241590976715, -2.175077029279744, 0.2643989866580796, -94.24244517977787, 9362.0, 30146.0, 35388.0, 9362.0, 8.370248794555664, 0.09986512362957001, -0.12739144265651703, 0.10819120705127716, -0.10310772806406021, -0.03381241858005524, 0.9942398071289062, -0.049621183425188065, -0.18295860290527344, 1.48095703125, 1.291259765625, 0.0625457763671875, 1.49560546875, 1.32861328125, 10.0, 1.0, 10.0, 1.3933383226394653
18076, -1.226377248764038, 2.675981283187866, 3.1392626762390137, -0.03812142834067345, 0.015046554617583752, -9.141858100891113, -0.19536982476711273, 0.077140212059021, -1.120285153388977, -0.8204610347747803, -0.9699860215187073, 0.057809311896562576, -2.2182238994331023, 0.42727035226155863, -94.24365867900373, 9362.0, 30146.0, 35388.0, 9362.0, 8.370248794555664, 0.15505388379096985, 0.05883282795548439, -0.1527189016342163, -0.10310772806406021, -0.03381241858005524, 0.9942398071289062, -0.049621183425188065, -0.18295860290527344, 1.48095703125, 1.44580078125, 0.098236083984375, 1.494140625, 1.265625, 10.0, 1.0, 10.0, 1.3933383226394653
18156, -1.224062204360962, 2.6787638664245605, 3.1396756172180176, -0.06492122262716293, 0.025626007467508316, -9.276798248291016, -0.25128161907196045, 0.09914819151163101, -1.129184603691101, -0.8204631805419922, -0.9699773192405701, 0.05778929963707924, -2.2062221487306, 0.4246468366474403, -94.24607753428079, 9362.0, 30146.0, 35388.0, 9362.0, 8.370248794555664, 0.11303125321865082, 0.229811891913414, 0.037671491503715515, -0.1032547578215599, -0.03249664232134819, 0.993554949760437, -0.041259344667196274, -0.030637741088867188, 1.493408203125, 1.393798828125, 0.0344085693359375, 1.494140625, 1.46044921875, 10.0, 1.0, 10.0, 1.3933383226394653
18176, -1.2232168912887573, 2.674609661102295, 3.139529228210449, -0.06492122262716293, 0.025626007467508316, -9.276798248291016, -0.25128161907196045, 0.09914819151163101, -1.129184603691101, -0.8204700350761414, -0.969986081123352, 0.05780869722366333, -2.2154326441382626, 0.43183158078312545, -94.23865457000025, 9362.0, 30146.0, 35388.0, 9362.0, 8.370248794555664, -0.0016153522301465273, 0.07037582993507385, -0.08095557242631912, -0.1032547578215599, -0.03249664232134819, 0.993554949760437, -0.041259344667196274, -0.030637741088867188, 1.493408203125, 1.464111328125, 0.1283111572265625, 1.494873046875, 1.402587890625, 10.0, 1.0, 10.0, 1.3933383226394653
18196, -1.2241977453231812, 2.676135778427124, 3.1394927501678467, -0.07534529268741608, 0.029738329350948334, -9.322025299072266, -0.2699090838432312, 0.10646311938762665, -1.1323283910751343, -0.8204401731491089, -0.9700273871421814, 0.0578199066221714, -2.2061427597835337, 0.42838542816647873, -94.2572677306221, 9362.0, 30146.0, 35388.0, 9362.0, 8.370248794555664, 0.1560770720243454, 0.24550090730190277, -0.11236695200204849, -0.10394028574228287, -0.03486974164843559, 0.9913836121559143, -0.041259344667196274, -0.030637741088867188, 1.493408203125, 1.43701171875, 0.085052490234375, 1.494873046875, 1.402587890625, 10.0, 1.0, 10.0, 1.3933383226394653
18296, -1.2227920293807983, 2.6716787815093994, 3.137733221054077, -0.10466059297323227, 0.04129881039261818, -9.435680389404297, -0.3164256811141968, 0.12475840747356415, -1.1402066946029663, -0.8204566836357117, -0.969983696937561, 0.05780937522649765, -2.212210017593115, 0.4255319191588285, -94.24361734972142, 9362.0, 30146.0, 35388.0, 9362.0, 8.370248794555664, 0.030389923602342606, 0.15495140850543976, 0.283259779214859, -0.10227981209754944, -0.034845419228076935, 0.993362307548523, -0.05691007524728775, -0.1650371551513672, 1.482421875, 1.4384765625, 0.0871429443359375, 1.494140625, 1.4560546875, 10.0, 1.0, 10.0, 1.3916524648666382
18316, -1.2220174074172974, 2.667316198348999, 3.1449458599090576, -0.11108213663101196, 0.043830592185258865, -9.458499908447266, -0.3257283568382263, 0.12841811776161194, -1.1416819095611572, -0.8204542398452759, -0.9699806571006775, 0.05780891329050064, -2.2163172659300074, 0.4279427817095609, -94.24874861777299, 9362.0, 30146.0, 35388.0, 9362.0, 8.370248794555664, 0.11062141507863998, -0.37113896012306213, -0.14940710365772247, -0.10436643660068512, -0.03293703868985176, 0.9942617416381836, -0.05691007524728775, -0.1650371551513672, 1.482421875, 1.45751953125, 0.117095947265625, 1.494140625, 1.4560546875, 10.0, 1.0, 10.0, 1.3916524648666382
18336, -1.221124529838562, 2.6692445278167725, 3.144852638244629, -0.1176895871758461, 0.04643551632761955, -9.481348037719727, -0.33501186966896057, 0.13207213580608368, -1.1432536840438843, -0.8204433917999268, -0.9700382351875305, 0.05782680958509445, -2.2119515398546645, 0.4272818316783571, -94.25660520647463, 9362.0, 30146.0, 35388.0, 9362.0, 8.370248794555664, -0.04086005687713623, 0.12350575625896454, 0.44681864976882935, -0.10450199246406555, -0.03353894129395485, 0.9938986301422119, -0.05691007524728775, -0.1650371551513672, 1.482421875, 1.282470703125, 0.0786590576171875, 1.494140625, 1.4765625, 10.0, 1.0, 10.0, 1.3916524648666382
18416, -1.2199913263320923, 2.672039747238159, 3.1489267349243164, -0.14227865636348724, 0.056127700954675674, -9.56156063079834, -0.36754074692726135, 0.1448499858379364, -1.1483954191207886, -0.8204723596572876, -0.9699801802635193, 0.05779540166258812, -2.2118837178037225, 0.42708575509323055, -94.2379953366205, 9362.0, 30146.0, 35388.0, 9362.0, 8.370248794555664, -0.11480696499347687, 0.013502866961061954, -0.20136688649654388, -0.10490430146455765, -0.03208420053124428, 0.9939543604850769, -0.05691007524728775, -0.1650371551513672, 1.482421875, 1.435546875, 0.0829315185546875, 1.49560546875, 1.2626953125, 10.0, 1.0, 10.0, 1.3916524648666382
18436, -1.2195050716400146, 2.6705868244171143, 3.1465799808502197, -0.14227865636348724, 0.056127700954675674, -9.56156063079834, -0.36754074692726135, 0.1448499858379364, -1.1483954191207886, -0.8204621076583862, -0.9699744582176208, 0.05781739577651024, -2.2095402649053755, 0.4344670435470448, -94.24515176767859, 9362.0, 30146.0, 35388.0, 9362.0, 8.370248794555664, 0.14979122579097748, 0.2948189675807953, 0.63319993019104, -0.10490430146455765, -0.03208420053124428, 0.9939543604850769, -0.05691007524728775, -0.1650371551513672, 1.482421875, 1.39306640625, 0.0337982177734375, 1.49267578125, 1.458251953125, 10.0, 1.0, 10.0, 1.3916524648666382
18456, -1.2191513776779175, 2.670289993286133, 3.1336827278137207, -0.14227865636348724, 0.056127700954675674, -9.56156063079834, -0.36754074692726135, 0.1448499858379364, -1.1483954191207886, -0.820468544960022, -0.9699808955192566, 0.057802796363830566, -2.2153738591990306, 0.4316733768312133, -94.24446157115234, 9362.0, 30146.0, 35388.0, 9362.0, 8.370248794555664, 0.17408978939056396, 0.15919344127178192, 0.10523336380720139, -0.09851712733507156, -0.03326054662466049, 0.9912546277046204, -0.05691007524728775, -0.1650371551513672, 1.482421875, 1.4384765625, 0.0871429443359375, 1.49267578125, 1.458251953125, 10.0, 1.0, 10.0, 1.3916524648666382
18476, -1.2177537679672241, 2.6662867069244385, 3.12971568107605, -0.14227865636348724, 0.056127700954675674, -9.56156063079834, -0.36754074692726135, 0.1448499858379364, -1.1483954191207886, -0.820468544960022, -0.9699656963348389, 0.05782189592719078, -2.2052122550695383, 0.42112933878664194, -94.24070215089131, 9362.0, 30146.0, 35388.0, 9362.0, 8.370248794555664, -0.15064465999603271, 0.3303937613964081, -0.535166323184967, -0.10255740582942963, -0.03515450656414032, 0.993241012096405, -0.05691007524728775, -0.1650371551513672, 1.482421875, 1.3388671875, 0.017120361328125, 1.494140625, 1.395263671875, 10.0, 1.0, 10.0, 1.3916524648666382
18556, -1.2185684442520142, 2.659682035446167, 3.1395487785339355, -0.1897268295288086, 0.07482104748487473, -9.699971199035645, -0.42323124408721924, 0.16670376062393188, -1.1583800315856934, -0.8204361796379089, -0.969905436038971, 0.05778360366821289, -2.1959067695700667, 0.39708287410056187, -94.26132626666175, 9362.0, 30146.0, 35388.0, 9362.0, 8.370248794555664, 0.0730724036693573, 0.1469077616930008, -0.361131489276886, -0.10308710485696793, -0.03627178817987442, 0.9909149408340454, -0.04956960678100586, 0.05896186828613281, 1.500732421875, 1.4208984375, 0.063079833984375, 1.4912109375, 1.41064453125, 10.0, 1.0, 10.0, 1.3916524648666382
18576, -1.217991828918457, 2.6632933616638184, 3.1420607566833496, -0.21146710216999054, 0.0833839401602745, -9.757987022399902, -0.4463551640510559, 0.17580389976501465, -1.1627143621444702, -0.8204594850540161, -0.9699845314025879, 0.0578027218580246, -2.2071951992837926, 0.42694933874381036, -94.24915274479162, 9362.0, 30146.0, 35388.0, 9362.0, 8.370248794555664, -0.11028440296649933, 0.1872682273387909, -2.8149936199188232, -0.1012873575091362, -0.035695869475603104, 0.9942739009857178, -0.04956960678100586, 0.05896186828613281, 1.500732421875, 1.33740234375, 0.0175323486328125, 1.4912109375, 1.41064453125, 10.0, 1.0, 10.0, 1.3916524648666382
18596, -1.2201346158981323, 2.6601858139038086, 3.140778064727783, -0.2204868644475937, 0.08693645149469376, -9.781255722045898, -0.45562058687210083, 0.17944879829883575, -1.1641956567764282, -0.8204740285873413, -0.9699852466583252, 0.057787977159023285, -2.218421969237979, 0.4269456443304307, -94.24123626145817, 9362.0, 30146.0, 35388.0, 9362.0, 8.370248794555664, -0.12702666223049164, -0.2129589319229126, -1.0531997680664062, -0.10508474707603455, -0.03320632502436638, 0.9950264692306519, -0.04956960678100586, 0.05896186828613281, 1.500732421875, 1.431884765625, 0.07769775390625, 1.4912109375, 1.4267578125, 10.0, 1.0, 10.0, 1.3916524648666382
18676, -1.2168023586273193, 2.669804573059082, 3.158196210861206, -0.25351446866989136, 0.09994398802518845, -9.86295223236084, -0.48803794384002686, 0.19219143688678741, -1.1699013710021973, -0.8204634189605713, -0.9699668288230896, 0.057809218764305115, -2.2166462381137326, 0.43241018414366295, -94.25227402914858, 9362.0, 30146.0, 35388.0, 9362.0, 8.370248794555664, 0.061452466994524, 0.19008252024650574, -0.1625809371471405, -0.10455963015556335, -0.032387297600507736, 0.992992639541626, -0.04956960678100586, 0.05896186828613281, 1.500732421875, 1.39599609375, 0.0362701416015625, 1.494140625, 1.434814453125, 10.0, 1.0, 10.0, 1.3899043798446655
18716, -1.2178676128387451, 2.6739845275878906, 3.151259422302246, -0.273407518863678, 0.10777696222066879, -9.909806251525879, -0.5066124796867371, 0.19945493340492249, -1.173007607460022, -0.8204553127288818, -0.9699701070785522, 0.05780942738056183, -2.2211986229242786, 0.43125231637975503, -94.24423291507458, 9362.0, 30146.0, 35388.0, 9362.0, 8.370248794555664, 0.079892098903656, 0.0520114041864872, -0.29099908471107483, -0.10028794407844543, -0.03258924186229706, 0.9919400811195374, -0.04956960678100586, 0.05896186828613281, 1.500732421875, 1.25830078125, 0.137664794921875, 1.49560546875, 1.44580078125, 10.0, 1.0, 10.0, 1.3899043798446655
18736, -1.2175661325454712, 2.673133373260498, 3.1454524993896484, -0.2888154089450836, 0.11384236812591553, -9.945028305053711, -0.5205841660499573, 0.2049100697040558, -1.1750506162643433, -0.8205209970474243, -0.9702457785606384, 0.057904571294784546, -2.162132229666135, 0.2840913718876834, -94.25174161990492, 9362.0, 30146.0, 35388.0, 9362.0, 8.370248794555664, 0.08588691055774689, 0.39107170701026917, -0.4252946376800537, -0.10331705212593079, -0.03227430582046509, 0.9907049536705017, -0.04956960678100586, 0.05896186828613281, 1.500732421875, 1.40771484375, 0.0478363037109375, 1.49560546875, 1.43701171875, 10.0, 1.0, 10.0, 1.3899043798446655
18776, -1.2156522274017334, 2.664138078689575, 3.130722999572754, -0.2888154089450836, 0.11384236812591553, -9.945028305053711, -0.5205841660499573, 0.2049100697040558, -1.1750506162643433, -0.8205183744430542, -0.9702462553977966, 0.05785131826996803, -2.1650101225298606, 0.2880093429660633, -94.25307215335232, 9362.0, 30146.0, 35388.0, 9362.0, 8.370248794555664, 0.04830270633101463, 0.024503640830516815, -0.42122089862823486, -0.10407520085573196, -0.03520512208342552, 0.9921388030052185, -0.04956960678100586, 0.05896186828613281, 1.500732421875, 1.42822265625, 0.0726470947265625, 1.4912109375, 1.339599609375, 10.0, 1.0, 10.0, 1.3899043798446655
18836, -1.2134020328521729, 2.6537373065948486, 3.1262261867523193, -0.33194664120674133, 0.13081596791744232, -10.039323806762695, -0.5576697587966919, 0.2194291204214096, -1.1822618246078491, -0.8204557299613953, -0.9699884057044983, 0.057810358703136444, -2.2219575471887736, 0.43117366444303684, -94.24193394555378, 9362.0, 30146.0, 35388.0, 9362.0, 8.350414276123047, -0.04937806352972984, 0.648550808429718, 0.18307848274707794, -0.10712867230176926, -0.03287486732006073, 0.9936860799789429, -0.05527637153863907, -0.2187976837158203, 1.47802734375, 1.4267578125, 0.070709228515625, 1.494873046875, 1.39306640625, 10.0, 1.0, 10.0, 1.3899043798446655
18856, -1.2117148637771606, 2.651688575744629, 3.132159471511841, -0.33194664120674133, 0.13081596791744232, -10.039323806762695, -0.5576697587966919, 0.2194291204214096, -1.1822618246078491, -0.8204531073570251, -0.96998530626297, 0.05779685080051422, -2.218954681585812, 0.4294261242908419, -94.2411611323227, 9362.0, 30146.0, 35388.0, 9362.0, 8.350414276123047, -0.2716442048549652, 0.14729337394237518, 0.1693883091211319, -0.10712867230176926, -0.03287486732006073, 0.9936860799789429, -0.05527637153863907, -0.2187976837158203, 1.47802734375, 1.3798828125, 0.0243377685546875, 1.49267578125, 1.449462890625, 10.0, 1.0, 10.0, 1.3899043798446655
18916, -1.2129374742507935, 2.653193473815918, 3.1543753147125244, -0.38400736451148987, 0.1512988805770874, -10.146066665649414, -0.5992094278335571, 0.23574312031269073, -1.1895902156829834, -0.82047438621521, -0.9699865579605103, 0.05777714401483536, -2.215162156596442, 0.4237939062787177, -94.24244617184928, 9362.0, 30146.0, 35388.0, 9362.0, 8.350414276123047, 0.10911459475755692, -0.1204552948474884, 0.3858068883419037, -0.10507651418447495, -0.03398152068257332, 0.9936875104904175, -0.05527637153863907, -0.2187976837158203, 1.47802734375, 1.306640625, 0.040557861328125, 1.494873046875, 1.4677734375, 10.0, 1.0, 10.0, 1.3899043798446655
19016, -1.2186552286148071, 2.658228874206543, 3.1523377895355225, -0.4527147710323334, 0.17832769453525543, -10.277366638183594, -0.6500297784805298, 0.2556973695755005, -1.197932481765747, -0.8204024434089661, -0.9700067639350891, 0.05784619599580765, -2.2068659226232015, 0.4121288282338753, -94.28129472174952, 9362.0, 30146.0, 35388.0, 9362.0, 8.370248794555664, -0.25433871150016785, -0.13577605783939362, -0.4158887565135956, -0.102793388068676, -0.03313470631837845, 0.9924564957618713, -0.049092359840869904, -0.07543754577636719, 1.48974609375, 1.376953125, 0.0225982666015625, 1.493408203125, 1.433349609375, 10.0, 1.0, 10.0, 1.3899043798446655
19076, -1.2195839881896973, 2.655785322189331, 3.137894868850708, -0.4527147710323334, 0.17832769453525543, -10.277366638183594, -0.6500297784805298, 0.2556973695755005, -1.197932481765747, -0.8204710483551025, -0.9702269434928894, 0.057896994054317474, -2.1560601885118356, 0.2584744977242224, -94.27349303497749, 9362.0, 30146.0, 35388.0, 9362.0, 8.370248794555664, 0.15359915792942047, -0.04486510902643204, 0.14369544386863708, -0.10204189270734787, -0.03531169146299362, 0.9929394125938416, -0.04460972547531128, -0.021678924560546875, 1.494140625, 1.44873046875, 0.102813720703125, 1.4912109375, 1.44580078125, 10.0, 1.0, 10.0, 1.3899043798446655
19156, -1.2135279178619385, 2.6479663848876953, 3.155111789703369, -0.5411233901977539, 0.21310830116271973, -10.433782577514648, -0.7100752592086792, 0.27938318252563477, -1.2082833051681519, -0.8204002380371094, -0.9700113534927368, 0.0578313022851944, -2.2144341955206257, 0.4123129636823819, -94.28210435341941, 9362.0, 30146.0, 35388.0, 9362.0, 8.370248794555664, 0.15103057026863098, -0.1880847066640854, 0.1945902705192566, -0.10117774456739426, -0.03226328641176224, 0.9925526976585388, -0.04460972547531128, -0.021678924560546875, 1.494140625, 1.31396484375, 0.0325469970703125, 1.4912109375, 1.4560546875, 10.0, 1.0, 10.0, 1.3882830142974854
19176, -1.2150094509124756, 2.648529291152954, 3.1635189056396484, -0.5411233901977539, 0.21310830116271973, -10.433782577514648, -0.7100752592086792, 0.27938318252563477, -1.2082833051681519, -0.8203867673873901, -0.9700159430503845, 0.057858459651470184, -2.214033974048695, 0.41067622151655314, -94.28274281243871, 9362.0, 30146.0, 35388.0, 9362.0, 8.370248794555664, -0.21339726448059082, 0.1985601782798767, 0.5994980335235596, -0.10376276075839996, -0.03360292315483093, 0.9939852356910706, -0.04460972547531128, -0.021678924560546875, 1.494140625, 1.4150390625, 0.05596923828125, 1.48974609375, 1.399658203125, 10.0, 1.0, 10.0, 1.3882830142974854
19196, -1.215269684791565, 2.6507813930511475, 3.1696550846099854, -0.5772024393081665, 0.2273038774728775, -10.494311332702637, -0.7330990433692932, 0.28844329714775085, -1.2126059532165527, -0.8203720450401306, -0.9700658917427063, 0.05786394327878952, -2.2069456199180406, 0.4183242163011016, -94.29465543124543, 9362.0, 30146.0, 35388.0, 9362.0, 8.370248794555664, -0.0756627693772316, -0.12693750858306885, -0.002495736116543412, -0.1040944755077362, -0.03402571752667427, 0.9931764006614685, -0.04460972547531128, -0.021678924560546875, 1.494140625, 1.31396484375, 0.0325469970703125, 1.48974609375, 1.27587890625, 10.0, 1.0, 10.0, 1.3882830142974854
19216, -1.2154109477996826, 2.654386281967163, 3.172220468521118, -0.591956615447998, 0.2331090271472931, -10.518579483032227, -0.7423209547996521, 0.29207080602645874, -1.2142094373703003, -0.8203754425048828, -0.9700623750686646, 0.057875730097293854, -2.2073225707635085, 0.40723614426883614, -94.28971422412958, 9362.0, 30146.0, 35388.0, 9362.0, 8.370248794555664, -0.096433125436306, -0.20477059483528137, 0.08515535295009613, -0.09925492107868195, -0.03504001349210739, 0.9920447468757629, -0.04460972547531128, -0.021678924560546875, 1.494140625, 1.34912109375, 0.015380859375, 1.494873046875, 1.359375, 10.0, 1.0, 10.0, 1.386857271194458
19256, -1.2182717323303223, 2.662534475326538, 3.169896125793457, -0.6220188736915588, 0.24493694305419922, -10.567214012145996, -0.7608109712600708, 0.29932957887649536, -1.2173566818237305, -0.8203893899917603, -0.9700013995170593, 0.057860299944877625, -2.217811962633788, 0.4168413919816203, -94.2869542538611, 9362.0, 30146.0, 35388.0, 9362.0, 8.350414276123047, 0.03064810484647751, -0.37657126784324646, -0.47683167457580566, -0.10576876252889633, -0.03334220126271248, 0.9948335886001587, -0.05078360438346863, -0.18295860290527344, 1.48095703125, 1.3974609375, 0.03759765625, 1.494140625, 1.2626953125, 10.0, 1.0, 10.0, 1.386857271194458
19296, -1.2185810804367065, 2.6630005836486816, 3.1604161262512207, -0.6528223156929016, 0.2570556104183197, -10.615966796875, -0.779360830783844, 0.30660414695739746, -1.2202836275100708, -0.8203912377357483, -0.9699902534484863, 0.05784666910767555, -2.2147514954258636, 0.4097786916607049, -94.28118115530455, 9362.0, 30146.0, 35388.0, 9362.0, 8.350414276123047, -0.06177748739719391, 0.04812069982290268, -0.16009360551834106, -0.10084059089422226, -0.03502175584435463, 0.9926416277885437, -0.05078360438346863, -0.18295860290527344, 1.48095703125, 1.275146484375, 0.09429931640625, 1.494140625, 1.415771484375, 10.0, 1.0, 10.0, 1.3868049383163452
19306, -1.2185298204421997, 2.6628403663635254, 3.157491683959961, -0.6606391072273254, 0.26013073325157166, -10.628173828125, -0.7839929461479187, 0.3084232211112976, -1.2211087942123413, -0.8204863667488098, -0.9700033068656921, 0.057800307869911194, -2.2116468637251816, 0.41223283197476235, -94.22808606431757, 9362.0, 30146.0, 35388.0, 9362.0, 8.350414276123047, -0.08806712180376053, -0.1298774927854538, -0.2420465350151062, -0.10258007049560547, -0.03633274510502815, 0.9948307275772095, -0.05078360438346863, -0.18295860290527344, 1.48095703125, 1.358642578125, 0.0159912109375, 1.49267578125, 1.26708984375, 10.0, 1.0, 10.0, 1.3868049383163452
19316, -1.2188571691513062, 2.6640126705169678, 3.15470552444458, -0.6685022115707397, 0.2632240653038025, -10.640388488769531, -0.7886316776275635, 0.3102450966835022, -1.2217838764190674, -0.8205199837684631, -0.9702371954917908, 0.05787964165210724, -2.157760512307844, 0.2793062739987704, -94.25296654005994, 9362.0, 30146.0, 35388.0, 9362.0, 8.350414276123047, -0.040049731731414795, 0.283276230096817, -0.23024126887321472, -0.10264663398265839, -0.035777416080236435, 0.9940353631973267, -0.05078360438346863, -0.18295860290527344, 1.48095703125, 1.46044921875, 0.12200927734375, 1.49267578125, 1.39599609375, 10.0, 1.0, 10.0, 1.386360764503479
19336, -1.2182002067565918, 2.662259101867676, 3.1508421897888184, -0.6843676567077637, 0.2694654166698456, -10.664837837219238, -0.7979083061218262, 0.31388887763023376, -1.2231794595718384, -0.8204805254936218, -0.9699771404266357, 0.0578012689948082, -2.2041844330272826, 0.4297733274231348, -94.24197207850794, 9362.0, 30146.0, 35388.0, 9362.0, 8.370248794555664, -0.08077803999185562, 0.12744159996509552, -0.29810193181037903, -0.10054479539394379, -0.03350206837058067, 0.9932085275650024, -0.038399919867515564, 0.08584022521972656, 1.5029296875, 1.3447265625, 0.0158538818359375, 1.493408203125, 1.355712890625, 10.0, 1.0, 10.0, 1.386360764503479
19356, -1.2168725728988647, 2.6597349643707275, 3.14567494392395, -0.7004183530807495, 0.2757795751094818, -10.689319610595703, -0.8071646690368652, 0.3175260126590729, -1.2249293327331543, -0.8204485177993774, -0.9700401425361633, 0.05780719965696335, -2.2008882352784687, 0.4278486920331943, -94.25888225951093, 9362.0, 30146.0, 35388.0, 9362.0, 8.370248794555664, -0.20212244987487793, 0.21440067887306213, -0.05692804604768753, -0.10373935103416443, -0.03367641195654869, 0.9942935109138489, -0.038399919867515564, 0.08584022521972656, 1.5029296875, 1.41943359375, 0.0612945556640625, 1.49267578125, 1.433349609375, 10.0, 1.0, 10.0, 1.386360764503479
19376, -1.2168993949890137, 2.6570894718170166, 3.145472764968872, -0.7166544198989868, 0.2821665406227112, -10.713830947875977, -0.8164358139038086, 0.3211701512336731, -1.2262154817581177, -0.8205068111419678, -0.9702454805374146, 0.05787121132016182, -2.1679667308902597, 0.2812945914579075, -94.26003570954282, 9362.0, 30146.0, 35388.0, 9362.0, 8.370248794555664, -0.0072968387976288795, 0.029655763879418373, -0.14746004343032837, -0.10373935103416443, -0.03367641195654869, 0.9942935109138489, -0.038399919867515564, 0.08584022521972656, 1.5029296875, 1.35791015625, 0.015869140625, 1.494873046875, 1.267822265625, 10.0, 1.0, 10.0, 1.3866283893585205
19436, -1.2147294282913208, 2.644756555557251, 3.157240152359009, -0.7580543160438538, 0.29845255613327026, -10.775230407714844, -0.8395402431488037, 0.3302666246891022, -1.229801893234253, -0.8204665184020996, -0.9699743390083313, 0.05779131501913071, -2.2145616329520577, 0.418801244158459, -94.24755735767586, 9362.0, 30146.0, 35388.0, 9362.0, 8.350414276123047, -0.1286631077528, -0.4303130805492401, 0.23406130075454712, -0.1047818511724472, -0.03456195816397667, 0.9926439523696899, -0.0655524805188179, -0.1291980743408203, 1.4853515625, 1.3388671875, 0.017120361328125, 1.497802734375, 1.4267578125, 10.0, 1.0, 10.0, 1.3866283893585205
19456, -1.2153984308242798, 2.64723801612854, 3.159620523452759, -0.7580543160438538, 0.29845255613327026, -10.775230407714844, -0.8395402431488037, 0.3302666246891022, -1.229801893234253, -0.8204405903816223, -0.9700270295143127, 0.05777598172426224, -2.2109474181805786, 0.4303048072843296, -94.26261489017774, 9362.0, 30146.0, 35388.0, 9362.0, 8.350414276123047, 0.0723680630326271, -0.09689044952392578, 0.09772609919309616, -0.1024375855922699, -0.03477069362998009, 0.9912480711936951, -0.0655524805188179, -0.1291980743408203, 1.4853515625, 1.4384765625, 0.0871429443359375, 1.497802734375, 1.393798828125, 10.0, 1.0, 10.0, 1.3866283893585205
19476, -1.2138793468475342, 2.6483545303344727, 3.160290479660034, -0.8006066679954529, 0.31519269943237305, -10.836821556091309, -0.8625537157058716, 0.3393397927284241, -1.2339026927947998, -0.8204591274261475, -0.9700387716293335, 0.05780009925365448, -2.208082244188297, 0.4300198943029443, -94.24761149145706, 9362.0, 30146.0, 35388.0, 9362.0, 8.350414276123047, -0.2299494594335556, -0.31447121500968933, 0.14244693517684937, -0.10438612848520279, -0.030376413837075233, 0.9955887794494629, -0.0655524805188179, -0.1291980743408203, 1.4853515625, 1.320556640625, 0.02685546875, 1.494873046875, 1.447265625, 10.0, 1.0, 10.0, 1.3866283893585205
19496, -1.2165974378585815, 2.651202917098999, 3.161468744277954, -0.8006066679954529, 0.31519269943237305, -10.836821556091309, -0.8625537157058716, 0.3393397927284241, -1.2339026927947998, -0.8204629421234131, -0.9699912071228027, 0.05779646709561348, -2.2111807681695153, 0.4281451243988954, -94.23883451703504, 9362.0, 30146.0, 35388.0, 9362.0, 8.350414276123047, -0.1560458093881607, -0.030432533472776413, 0.29664817452430725, -0.10420222580432892, -0.03456463664770126, 0.9926395416259766, -0.0655524805188179, -0.1291980743408203, 1.4853515625, 1.4150390625, 0.05596923828125, 1.494873046875, 1.447265625, 10.0, 1.0, 10.0, 1.3866283893585205
19576, -1.219382643699646, 2.658385992050171, 3.154794692993164, -0.8891698718070984, 0.3500352203845978, -10.96057415008545, -0.908747136592865, 0.35752609372138977, -1.2409673929214478, -0.8205081820487976, -0.9702118039131165, 0.05776645615696907, -2.1798493345025234, 0.2647057925069589, -94.2294817314211, 9362.0, 30146.0, 35388.0, 9362.0, 8.350414276123047, 0.07157992571592331, 0.08077426254749298, -0.16637712717056274, -0.10298507660627365, -0.03433086350560188, 0.9926184415817261, -0.0399320162832737, 0.0052013397216796875, 1.496337890625, 1.379150390625, 0.0238189697265625, 1.49267578125, 1.445068359375, 10.0, 1.0, 10.0, 1.3866283893585205
19596, -1.219292163848877, 2.657430410385132, 3.151843547821045, -0.8891698718070984, 0.3500352203845978, -10.96057415008545, -0.908747136592865, 0.35752609372138977, -1.2409673929214478, -0.8205248117446899, -0.9702016115188599, 0.057821694761514664, -2.163458403673653, 0.2770107016979466, -94.2461396261398, 9362.0, 30146.0, 35388.0, 9362.0, 8.350414276123047, 0.03763542324304581, 0.06130334734916687, -0.010880395770072937, -0.10287905484437943, -0.03561151400208473, 0.9951095581054688, -0.0399320162832737, 0.0052013397216796875, 1.496337890625, 1.36669921875, 0.01806640625, 1.493408203125, 1.40185546875, 10.0, 1.0, 10.0, 1.3866283893585205
19636, -1.2170922756195068, 2.6556286811828613, 3.150123119354248, -0.9351857304573059, 0.36813947558403015, -11.022708892822266, -0.9318883419036865, 0.36664506793022156, -1.2443767786026, -0.820528507232666, -0.9702005386352539, 0.05787196382880211, -2.1637624698021947, 0.2697853158826149, -94.2381337270573, 9362.0, 30146.0, 35388.0, 9362.0, 8.350414276123047, 0.07216572016477585, -0.004756084177643061, 0.14702166616916656, -0.10220006853342056, -0.03507322072982788, 0.9912149906158447, -0.0399320162832737, 0.0052013397216796875, 1.496337890625, 1.34765625, 0.0154571533203125, 1.490478515625, 1.426025390625, 10.0, 1.0, 10.0, 1.3866283893585205
19656, -1.2159364223480225, 2.653230905532837, 3.1547372341156006, -0.9633502960205078, 0.37922072410583496, -11.060075759887695, -0.9457410573959351, 0.37210094928741455, -1.246895432472229, -0.8204695582389832, -0.9699755907058716, 0.05776478350162506, -2.212107820945076, 0.42470939609398783, -94.2476274127968, 9362.0, 30146.0, 35388.0, 9362.0, 8.350414276123047, 0.12275999039411545, -0.2647691071033478, 0.17391276359558105, -0.10146433860063553, -0.03426061198115349, 0.9947949647903442, -0.0399320162832737, 0.0052013397216796875, 1.496337890625, 1.2802734375, 0.0831756591796875, 1.490478515625, 1.45166015625, 10.0, 1.0, 10.0, 1.3866283893585205
19676, -1.2141166925430298, 2.655324697494507, 3.1565494537353516, -0.9823575615882874, 0.3866991400718689, -11.085028648376465, -0.9549755454063416, 0.37573519349098206, -1.2485042810440063, -0.8204454183578491, -0.9700260162353516, 0.057784706354141235, -2.2129648697771236, 0.4352750738891018, -94.25768842735377, 9362.0, 30146.0, 35388.0, 9362.0, 8.350414276123047, -0.11866049468517303, -0.27682244777679443, 0.4656795859336853, -0.10257284343242645, -0.0342656634747982, 0.9935418963432312, -0.0399320162832737, 0.0052013397216796875, 1.496337890625, 1.2802734375, 0.0831756591796875, 1.490478515625, 1.25390625, 10.0, 1.0, 10.0, 1.3866283893585205
19756, -1.2140591144561768, 2.6572115421295166, 3.1641128063201904, -1.0602335929870605, 0.4173377752304077, -11.185179710388184, -0.99193274974823, 0.39022886753082275, -1.255283236503601, -0.8204730153083801, -0.9699707627296448, 0.0577821210026741, -2.2157125355635894, 0.43527751241390433, -94.24335861666161, 9362.0, 30146.0, 35388.0, 9362.0, 8.350414276123047, -0.12192226946353912, 0.02011624537408352, 0.22602330148220062, -0.10501110553741455, -0.03187737986445427, 0.9938048124313354, -0.0399320162832737, 0.0052013397216796875, 1.496337890625, 1.41943359375, 0.0612945556640625, 1.490478515625, 1.46337890625, 10.0, 1.0, 10.0, 1.3866283893585205
19876, -1.2195321321487427, 2.659539222717285, 3.1586663722991943, -1.1825928688049316, 0.4654710292816162, -11.33638858795166, -1.047407865524292, 0.41201460361480713, -1.2645998001098633, -0.8204537034034729, -0.9700219035148621, 0.057798177003860474, -2.213923483142129, 0.43997978437906227, -94.25649856113584, 9362.0, 30146.0, 35388.0, 9362.0, 8.370248794555664, 0.018817927688360214, -0.17542272806167603, 0.1785546839237213, -0.10252439230680466, -0.03464626893401146, 0.9927663803100586, -0.034466784447431564, -0.2187976837158203, 1.47802734375, 1.4091796875, 0.04937744140625, 1.493408203125, 1.35498046875, 10.0, 1.0, 10.0, 1.3866283893585205
19996, -1.2118934392929077, 2.6508536338806152, 3.1727030277252197, -1.3006060123443604, 0.5118934512138367, -11.475996971130371, -1.0982651710510254, 0.4320095479488373, -1.273771047592163, -0.8204621076583862, -0.9699840545654297, 0.057771340012550354, -2.2200707567139775, 0.4277435071263085, -94.23984257056809, 9362.0, 30146.0, 35388.0, 9362.0, 8.370248794555664, 0.3437170386314392, -0.1805918961763382, 0.25537657737731934, -0.1026860699057579, -0.03434911370277405, 0.9947208762168884, -0.034466784447431564, -0.2187976837158203, 1.47802734375, 1.427490234375, 0.0716400146484375, 1.49560546875, 1.4501953125, 10.0, 1.0, 10.0, 1.3854012489318848
20036, -1.2109941244125366, 2.6539511680603027, 3.1703925132751465, -1.3560969829559326, 0.5337204933166504, -11.53976821899414, -1.1213595867156982, 0.44106394052505493, -1.2772300243377686, -0.8205179572105408, -0.970210611820221, 0.057824086397886276, -2.169404631704288, 0.28608628148094795, -94.241554736541, 9362.0, 30146.0, 35388.0, 9362.0, 8.350414276123047, -0.0668262243270874, -0.17571090161800385, -0.23971454799175262, -0.10422857850790024, -0.03494469076395035, 0.992947518825531, -0.034466784447431564, -0.2187976837158203, 1.47802734375, 1.446533203125, 0.09930419921875, 1.49560546875, 1.458984375, 10.0, 1.0, 10.0, 1.3854012489318848
20056, -1.212580919265747, 2.6519601345062256, 3.1695494651794434, -1.378616452217102, 0.5425778031349182, -11.565330505371094, -1.1305816173553467, 0.4446709156036377, -1.2790327072143555, -0.82051682472229, -0.9701822996139526, 0.057834453880786896, -2.1772401349541908, 0.2724979201610154, -94.24424998208747, 9362.0, 30146.0, 35388.0, 9362.0, 8.350414276123047, -0.2679900527000427, -0.04833449050784111, 0.16210640966892242, -0.10235798358917236, -0.03388232737779617, 0.993127703666687, -0.034466784447431564, -0.2187976837158203, 1.47802734375, 1.471435546875, 0.14129638671875, 1.49560546875, 1.439208984375, 10.0, 1.0, 10.0, 1.3854012489318848
20136, -1.212694764137268, 2.6467409133911133, 3.1570417881011963, -1.4705396890640259, 0.5787307024002075, -11.66789722442627, -1.1675018072128296, 0.4591588079929352, -1.2848790884017944, -0.8204484581947327, -0.9700287580490112, 0.05780811607837677, -2.2069873525096857, 0.4373858403520501, -94.26115877436644, 9362.0, 30146.0, 35388.0, 9362.0, 8.350414276123047, -0.13038723170757294, -0.42075929045677185, -0.4045434296131134, -0.10151273757219315, -0.03370990231633186, 0.9952811598777771, -0.034466784447431564, -0.2187976837158203, 1.47802734375, 1.396728515625, 0.0370025634765625, 1.48828125, 1.471435546875, 10.0, 1.0, 10.0, 1.3854012489318848
20156, -1.212287187576294, 2.6499264240264893, 3.1549856662750244, -1.4939820766448975, 0.5879501700401306, -11.69360637664795, -1.176730751991272, 0.4627874195575714, -1.286088466644287, -0.8204872608184814, -0.9702300429344177, 0.05784226581454277, -2.1745571620651387, 0.29523894068881873, -94.2625653430668, 9362.0, 30146.0, 35388.0, 9362.0, 8.350414276123047, -0.165776789188385, 0.11792915314435959, -0.21782685816287994, -0.10248024761676788, -0.0327574647963047, 0.9924242496490479, -0.034466784447431564, -0.2187976837158203, 1.47802734375, 1.402587890625, 0.0425262451171875, 1.48828125, 1.402587890625, 10.0, 1.0, 10.0, 1.3854012489318848
20176, -1.2126405239105225, 2.646834373474121, 3.1525418758392334, -1.517608880996704, 0.5972421765327454, -11.719344139099121, -1.1859461069107056, 0.46640926599502563, -1.2877395153045654, -0.8204897046089172, -0.970230221748352, 0.05784834176301956, -2.1711330136048477, 0.29375775637006996, -94.2631155777205, 9362.0, 30146.0, 35388.0, 9362.0, 8.350414276123047, 0.14217841625213623, 0.04397245869040489, 0.020144110545516014, -0.10248024761676788, -0.0327574647963047, 0.9924242496490479, -0.034466784447431564, -0.2187976837158203, 1.47802734375, 1.22021484375, 0.2799530029296875, 1.48828125, 1.484619140625, 10.0, 1.0, 10.0, 1.3854012489318848
20186, -1.211998701095581, 2.6461739540100098, 3.153473377227783, -1.517608880996704, 0.5972421765327454, -11.719344139099121, -1.1859461069107056, 0.46640926599502563, -1.2877395153045654, -0.8204529881477356, -0.9700137972831726, 0.057783059775829315, -2.2039951434860843, 0.4413233276536914, -94.26090234013729, 9362.0, 30146.0, 35388.0, 9362.0, 8.350414276123047, -0.10575524717569351, -0.010282762348651886, 0.027105752378702164, -0.10351741313934326, -0.03219560533761978, 0.9927992224693298, -0.034466784447431564, -0.2187976837158203, 1.47802734375, 1.22021484375, 0.2799530029296875, 1.48828125, 1.431884765625, 10.0, 1.0, 10.0, 1.3854012489318848
20196, -1.2128443717956543, 2.6461451053619385, 3.1539740562438965, -1.517608880996704, 0.5972421765327454, -11.719344139099121, -1.1859461069107056, 0.46640926599502563, -1.2877395153045654, -0.820500373840332, -0.9701905846595764, 0.057824116200208664, -2.181809758422096, 0.28546942113618456, -94.25483245844923, 9362.0, 30146.0, 35388.0, 9362.0, 8.350414276123047, 0.3058331608772278, 0.0523403100669384, 0.1108919233083725, -0.10149069130420685, -0.03368975222110748, 0.9927642941474915, -0.034466784447431564, -0.2187976837158203, 1.47802734375, 1.22021484375, 0.2799530029296875, 1.48828125, 1.431884765625, 10.0, 1.0, 10.0, 1.3854012489318848
20276, -1.2080495357513428, 2.643824577331543, 3.161219596862793, -1.6385053396224976, 0.6447880268096924, -11.848525047302246, -1.2319705486297607, 0.48449501395225525, -1.2958828210830688, -0.8204976916313171, -0.9701229333877563, 0.05781219154596329, -2.1537963506223883, 0.2507265230277653, -94.26620548150257, 9362.0, 30146.0, 35388.0, 9362.0, 8.370248794555664, -0.07319311797618866, -0.10872875899076462, -0.06563124805688858, -0.10142794251441956, -0.030487239360809326, 0.9928176403045654, -0.034466784447431564, -0.2187976837158203, 1.47802734375, 1.44580078125, 0.098236083984375, 1.487548828125, 1.45458984375, 10.0, 1.0, 10.0, 1.3854012489318848
