timeTick, roll, pitch, yaw, stateX, stateY, stateZ, stateVX, stateVY, stateVZ, otX0, otY0, otZ0, otRoll0, otPitch0, otYaw0, left wing, pitch motor, yaw motor, right wing, voltage, roll rate, pitch rate, yaw rate, A_x, A_y, A_z, current, i_raw, v_raw, airflow_voltage, airflow_speed, pot_Pitch, voltage_nKF, kFFx, state, State, volt_KF
149895, -4.809471607208252, -2.1757376194000244, 85.42765808105469, 0, 0, 0, 0, 0, 0, 0, 0, 0, 0, 0, 0, 0, 0, 0, 0, 0, 0, 0, 0, 0, 0, 0, 0, 0, 0, 0, 0, 0, 0, 0, 0, 0, 0
149905, -4.714672565460205, -2.1732349395751953, 85.53107452392578, 0.0, 0.0, 0.7855625152587891, 0.0, 0.0, -0.4961371421813965, 0, 0, 0, 0, 0, 0, 9362.0, 30146.0, 35388.0, 9362.0, 0, 9.671011924743652, -0.5604923963546753, 12.801037788391113, -0.011243639513850212, -0.014990318566560745, 0.9538007974624634, 0, 0, 0, 0, 0, 0, 0, 0, 0, 0, 0
149915, -4.583780288696289, -2.224050283432007, 85.68482971191406, 0.0, 0.0, 0.7794508934020996, 0.0, 0.0, -0.6111621856689453, 0, 0, 0, 0, 0, 0, 9362.0, 30146.0, 35388.0, 9362.0, 0, 9.292943000793457, 4.153740406036377, 13.1193208694458, -0.009786098264157772, -0.03445584699511528, 0.9545860290527344, 0, 0, 0, 1.58056640625, 0.3715972900390625, 0, 1.512451171875, 10.0, 1.0, 10.0, 1.522042155265808
149925, -4.507102012634277, -2.306380271911621, 85.78396606445312, 0.0, 0.0, 0.7739394903182983, 0.0, 0.0, -0.551140308380127, 0, 0, 0, 0, 0, 0, 9362.0, 30146.0, 35388.0, 9362.0, 0, 8.59142017364502, 10.316871643066406, 13.301994323730469, -0.019644562155008316, -0.06317538768053055, 0.965600848197937, 0, 0, 0, 1.5322265625, 0.2628021240234375, 1.4970703125, 1.47802734375, 10.0, 1.0, 10.0, 1.5222870111465454
149935, -4.410033702850342, -2.5273969173431396, 85.946533203125, 0.0, 0.0, 0.7700702548027039, 0.0, 0.0, -0.38692355155944824, 0, 0, 0, 0, 0, 0, 9362.0, 30146.0, 35388.0, 9362.0, 0, 7.9181647300720215, 18.394590377807617, 15.179398536682129, -0.03818325325846672, -0.09527873247861862, 0.9752042293548584, 0, 0, 0, 1.53076171875, 0.2596435546875, 1.4970703125, 1.50439453125, 10.0, 1.0, 10.0, 1.522221326828003
149945, -4.351375102996826, -2.7404892444610596, 86.06450653076172, 0.0, 0.0, 0.7665842175483704, 0.0, 0.0, -0.3486037254333496, 0, 0, 0, 0, 0, 0, 9362.0, 30146.0, 35388.0, 9362.0, 0, 7.621261119842529, 26.208280563354492, 16.95291519165039, -0.05236472934484482, -0.12334272265434265, 0.9872166514396667, 0, 0, 0, 1.593017578125, 0.400604248046875, 1.494873046875, 1.527099609375, 10.0, 1.0, 10.0, 1.5221742391586304
149955, -4.273263454437256, -3.152444839477539, 86.23824310302734, 0.0, 0.0, 0.7650846838951111, 0.0, 0.0, -0.14995336532592773, 0, 0, 0, 0, 0, 0, 9362.0, 30146.0, 35388.0, 9362.0, 0, 6.842146396636963, 33.9333610534668, 16.948198318481445, -0.06452284753322601, -0.13384787738323212, 0.9976436495780945, 0, 0, 0, 1.53955078125, 0.278778076171875, 1.494873046875, 1.601806640625, 10.0, 1.0, 10.0, 1.5220164060592651
149965, -4.2238078117370605, -3.4712798595428467, 86.34310150146484, 0.0, 0.0, 0.7637314200401306, 0.0, 0.0, -0.13532638549804688, 0, 0, 0, 0, 0, 0, 9362.0, 30146.0, 35388.0, 9362.0, 0, 6.821337699890137, 39.33269500732422, 16.046064376831055, -0.06480852514505386, -0.13703249394893646, 1.0000312328338623, 0, 0, 0, 1.42236328125, 0.0649566650390625, 1.493408203125, 1.613525390625, 10.0, 1.0, 10.0, 1.5223654508590698
149975, -4.150620937347412, -3.9880809783935547, 86.50298309326172, 0.0, 0.0, 0.7614174485206604, 0.0, 0.0, -0.23139715194702148, 0, 0, 0, 0, 0, 0, 9362.0, 30146.0, 35388.0, 9362.0, 0, 6.462313652038574, 42.53423309326172, 16.49460792541504, -0.05563146248459816, -0.13276372849941254, 1.0047295093536377, 0, 0, 0, 1.53369140625, 0.265960693359375, 1.493408203125, 1.59375, 10.0, 1.0, 10.0, 1.5226740837097168
149985, -4.097947120666504, -4.334347724914551, 86.61483764648438, 0.0, 0.0, 0.7593312859535217, 0.0, 0.0, -0.2086162567138672, 0, 0, 0, 0, 0, 0, 9362.0, 30146.0, 35388.0, 9362.0, 0, 6.717563629150391, 42.68569564819336, 17.119922637939453, -0.05499840900301933, -0.11315657943487167, 0.9962109923362732, 0, 0, 0, 1.50146484375, 0.1985626220703125, 1.494873046875, 1.611328125, 10.0, 1.0, 10.0, 1.5228499174118042
149995, -4.009358882904053, -4.818535804748535, 86.77084350585938, 0.0, 0.0, 0.7558109760284424, 0.0, 0.0, -0.35203099250793457, 0, 0, 0, 0, 0, 0, 9362.0, 30146.0, 35388.0, 9362.0, 8.231406211853027, 6.953246116638184, 39.70555877685547, 15.539770126342773, -0.05505137890577316, -0.08367089182138443, 0.9760789275169373, -0.056703995913267136, -0.13815879821777344, 1.484619140625, 1.477294921875, 0.1519775390625, 1.494873046875, 1.61865234375, 10.0, 1.0, 10.0, 1.523004412651062
150005, -3.942784309387207, -5.112251281738281, 86.87387084960938, 0.0, 0.0, 0.7526391744613647, 0.0, 0.0, -0.31718015670776367, 0, 0, 0, 0, 0, 0, 9362.0, 30146.0, 35388.0, 9362.0, 8.231406211853027, 7.349786281585693, 36.42835998535156, 15.415206909179688, -0.05378051847219467, -0.06929092109203339, 0.9575947523117065, -0.056703995913267136, -0.13815879821777344, 1.484619140625, 1.49267578125, 0.1811065673828125, 1.49560546875, 1.578369140625, 10.0, 1.0, 10.0, 1.5231953859329224
150015, -3.8358027935028076, -5.489798545837402, 87.02011108398438, 0.0, 0.0, 0.7541566491127014, 0.0, 0.0, 0.151747465133667, 0, 0, 0, 0, 0, 0, 9362.0, 30146.0, 35388.0, 9362.0, 8.231406211853027, 7.836045265197754, 30.737642288208008, 14.183073997497559, -0.05854560062289238, -0.06733593344688416, 0.9373951554298401, -0.056703995913267136, -0.13815879821777344, 1.484619140625, 1.51025390625, 0.2164154052734375, 1.49560546875, 1.60693359375, 10.0, 1.0, 10.0, 1.523378849029541
150025, -3.7619071006774902, -5.696817398071289, 87.10921478271484, 0.0, 0.0, 0.7555035948753357, 0.0, 0.0, 0.13469457626342773, 0, 0, 0, 0, 0, 0, 9362.0, 30146.0, 35388.0, 9362.0, 8.231406211853027, 8.568275451660156, 25.134281158447266, 12.795417785644531, -0.07357650250196457, -0.08132313191890717, 0.9175035953521729, -0.056703995913267136, -0.13815879821777344, 1.484619140625, 1.546142578125, 0.2932891845703125, 1.490478515625, 1.62158203125, 10.0, 1.0, 10.0, 1.523642659187317
150035, -3.644240140914917, -5.95741081237793, 87.2477035522461, 0.0, 0.0, 0.7566888928413391, 0.0, 0.0, 0.1185297966003418, 0, 0, 0, 0, 0, 0, 9362.0, 30146.0, 35388.0, 9362.0, 8.231406211853027, 9.418487548828125, 20.661821365356445, 13.280519485473633, -0.08655481785535812, -0.0998246967792511, 0.9225612878799438, -0.056703995913267136, -0.13815879821777344, 1.484619140625, 1.64501953125, 0.5263671875, 1.490478515625, 1.4794921875, 10.0, 1.0, 10.0, 1.5237021446228027
150045, -3.5633997917175293, -6.111753463745117, 87.32867431640625, 0.0, 0.0, 0.7577179670333862, 0.0, 0.0, 0.10290741920471191, 0, 0, 0, 0, 0, 0, 9362.0, 30146.0, 35388.0, 9362.0, 8.231406211853027, 10.311946868896484, 18.720233917236328, 10.96867847442627, -0.09741108119487762, -0.11536656320095062, 0.963631272315979, -0.056703995913267136, -0.13815879821777344, 1.484619140625, 1.43115234375, 0.0766143798828125, 1.496337890625, 1.564453125, 10.0, 1.0, 10.0, 1.5240435600280762
150055, -3.442631483078003, -6.325926303863525, 87.42967224121094, 0.0, 0.0, 0.7597357034683228, 0.0, 0.0, 0.20177364349365234, 0, 0, 0, 0, 0, 0, 9362.0, 30146.0, 35388.0, 9362.0, 8.231406211853027, 10.561554908752441, 17.23571014404297, 9.491766929626465, -0.10541136562824249, -0.12581761181354523, 0.98606938123703, -0.056703995913267136, -0.13815879821777344, 1.484619140625, 1.60986328125, 0.4406585693359375, 1.496337890625, 1.58056640625, 10.0, 1.0, 10.0, 1.5242520570755005
150065, -3.3616504669189453, -6.4612603187561035, 87.49568176269531, 0.0, 0.0, 0.7615495324134827, 0.0, 0.0, 0.1813828945159912, 0, 0, 0, 0, 0, 0, 9362.0, 30146.0, 35388.0, 9362.0, 8.231406211853027, 10.50235652923584, 16.29329490661621, 9.285792350769043, -0.11491724848747253, -0.11445080488920212, 0.9859574437141418, -0.056703995913267136, -0.13815879821777344, 1.484619140625, 1.60400390625, 0.4266204833984375, 1.49267578125, 1.49853515625, 10.0, 1.0, 10.0, 1.5244853496551514
150075, -3.2468039989471436, -6.633114814758301, 87.61251068115234, 0.0, 0.0, 0.7593529224395752, 0.0, 0.0, -0.21966099739074707, 0, 0, 0, 0, 0, 0, 9362.0, 30146.0, 35388.0, 9362.0, 8.231406211853027, 9.335113525390625, 13.570490837097168, 10.81714916229248, -0.1121874526143074, -0.09472857415676117, 0.9690107107162476, -0.056703995913267136, -0.13815879821777344, 1.484619140625, 1.62451171875, 0.475982666015625, 1.49267578125, 1.563720703125, 10.0, 1.0, 10.0, 1.5244357585906982
150085, -3.177807331085205, -6.729668140411377, 87.70658111572266, 0.0, 0.0, 0.7573738694190979, 0.0, 0.0, -0.1979053020477295, 0, 0, 0, 0, 0, 0, 9362.0, 30146.0, 35388.0, 9362.0, 8.231406211853027, 7.75037145614624, 11.039729118347168, 12.678187370300293, -0.11111300438642502, -0.07846060395240784, 0.9311710000038147, -0.056703995913267136, -0.13815879821777344, 1.484619140625, 1.5556640625, 0.3145904541015625, 1.49560546875, 1.48095703125, 10.0, 1.0, 10.0, 1.5243748426437378
150095, -3.095137357711792, -6.840485095977783, 87.9084701538086, 0.0, 0.0, 0.752850353717804, 0.0, 0.0, -0.45235157012939453, 0, 0, 0, 0, 0, 0, 9362.0, 30146.0, 35388.0, 9362.0, 8.231406211853027, 5.431520462036133, 7.90707540512085, 17.85205841064453, -0.11418305337429047, -0.06990709900856018, 0.8975164890289307, -0.036719731986522675, -0.030637741088867188, 1.493408203125, 1.527099609375, 0.2517852783203125, 1.49560546875, 1.56005859375, 10.0, 1.0, 10.0, 1.524057388305664
150105, -3.0588724613189697, -6.890467643737793, 88.09121704101562, 0.0, 0.0, 0.7487242817878723, 0.0, 0.0, -0.41260719299316406, 0, 0, 0, 0, 0, 0, 9362.0, 30146.0, 35388.0, 9362.0, 8.231406211853027, 2.2279608249664307, 4.622063159942627, 23.73104476928711, -0.11710837483406067, -0.07683156430721283, 0.8802245259284973, -0.036719731986522675, -0.030637741088867188, 1.493408203125, 1.5849609375, 0.381805419921875, 1.49853515625, 1.59375, 10.0, 1.0, 10.0, 1.5240092277526855
150115, -3.0339272022247314, -6.93255090713501, 88.4192123413086, 0.0, 0.0, 0.749333918094635, 0.0, 0.0, 0.06096363067626953, 0, 0, 0, 0, 0, 0, 9362.0, 30146.0, 35388.0, 9362.0, 8.231406211853027, -0.3948192596435547, 1.3474769592285156, 27.896360397338867, -0.12580165266990662, -0.0831877589225769, 0.8675656318664551, -0.036719731986522675, -0.030637741088867188, 1.493408203125, 1.5498046875, 0.3014678955078125, 1.49853515625, 1.540283203125, 10.0, 1.0, 10.0, 1.5242525339126587
150125, -3.041414737701416, -6.9473466873168945, 88.6448745727539, 0.0, 0.0, 0.7497930526733398, 0.0, 0.0, 0.0459134578704834, 0, 0, 0, 0, 0, 0, 9362.0, 30146.0, 35388.0, 9362.0, 8.231406211853027, -3.9184112548828125, -0.3596380054950714, 28.196311950683594, -0.13483387231826782, -0.06869909167289734, 0.8778771162033081, -0.036719731986522675, -0.030637741088867188, 1.493408203125, 1.60107421875, 0.4197540283203125, 1.5, 1.461181640625, 10.0, 1.0, 10.0, 1.524254560470581
150135, -3.094388008117676, -6.963921546936035, 88.91756439208984, 0.0, 0.0, 0.7512452006340027, 0.0, 0.0, 0.14521479606628418, 0, 0, 0, 0, 0, 0, 9362.0, 30146.0, 35388.0, 9362.0, 8.231406211853027, -7.162345886230469, -0.804444432258606, 21.399673461914062, -0.1437087208032608, -0.06632106751203537, 0.8954346776008606, -0.036719731986522675, -0.030637741088867188, 1.493408203125, 1.53662109375, 0.27239990234375, 1.5, 1.595947265625, 10.0, 1.0, 10.0, 1.5244438648223877
150145, -3.1486806869506836, -6.980424404144287, 89.06731414794922, 0.0, 0.0, 0.7524918913841248, 0.0, 0.0, 0.12466907501220703, 0, 0, 0, 0, 0, 0, 9362.0, 30146.0, 35388.0, 9362.0, 8.231406211853027, -8.039977073669434, 0.4858276844024658, 18.580713272094727, -0.13848739862442017, -0.10327896475791931, 0.9242451786994934, -0.036719731986522675, -0.030637741088867188, 1.493408203125, 1.48388671875, 0.1642303466796875, 1.49267578125, 1.59814453125, 10.0, 1.0, 10.0, 1.5247459411621094
150155, -3.253906011581421, -7.025548934936523, 89.24203491210938, 0.0, 0.0, 0.7481259107589722, 0.0, 0.0, -0.4365980625152588, 0, 0, 0, 0, 0, 0, 9362.0, 30146.0, 35388.0, 9362.0, 8.231406211853027, -8.838857650756836, 3.1187872886657715, 14.098722457885742, -0.12573517858982086, -0.13930900394916534, 0.9889273643493652, -0.036719731986522675, -0.030637741088867188, 1.493408203125, 1.58935546875, 0.3920440673828125, 1.49267578125, 1.53662109375, 10.0, 1.0, 10.0, 1.5249592065811157
150165, -3.331824779510498, -7.0587968826293945, 89.31561279296875, 0.0, 0.0, 0.7441995143890381, 0.0, 0.0, -0.3926396369934082, 0, 0, 0, 0, 0, 0, 9362.0, 30146.0, 35388.0, 9362.0, 8.231406211853027, -9.06425666809082, 4.100131988525391, 8.750809669494629, -0.11479455977678299, -0.1430661529302597, 1.0279687643051147, -0.036719731986522675, -0.030637741088867188, 1.493408203125, 1.581298828125, 0.3732147216796875, 1.497802734375, 1.607666015625, 10.0, 1.0, 10.0, 1.524658441543579
150175, -3.44557523727417, -7.099107265472412, 89.38351440429688, 0.0, 0.0, 0.7494173645973206, 0.0, 0.0, 0.5217850208282471, 0, 0, 0, 0, 0, 0, 9362.0, 30146.0, 35388.0, 9362.0, 8.231406211853027, -8.462173461914062, 2.930722951889038, 5.606266021728516, -0.11827895045280457, -0.13396617770195007, 1.0146636962890625, -0.036719731986522675, -0.030637741088867188, 1.493408203125, 1.51171875, 0.21942138671875, 1.497802734375, 1.609130859375, 10.0, 1.0, 10.0, 1.5249135494232178
150185, -3.511138677597046, -7.103389739990234, 89.42909240722656, 0.0, 0.0, 0.7541173100471497, 0.0, 0.0, 0.46999454498291016, 0, 0, 0, 0, 0, 0, 9362.0, 30146.0, 35388.0, 9362.0, 8.231406211853027, -7.618945121765137, 0.054604556411504745, 5.853806495666504, -0.11602343618869781, -0.10801934450864792, 0.9829584360122681, -0.036719731986522675, -0.030637741088867188, 1.493408203125, 1.64501953125, 0.5263671875, 1.493408203125, 1.51904296875, 10.0, 1.0, 10.0, 1.5250314474105835
150195, -3.6018567085266113, -7.056779861450195, 89.48888397216797, 0.0, 0.0, 0.7528811097145081, 0.0, 0.0, -0.12362003326416016, 0, 0, 0, 0, 0, 0, 9362.0, 30146.0, 35388.0, 9362.0, 8.231406211853027, -7.782453536987305, -4.60987663269043, 4.598081111907959, -0.1132049635052681, -0.07728855311870575, 0.9608348608016968, -0.04664503037929535, -0.15607833862304688, 1.483154296875, 1.58642578125, 0.3851776123046875, 1.493408203125, 1.59814453125, 10.0, 1.0, 10.0, 1.525306224822998
150205, -3.662412643432617, -6.988051891326904, 89.5108871459961, 0.0, 0.0, 0.7517713904380798, 0.0, 0.0, -0.11097192764282227, 0, 0, 0, 0, 0, 0, 9362.0, 30146.0, 35388.0, 9362.0, 8.231406211853027, -7.602050304412842, -9.25204849243164, 2.0139658451080322, -0.11954562366008759, -0.07313255220651627, 0.9361001253128052, -0.04664503037929535, -0.15607833862304688, 1.483154296875, 1.4677734375, 0.1347198486328125, 1.494140625, 1.623046875, 10.0, 1.0, 10.0, 1.5255292654037476
150215, -3.753462314605713, -6.84248161315918, 89.54816436767578, 0.0, 0.0, 0.7442070841789246, 0.0, 0.0, -0.7564306259155273, 0, 0, 0, 0, 0, 0, 9362.0, 30146.0, 35388.0, 9362.0, 8.231406211853027, -7.383730888366699, -12.922633171081543, 2.6373424530029297, -0.12651531398296356, -0.0825556293129921, 0.9318827986717224, -0.04664503037929535, -0.15607833862304688, 1.483154296875, 1.587890625, 0.38861083984375, 1.494140625, 1.53662109375, 10.0, 1.0, 10.0, 1.5256752967834473
150225, -3.818758249282837, -6.7360148429870605, 89.56668853759766, 0.0, 0.0, 0.7373843193054199, 0.0, 0.0, -0.6822764873504639, 0, 0, 0, 0, 0, 0, 9362.0, 30146.0, 35388.0, 9362.0, 8.231406211853027, -8.115104675292969, -13.981879234313965, 1.1838936805725098, -0.12651531398296356, -0.0825556293129921, 0.9318827986717224, -0.04664503037929535, -0.15607833862304688, 1.483154296875, 1.50439453125, 0.2044219970703125, 1.4970703125, 1.599609375, 10.0, 1.0, 10.0, 1.5256752967834473
150245, -3.989546060562134, -6.500285625457764, 89.51642608642578, 0.0, 0.0, 0.729601263999939, 0.0, 0.0, -0.7783055305480957, 0, 0, 0, 0, 0, 0, 9362.0, 30146.0, 35388.0, 9362.0, 8.231406211853027, -8.115104675292969, -13.981879234313965, 1.1838936805725098, -0.12995676696300507, -0.07609230279922485, 0.9906004667282104, -0.04664503037929535, -0.15607833862304688, 1.483154296875, 1.49853515625, 0.1927032470703125, 1.49560546875, 1.62890625, 10.0, 1.0, 10.0, 1.5256752967834473
150265, -4.133935451507568, -6.372655391693115, 89.37783813476562, 0.0, 0.0, 0.71271151304245, 0.0, 0.0, -0.46822428703308105, 0, 0, 0, 0, 0, 0, 9362.0, 30146.0, 35388.0, 9362.0, 8.231406211853027, -8.115104675292969, -13.981879234313965, 1.1838936805725098, -0.09056969732046127, -0.13295243680477142, 1.0343846082687378, -0.04664503037929535, -0.15607833862304688, 1.483154296875, 1.55712890625, 0.31793212890625, 1.4970703125, 1.59228515625, 10.0, 1.0, 10.0, 1.5256752967834473
150275, -4.181673526763916, -6.308084964752197, 89.23959350585938, 0.0, 0.0, 0.7095955610275269, 0.0, 0.0, -0.31159520149230957, 0, 0, 0, 0, 0, 0, 9362.0, 30146.0, 35388.0, 9362.0, 8.231406211853027, -0.9691373705863953, -3.592017650604248, -11.82150650024414, -0.09056969732046127, -0.13295243680477142, 1.0343846082687378, -0.04664503037929535, -0.15607833862304688, 1.483154296875, 1.604736328125, 0.428436279296875, 1.4970703125, 1.43115234375, 10.0, 1.0, 10.0, 1.5256752967834473
150285, -4.188504219055176, -6.256221294403076, 89.13074493408203, 0.0, 0.0, 0.706797182559967, 0.0, 0.0, -0.27983784675598145, 0, 0, 0, 0, 0, 0, 9362.0, 30146.0, 35388.0, 9362.0, 8.231406211853027, 2.264802932739258, -4.8007659912109375, -13.984094619750977, -0.09056969732046127, -0.13295243680477142, 1.0343846082687378, -0.04664503037929535, -0.15607833862304688, 1.483154296875, 1.546875, 0.2949676513671875, 1.4970703125, 1.49560546875, 10.0, 1.0, 10.0, 1.5256752967834473
150295, -4.15733003616333, -6.147183418273926, 88.96704864501953, 0.0, 0.0, 0.7075613737106323, 0.0, 0.0, 0.07641911506652832, 0, 0, 0, 0, 0, 0, 9362.0, 30146.0, 35388.0, 9362.0, 8.231406211853027, 2.264802932739258, -4.8007659912109375, -13.984094619750977, -0.06938280165195465, -0.11042975634336472, 0.9625969529151917, -0.04664503037929535, -0.15607833862304688, 1.483154296875, 1.584228515625, 0.3801727294921875, 1.4970703125, 1.49560546875, 10.0, 1.0, 10.0, 1.5256752967834473
150315, -3.9814770221710205, -5.899003505706787, 88.73472595214844, 0.0, 0.0, 0.7045008540153503, 0.0, 0.0, -0.3751099109649658, 0, 0, 0, 0, 0, 0, 9362.0, 30146.0, 35388.0, 9362.0, 8.231406211853027, 11.531952857971191, -11.78624439239502, -12.628454208374023, -0.07074343413114548, -0.08555381745100021, 0.95342618227005, -0.04664503037929535, -0.15607833862304688, 1.483154296875, 1.634033203125, 0.499237060546875, 1.491943359375, 1.4326171875, 10.0, 1.0, 10.0, 1.5256752967834473
150325, -3.867126941680908, -5.7913312911987305, 88.64410400390625, 0.0, 0.0, 0.7011276483535767, 0.0, 0.0, -0.33732056617736816, 0, 0, 0, 0, 0, 0, 9362.0, 30146.0, 35388.0, 9362.0, 8.231406211853027, 11.531952857971191, -11.78624439239502, -12.628454208374023, -0.08921942114830017, -0.018907180055975914, 0.9686254858970642, -0.04664503037929535, -0.15607833862304688, 1.483154296875, 1.60693359375, 0.4335479736328125, 1.491943359375, 1.467041015625, 10.0, 1.0, 10.0, 1.5256752967834473
150335, -3.6514275074005127, -5.646713733673096, 88.54246520996094, 0.0, 0.0, 0.7011276483535767, 0.0, 0.0, -0.33732056617736816, 0, 0, 0, 0, 0, 0, 9362.0, 30146.0, 35388.0, 9362.0, 8.231406211853027, 17.959537506103516, -10.89831829071045, -8.670056343078613, -0.08921942114830017, -0.018907180055975914, 0.9686254858970642, -0.04664503037929535, -0.15607833862304688, 1.483154296875, 1.530029296875, 0.2581329345703125, 1.491943359375, 1.63330078125, 10.0, 1.0, 10.0, 1.5256752967834473
150345, -3.478604555130005, -5.56343412399292, 88.50566101074219, 0.0, 0.0, 0.7011276483535767, 0.0, 0.0, -0.33732056617736816, 0, 0, 0, 0, 0, 0, 9362.0, 30146.0, 35388.0, 9362.0, 8.231406211853027, 17.959537506103516, -10.89831829071045, -8.670056343078613, -0.08921942114830017, -0.018907180055975914, 0.9686254858970642, -0.04664503037929535, -0.15607833862304688, 1.483154296875, 1.587158203125, 0.3869171142578125, 1.5, 1.59521484375, 10.0, 1.0, 10.0, 1.527857780456543
150355, -3.1816341876983643, -5.459577560424805, 88.49545288085938, 0.0, 0.0, 0.6826101541519165, 0.0, 0.0, -0.8599579334259033, 0, 0, 0, 0, 0, 0, 9362.0, 30146.0, 35388.0, 9362.0, 8.231406211853027, 17.959537506103516, -10.89831829071045, -8.670056343078613, -0.06487024575471878, -0.03111988864839077, 0.961349368095398, -0.04664503037929535, -0.15607833862304688, 1.483154296875, 1.59228515625, 0.3989715576171875, 1.5, 1.55419921875, 10.0, 1.0, 10.0, 1.527857780456543
150365, -2.9622280597686768, -5.397404193878174, 88.50318145751953, 0.0, 0.0, 0.6748731136322021, 0.0, 0.0, -0.7737040519714355, 0, 0, 0, 0, 0, 0, 9362.0, 30146.0, 35388.0, 9362.0, 8.231406211853027, 17.959537506103516, -10.89831829071045, -8.670056343078613, -0.045105382800102234, -0.037697579711675644, 0.9591688513755798, -0.04664503037929535, -0.15607833862304688, 1.483154296875, 1.59228515625, 0.3989715576171875, 1.5, 1.494140625, 10.0, 1.0, 10.0, 1.527857780456543
150375, -2.5983705520629883, -5.309535503387451, 88.51905822753906, 0.0, 0.0, 0.6629902720451355, 0.0, 0.0, -1.188284158706665, 0, 0, 0, 0, 0, 0, 9362.0, 30146.0, 35388.0, 9362.0, 8.231406211853027, 17.959537506103516, -10.89831829071045, -8.670056343078613, -0.03131570294499397, -0.0428350493311882, 0.9407133460044861, -0.04664503037929535, -0.15607833862304688, 1.483154296875, 1.55712890625, 0.31793212890625, 1.5, 1.60546875, 10.0, 1.0, 10.0, 1.527857780456543
150385, -2.34066104888916, -5.247828006744385, 88.5261001586914, 0.0, 0.0, 0.6629902720451355, 0.0, 0.0, -1.188284158706665, 0, 0, 0, 0, 0, 0, 9362.0, 30146.0, 35388.0, 9362.0, 8.231406211853027, 32.43386459350586, -6.446615695953369, 0.5559356212615967, -0.03131570294499397, -0.0428350493311882, 0.9407133460044861, -0.04664503037929535, -0.15607833862304688, 1.483154296875, 1.47216796875, 0.142547607421875, 1.500732421875, 1.60546875, 10.0, 1.0, 10.0, 1.527857780456543
150405, -1.6958520412445068, -5.102243900299072, 88.50408935546875, 0.0, 0.0, 0.640092670917511, 0.0, 0.0, -0.5806863307952881, 0, 0, 0, 0, 0, 0, 9362.0, 30146.0, 35388.0, 9362.0, 8.211570739746094, 32.056312561035156, -6.085472106933594, -2.208195209503174, -0.03131570294499397, -0.0428350493311882, 0.9407133460044861, -0.048532601445913315, 0.014162063598632812, 1.4970703125, 1.5703125, 0.34783935546875, 1.500732421875, 1.53955078125, 10.0, 1.0, 10.0, 1.527857780456543
150435, -0.8230131268501282, -5.022735118865967, 88.294921875, 0.0, 0.0, 0.6331280469894409, 0.0, 0.0, 0.20906329154968262, 0, 0, 0, 0, 0, 0, 9362.0, 30146.0, 35388.0, 9362.0, 8.211570739746094, 32.056312561035156, -6.085472106933594, -2.208195209503174, -0.0821947306394577, -0.059848446398973465, 0.9645068049430847, -0.048532601445913315, 0.014162063598632812, 1.4970703125, 1.48974609375, 0.1755218505859375, 1.496337890625, 1.610595703125, 10.0, 1.0, 10.0, 1.527857780456543
150445, -0.6687218546867371, -5.0667548179626465, 88.22665405273438, 0.0, 0.0, 0.6350060701370239, 0.0, 0.0, 0.18780231475830078, 0, 0, 0, 0, 0, 0, 9362.0, 30146.0, 35388.0, 9362.0, 8.211570739746094, 21.81599998474121, 6.049981117248535, -8.445167541503906, -0.0821947306394577, -0.059848446398973465, 0.9645068049430847, -0.048532601445913315, 0.014162063598632812, 1.4970703125, 1.519775390625, 0.236236572265625, 1.496337890625, 1.475830078125, 10.0, 1.0, 10.0, 1.527857780456543
150455, -0.5014155507087708, -5.161231994628906, 88.07923126220703, 0.0, 0.0, 0.6394363045692444, 0.0, 0.0, 0.4430234432220459, 0, 0, 0, 0, 0, 0, 9362.0, 30146.0, 35388.0, 9362.0, 8.211570739746094, 17.968910217285156, 9.098791122436523, -12.498846054077148, -0.0821947306394577, -0.059848446398973465, 0.9645068049430847, -0.048532601445913315, 0.014162063598632812, 1.4970703125, 1.58349609375, 0.3784332275390625, 1.496337890625, 1.6083984375, 10.0, 1.0, 10.0, 1.527857780456543
150465, -0.4263403117656708, -5.229908466339111, 87.9783706665039, 0.0, 0.0, 0.6435077786445618, 0.0, 0.0, 0.4071474075317383, 0, 0, 0, 0, 0, 0, 9362.0, 30146.0, 35388.0, 9362.0, 8.211570739746094, 14.477795600891113, 9.982068061828613, -11.835577011108398, -0.0821947306394577, -0.059848446398973465, 0.9645068049430847, -0.048532601445913315, 0.014162063598632812, 1.4970703125, 1.61572265625, 0.45465087890625, 1.496337890625, 1.4677734375, 10.0, 1.0, 10.0, 1.527857780456543
150475, -0.3654859662055969, -5.326175689697266, 87.86222076416016, 0.0, 0.0, 0.6435077786445618, 0.0, 0.0, 0.4071474075317383, 0, 0, 0, 0, 0, 0, 9362.0, 30146.0, 35388.0, 9362.0, 8.211570739746094, 10.349936485290527, 8.971846580505371, -8.983642578125, -0.0821947306394577, -0.059848446398973465, 0.9645068049430847, -0.048532601445913315, 0.014162063598632812, 1.4970703125, 1.56591796875, 0.337738037109375, 1.496337890625, 1.623046875, 10.0, 1.0, 10.0, 1.527857780456543
150485, -0.36073678731918335, -5.360605716705322, 87.81038665771484, 0.0, 0.0, 0.6435077786445618, 0.0, 0.0, 0.4071474075317383, 0, 0, 0, 0, 0, 0, 9362.0, 30146.0, 35388.0, 9362.0, 8.211570739746094, 10.349936485290527, 8.971846580505371, -8.983642578125, -0.04897082969546318, -0.24805836379528046, 1.094968318939209, -0.048532601445913315, 0.014162063598632812, 1.4970703125, 1.603271484375, 0.4249420166015625, 1.49560546875, 1.603271484375, 10.0, 1.0, 10.0, 1.527857780456543
150505, -0.4659934341907501, -5.29854679107666, 87.69467163085938, 0.0, 0.0, 0.6836187839508057, 0.0, 0.0, 0.7230937480926514, 0, 0, 0, 0, 0, 0, 9362.0, 30146.0, 35388.0, 9362.0, 8.231406211853027, -3.5216352939605713, -6.788167953491211, -6.541698455810547, -0.04897082969546318, -0.24805836379528046, 1.094968318939209, -0.03917080536484718, -0.10231781005859375, 1.487548828125, 1.63623046875, 0.504730224609375, 1.49560546875, 1.472900390625, 10.0, 1.0, 10.0, 1.527857780456543
150515, -0.6051731705665588, -5.143177032470703, 87.57884216308594, 0.0, 0.0, 0.6835829019546509, 0.0, 0.0, -0.0035881996154785156, 0, 0, 0, 0, 0, 0, 9362.0, 30146.0, 35388.0, 9362.0, 8.231406211853027, -3.5216352939605713, -6.788167953491211, -6.541698455810547, -0.0980466976761818, -0.15394265949726105, 1.0477681159973145, -0.03917080536484718, -0.10231781005859375, 1.487548828125, 1.58642578125, 0.3851776123046875, 1.49560546875, 1.60107421875, 10.0, 1.0, 10.0, 1.527857780456543
150535, -0.9155482053756714, -4.750370979309082, 87.26260375976562, 0.0, 0.0, 0.6824758648872375, 0.0, 0.0, -0.10936260223388672, 0, 0, 0, 0, 0, 0, 9362.0, 30146.0, 35388.0, 9362.0, 8.231406211853027, -12.640271186828613, -21.84345817565918, -18.0304012298584, -0.1078466922044754, -0.13146838545799255, 1.047223687171936, -0.03917080536484718, -0.10231781005859375, 1.487548828125, 1.49853515625, 0.1927032470703125, 1.493408203125, 1.628173828125, 10.0, 1.0, 10.0, 1.527857780456543
150545, -1.047329068183899, -4.573270320892334, 87.13522338867188, 0.0, 0.0, 0.6815125346183777, 0.0, 0.0, -0.09633302688598633, 0, 0, 0, 0, 0, 0, 9362.0, 30146.0, 35388.0, 9362.0, 8.231406211853027, -12.703180313110352, -22.98773765563965, -15.940339088439941, -0.1078466922044754, -0.13146838545799255, 1.047223687171936, -0.03917080536484718, -0.10231781005859375, 1.487548828125, 1.494873046875, 0.185455322265625, 1.49853515625, 1.628173828125, 10.0, 1.0, 10.0, 1.527857780456543
150555, -1.2489210367202759, -4.322033405303955, 86.92829895019531, 0.0, 0.0, 0.6817643046379089, 0.0, 0.0, 0.025177001953125, 0, 0, 0, 0, 0, 0, 9362.0, 30146.0, 35388.0, 9362.0, 8.231406211853027, -13.104264259338379, -22.037511825561523, -17.505319595336914, -0.1078466922044754, -0.13146838545799255, 1.047223687171936, -0.03917080536484718, -0.10231781005859375, 1.487548828125, 1.619384765625, 0.4635009765625, 1.49853515625, 1.48974609375, 10.0, 1.0, 10.0, 1.527857780456543
150565, -1.3822768926620483, -4.1749467849731445, 86.77178955078125, 0.0, 0.0, 0.6820432543754578, 0.0, 0.0, 0.027894973754882812, 0, 0, 0, 0, 0, 0, 9362.0, 30146.0, 35388.0, 9362.0, 8.231406211853027, -13.104264259338379, -22.037511825561523, -17.505319595336914, -0.1078466922044754, -0.13146838545799255, 1.047223687171936, -0.03917080536484718, -0.10231781005859375, 1.487548828125, 1.54541015625, 0.291656494140625, 1.49853515625, 1.572509765625, 10.0, 1.0, 10.0, 1.527857780456543
150575, -1.5582101345062256, -3.9822516441345215, 86.57321166992188, 0.0, 0.0, 0.686160147190094, 0.0, 0.0, 0.41168928146362305, 0, 0, 0, 0, 0, 0, 9362.0, 30146.0, 35388.0, 9362.0, 8.231406211853027, -11.321483612060547, -17.27897834777832, -16.393157958984375, -0.1078466922044754, -0.13146838545799255, 1.047223687171936, -0.03917080536484718, -0.10231781005859375, 1.487548828125, 1.48388671875, 0.1642303466796875, 1.49853515625, 1.572509765625, 10.0, 1.0, 10.0, 1.527857780456543
150595, -1.76458740234375, -3.700859785079956, 86.3272933959961, 0.0, 0.0, 0.6894630193710327, 0.0, 0.0, -0.04438161849975586, 0, 0, 0, 0, 0, 0, 9362.0, 30146.0, 35388.0, 9362.0, 8.231406211853027, -11.321483612060547, -17.27897834777832, -16.393157958984375, -0.1286032646894455, -0.10241004824638367, 1.007430076599121, -0.03917080536484718, -0.10231781005859375, 1.487548828125, 1.569580078125, 0.3462371826171875, 1.494140625, 1.55859375, 10.0, 1.0, 10.0, 1.527857780456543
150605, -1.8116892576217651, -3.5922443866729736, 86.27507781982422, 0.0, 0.0, 0.6894630193710327, 0.0, 0.0, -0.04438161849975586, 0, 0, 0, 0, 0, 0, 9362.0, 30146.0, 35388.0, 9362.0, 8.231406211853027, -11.321483612060547, -17.27897834777832, -16.393157958984375, -0.11807870119810104, -0.1121886596083641, 0.9905028343200684, -0.03917080536484718, -0.10231781005859375, 1.487548828125, 1.482421875, 0.161529541015625, 1.493408203125, 1.58349609375, 10.0, 1.0, 10.0, 1.527857780456543
150615, -1.8350332975387573, -3.4367706775665283, 86.23475646972656, 0.0, 0.0, 0.6894630193710327, 0.0, 0.0, -0.04438161849975586, 0, 0, 0, 0, 0, 0, 9362.0, 30146.0, 35388.0, 9362.0, 8.231406211853027, -11.321483612060547, -17.27897834777832, -16.393157958984375, -0.10918106138706207, -0.1225937157869339, 0.9854013919830322, -0.03917080536484718, -0.10231781005859375, 1.487548828125, 1.481689453125, 0.1600799560546875, 1.493408203125, 1.5966796875, 10.0, 1.0, 10.0, 1.527857780456543
150625, -1.8155765533447266, -3.3438093662261963, 86.217041015625, 0.0, 0.0, 0.6894630193710327, 0.0, 0.0, -0.04438161849975586, 0, 0, 0, 0, 0, 0, 9362.0, 30146.0, 35388.0, 9362.0, 8.231406211853027, -11.321483612060547, -17.27897834777832, -16.393157958984375, -0.1090303361415863, -0.12745927274227142, 0.977084755897522, -0.03917080536484718, -0.10231781005859375, 1.487548828125, 1.45166015625, 0.107452392578125, 1.4970703125, 1.60546875, 10.0, 1.0, 10.0, 1.527857780456543
150635, -1.734087347984314, -3.2492992877960205, 86.15534210205078, 0.0, 0.0, 0.6894630193710327, 0.0, 0.0, -0.04438161849975586, 0, 0, 0, 0, 0, 0, 9362.0, 30146.0, 35388.0, 9362.0, 8.231406211853027, -11.321483612060547, -17.27897834777832, -16.393157958984375, -0.10896912217140198, -0.13352783024311066, 0.9725422859191895, -0.03917080536484718, -0.10231781005859375, 1.487548828125, 1.543212890625, 0.286834716796875, 1.4970703125, 1.599609375, 10.0, 1.0, 10.0, 1.527857780456543
150645, -1.6467206478118896, -3.227182388305664, 86.09909057617188, 0.0, 0.0, 0.6894630193710327, 0.0, 0.0, -0.04438161849975586, 0, 0, 0, 0, 0, 0, 9362.0, 30146.0, 35388.0, 9362.0, 8.231406211853027, 14.3005952835083, -3.3117032051086426, -7.008605480194092, -0.11700562387704849, -0.1404271125793457, 0.9755457639694214, -0.03917080536484718, -0.10231781005859375, 1.487548828125, 1.51025390625, 0.2164154052734375, 1.496337890625, 1.599609375, 10.0, 1.0, 10.0, 1.527857780456543
150655, -1.4675002098083496, -3.2381908893585205, 86.00086212158203, 0.0, 0.0, 0.6894630193710327, 0.0, 0.0, -0.04438161849975586, 0, 0, 0, 0, 0, 0, 9362.0, 30146.0, 35388.0, 9362.0, 8.231406211853027, 14.3005952835083, -3.3117032051086426, -7.008605480194092, -0.12035099416971207, -0.15369446575641632, 0.9938884377479553, -0.03917080536484718, -0.10231781005859375, 1.487548828125, 1.494873046875, 0.185455322265625, 1.496337890625, 1.606201171875, 10.0, 1.0, 10.0, 1.527857780456543
150665, -1.3165645599365234, -3.277454376220703, 85.9402084350586, 0.0, 0.0, 0.6894630193710327, 0.0, 0.0, -0.04438161849975586, 0, 0, 0, 0, 0, 0, 9362.0, 30146.0, 35388.0, 9362.0, 8.231406211853027, 22.807392120361328, 4.45389461517334, -7.05560302734375, -0.12035099416971207, -0.15369446575641632, 0.9938884377479553, -0.03917080536484718, -0.10231781005859375, 1.487548828125, 1.494873046875, 0.185455322265625, 1.496337890625, 1.51171875, 10.0, 1.0, 10.0, 1.527857780456543
150675, -1.0470548868179321, -3.3678760528564453, 85.85749053955078, 0.0, 0.0, 0.6894630193710327, 0.0, 0.0, -0.04438161849975586, 0, 0, 0, 0, 0, 0, 9362.0, 30146.0, 35388.0, 9362.0, 8.231406211853027, 22.807392120361328, 4.45389461517334, -7.05560302734375, -0.12035099416971207, -0.15369446575641632, 0.9938884377479553, -0.03917080536484718, -0.10231781005859375, 1.487548828125, 1.549072265625, 0.2998809814453125, 1.496337890625, 1.571044921875, 10.0, 1.0, 10.0, 1.527857780456543
150685, -0.8348652124404907, -3.433377504348755, 85.78673553466797, 0.0, 0.0, 0.7174065709114075, 0.0, 0.0, 0.37301182746887207, 0, 0, 0, 0, 0, 0, 9362.0, 30146.0, 35388.0, 9362.0, 8.231406211853027, 30.5325984954834, 8.213798522949219, -8.803962707519531, -0.12035099416971207, -0.15369446575641632, 0.9938884377479553, -0.03917080536484718, -0.10231781005859375, 1.487548828125, 1.46923828125, 0.137359619140625, 1.496337890625, 1.57470703125, 10.0, 1.0, 10.0, 1.527857780456543
150695, -0.4834361970424652, -3.5396926403045654, 85.65040588378906, 0.0, 0.0, 0.7158480882644653, 0.0, 0.0, -0.15584826469421387, 0, 0, 0, 0, 0, 0, 9362.0, 30146.0, 35388.0, 9362.0, 8.231406211853027, 30.5325984954834, 8.213798522949219, -8.803962707519531, -0.06819512695074081, -0.1347961127758026, 1.0078562498092651, -0.03917080536484718, -0.10231781005859375, 1.487548828125, 1.609130859375, 0.4388580322265625, 1.496337890625, 1.57470703125, 10.0, 1.0, 10.0, 1.527857780456543
150705, -0.23634855449199677, -3.593852996826172, 85.53047180175781, 0.0, 0.0, 0.7144426107406616, 0.0, 0.0, -0.1405477523803711, 0, 0, 0, 0, 0, 0, 9362.0, 30146.0, 35388.0, 9362.0, 8.231406211853027, 34.26921844482422, 6.460026264190674, -15.180530548095703, -0.06819512695074081, -0.1347961127758026, 1.0078562498092651, -0.03917080536484718, -0.10231781005859375, 1.487548828125, 1.575439453125, 0.3596649169921875, 1.496337890625, 1.55419921875, 10.0, 1.0, 10.0, 1.527857780456543
150715, 0.13330772519111633, -3.63852596282959, 85.32066345214844, 0.0, 0.0, 0.7170034050941467, 0.0, 0.0, 0.25607943534851074, 0, 0, 0, 0, 0, 0, 9362.0, 30146.0, 35388.0, 9362.0, 8.231406211853027, 33.671112060546875, 2.9940013885498047, -17.686805725097656, -0.06819512695074081, -0.1347961127758026, 1.0078562498092651, -0.03917080536484718, -0.10231781005859375, 1.487548828125, 1.4560546875, 0.1147003173828125, 1.496337890625, 1.569580078125, 10.0, 1.0, 10.0, 1.527857780456543
150725, 0.37197238206863403, -3.6499505043029785, 85.18175506591797, 0.0, 0.0, 0.7170034050941467, 0.0, 0.0, 0.25607943534851074, 0, 0, 0, 0, 0, 0, 9362.0, 30146.0, 35388.0, 9362.0, 8.231406211853027, 33.671112060546875, 2.9940013885498047, -17.686805725097656, -0.06819512695074081, -0.1347961127758026, 1.0078562498092651, -0.03917080536484718, -0.10231781005859375, 1.487548828125, 1.4501953125, 0.1050872802734375, 1.496337890625, 1.60400390625, 10.0, 1.0, 10.0, 1.527857780456543
150775, 1.4910743236541748, -3.9396636486053467, 84.72323608398438, 0.0, 0.0, 0.7013828158378601, 0.0, 0.0, -0.2568185329437256, 0, 0, 0, 0, 0, 0, 9362.0, 30146.0, 35388.0, 9362.0, 8.231406211853027, 16.341060638427734, 10.786530494689941, -5.325418472290039, -0.09928664565086365, -0.024400893598794937, 0.9455289840698242, -0.03917080536484718, -0.10231781005859375, 1.487548828125, 1.604736328125, 0.428436279296875, 1.496337890625, 1.505859375, 10.0, 1.0, 10.0, 1.527857780456543
150785, 1.5803911685943604, -4.03572940826416, 84.70487213134766, 0.0, 0.0, 0.6990711092948914, 0.0, 0.0, -0.231170654296875, 0, 0, 0, 0, 0, 0, 9362.0, 30146.0, 35388.0, 9362.0, 8.231406211853027, 12.791413307189941, 12.439240455627441, -2.0481457710266113, -0.09928664565086365, -0.024400893598794937, 0.9455289840698242, -0.03917080536484718, -0.10231781005859375, 1.487548828125, 1.61572265625, 0.45465087890625, 1.496337890625, 1.540283203125, 10.0, 1.0, 10.0, 1.527857780456543
150805, 1.7271548509597778, -4.251641273498535, 84.6775894165039, 0.0, 0.0, 0.6899227499961853, 0.0, 0.0, -0.4333615303039551, 0, 0, 0, 0, 0, 0, 9362.0, 30146.0, 35388.0, 9362.0, 8.231406211853027, 6.423299789428711, 9.89250373840332, -3.133683443069458, -0.03575723245739937, -0.00019374315161257982, 1.014321208000183, -0.037114400416612625, -0.12023735046386719, 1.486083984375, 1.57177734375, 0.3512115478515625, 1.496337890625, 1.5146484375, 10.0, 1.0, 10.0, 1.527857780456543
150815, 1.7511341571807861, -4.32667350769043, 84.62203979492188, 0.0, 0.0, 0.6860222220420837, 0.0, 0.0, -0.39005279541015625, 0, 0, 0, 0, 0, 0, 9362.0, 30146.0, 35388.0, 9362.0, 8.231406211853027, 2.4735567569732666, 7.03135347366333, -5.406541347503662, -0.03575723245739937, -0.00019374315161257982, 1.014321208000183, -0.037114400416612625, -0.12023735046386719, 1.486083984375, 1.57177734375, 0.3512115478515625, 1.496337890625, 1.563720703125, 10.0, 1.0, 10.0, 1.527857780456543
150835, 1.6296998262405396, -4.312201976776123, 84.60549926757812, 0.0, 0.0, 0.6831701993942261, 0.0, 0.0, 0.06587505340576172, 0, 0, 0, 0, 0, 0, 9362.0, 30146.0, 35388.0, 9362.0, 8.231406211853027, -8.991632461547852, -1.741562008857727, 0.9610138535499573, -0.017714526504278183, 0.014386584982275963, 0.9413420557975769, -0.037114400416612625, -0.12023735046386719, 1.486083984375, 1.600341796875, 0.4178924560546875, 1.496337890625, 1.506591796875, 10.0, 1.0, 10.0, 1.527857780456543
150845, 1.5188106298446655, -4.259311199188232, 84.59974670410156, 0.0, 0.0, 0.6837160587310791, 0.0, 0.0, 0.054585933685302734, 0, 0, 0, 0, 0, 0, 9362.0, 30146.0, 35388.0, 9362.0, 8.231406211853027, -15.508673667907715, -6.46570348739624, -0.8851330280303955, -0.04501326382160187, 0.07022111117839813, 0.885591983795166, -0.037114400416612625, -0.12023735046386719, 1.486083984375, 1.587890625, 0.38861083984375, 1.496337890625, 1.5322265625, 10.0, 1.0, 10.0, 1.527857780456543
150855, 1.2778167724609375, -4.160329341888428, 84.58056640625, 0.0, 0.0, 0.6837160587310791, 0.0, 0.0, 0.054585933685302734, 0, 0, 0, 0, 0, 0, 9362.0, 30146.0, 35388.0, 9362.0, 8.231406211853027, -22.32073402404785, -7.883756637573242, -1.7238842248916626, -0.04501326382160187, 0.07022111117839813, 0.885591983795166, -0.037114400416612625, -0.12023735046386719, 1.486083984375, 1.5732421875, 0.354736328125, 1.496337890625, 1.553466796875, 10.0, 1.0, 10.0, 1.527857780456543
150865, 1.065314531326294, -4.089170455932617, 84.57561492919922, 0.0, 0.0, 0.6761537790298462, 0.0, 0.0, -0.3628253936767578, 0, 0, 0, 0, 0, 0, 9362.0, 30146.0, 35388.0, 9362.0, 8.231406211853027, -28.06833267211914, -8.408060073852539, -0.25162747502326965, -0.045104168355464935, 0.048387762159109116, 0.8843210935592651, -0.037114400416612625, -0.12023735046386719, 1.486083984375, 1.61572265625, 0.45465087890625, 1.497802734375, 1.553466796875, 10.0, 1.0, 10.0, 1.527857780456543
150875, 0.6779981255531311, -4.010507583618164, 84.59123992919922, 0.0, 0.0, 0.6761537790298462, 0.0, 0.0, -0.3628253936767578, 0, 0, 0, 0, 0, 0, 9362.0, 30146.0, 35388.0, 9362.0, 8.231406211853027, -32.97040939331055, -5.346827030181885, 1.8815830945968628, -0.045104168355464935, 0.048387762159109116, 0.8843210935592651, -0.037114400416612625, -0.12023735046386719, 1.486083984375, 1.4970703125, 0.18975830078125, 1.497802734375, 1.553466796875, 10.0, 1.0, 10.0, 1.527857780456543
150885, 0.3852442502975464, -3.9981424808502197, 84.60588836669922, 0.0, 0.0, 0.6749910712242126, 0.0, 0.0, -0.05747675895690918, 0, 0, 0, 0, 0, 0, 9362.0, 30146.0, 35388.0, 9362.0, 8.231406211853027, -32.97040939331055, -5.346827030181885, 1.8815830945968628, -0.005635721608996391, -0.020028427243232727, 0.9736923575401306, -0.037114400416612625, -0.12023735046386719, 1.486083984375, 1.4736328125, 0.1452178955078125, 1.496337890625, 1.56591796875, 10.0, 1.0, 10.0, 1.527857780456543
150895, -0.07426135987043381, -4.041504383087158, 84.63766479492188, 0.0, 0.0, 0.6749910712242126, 0.0, 0.0, -0.05747675895690918, 0, 0, 0, 0, 0, 0, 9362.0, 30146.0, 35388.0, 9362.0, 8.231406211853027, -32.97040939331055, -5.346827030181885, 1.8815830945968628, -0.007329609710723162, -0.016071120277047157, 0.9926618337631226, -0.037114400416612625, -0.12023735046386719, 1.486083984375, 1.56005859375, 0.324493408203125, 1.496337890625, 1.56591796875, 10.0, 1.0, 10.0, 1.527857780456543
150905, -0.37894773483276367, -4.112906455993652, 84.67015838623047, 0.0, 0.0, 0.6749910712242126, 0.0, 0.0, -0.05747675895690918, 0, 0, 0, 0, 0, 0, 9362.0, 30146.0, 35388.0, 9362.0, 8.231406211853027, -38.551597595214844, 10.743870735168457, 4.167122840881348, -0.007329609710723162, -0.016071120277047157, 0.9926618337631226, -0.037114400416612625, -0.12023735046386719, 1.486083984375, 1.54833984375, 0.298126220703125, 1.50146484375, 1.572509765625, 10.0, 1.0, 10.0, 1.527857780456543
150915, -0.8211705684661865, -4.251178741455078, 84.68311309814453, 0.0, 0.0, 0.6661948561668396, 0.0, 0.0, -0.2625882625579834, 0, 0, 0, 0, 0, 0, 9362.0, 30146.0, 35388.0, 9362.0, 8.231406211853027, -37.70077896118164, 13.132908821105957, 0.3714442253112793, -0.007329609710723162, -0.016071120277047157, 0.9926618337631226, -0.037114400416612625, -0.12023735046386719, 1.486083984375, 1.588623046875, 0.390350341796875, 1.50146484375, 1.490478515625, 10.0, 1.0, 10.0, 1.527857780456543
150925, -1.0980781316757202, -4.361710548400879, 84.6890869140625, 0.0, 0.0, 0.6638354659080505, 0.0, 0.0, -0.23593902587890625, 0, 0, 0, 0, 0, 0, 9362.0, 30146.0, 35388.0, 9362.0, 8.231406211853027, -35.73041534423828, 15.69449520111084, 1.107842206954956, -0.008577636443078518, 0.03957870602607727, 1.0037435293197632, -0.037114400416612625, -0.12023735046386719, 1.486083984375, 1.601806640625, 0.42144775390625, 1.50146484375, 1.5234375, 10.0, 1.0, 10.0, 1.527857780456543
150955, -1.986167550086975, -4.79093599319458, 84.83430480957031, 0.0, 0.0, 0.6733921766281128, 0.0, 0.0, 0.6309807300567627, 0, 0, 0, 0, 0, 0, 9362.0, 30146.0, 35388.0, 9362.0, 8.231406211853027, -25.280668258666992, 14.672281265258789, 6.062407493591309, -0.0037584672681987286, 0.02244327962398529, 0.9895902872085571, -0.037114400416612625, -0.12023735046386719, 1.486083984375, 1.6025390625, 0.423187255859375, 1.50146484375, 1.549072265625, 10.0, 1.0, 10.0, 1.527857780456543
150965, -2.13789701461792, -4.905766487121582, 84.91564178466797, 0.0, 0.0, 0.6790742874145508, 0.0, 0.0, 0.5682110786437988, 0, 0, 0, 0, 0, 0, 9362.0, 30146.0, 35388.0, 9362.0, 8.231406211853027, -20.00149917602539, 16.105127334594727, 11.27549934387207, -0.0037584672681987286, 0.02244327962398529, 0.9895902872085571, -0.037114400416612625, -0.12023735046386719, 1.486083984375, 1.617919921875, 0.4600677490234375, 1.50146484375, 1.53662109375, 10.0, 1.0, 10.0, 1.527857780456543
150975, -2.3045341968536377, -5.115124702453613, 85.08100891113281, 0.0, 0.0, 0.6790742874145508, 0.0, 0.0, 0.5682110786437988, 0, 0, 0, 0, 0, 0, 9362.0, 30146.0, 35388.0, 9362.0, 8.231406211853027, -20.00149917602539, 16.105127334594727, 11.27549934387207, -0.011196114122867584, -0.023078737780451775, 0.9298006892204285, -0.037114400416612625, -0.12023735046386719, 1.486083984375, 1.584228515625, 0.3801727294921875, 1.50146484375, 1.622314453125, 10.0, 1.0, 10.0, 1.527857780456543
150985, -2.3775734901428223, -5.2882256507873535, 85.20826721191406, 0.0, 0.0, 0.6790742874145508, 0.0, 0.0, 0.5682110786437988, 0, 0, 0, 0, 0, 0, 9362.0, 30146.0, 35388.0, 9362.0, 8.231406211853027, -20.00149917602539, 16.105127334594727, 11.27549934387207, -0.012294028885662556, -0.04328012466430664, 0.94331955909729, -0.037114400416612625, -0.12023735046386719, 1.486083984375, 1.58203125, 0.37493896484375, 1.494873046875, 1.57763671875, 10.0, 1.0, 10.0, 1.527857780456543
151005, -2.430935859680176, -5.865417957305908, 85.53804779052734, 0.0, 0.0, 0.6849750876426697, 0.0, 0.0, 0.3141462802886963, 0, 0, 0, 0, 0, 0, 9362.0, 30146.0, 35388.0, 9362.0, 8.231406211853027, -0.6618383526802063, 32.828426361083984, 16.14812469482422, -0.01621728576719761, -0.07838098704814911, 1.0123804807662964, -0.042045269161462784, -0.06647872924804688, 1.490478515625, 1.585693359375, 0.383544921875, 1.494873046875, 1.5498046875, 10.0, 1.0, 10.0, 1.527857780456543
151015, -2.390829563140869, -6.261138439178467, 85.71548461914062, 0.0, 0.0, 0.6849750876426697, 0.0, 0.0, 0.3141462802886963, 0, 0, 0, 0, 0, 0, 9362.0, 30146.0, 35388.0, 9362.0, 8.231406211853027, -0.6618383526802063, 32.828426361083984, 16.14812469482422, -0.013712123036384583, -0.10755591094493866, 1.0386282205581665, -0.042045269161462784, -0.06647872924804688, 1.490478515625, 1.5234375, 0.2439727783203125, 1.494873046875, 1.60400390625, 10.0, 1.0, 10.0, 1.527857780456543
151025, -2.339233160018921, -6.515889644622803, 85.85187530517578, 0.0, 0.0, 0.6849750876426697, 0.0, 0.0, 0.3141462802886963, 0, 0, 0, 0, 0, 0, 9362.0, 30146.0, 35388.0, 9362.0, 8.231406211853027, 6.383052349090576, 33.52774429321289, 18.609819412231445, -0.013712123036384583, -0.10755591094493866, 1.0386282205581665, -0.042045269161462784, -0.06647872924804688, 1.490478515625, 1.477294921875, 0.1519775390625, 1.49853515625, 1.60400390625, 10.0, 1.0, 10.0, 1.527857780456543
151045, -2.155409097671509, -7.096538543701172, 86.1429214477539, 0.0, 0.0, 0.6807882785797119, 0.0, 0.0, -0.3051877021789551, 0, 0, 0, 0, 0, 0, 9362.0, 30146.0, 35388.0, 9362.0, 8.231406211853027, 9.382719993591309, 29.195703506469727, 16.58193588256836, 0.011657459661364555, -0.09638746827840805, 1.044741153717041, -0.042045269161462784, -0.06647872924804688, 1.490478515625, 1.604736328125, 0.428436279296875, 1.49853515625, 1.565185546875, 10.0, 1.0, 10.0, 1.527857780456543
151055, -2.0189199447631836, -7.400303363800049, 86.38616180419922, 0.0, 0.0, 0.6758571863174438, 0.0, 0.0, -0.49310922622680664, 0, 0, 0, 0, 0, 0, 9362.0, 30146.0, 35388.0, 9362.0, 8.231406211853027, 9.572657585144043, 27.290904998779297, 21.698530197143555, 0.011657459661364555, -0.09638746827840805, 1.044741153717041, -0.042045269161462784, -0.06647872924804688, 1.490478515625, 1.609130859375, 0.4388580322265625, 1.49853515625, 1.51025390625, 10.0, 1.0, 10.0, 1.527857780456543
151065, -1.9214335680007935, -7.591399669647217, 86.60623168945312, 0.0, 0.0, 0.6758571863174438, 0.0, 0.0, -0.49310922622680664, 0, 0, 0, 0, 0, 0, 9362.0, 30146.0, 35388.0, 9362.0, 8.231406211853027, 9.572657585144043, 27.290904998779297, 21.698530197143555, -0.014178650453686714, -0.042744968086481094, 1.003273367881775, -0.042045269161462784, -0.06647872924804688, 1.490478515625, 1.59521484375, 0.4058380126953125, 1.497802734375, 1.601806640625, 10.0, 1.0, 10.0, 1.527857780456543
151075, -1.7778854370117188, -7.889416694641113, 87.01290130615234, 0.0, 0.0, 0.6758571863174438, 0.0, 0.0, -0.49310922622680664, 0, 0, 0, 0, 0, 0, 9362.0, 30146.0, 35388.0, 9362.0, 8.231406211853027, 7.158438682556152, 26.165891647338867, 34.893009185791016, -0.014178650453686714, -0.042744968086481094, 1.003273367881775, -0.042045269161462784, -0.06647872924804688, 1.490478515625, 1.50732421875, 0.2104644775390625, 1.497802734375, 1.601806640625, 10.0, 1.0, 10.0, 1.527857780456543
151085, -1.6887768507003784, -8.107869148254395, 87.31470489501953, 0.0, 0.0, 0.6378778219223022, 0.0, 0.0, -1.5887856483459473, 0, 0, 0, 0, 0, 0, 9362.0, 30146.0, 35388.0, 9362.0, 8.231406211853027, 5.952831268310547, 28.644001007080078, 38.557735443115234, -0.014178650453686714, -0.042744968086481094, 1.003273367881775, -0.042045269161462784, -0.06647872924804688, 1.490478515625, 1.628173828125, 0.484893798828125, 1.497802734375, 1.587890625, 10.0, 1.0, 10.0, 1.527857780456543
151095, -1.5756903886795044, -8.470412254333496, 87.7889404296875, 0.0, 0.0, 0.6181133985519409, 0.0, 0.0, -1.9764423370361328, 0, 0, 0, 0, 0, 0, 9362.0, 30146.0, 35388.0, 9362.0, 8.231406211853027, 4.721501350402832, 31.84296226501465, 40.3673210144043, -0.014178650453686714, -0.042744968086481094, 1.003273367881775, -0.042045269161462784, -0.06647872924804688, 1.490478515625, 1.58056640625, 0.3715972900390625, 1.497802734375, 1.587890625, 10.0, 1.0, 10.0, 1.527857780456543
151105, -1.514173984527588, -8.740771293640137, 88.10122680664062, 0.0, 0.0, 0.6003313064575195, 0.0, 0.0, -1.7782092094421387, 0, 0, 0, 0, 0, 0, 9362.0, 30146.0, 35388.0, 9362.0, 8.231406211853027, 4.155517578125, 35.9472770690918, 39.71364974975586, -0.014178650453686714, -0.042744968086481094, 1.003273367881775, -0.042045269161462784, -0.06647872924804688, 1.490478515625, 1.623046875, 0.4723663330078125, 1.497802734375, 1.54248046875, 10.0, 1.0, 10.0, 1.527857780456543
151115, -1.4330120086669922, -9.157272338867188, 88.54977416992188, 0.0, 0.0, 0.5854439735412598, 0.0, 0.0, -1.4887332916259766, 0, 0, 0, 0, 0, 0, 9362.0, 30146.0, 35388.0, 9362.0, 8.231406211853027, 4.080608367919922, 36.863067626953125, 38.61698532104492, -0.014178650453686714, -0.042744968086481094, 1.003273367881775, -0.042045269161462784, -0.06647872924804688, 1.490478515625, 1.623046875, 0.4723663330078125, 1.497802734375, 1.566650390625, 10.0, 1.0, 10.0, 1.527857780456543
151125, -1.3839987516403198, -9.411773681640625, 88.79377746582031, 0.0, 0.0, 0.5721151828765869, 0.0, 0.0, -1.3328790664672852, 0, 0, 0, 0, 0, 0, 9362.0, 30146.0, 35388.0, 9362.0, 8.231406211853027, 4.804800510406494, 33.94100570678711, 30.619474411010742, -0.014178650453686714, -0.042744968086481094, 1.003273367881775, -0.042045269161462784, -0.06647872924804688, 1.490478515625, 1.63623046875, 0.504730224609375, 1.497802734375, 1.566650390625, 10.0, 1.0, 10.0, 1.527857780456543
151135, -1.3086143732070923, -9.74211311340332, 89.09201049804688, 0.0, 0.0, 0.5694831013679504, 0.0, 0.0, -0.26320815086364746, 0, 0, 0, 0, 0, 0, 9362.0, 30146.0, 35388.0, 9362.0, 8.231406211853027, 5.498049736022949, 29.4719181060791, 25.16374969482422, -0.014178650453686714, -0.042744968086481094, 1.003273367881775, -0.042045269161462784, -0.06647872924804688, 1.490478515625, 1.63916015625, 0.51190185546875, 1.497802734375, 1.49560546875, 10.0, 1.0, 10.0, 1.527857780456543
151145, -1.2547881603240967, -9.88861083984375, 89.24032592773438, 0.0, 0.0, 0.5672292709350586, 0.0, 0.0, -0.22538304328918457, 0, 0, 0, 0, 0, 0, 9362.0, 30146.0, 35388.0, 9362.0, 8.231406211853027, 5.498049736022949, 29.4719181060791, 25.16374969482422, -0.062366075813770294, -0.13439947366714478, 1.1084637641906738, -0.042045269161462784, -0.06647872924804688, 1.490478515625, 1.54541015625, 0.291656494140625, 1.49560546875, 1.603271484375, 10.0, 1.0, 10.0, 1.527857780456543
151155, -1.171691656112671, -10.009786605834961, 89.4644775390625, 0.0, 0.0, 0.566899299621582, 0.0, 0.0, -0.03299713134765625, 0, 0, 0, 0, 0, 0, 9362.0, 30146.0, 35388.0, 9362.0, 8.231406211853027, 4.675842761993408, 11.249783515930176, 18.756338119506836, -0.062366075813770294, -0.13439947366714478, 1.1084637641906738, -0.042045269161462784, -0.06647872924804688, 1.490478515625, 1.603271484375, 0.4249420166015625, 1.49560546875, 1.5556640625, 10.0, 1.0, 10.0, 1.527857780456543
151165, -1.1248680353164673, -10.023416519165039, 89.60887145996094, 0.0, 0.0, 0.5666455030441284, 0.0, 0.0, -0.025379657745361328, 0, 0, 0, 0, 0, 0, 9362.0, 30146.0, 35388.0, 9362.0, 8.231406211853027, 4.675842761993408, 11.249783515930176, 18.756338119506836, -0.12992633879184723, 0.0024287805426865816, 1.0454591512680054, -0.042045269161462784, -0.06647872924804688, 1.490478515625, 1.635498046875, 0.5028533935546875, 1.494873046875, 1.607666015625, 10.0, 1.0, 10.0, 1.527857780456543
151175, -1.0661826133728027, -9.954344749450684, 89.90377044677734, 0.0, 0.0, 0.5620551705360413, 0.0, 0.0, -0.4590332508087158, 0, 0, 0, 0, 0, 0, 9362.0, 30146.0, 35388.0, 9362.0, 8.231406211853027, 4.675842761993408, 11.249783515930176, 18.756338119506836, -0.12992633879184723, 0.0024287805426865816, 1.0454591512680054, -0.042045269161462784, -0.06647872924804688, 1.490478515625, 1.635498046875, 0.5028533935546875, 1.494873046875, 1.63623046875, 10.0, 1.0, 10.0, 1.527857780456543
151185, -1.0378409624099731, -9.86474323272705, 90.14144897460938, 0.0, 0.0, 0.5579221844673157, 0.0, 0.0, -0.4132986068725586, 0, 0, 0, 0, 0, 0, 9362.0, 30146.0, 35388.0, 9362.0, 8.231406211853027, -2.7925379276275635, -11.050402641296387, 29.205934524536133, -0.12992633879184723, 0.0024287805426865816, 1.0454591512680054, -0.042045269161462784, -0.06647872924804688, 1.490478515625, 1.62158203125, 0.46893310546875, 1.494873046875, 1.63623046875, 10.0, 1.0, 10.0, 1.527857780456543
151195, -1.0306698083877563, -9.705514907836914, 90.51805877685547, 0.0, 0.0, 0.5531076788902283, 0.0, 0.0, -0.48145055770874023, 0, 0, 0, 0, 0, 0, 9362.0, 30146.0, 35388.0, 9362.0, 8.231406211853027, -5.565906047821045, -12.786961555480957, 30.748056411743164, -0.11361382901668549, -0.003216843120753765, 1.0010210275650024, -0.042045269161462784, -0.06647872924804688, 1.490478515625, 1.628173828125, 0.484893798828125, 1.494873046875, 1.63623046875, 10.0, 1.0, 10.0, 1.527857780456543
151205, -1.0453145503997803, -9.59350872039795, 90.77679443359375, 0.0, 0.0, 0.5531076788902283, 0.0, 0.0, -0.48145055770874023, 0, 0, 0, 0, 0, 0, 9362.0, 30146.0, 35388.0, 9362.0, 8.231406211853027, -7.068283557891846, -13.001754760742188, 31.642690658569336, -0.11361382901668549, -0.003216843120753765, 1.0010210275650024, -0.042045269161462784, -0.06647872924804688, 1.490478515625, 1.60400390625, 0.4266204833984375, 1.496337890625, 1.63623046875, 10.0, 1.0, 10.0, 1.527857780456543
151215, -1.0809835195541382, -9.44709300994873, 91.14443969726562, 0.0, 0.0, 0.542136013507843, 0.0, 0.0, -0.6636679172515869, 0, 0, 0, 0, 0, 0, 9362.0, 30146.0, 35388.0, 9362.0, 8.231406211853027, -7.037208080291748, -10.835188865661621, 30.259300231933594, -0.07608877122402191, -0.06962239742279053, 0.995286762714386, -0.042045269161462784, -0.06647872924804688, 1.490478515625, 1.51904296875, 0.2346954345703125, 1.496337890625, 1.63623046875, 10.0, 1.0, 10.0, 1.527857780456543
151225, -1.1093653440475464, -9.37083625793457, 91.33259582519531, 0.0, 0.0, 0.542136013507843, 0.0, 0.0, -0.6636679172515869, 0, 0, 0, 0, 0, 0, 9362.0, 30146.0, 35388.0, 9362.0, 8.231406211853027, -5.946661949157715, -7.549978733062744, 22.6209716796875, -0.07608877122402191, -0.06962239742279053, 0.995286762714386, -0.042045269161462784, -0.06647872924804688, 1.490478515625, 1.54248046875, 0.28521728515625, 1.497802734375, 1.63623046875, 10.0, 1.0, 10.0, 1.527857780456543
151235, -1.16598379611969, -9.303418159484863, 91.49691772460938, 0.0, 0.0, 0.5357037782669067, 0.0, 0.0, -0.04573464393615723, 0, 0, 0, 0, 0, 0, 9362.0, 30146.0, 35388.0, 9362.0, 8.231406211853027, -5.2170329093933105, -4.029587745666504, 12.517580032348633, -0.07608877122402191, -0.06962239742279053, 0.995286762714386, -0.042045269161462784, -0.06647872924804688, 1.490478515625, 1.487548828125, 0.1712188720703125, 1.497802734375, 1.588623046875, 10.0, 1.0, 10.0, 1.527857780456543
151245, -1.2090457677841187, -9.280562400817871, 91.53321075439453, 0.0, 0.0, 0.5352903604507446, 0.0, 0.0, -0.04134178161621094, 0, 0, 0, 0, 0, 0, 9362.0, 30146.0, 35388.0, 9362.0, 8.231406211853027, -5.2170329093933105, -4.029587745666504, 12.517580032348633, -0.11882660537958145, -0.0922061875462532, 1.0355098247528076, -0.042045269161462784, -0.06647872924804688, 1.490478515625, 1.65234375, 0.5445709228515625, 1.497802734375, 1.527099609375, 10.0, 1.0, 10.0, 1.527857780456543
151255, -1.278491735458374, -9.247274398803711, 91.51766204833984, 0.0, 0.0, 0.5327314734458923, 0.0, 0.0, -0.2558887004852295, 0, 0, 0, 0, 0, 0, 9362.0, 30146.0, 35388.0, 9362.0, 8.231406211853027, -5.2170329093933105, -4.029587745666504, 12.517580032348633, -0.14586712419986725, -0.05299811065196991, 1.0422391891479492, -0.042045269161462784, -0.06647872924804688, 1.490478515625, 1.62890625, 0.4867095947265625, 1.497802734375, 1.49560546875, 10.0, 1.0, 10.0, 1.527857780456543
151265, -1.3193039894104004, -9.211592674255371, 91.47100830078125, 0.0, 0.0, 0.5327314734458923, 0.0, 0.0, -0.2558887004852295, 0, 0, 0, 0, 0, 0, 9362.0, 30146.0, 35388.0, 9362.0, 8.231406211853027, -5.2170329093933105, -4.029587745666504, 12.517580032348633, -0.14586712419986725, -0.05299811065196991, 1.0422391891479492, -0.042045269161462784, -0.06647872924804688, 1.490478515625, 1.5234375, 0.2439727783203125, 1.4970703125, 1.642822265625, 10.0, 1.0, 10.0, 1.527857780456543
151275, -1.3641281127929688, -9.150954246520996, 91.40375518798828, 0.0, 0.0, 0.5289299488067627, 0.0, 0.0, -0.15113353729248047, 0, 0, 0, 0, 0, 0, 9362.0, 30146.0, 35388.0, 9362.0, 8.231406211853027, -3.5589771270751953, -5.41702127456665, -6.056994915008545, -0.14586712419986725, -0.05299811065196991, 1.0422391891479492, -0.042045269161462784, -0.06647872924804688, 1.490478515625, 1.525634765625, 0.248626708984375, 1.4970703125, 1.61279296875, 10.0, 1.0, 10.0, 1.527857780456543
151285, -1.3847968578338623, -9.095396995544434, 91.40299224853516, 0.0, 0.0, 0.5275677442550659, 0.0, 0.0, -0.13622045516967773, 0, 0, 0, 0, 0, 0, 9362.0, 30146.0, 35388.0, 9362.0, 8.231406211853027, -4.212225437164307, -7.861649513244629, 0.31884294748306274, -0.18829919397830963, 0.05038214474916458, 0.9996734261512756, -0.042045269161462784, -0.06647872924804688, 1.490478515625, 1.634765625, 0.5010528564453125, 1.494140625, 1.61279296875, 10.0, 1.0, 10.0, 1.527857780456543
151305, -1.4090290069580078, -8.909646034240723, 91.57415008544922, 0.0, 0.0, 0.5418568253517151, 0.0, 0.0, 0.6767511367797852, 0, 0, 0, 0, 0, 0, 9362.0, 30146.0, 35388.0, 9362.0, 8.231406211853027, -3.3312158584594727, -10.792746543884277, 10.380313873291016, -0.18829919397830963, 0.05038214474916458, 0.9996734261512756, -0.05880376324057579, -0.18295860290527344, 1.48095703125, 1.66259765625, 0.5705108642578125, 1.494140625, 1.58349609375, 10.0, 1.0, 10.0, 1.527857780456543
151315, -1.3966450691223145, -8.781233787536621, 91.70378875732422, 0.0, 0.0, 0.5457590818405151, 0.0, 0.0, 0.3902256488800049, 0, 0, 0, 0, 0, 0, 9362.0, 30146.0, 35388.0, 9362.0, 8.231406211853027, -1.5523754358291626, -10.652798652648926, 10.319655418395996, -0.18829919397830963, 0.05038214474916458, 0.9996734261512756, -0.05880376324057579, -0.18295860290527344, 1.48095703125, 1.61865234375, 0.461822509765625, 1.494140625, 1.506591796875, 10.0, 1.0, 10.0, 1.527857780456543
151325, -1.369184136390686, -8.707207679748535, 91.77413177490234, 0.0, 0.0, 0.5457590818405151, 0.0, 0.0, 0.3902256488800049, 0, 0, 0, 0, 0, 0, 9362.0, 30146.0, 35388.0, 9362.0, 8.231406211853027, -1.5523754358291626, -10.652798652648926, 10.319655418395996, -0.18829919397830963, 0.05038214474916458, 0.9996734261512756, -0.05880376324057579, -0.18295860290527344, 1.48095703125, 1.62744140625, 0.483154296875, 1.494873046875, 1.64501953125, 10.0, 1.0, 10.0, 1.5371813774108887
151335, -1.310576319694519, -8.64938735961914, 91.81919860839844, 0.0, 0.0, 0.5457590818405151, 0.0, 0.0, 0.3902256488800049, 0, 0, 0, 0, 0, 0, 9362.0, 30146.0, 35388.0, 9362.0, 8.231406211853027, 4.173732280731201, -4.161703586578369, 2.769681453704834, -0.18829919397830963, 0.05038214474916458, 0.9996734261512756, -0.05880376324057579, -0.18295860290527344, 1.48095703125, 1.600341796875, 0.4178924560546875, 1.494873046875, 1.64794921875, 10.0, 1.0, 10.0, 1.5371813774108887
