timeTick, roll, pitch, yaw, stateX, stateY, stateZ, stateVX, stateVY, stateVZ, otX0, otY0, otZ0, otRoll0, otPitch0, otYaw0, left wing, pitch motor, yaw motor, right wing, voltage, roll rate, pitch rate, yaw rate, A_x, A_y, A_z, current, i_raw, v_raw, airflow_voltage, airflow_speed, pot_Pitch, voltage_nKF, kFFx, state, State, volt_KF
10657, 1.1639093160629272, 1.073710560798645, -0.326285183429718, 0, 0, 0, 0, 0, 0, -0.8285746574401855, -0.9919242858886719, 0.057573579251766205, -1.3819433403977903, -0.15769995126646563, -89.28730647380061, 0, 0, 0, 0, 0, 0, 0, 0, 0, 0, 0, 0, 0, 0, 0, 0, 0, 0, 0, 0, 0, 0
10667, 1.1640890836715698, 1.0738589763641357, -0.32522252202033997, 3.3226577215828e-05, 3.5729863157030195e-05, -0.8407607078552246, -0.00017850397853180766, -0.00019052773131988943, -0.1866796910762787, -0.8285230994224548, -0.9919905066490173, 0.05760056897997856, -1.37858145916142, -0.1487167039456665, -89.3439366617272, 9362.0, 30146.0, 35388.0, 9362.0, 0, -0.04393482580780983, 0.2593473196029663, -0.08137582242488861, -0.082127645611763, -0.02450663596391678, 0.9980437755584717, 0, 0, 0, 1.40185546875, 0.0417938232421875, 0, 0, 0, 0, 0, 0
10677, 1.1629170179367065, 1.0724296569824219, -0.3241865038871765, 2.2214342607185245e-05, 2.393391878285911e-05, -0.8426287174224854, -0.0020239052828401327, -0.0021686949767172337, -0.18691661953926086, -0.8285706043243408, -0.991925060749054, 0.05756625533103943, -1.3885681536339674, -0.1560524770448808, -89.28616245503007, 9362.0, 30146.0, 35388.0, 9362.0, 0, -0.0025481325574219227, -0.16854973137378693, -0.016137970611453056, -0.08031481504440308, -0.026693815365433693, 0.9989410042762756, 0, 0, 0, 1.40625, 0.04620361328125, 1.48828125, 1.4267578125, 10.0, 1.0, 10.0, 1.4188371896743774
10687, 1.1629540920257568, 1.071632981300354, -0.32546284794807434, -7.2587044996907935e-06, -7.651507985428907e-06, -0.8444987535476685, -0.003870673943310976, -0.004148426931351423, -0.18709295988082886, -0.8285664916038513, -0.9919291734695435, 0.057567059993743896, -1.38695111385972, -0.15785448381740252, -89.28784316414618, 9362.0, 30146.0, 35388.0, 9362.0, 0, 0.008491148240864277, -0.21882206201553345, -0.46861302852630615, -0.07916031777858734, -0.0248736422508955, 0.9968604445457458, 0, 0, 0, 1.434814453125, 0.081787109375, 1.48828125, 1.4208984375, 10.0, 1.0, 10.0, 1.4187685251235962
10697, 1.1635533571243286, 1.0729252099990845, -0.3278893232345581, -5.518432590179145e-05, -5.9021636843681335e-05, -0.8463706970214844, -0.005714497994631529, -0.00612555630505085, -0.187297523021698, -0.8285611271858215, -0.9919251203536987, 0.0575697161257267, -1.3876940842713208, -0.16102978867255047, -89.29147935919046, 9362.0, 30146.0, 35388.0, 9362.0, 0, -0.02476409636437893, 0.12954270839691162, 0.11558031290769577, -0.07894265651702881, -0.02568625658750534, 0.9959205985069275, 0, 0, 0, 1.3828125, 0.0261077880859375, 1.49267578125, 1.421630859375, 10.0, 1.0, 10.0, 1.418745517730713
10707, 1.1632169485092163, 1.071115255355835, -0.3267918825149536, -0.00012152532144682482, -0.00013014572323299944, -0.8482455611228943, -0.007553775794804096, -0.008099179714918137, -0.18767517805099487, -0.8285662531852722, -0.9919252991676331, 0.057574376463890076, -1.3881411224701592, -0.16020149639302872, -89.28431597639101, 9362.0, 30146.0, 35388.0, 9362.0, 0, -0.22472511231899261, -0.28715863823890686, 0.2049752175807953, -0.07819245010614395, -0.0252060666680336, 0.9947037100791931, 0, 0, 0, 1.387939453125, 0.0297393798828125, 1.49267578125, 1.3857421875, 10.0, 1.0, 10.0, 1.4186999797821045
10717, 1.1621429920196533, 1.0737440586090088, -0.3250071406364441, -0.00020625842444133013, -0.00022099768102634698, -0.8501248359680176, -0.009392823092639446, -0.01007124874740839, -0.18818163871765137, -0.8285807967185974, -0.9919230937957764, 0.0575655959546566, -1.3921127719936797, -0.1651920890028009, -89.28867869693985, 9362.0, 30146.0, 35388.0, 9362.0, 0, -0.2172582745552063, 0.057114146649837494, 0.1999671459197998, -0.07860451936721802, -0.02822360210120678, 0.9983426928520203, 0, 0, 0, 1.4296875, 0.07464599609375, 1.489013671875, 1.447265625, 10.0, 1.0, 10.0, 1.4187580347061157
10727, 1.1618709564208984, 1.0741851329803467, -0.32543009519577026, -0.0003093705454375595, -0.0003315721987746656, -0.8520089387893677, -0.011229519732296467, -0.012043721973896027, -0.18864376842975616, -0.8285332918167114, -0.9919891953468323, 0.05758519470691681, -1.3793119744872397, -0.13900631771659278, -89.34321219012283, 9362.0, 30146.0, 35388.0, 9362.0, 0, 0.13731226325035095, -0.33134889602661133, -0.3936113715171814, -0.07832573354244232, -0.027438033372163773, 0.9996898174285889, 0, 0, 0, 1.39306640625, 0.0337982177734375, 1.489013671875, 1.38134765625, 10.0, 1.0, 10.0, 1.4187930822372437
10737, 1.1616898775100708, 1.0760408639907837, -0.32571789622306824, -0.0004309056093916297, -0.00046189880231395364, -0.853895902633667, -0.013077504932880402, -0.01402158010751009, -0.18874621391296387, -0.8285237550735474, -0.9919907450675964, 0.0575936958193779, -1.3840028866912484, -0.13454118579028318, -89.34829312711588, 9362.0, 30146.0, 35388.0, 9362.0, 0, -0.02163156121969223, -0.1742706596851349, 0.09157297015190125, -0.08010505884885788, -0.02695324271917343, 0.9968961477279663, 0, 0, 0, 1.387939453125, 0.0297393798828125, 1.494140625, 1.405517578125, 10.0, 1.0, 10.0, 1.418634057044983
10747, 1.1621761322021484, 1.0760024785995483, -0.32392463088035583, -0.0005709196557290852, -0.0006119965109974146, -0.8557841181755066, -0.014925305731594563, -0.01599794626235962, -0.18889862298965454, -0.8285720348358154, -0.9919193983078003, 0.05757210776209831, -1.3884899490182234, -0.14903078861925678, -89.29118894365514, 9362.0, 30146.0, 35388.0, 9362.0, 0, -0.06708121299743652, 0.35456743836402893, 0.15291647613048553, -0.07820136100053787, -0.024338901042938232, 0.997557520866394, 0, 0, 0, 1.406982421875, 0.046966552734375, 1.494140625, 1.42822265625, 10.0, 1.0, 10.0, 1.418717384338379
10757, 1.1612558364868164, 1.0754162073135376, -0.3226417899131775, -0.0007294124225154519, -0.0007818399462848902, -0.8576746582984924, -0.016773181036114693, -0.017970800399780273, -0.1892119199037552, -0.828530490398407, -0.991996169090271, 0.057601191103458405, -1.3831671135961587, -0.14266677890611845, -89.34282495485986, 9362.0, 30146.0, 35388.0, 9362.0, 8.112398147583008, -0.2932561933994293, -0.10674897581338882, 0.04291848838329315, -0.077840656042099, -0.0236961729824543, 0.9982835650444031, -0.04736477509140968, -0.11127853393554688, 1.48681640625, 1.4091796875, 0.04937744140625, 1.490478515625, 1.434814453125, 10.0, 1.0, 10.0, 1.4187500476837158
10767, 1.16112220287323, 1.0744359493255615, -0.32247841358184814, -0.0009063873440027237, -0.0009714206680655479, -0.8595681190490723, -0.018621759489178658, -0.01994539238512516, -0.18948248028755188, -0.8285666704177856, -0.991927444934845, 0.05758294463157654, -1.3902086204756396, -0.1589978969940944, -89.29386702908828, 9362.0, 30146.0, 35388.0, 9362.0, 8.112398147583008, -0.13285492360591888, -0.0073874578811228275, -0.16605660319328308, -0.08053123205900192, -0.025580983608961105, 0.9972950220108032, -0.04736477509140968, -0.11127853393554688, 1.48681640625, 1.44140625, 0.0914459228515625, 1.490478515625, 1.361572265625, 10.0, 1.0, 10.0, 1.4186944961547852
10777, 1.160614252090454, 1.0734611749649048, -0.3234562277793884, -0.001101844827644527, -0.0011807418195530772, -0.8614642024040222, -0.020469728857278824, -0.021918851882219315, -0.18973158299922943, -0.8285274505615234, -0.9919906854629517, 0.05760587379336357, -1.3833094722421058, -0.13908046569585508, -89.34463588921832, 9362.0, 30146.0, 35388.0, 9362.0, 8.112398147583008, 0.08819995820522308, 0.2930254638195038, 0.09313147515058517, -0.08081094920635223, -0.02596627175807953, 0.9952356815338135, -0.04736477509140968, -0.11127853393554688, 1.48681640625, 1.433349609375, 0.0797576904296875, 1.49267578125, 1.4208984375, 10.0, 1.0, 10.0, 1.4186919927597046
10787, 1.1592588424682617, 1.0718951225280762, -0.31936779618263245, -0.0013157662469893694, -0.0014097887324169278, -0.8633631467819214, -0.02231459692120552, -0.023890499025583267, -0.19005811214447021, -0.8285580277442932, -0.9919302463531494, 0.05760879069566727, -1.3821983261334583, -0.16031591585209526, -89.28786867968168, 9362.0, 30146.0, 35388.0, 9362.0, 8.112398147583008, -0.07954581081867218, 0.08222123235464096, 0.20956707000732422, -0.08017867058515549, -0.025062302127480507, 0.9941706657409668, -0.04736477509140968, -0.11127853393554688, 1.48681640625, 1.44140625, 0.0914459228515625, 1.49267578125, 1.439208984375, 10.0, 1.0, 10.0, 1.4187674522399902
10797, 1.1587953567504883, 1.073356032371521, -0.3207460045814514, -0.0015481080627068877, -0.001658526249229908, -0.8652664422988892, -0.024153653532266617, -0.025857143104076385, -0.19059741497039795, -0.8285290598869324, -0.991987943649292, 0.05761443451046944, -1.3784949867560232, -0.1363369244715784, -89.34149685391425, 9362.0, 30146.0, 35388.0, 9362.0, 8.112398147583008, -0.11266472190618515, 0.04961036145687103, -0.04281970486044884, -0.0798211544752121, -0.02606416866183281, 0.9986897110939026, -0.04736477509140968, -0.11127853393554688, 1.48681640625, 1.431884765625, 0.07769775390625, 1.5, 1.40625, 10.0, 1.0, 10.0, 1.418887734413147
10807, 1.158431053161621, 1.074130892753601, -0.32021835446357727, -0.0017988288309425116, -0.001926921890117228, -0.8671749830245972, -0.025990525260567665, -0.027821948751807213, -0.19111159443855286, -0.8285245895385742, -0.9919848442077637, 0.05759947746992111, -1.3770434674938945, -0.14224723613253332, -89.3425047699261, 9362.0, 30146.0, 35388.0, 9362.0, 8.112398147583008, 0.11647570133209229, -0.19629989564418793, -0.02697933278977871, -0.0788663849234581, -0.026312220841646194, 0.9974034428596497, -0.04736477509140968, -0.11127853393554688, 1.48681640625, 1.35498046875, 0.01556396484375, 1.5, 1.373291015625, 10.0, 1.0, 10.0, 1.4187089204788208
10817, 1.157696008682251, 1.0757733583450317, -0.3204349875450134, -0.002067960798740387, -0.0022149933502078056, -0.8690871000289917, -0.02783585898578167, -0.02979235351085663, -0.19130827486515045, -0.8285614252090454, -0.9919388294219971, 0.0575936995446682, -1.3853786615006403, -0.15804488888301194, -89.29114208570765, 9362.0, 30146.0, 35388.0, 9362.0, 8.112398147583008, -0.06252887845039368, -0.07565122842788696, -0.20344093441963196, -0.07986366748809814, -0.023677244782447815, 0.9957572817802429, -0.04736477509140968, -0.11127853393554688, 1.48681640625, 1.412109375, 0.0526123046875, 1.4912109375, 1.43408203125, 10.0, 1.0, 10.0, 1.4185558557510376
10827, 1.1574559211730957, 1.0777294635772705, -0.3221827447414398, -0.0023555380757898092, -0.0025227502919733524, -0.8710019588470459, -0.029679609462618828, -0.031759023666381836, -0.1916588544845581, -0.8285282254219055, -0.9919872879981995, 0.05759420245885849, -1.387529999448145, -0.1342643187047372, -89.34385805794881, 9362.0, 30146.0, 35388.0, 9362.0, 8.112398147583008, -0.10382185131311417, -0.2664843201637268, 0.3064155876636505, -0.07869893312454224, -0.02512708492577076, 0.996129035949707, -0.04736477509140968, -0.11127853393554688, 1.48681640625, 1.39013671875, 0.0314483642578125, 1.4912109375, 1.433349609375, 10.0, 1.0, 10.0, 1.4185062646865845
10837, 1.1564639806747437, 1.0807945728302002, -0.32137084007263184, -0.0026615604292601347, -0.002850160701200366, -0.8729206323623657, -0.031524911522865295, -0.03372298926115036, -0.1920778453350067, -0.8285659551620483, -0.9919337630271912, 0.05758259445428848, -1.389611166668794, -0.15503659879072984, -89.2933315640628, 9362.0, 30146.0, 35388.0, 9362.0, 8.112398147583008, 0.024933334439992905, -0.2908570468425751, 0.16809828579425812, -0.08014993369579315, -0.02736278809607029, 0.9981303811073303, -0.04736477509140968, -0.11127853393554688, 1.48681640625, 1.443603515625, 0.0948486328125, 1.49560546875, 1.414306640625, 10.0, 1.0, 10.0, 1.4185395240783691
10847, 1.1563587188720703, 1.0821799039840698, -0.3200763165950775, -0.002986061619594693, -0.0031972175929695368, -0.8748430609703064, -0.033375270664691925, -0.03568841516971588, -0.19240474700927734, -0.828555703163147, -0.9919225573539734, 0.05757800489664078, -1.3920554056774832, -0.156442206150615, -89.29693357780258, 9362.0, 30146.0, 35388.0, 9362.0, 8.112398147583008, 0.22301888465881348, 0.013317289762198925, 0.25345578789711, -0.08060582727193832, -0.02503807656466961, 0.9969483613967896, -0.04736477509140968, -0.11127853393554688, 1.48681640625, 1.42529296875, 0.0688018798828125, 1.49560546875, 1.43701171875, 10.0, 1.0, 10.0, 1.4186527729034424
10857, 1.156797170639038, 1.0841894149780273, -0.318932443857193, -0.003329099155962467, -0.003563927486538887, -0.8767683506011963, -0.03523220866918564, -0.03765362873673439, -0.19265815615653992, -0.8285658359527588, -0.991923451423645, 0.057590194046497345, -1.3874982301165621, -0.1557237298627001, -89.29649478122718, 9362.0, 30146.0, 35388.0, 9362.0, 8.112398147583008, -0.03618018329143524, 0.008104950189590454, -0.06208190321922302, -0.0786636620759964, -0.024059824645519257, 0.9970346093177795, -0.031094806268811226, -0.03959846496582031, 1.49267578125, 1.428955078125, 0.073577880859375, 1.4912109375, 1.40625, 10.0, 1.0, 10.0, 1.4184776544570923
10867, 1.1567171812057495, 1.084750771522522, -0.318114697933197, -0.0036907088942825794, -0.003950279671698809, -0.8786966800689697, -0.037089694291353226, -0.03961681202054024, -0.19300517439842224, -0.828606903553009, -0.9919012188911438, 0.057554442435503006, -1.4082956449361794, -0.1697461108147138, -89.2859173664348, 9362.0, 30146.0, 35388.0, 9362.0, 8.112398147583008, -0.0898875892162323, -0.1812145709991455, 0.15243613719940186, -0.07882379740476608, -0.02399679832160473, 0.9971011877059937, -0.031094806268811226, -0.03959846496582031, 1.49267578125, 1.426025390625, 0.069732666015625, 1.4912109375, 1.42529296875, 10.0, 1.0, 10.0, 1.4184908866882324
10877, 1.15691339969635, 1.0830070972442627, -0.3171985447406769, -0.004070913884788752, -0.004356270655989647, -0.8806282877922058, -0.03895123302936554, -0.04158142954111099, -0.19331814348697662, -0.8285650610923767, -0.9919205904006958, 0.05757991224527359, -1.3888919592076314, -0.1622276942538008, -89.2864928191727, 9362.0, 30146.0, 35388.0, 9362.0, 8.112398147583008, 0.09535679221153259, 0.16957798600196838, 0.07908833771944046, -0.07769257575273514, -0.023612791672348976, 0.9972500205039978, -0.031094806268811226, -0.03959846496582031, 1.49267578125, 1.43701171875, 0.085052490234375, 1.491943359375, 1.4150390625, 10.0, 1.0, 10.0, 1.4184590578079224
10887, 1.156844973564148, 1.0823614597320557, -0.3163689970970154, -0.004469736944884062, -0.004781905561685562, -0.8825631141662598, -0.040813345462083817, -0.043545544147491455, -0.19365058839321136, -0.8286037445068359, -0.9918878674507141, 0.05755813047289848, -1.4089257830979363, -0.16736184319080394, -89.29634988121632, 9362.0, 30146.0, 35388.0, 9362.0, 8.112398147583008, -0.11565817892551422, -0.16101963818073273, -0.028902094811201096, -0.07866580784320831, -0.024257082492113113, 0.9976244568824768, -0.031094806268811226, -0.03959846496582031, 1.49267578125, 1.43115234375, 0.0766143798828125, 1.491943359375, 1.37841796875, 10.0, 1.0, 10.0, 1.4183473587036133
10897, 1.1567260026931763, 1.0827019214630127, -0.31771430373191833, -0.0048871710896492004, -0.00522718857973814, -0.884501039981842, -0.042673416435718536, -0.04551106318831444, -0.19393214583396912, -0.828571081161499, -0.9919257164001465, 0.057558927685022354, -1.389871652280998, -0.15137390248972338, -89.29003800054721, 9362.0, 30146.0, 35388.0, 9362.0, 8.112398147583008, -0.08930719643831253, 0.2993733584880829, 0.02416706271469593, -0.07684122025966644, -0.025454331189393997, 0.996398389339447, -0.031094806268811226, -0.03959846496582031, 1.49267578125, 1.43115234375, 0.0766143798828125, 1.48974609375, 1.39599609375, 10.0, 1.0, 10.0, 1.418256163597107
10907, 1.1563355922698975, 1.0812174081802368, -0.3182791471481323, -0.005323194898664951, -0.005692121107131243, -0.8864420056343079, -0.0445314384996891, -0.047475382685661316, -0.19426581263542175, -0.8285775184631348, -0.9919277429580688, 0.057570599019527435, -1.3920613063770841, -0.156322737265441, -89.29048678069907, 9362.0, 30146.0, 35388.0, 9362.0, 8.112398147583008, -0.1676904410123825, -0.05786531791090965, 0.1093861535191536, -0.07931379973888397, -0.02669316530227661, 0.9962158203125, -0.031094806268811226, -0.03959846496582031, 1.49267578125, 1.395263671875, 0.035675048828125, 1.48974609375, 1.447265625, 10.0, 1.0, 10.0, 1.4181777238845825
10917, 1.1566094160079956, 1.0809577703475952, -0.3163209855556488, -0.005777792539447546, -0.006176684983074665, -0.8883868455886841, -0.04638807848095894, -0.049437377601861954, -0.194703608751297, -0.8285683393478394, -0.9919875264167786, 0.057554565370082855, -1.387244283191712, -0.1358778707739532, -89.36884431698005, 9362.0, 30146.0, 35388.0, 9362.0, 8.112398147583008, -0.12887349724769592, 0.0565728060901165, -0.10388806462287903, -0.07939759641885757, -0.025790847837924957, 0.9971262216567993, -0.031094806268811226, -0.03959846496582031, 1.49267578125, 1.44873046875, 0.102813720703125, 1.4970703125, 1.412109375, 10.0, 1.0, 10.0, 1.4182069301605225
10927, 1.155942440032959, 1.0807888507843018, -0.3165617883205414, -0.006250949576497078, -0.006680871360003948, -0.8903357982635498, -0.04824325069785118, -0.05139998719096184, -0.19508178532123566, -0.8286150097846985, -0.9919344782829285, 0.057528890669345856, -1.3938060660699887, -0.16345894250650872, -89.30001416232724, 9362.0, 30146.0, 35388.0, 9362.0, 8.112398147583008, -0.04731619730591774, -0.01402803510427475, 0.1446949690580368, -0.07915147393941879, -0.028077347204089165, 0.9952531456947327, -0.031094806268811226, -0.03959846496582031, 1.49267578125, 1.449462890625, 0.103973388671875, 1.4970703125, 1.3681640625, 10.0, 1.0, 10.0, 1.4182759523391724
10937, 1.1549443006515503, 1.080665111541748, -0.3176460266113281, -0.00674265855923295, -0.007204689551144838, -0.8922883868217468, -0.050098542124032974, -0.05336364358663559, -0.19543083012104034, -0.8285677433013916, -0.991985023021698, 0.05757540836930275, -1.3823291429830153, -0.14874550447538581, -89.36928923806113, 9362.0, 30146.0, 35388.0, 9362.0, 8.112398147583008, -0.1527893990278244, 0.09969311952590942, -0.014874648302793503, -0.08026014268398285, -0.026809219270944595, 0.9946744441986084, -0.031094806268811226, -0.03959846496582031, 1.49267578125, 1.42236328125, 0.0649566650390625, 1.4970703125, 1.38720703125, 10.0, 1.0, 10.0, 1.4182449579238892
10947, 1.1550089120864868, 1.0800397396087646, -0.31685417890548706, -0.007252905983477831, -0.007748125120997429, -0.8942450881004333, -0.051951006054878235, -0.05532342195510864, -0.1959148347377777, -0.8285670876502991, -0.9919865131378174, 0.05756893754005432, -1.3849959318493281, -0.14081186668133228, -89.36311206763393, 9362.0, 30146.0, 35388.0, 9362.0, 8.112398147583008, 0.11642917990684509, 0.15066972374916077, -0.21801164746284485, -0.07906058430671692, -0.025927111506462097, 0.9940863847732544, -0.031094806268811226, -0.03959846496582031, 1.49267578125, 1.41357421875, 0.0542449951171875, 1.4970703125, 1.361572265625, 10.0, 1.0, 10.0, 1.4182440042495728
10967, 1.1553963422775269, 1.0818616151809692, -0.3176034390926361, -0.008328918367624283, -0.008893705904483795, -0.8981755375862122, -0.05564962700009346, -0.05923467501997948, -0.19713449478149414, -0.8286171555519104, -0.9919300675392151, 0.057559698820114136, -1.3932428017201897, -0.16140354223375653, -89.3091448450008, 9362.0, 30146.0, 35388.0, 9362.0, 8.112398147583008, 0.0087671410292387, -0.3330060541629791, -0.07239989936351776, -0.0801912173628807, -0.024975720793008804, 0.9950198531150818, -0.031094806268811226, -0.03959846496582031, 1.49267578125, 1.411376953125, 0.05181884765625, 1.4970703125, 1.361572265625, 10.0, 1.0, 10.0, 1.4182440042495728
10987, 1.1540825366973877, 1.0817805528640747, -0.31844574213027954, -0.008328918367624283, -0.008893705904483795, -0.8981755375862122, -0.05564962700009346, -0.05923467501997948, -0.19713449478149414, -0.8286616802215576, -0.9919341802597046, 0.05751650035381317, -1.4038370014009598, -0.16649515989502106, -89.2630451911351, 9362.0, 30146.0, 35388.0, 9362.0, 8.112398147583008, 0.06555995345115662, 0.052002277225255966, -0.02348075993359089, -0.07779577374458313, -0.02277674525976181, 0.9975369572639465, -0.031094806268811226, -0.03959846496582031, 1.49267578125, 1.43994140625, 0.089324951171875, 1.4970703125, 1.361572265625, 10.0, 1.0, 10.0, 1.4179224967956543
11007, 1.1541250944137573, 1.083749771118164, -0.3167734444141388, -0.010703204199671745, -0.011419865302741528, -0.9060975909233093, -0.06307423114776611, -0.06707864999771118, -0.19859471917152405, -0.8286221623420715, -0.9920014142990112, 0.05753237009048462, -1.3947731915860366, -0.14378545420746036, -89.32958085712713, 9362.0, 30146.0, 35388.0, 9362.0, 8.112398147583008, -0.17182110249996185, -0.002680637873709202, 0.06995465606451035, -0.07956954091787338, -0.024090848863124847, 0.9968268275260925, -0.031094806268811226, -0.03959846496582031, 1.49267578125, 1.4443359375, 0.0959930419921875, 1.4970703125, 1.361572265625, 10.0, 1.0, 10.0, 1.4178781509399414
11107, 1.155804991722107, 1.0820430517196655, -0.319089412689209, -0.01794087328016758, -0.019106987863779068, -0.926145613193512, -0.08168209344148636, -0.08666794002056122, -0.2022581398487091, -0.8286586403846741, -0.9919223785400391, 0.05750884488224983, -1.3934546312162686, -0.1588463178048869, -89.27308974169934, 9362.0, 30146.0, 35388.0, 9362.0, 8.112398147583008, 0.07991050183773041, 0.4666600525379181, -0.03061375394463539, -0.07807014882564545, -0.02603154629468918, 0.9969503879547119, -0.04611832648515701, -0.03959846496582031, 1.49267578125, 1.44287109375, 0.0936279296875, 1.49853515625, 1.361572265625, 10.0, 1.0, 10.0, 1.4175243377685547
11127, 1.1545929908752441, 1.0880390405654907, -0.32075220346450806, -0.019611725583672523, -0.020879585295915604, -0.9301971793174744, -0.0854015201330185, -0.09059261530637741, -0.20288370549678802, -0.8286493420600891, -0.9919277429580688, 0.05754508823156357, -1.4087392320578844, -0.1600805766179576, -89.27350137007218, 9362.0, 30146.0, 35388.0, 9362.0, 8.112398147583008, 0.026533542200922966, -0.18304215371608734, -0.13902677595615387, -0.07910531014204025, -0.02363518625497818, 0.9976180791854858, -0.04611832648515701, -0.03959846496582031, 1.49267578125, 1.440673828125, 0.090423583984375, 1.49853515625, 1.361572265625, 10.0, 1.0, 10.0, 1.4175243377685547
11147, 1.1550877094268799, 1.0909537076950073, -0.3200141191482544, -0.019611725583672523, -0.020879585295915604, -0.9301971793174744, -0.0854015201330185, -0.09059261530637741, -0.20288370549678802, -0.8286079168319702, -0.9919942617416382, 0.05753407999873161, -1.3916032499704865, -0.13986237886399522, -89.33596982571737, 9362.0, 30146.0, 35388.0, 9362.0, 8.112398147583008, -0.17180536687374115, 0.07556233555078506, -0.004015375394374132, -0.08041741698980331, -0.02383393608033657, 0.9964106678962708, -0.04611832648515701, -0.03959846496582031, 1.49267578125, 1.43994140625, 0.089324951171875, 1.49853515625, 1.361572265625, 10.0, 1.0, 10.0, 1.4171364307403564
11227, 1.15365469455719, 1.0919259786605835, -0.31353646516799927, -0.028054505586624146, -0.029827488586306572, -0.9485717415809631, -0.10222138464450836, -0.10824791342020035, -0.2053733617067337, -0.8286478519439697, -0.9919340014457703, 0.05754721164703369, -1.4032623093417695, -0.16442041410252273, -89.26856335585572, 9362.0, 30146.0, 35388.0, 9362.0, 8.112398147583008, -0.07858151197433472, -0.07172761857509613, -0.25453975796699524, -0.07915035635232925, -0.026219815015792847, 0.997249186038971, -0.04830852150917053, -0.07543754577636719, 1.48974609375, 1.400390625, 0.04034423828125, 1.497802734375, 1.361572265625, 10.0, 1.0, 10.0, 1.4168789386749268
11247, 1.1544398069381714, 1.0871717929840088, -0.31172093749046326, -0.031205350533127785, -0.033163078129291534, -0.9547474384307861, -0.10783648490905762, -0.11412364989519119, -0.20638373494148254, -0.8286532163619995, -0.9919496178627014, 0.05754603445529938, -1.4027308740541633, -0.16512844157529116, -89.27436614784027, 9362.0, 30146.0, 35388.0, 9362.0, 8.112398147583008, 0.035213712602853775, 0.06205298379063606, 0.09108495712280273, -0.0816209465265274, -0.02532472088932991, 0.9946302771568298, -0.04830852150917053, -0.07543754577636719, 1.48974609375, 1.43701171875, 0.085052490234375, 1.497802734375, 1.361572265625, 10.0, 1.0, 10.0, 1.416767954826355
11267, 1.1553611755371094, 1.0872418880462646, -0.311550498008728, -0.031205350533127785, -0.033163078129291534, -0.9547474384307861, -0.10783648490905762, -0.11412364989519119, -0.20638373494148254, -0.8286532759666443, -0.9919267296791077, 0.05754433572292328, -1.4053519371802168, -0.1638271226561585, -89.27795242867904, 9362.0, 30146.0, 35388.0, 9362.0, 8.112398147583008, -0.056895662099123, 0.06348475068807602, -0.13749700784683228, -0.0816209465265274, -0.02532472088932991, 0.9946302771568298, -0.03950166702270508, -0.15607833862304688, 1.483154296875, 1.434814453125, 0.081787109375, 1.49560546875, 1.361572265625, 10.0, 1.0, 10.0, 1.416860818862915
11287, 1.1544296741485596, 1.0894314050674438, -0.31060391664505005, -0.03566817194223404, -0.03788474574685097, -0.9630352258682251, -0.1153060793876648, -0.12196812778711319, -0.207694411277771, -0.8286551833152771, -0.9919328093528748, 0.05754243955016136, -1.4053328188099683, -0.16383955105501968, -89.26871222237897, 9362.0, 30146.0, 35388.0, 9362.0, 8.112398147583008, -0.03420455753803253, 0.004838575143367052, -0.04310360550880432, -0.08079192787408829, -0.024064170196652412, 0.9952457547187805, -0.03950166702270508, -0.15607833862304688, 1.483154296875, 1.43408203125, 0.080810546875, 1.49560546875, 1.361572265625, 10.0, 1.0, 10.0, 1.4169292449951172
11347, 1.1547136306762695, 1.0926152467727661, -0.31177228689193726, -0.04166710749268532, -0.0442279577255249, -0.9734733700752258, -0.1246555745601654, -0.13175524771213531, -0.21004816889762878, -0.8286542892456055, -0.9919310212135315, 0.057523034512996674, -1.4010579432600845, -0.1605892848338044, -89.2723665654518, 9362.0, 30146.0, 35388.0, 9362.0, 8.112398147583008, -0.15111640095710754, 0.0675710141658783, -0.07132606953382492, -0.08100277930498123, -0.02847973071038723, 0.9990302920341492, -0.03950166702270508, -0.15607833862304688, 1.483154296875, 1.4208984375, 0.063079833984375, 1.4912109375, 1.361572265625, 10.0, 1.0, 10.0, 1.4169292449951172
11367, 1.1538810729980469, 1.0957285165786743, -0.3141648471355438, -0.04166710749268532, -0.0442279577255249, -0.9734733700752258, -0.1246555745601654, -0.13175524771213531, -0.21004816889762878, -0.8286141157150269, -0.9919922947883606, 0.05756392702460289, -1.390118968008928, -0.1484223345506166, -89.33557804959439, 9362.0, 30146.0, 35388.0, 9362.0, 8.112398147583008, 0.1034274771809578, -0.12058389186859131, 0.20906409621238708, -0.08068466931581497, -0.025334537029266357, 0.9958457946777344, -0.03950166702270508, -0.15607833862304688, 1.483154296875, 1.447998046875, 0.1016693115234375, 1.4912109375, 1.361572265625, 10.0, 1.0, 10.0, 1.4169292449951172
11387, 1.1539727449417114, 1.0989636182785034, -0.3154745101928711, -0.04813441261649132, -0.05106072500348091, -0.9840201735496521, -0.13403865694999695, -0.14155344665050507, -0.21188299357891083, -0.8286134600639343, -0.9919993877410889, 0.05752723291516304, -1.3988121332185144, -0.14751951457125756, -89.33244727178928, 9362.0, 30146.0, 35388.0, 9362.0, 8.112398147583008, -0.152673602104187, -0.00880035012960434, -0.1155959889292717, -0.07995492964982986, -0.025838876143097878, 0.9977774024009705, -0.03950166702270508, -0.15607833862304688, 1.483154296875, 1.39013671875, 0.0314483642578125, 1.4912109375, 1.361572265625, 10.0, 1.0, 10.0, 1.4167193174362183
11467, 1.1514776945114136, 1.0996894836425781, -0.3106396198272705, -0.057979289442300797, -0.061449408531188965, -0.9989293217658997, -0.14723505079746246, -0.1552581489086151, -0.21440625190734863, -0.8286481499671936, -0.991936981678009, 0.05752309039235115, -1.4022502235495966, -0.1597404093659236, -89.2772922863029, 9362.0, 30146.0, 35388.0, 9362.0, 8.112398147583008, -0.06853146851062775, 0.058639101684093475, 0.0867563858628273, -0.08038337528705597, -0.026540430262684822, 0.9947481155395508, -0.037245672196149826, -0.08439826965332031, 1.489013671875, 1.408447265625, 0.0485382080078125, 1.49267578125, 1.361572265625, 10.0, 1.0, 10.0, 1.4170478582382202
11507, 1.15215265750885, 1.0989909172058105, -0.3115227520465851, -0.06401951611042023, -0.0678161010146141, -1.0075397491455078, -0.1547749638557434, -0.1630718857049942, -0.2162938266992569, -0.8286504149436951, -0.9919257164001465, 0.0575251504778862, -1.405381962476617, -0.1564941354014877, -89.27330405693824, 9362.0, 30146.0, 35388.0, 9362.0, 8.112398147583008, 0.06340432167053223, 0.27855822443962097, 0.08290755748748779, -0.07874372601509094, -0.026136226952075958, 0.9983834028244019, -0.037245672196149826, -0.08439826965332031, 1.489013671875, 1.408447265625, 0.0485382080078125, 1.494873046875, 1.361572265625, 10.0, 1.0, 10.0, 1.4167311191558838
11567, 1.153952717781067, 1.0977228879928589, -0.3059467375278473, -0.0753159373998642, -0.0797104611992836, -1.0227696895599365, -0.1679748147726059, -0.17676791548728943, -0.2188844531774521, -0.8286487460136414, -0.9919230341911316, 0.05752795189619064, -1.4066430940103576, -0.15771206510621028, -89.27346113900072, 9362.0, 30146.0, 35388.0, 9362.0, 8.112398147583008, -0.023929990828037262, -0.0008199587464332581, -0.24912509322166443, -0.081721730530262, -0.02757929265499115, 0.9978280663490295, -0.04890402778983116, 0.03208160400390625, 1.49853515625, 1.39599609375, 0.0362701416015625, 1.494873046875, 1.361572265625, 10.0, 1.0, 10.0, 1.4166768789291382
11607, 1.152917742729187, 1.0940728187561035, -0.30313602089881897, -0.08044002205133438, -0.08510178327560425, -1.029343843460083, -0.17363151907920837, -0.1826554238796234, -0.21932390332221985, -0.8286493420600891, -0.9919391870498657, 0.05751462280750275, -1.4052759973277784, -0.15171172057713989, -89.27361401021552, 9362.0, 30146.0, 35388.0, 9362.0, 8.112398147583008, 0.021077003329992294, -0.16197381913661957, -0.18557865917682648, -0.0817851722240448, -0.025543443858623505, 0.9980510473251343, -0.04890402778983116, 0.03208160400390625, 1.49853515625, 1.38427734375, 0.027099609375, 1.490478515625, 1.361572265625, 10.0, 1.0, 10.0, 1.4165105819702148
11627, 1.1529728174209595, 1.095314383506775, -0.302458256483078, -0.08573376387357712, -0.09066984802484512, -1.0359280109405518, -0.1792794018983841, -0.18854489922523499, -0.21974439918994904, -0.8286023736000061, -0.9920023083686829, 0.05754530802369118, -1.3960906858052344, -0.1428041276844283, -89.33583157204846, 9362.0, 30146.0, 35388.0, 9362.0, 8.112398147583008, -0.08977562934160233, 0.006166715174913406, 0.09952652454376221, -0.07986330986022949, -0.024834316223859787, 0.9970564842224121, -0.04890402778983116, 0.03208160400390625, 1.49853515625, 1.42529296875, 0.0688018798828125, 1.490478515625, 1.361572265625, 10.0, 1.0, 10.0, 1.4163308143615723
11647, 1.1514501571655273, 1.0972983837127686, -0.2993718385696411, -0.08935696631669998, -0.09447994828224182, -1.040328025817871, -0.1830407679080963, -0.19246453046798706, -0.2202766239643097, -0.8286436796188354, -0.991948127746582, 0.05753587931394577, -1.4080647713834544, -0.17330032732607492, -89.27675472761726, 9362.0, 30146.0, 35388.0, 9362.0, 8.112398147583008, -0.1202932596206665, 0.18524077534675598, -0.206206277012825, -0.0797404870390892, -0.02670016884803772, 0.9982128739356995, -0.04890402778983116, 0.03208160400390625, 1.49853515625, 1.415771484375, 0.0568695068359375, 1.490478515625, 1.361572265625, 10.0, 1.0, 10.0, 1.4163308143615723
11667, 1.150612473487854, 1.0944465398788452, -0.30106547474861145, -0.08935696631669998, -0.09447994828224182, -1.040328025817871, -0.1830407679080963, -0.19246453046798706, -0.2202766239643097, -0.8286628723144531, -0.9919581413269043, 0.057528235018253326, -1.4020231590383765, -0.1763037369829874, -89.26380692433769, 9362.0, 30146.0, 35388.0, 9362.0, 8.112398147583008, 0.017941517755389214, -0.11514165997505188, 0.008232366293668747, -0.08050057291984558, -0.02522473782300949, 0.9957045912742615, -0.0339265912771225, -0.01271820068359375, 1.494873046875, 1.3974609375, 0.03759765625, 1.493408203125, 1.361572265625, 10.0, 1.0, 10.0, 1.4161981344223022
11747, 1.1528645753860474, 1.0957880020141602, -0.2990107536315918, -0.10659255087375641, -0.11259408295154572, -1.0602754354476929, -0.19997058808803558, -0.21006715297698975, -0.2231411635875702, -0.8286468386650085, -0.9919558167457581, 0.05755598843097687, -1.4017656823910445, -0.1803413463379684, -89.27558205693774, 9362.0, 30146.0, 35388.0, 9362.0, 8.112398147583008, 0.16569705307483673, 0.3055315315723419, -0.0652569979429245, -0.08231973648071289, -0.0245840884745121, 0.9954168796539307, -0.0339265912771225, -0.01271820068359375, 1.494873046875, 1.390869140625, 0.0319671630859375, 1.494140625, 1.361572265625, 10.0, 1.0, 10.0, 1.4160311222076416
11767, 1.150620698928833, 1.096686601638794, -0.3003048896789551, -0.11267638951539993, -0.11898423731327057, -1.0669822692871094, -0.20561429858207703, -0.2159394770860672, -0.2241624891757965, -0.8286083340644836, -0.9920105338096619, 0.05753225460648537, -1.3898654461860789, -0.15140624138436465, -89.33606381955926, 9362.0, 30146.0, 35388.0, 9362.0, 8.112398147583008, -0.29986655712127686, -0.19648593664169312, -0.202198326587677, -0.08053366839885712, -0.025193989276885986, 0.996687650680542, -0.0339265912771225, -0.01271820068359375, 1.494873046875, 1.423095703125, 0.06591796875, 1.494140625, 1.361572265625, 10.0, 1.0, 10.0, 1.4161790609359741
11777, 1.14962899684906, 1.0962201356887817, -0.30268412828445435, -0.11474192142486572, -0.12115340679883957, -1.0692263841629028, -0.20749174058437347, -0.21789498627185822, -0.22465147078037262, -0.8286481499671936, -0.9919498562812805, 0.057537954300642014, -1.404599261078864, -0.17731248969906233, -89.27678344994182, 9362.0, 30146.0, 35388.0, 9362.0, 8.112398147583008, -0.4032941162586212, 0.26616811752319336, -0.12859635055065155, -0.07978647202253342, -0.025546133518218994, 0.9972426295280457, -0.0339265912771225, -0.01271820068359375, 1.494873046875, 1.42822265625, 0.0726470947265625, 1.49267578125, 1.361572265625, 10.0, 1.0, 10.0, 1.4160069227218628
11787, 1.1484583616256714, 1.0965003967285156, -0.30413320660591125, -0.11682625114917755, -0.1233421266078949, -1.0714744329452515, -0.20937412977218628, -0.21984954178333282, -0.22495928406715393, -0.8285977840423584, -0.9919974207878113, 0.057550910860300064, -1.3938328197982819, -0.15290408555418367, -89.33358154755634, 9362.0, 30146.0, 35388.0, 9362.0, 8.112398147583008, 0.05011187121272087, 0.083079032599926, -0.09891212731599808, -0.07987083494663239, -0.02794910967350006, 0.9972315430641174, -0.0339265912771225, -0.01271820068359375, 1.494873046875, 1.44873046875, 0.102813720703125, 1.49267578125, 1.361572265625, 10.0, 1.0, 10.0, 1.4159166812896729
11807, 1.1475213766098022, 1.100821614265442, -0.30493298172950745, -0.1210513636469841, -0.12777815759181976, -1.075980305671692, -0.2131367176771164, -0.22375208139419556, -0.22563351690769196, -0.8286544680595398, -0.991946816444397, 0.057523008435964584, -1.407076820915624, -0.1689836508751057, -89.27055915697164, 9362.0, 30146.0, 35388.0, 9362.0, 8.112398147583008, 0.011695735156536102, -0.3692435920238495, -0.20963913202285767, -0.07908377051353455, -0.02965848706662655, 0.9949316382408142, -0.0339265912771225, -0.01271820068359375, 1.494873046875, 1.411376953125, 0.05181884765625, 1.494140625, 1.361572265625, 10.0, 1.0, 10.0, 1.4158992767333984
11817, 1.147905945777893, 1.1039799451828003, -0.30498799681663513, -0.12319213151931763, -0.13002541661262512, -1.0782387256622314, -0.21501727402210236, -0.22569940984249115, -0.2260606735944748, -0.8286522030830383, -0.9919359683990479, 0.05752427130937576, -1.4056009718024367, -0.17046782817720896, -89.27834874654249, 9362.0, 30146.0, 35388.0, 9362.0, 8.112398147583008, 0.04512555152177811, -0.2916348874568939, -0.16592074930667877, -0.07907696813344955, -0.02570292539894581, 0.9963572025299072, -0.0339265912771225, -0.01271820068359375, 1.494873046875, 1.41064453125, 0.0509490966796875, 1.49560546875, 1.361572265625, 10.0, 1.0, 10.0, 1.4158765077590942
11827, 1.1484075784683228, 1.1043920516967773, -0.3045492470264435, -0.12319213151931763, -0.13002541661262512, -1.0782387256622314, -0.21501727402210236, -0.22569940984249115, -0.2260606735944748, -0.8286466002464294, -0.9919291734695435, 0.057512715458869934, -1.4105347940339645, -0.17509887103710753, -89.27204823610215, 9362.0, 30146.0, 35388.0, 9362.0, 8.112398147583008, 0.04512555152177811, -0.2916348874568939, -0.16592074930667877, -0.08041803538799286, -0.023575792089104652, 0.9970590472221375, -0.0339265912771225, -0.01271820068359375, 1.494873046875, 1.386474609375, 0.028656005859375, 1.49560546875, 1.361572265625, 10.0, 1.0, 10.0, 1.4158713817596436
11837, 1.1493724584579468, 1.1044358015060425, -0.3028950095176697, -0.12753021717071533, -0.13457831740379333, -1.0827696323394775, -0.21879567205905914, -0.2295922487974167, -0.22698435187339783, -0.8286113142967224, -0.991999089717865, 0.057536959648132324, -1.3946050076651757, -0.14105537498409149, -89.332908491842, 9362.0, 30146.0, 35388.0, 9362.0, 8.112398147583008, 0.012918075546622276, 0.04977107420563698, 0.1663130223751068, -0.08059065043926239, -0.026883181184530258, 0.9985518455505371, -0.0339265912771225, -0.01271820068359375, 1.494873046875, 1.406982421875, 0.046966552734375, 1.494140625, 1.361572265625, 10.0, 1.0, 10.0, 1.4158713817596436
11847, 1.1513060331344604, 1.1050010919570923, -0.3019149601459503, -0.12753021717071533, -0.13457831740379333, -1.0827696323394775, -0.21879567205905914, -0.2295922487974167, -0.22698435187339783, -0.8286081552505493, -0.9920092821121216, 0.05754335969686508, -1.390903589534048, -0.1516433125383969, -89.32722036616849, 9362.0, 30146.0, 35388.0, 9362.0, 8.112398147583008, 0.46209532022476196, -0.12065744400024414, 0.42410945892333984, -0.08177177608013153, -0.027449777349829674, 0.9955615997314453, -0.0339265912771225, -0.01271820068359375, 1.494873046875, 1.390869140625, 0.0319671630859375, 1.494140625, 1.361572265625, 10.0, 1.0, 10.0, 1.4158713817596436
11907, 1.1724910736083984, 1.1040834188461304, -0.29355958104133606, -0.14331048727035522, -0.15112915635108948, -1.0987440347671509, -0.23208898305892944, -0.24333922564983368, -0.22901108860969543, -0.8286421895027161, -0.9919608235359192, 0.05753501132130623, -1.4068276529213954, -0.18826829786394228, -89.27758711807935, 9362.0, 30146.0, 35388.0, 9362.0, 8.112398147583008, 0.5233917236328125, 0.44914838671684265, 0.10549388080835342, -0.07789500802755356, -0.023095078766345978, 0.9952817559242249, -0.04485698416829109, 0.0052013397216796875, 1.496337890625, 1.41357421875, 0.0542449951171875, 1.49267578125, 1.361572265625, 10.0, 1.0, 10.0, 1.4154518842697144
11927, 1.1773838996887207, 1.1015571355819702, -0.29519855976104736, -0.1479901820421219, -0.1560356467962265, -1.1033329963684082, -0.23587791621685028, -0.2473117858171463, -0.22990795969963074, -0.8286037445068359, -0.9920446276664734, 0.05754595994949341, -1.3968185038667194, -0.1666031704496902, -89.32963795355043, 9362.0, 30146.0, 35388.0, 9362.0, 8.112398147583008, 0.0882546603679657, -0.08712682127952576, 0.10526645183563232, -0.0810309648513794, -0.025491120293736458, 1.0004528760910034, -0.04485698416829109, 0.0052013397216796875, 1.496337890625, 1.42529296875, 0.0688018798828125, 1.49267578125, 1.361572265625, 10.0, 1.0, 10.0, 1.4156149625778198
11987, 1.182083249092102, 1.1042265892028809, -0.3005848824977875, -0.1624833196401596, -0.1712348312139511, -1.1171730756759644, -0.24721994996070862, -0.2593369483947754, -0.23170848190784454, -0.8286406397819519, -0.9919880628585815, 0.05757329612970352, -1.4082001805036866, -0.20179957816648653, -89.2669465711344, 9362.0, 30146.0, 35388.0, 9362.0, 8.112398147583008, -0.1266908198595047, -0.5912920832633972, -0.21910426020622253, -0.07973269373178482, -0.023610198870301247, 0.9990886449813843, -0.03724396228790283, 0.08584022521972656, 1.5029296875, 1.380615234375, 0.024749755859375, 1.490478515625, 1.361572265625, 10.0, 1.0, 10.0, 1.4157001972198486
12047, 1.1719355583190918, 1.1131799221038818, -0.30015888810157776, -0.17765790224075317, -0.18715645372867584, -1.1311254501342773, -0.258606880903244, -0.27136701345443726, -0.23371575772762299, -0.8286102414131165, -0.991965651512146, 0.05757182091474533, -1.4002280088595969, -0.18521917946966937, -89.30083487267036, 9362.0, 30146.0, 35388.0, 9362.0, 8.112398147583008, -0.23694491386413574, -0.1281997561454773, 0.07297404110431671, -0.07972846925258636, -0.023479897528886795, 0.9981606006622314, -0.03724396228790283, 0.08584022521972656, 1.5029296875, 1.426025390625, 0.069732666015625, 1.493408203125, 1.361572265625, 10.0, 1.0, 10.0, 1.4157395362854004
12057, 1.1678948402404785, 1.1137058734893799, -0.29885417222976685, -0.17765790224075317, -0.18715645372867584, -1.1311254501342773, -0.258606880903244, -0.27136701345443726, -0.23371575772762299, -0.8286067843437195, -0.9919522404670715, 0.057579156011343, -1.391613496659352, -0.17986941375502852, -89.30646428842984, 9362.0, 30146.0, 35388.0, 9362.0, 8.112398147583008, -0.4201488494873047, -0.16309891641139984, -0.05251617357134819, -0.07972846925258636, -0.023479897528886795, 0.9981606006622314, -0.05250200629234314, -0.0037593841552734375, 1.49560546875, 1.426025390625, 0.069732666015625, 1.493408203125, 1.361572265625, 10.0, 1.0, 10.0, 1.4157395362854004
12067, 1.164884328842163, 1.11355721950531, -0.2986961007118225, -0.17765790224075317, -0.18715645372867584, -1.1311254501342773, -0.258606880903244, -0.27136701345443726, -0.23371575772762299, -0.8286013007164001, -0.9919543266296387, 0.05757177993655205, -1.3963674783035689, -0.18559129509847594, -89.30157588408653, 9362.0, 30146.0, 35388.0, 9362.0, 8.112398147583008, -0.47678443789482117, 0.052885718643665314, 0.27067241072654724, -0.08002418279647827, -0.025079548358917236, 0.9935377240180969, -0.05250200629234314, -0.0037593841552734375, 1.49560546875, 1.426025390625, 0.069732666015625, 1.493408203125, 1.361572265625, 10.0, 1.0, 10.0, 1.4157564640045166
12147, 1.1621860265731812, 1.1187126636505127, -0.29220861196517944, -0.20170679688453674, -0.21238239109516144, -1.1523021459579468, -0.275834321975708, -0.28916120529174805, -0.23698192834854126, -0.8286382555961609, -0.9918427467346191, 0.057492926716804504, -1.3324803630900592, -0.04884125544535323, -89.39640861735587, 9362.0, 30146.0, 35388.0, 9362.0, 8.112398147583008, 0.2906584143638611, 0.31686899065971375, 0.06769166886806488, -0.08046255260705948, -0.028676901012659073, 0.9991768002510071, -0.05250200629234314, -0.0037593841552734375, 1.49560546875, 1.434814453125, 0.081787109375, 1.496337890625, 1.361572265625, 10.0, 1.0, 10.0, 1.4160419702529907
12187, 1.1735618114471436, 1.1219197511672974, -0.2909449636936188, -0.2157386839389801, -0.22708682715892792, -1.1641982793807983, -0.285431832075119, -0.29902955889701843, -0.2390499860048294, -0.8286702036857605, -0.9917008280754089, 0.057560645043849945, -1.3708319448557533, -0.039986208940035795, -89.28603629713763, 9362.0, 30146.0, 35388.0, 9362.0, 8.112398147583008, 0.25126367807388306, -0.034143902361392975, -0.267927885055542, -0.08128730207681656, -0.029987217858433723, 0.9989286661148071, -0.05250200629234314, -0.0037593841552734375, 1.49560546875, 1.3974609375, 0.03759765625, 1.49853515625, 1.361572265625, 10.0, 1.0, 10.0, 1.4156116247177124
12207, 1.1800005435943604, 1.124202013015747, -0.29441267251968384, -0.2157386839389801, -0.22708682715892792, -1.1641982793807983, -0.285431832075119, -0.29902955889701843, -0.2390499860048294, -0.828677773475647, -0.9917880296707153, 0.05749177560210228, -1.3518402509749337, -0.06715516385762044, -89.3408496303522, 9362.0, 30146.0, 35388.0, 9362.0, 8.112398147583008, 0.26121091842651367, 0.07628200948238373, -0.15047824382781982, -0.08041970431804657, -0.02445766143500805, 0.9959754943847656, -0.05250200629234314, -0.0037593841552734375, 1.49560546875, 1.408447265625, 0.0485382080078125, 1.494873046875, 1.361572265625, 10.0, 1.0, 10.0, 1.4155961275100708
12267, 1.1936942338943481, 1.125823974609375, -0.2993159890174866, -0.23619048297405243, -0.24850834906101227, -1.181021809577942, -0.29892054200172424, -0.31305667757987976, -0.2415023297071457, -0.828585684299469, -0.9919676184654236, 0.05757028982043266, -1.4009998402658315, -0.18343179129789178, -89.29761929440909, 9362.0, 30146.0, 35388.0, 9362.0, 8.112398147583008, -0.1663418561220169, -0.20732350647449493, -0.2132444679737091, -0.08025256544351578, -0.02117682807147503, 0.9958662390708923, -0.043440356850624084, -0.04855918884277344, 1.491943359375, 1.408447265625, 0.0485382080078125, 1.494140625, 1.361572265625, 10.0, 1.0, 10.0, 1.4152026176452637
12307, 1.1899678707122803, 1.1250520944595337, -0.29876062273979187, -0.25137782096862793, -0.26441439986228943, -1.1931376457214355, -0.30857977271080017, -0.3231945335865021, -0.24288535118103027, -0.8286215662956238, -0.9919382333755493, 0.05754868686199188, -1.4172847217663045, -0.2010669559729763, -89.31485872487016, 9362.0, 30146.0, 35388.0, 9362.0, 8.112398147583008, -0.22184717655181885, 0.12673750519752502, 0.28506097197532654, -0.07802917808294296, -0.02307967096567154, 0.9953531622886658, -0.043440356850624084, -0.04855918884277344, 1.491943359375, 1.41650390625, 0.0577545166015625, 1.4970703125, 1.361572265625, 10.0, 1.0, 10.0, 1.4152253866195679
12327, 1.184707522392273, 1.1292173862457275, -0.29617252945899963, -0.25137782096862793, -0.26441439986228943, -1.1931376457214355, -0.30857977271080017, -0.3231945335865021, -0.24288535118103027, -0.8286013007164001, -0.991962194442749, 0.05756943300366402, -1.3966579450263408, -0.18908714551588446, -89.30335372352982, 9362.0, 30146.0, 35388.0, 9362.0, 8.112398147583008, -0.26765158772468567, -0.020654968917369843, 0.16860517859458923, -0.08117081969976425, -0.024372342973947525, 0.9954053163528442, -0.043440356850624084, -0.04855918884277344, 1.491943359375, 1.43115234375, 0.0766143798828125, 1.4970703125, 1.361572265625, 10.0, 1.0, 10.0, 1.4153729677200317
12347, 1.1784336566925049, 1.129346251487732, -0.2945219576358795, -0.26387539505958557, -0.27750375866889954, -1.2028849124908447, -0.3163032829761505, -0.33125975728034973, -0.24460062384605408, -0.8285879492759705, -0.9919633269309998, 0.05756748095154762, -1.4027977239218226, -0.18919609135869564, -89.30901712995968, 9362.0, 30146.0, 35388.0, 9362.0, 8.112398147583008, -0.2576075792312622, 0.07316838204860687, 0.07293788343667984, -0.07888811081647873, -0.023072462528944016, 0.99358069896698, -0.043440356850624084, -0.04855918884277344, 1.491943359375, 1.402587890625, 0.0425262451171875, 1.4970703125, 1.361572265625, 10.0, 1.0, 10.0, 1.415387511253357
12367, 1.1721152067184448, 1.127824306488037, -0.29093506932258606, -0.2702401280403137, -0.28416895866394043, -1.2077879905700684, -0.3201732933521271, -0.3352614939212799, -0.24553869664669037, -0.8286027312278748, -0.991959273815155, 0.057579405605793, -1.4019618643201015, -0.17695708574029823, -89.30964668183687, 9362.0, 30146.0, 35388.0, 9362.0, 8.112398147583008, -0.38524386286735535, -0.14091065526008606, 0.09163278341293335, -0.08361217379570007, -0.025519782677292824, 0.9971708655357361, -0.043440356850624084, -0.04855918884277344, 1.491943359375, 1.402587890625, 0.0425262451171875, 1.4970703125, 1.361572265625, 10.0, 1.0, 10.0, 1.415316104888916
12387, 1.1647543907165527, 1.1313666105270386, -0.28994593024253845, -0.2702401280403137, -0.28416895866394043, -1.2077879905700684, -0.3201732933521271, -0.3352614939212799, -0.24553869664669037, -0.8286026120185852, -0.9919470548629761, 0.05756589397788048, -1.3988245211051027, -0.1829462055457043, -89.3055937329474, 9362.0, 30146.0, 35388.0, 9362.0, 8.112398147583008, -0.3270095884799957, -0.0853554978966713, -0.000710503663867712, -0.07951485365629196, -0.02718386985361576, 0.9981908202171326, -0.043440356850624084, -0.04855918884277344, 1.491943359375, 1.41064453125, 0.0509490966796875, 1.48974609375, 1.361572265625, 10.0, 1.0, 10.0, 1.4153509140014648
12397, 1.1605579853057861, 1.131392240524292, -0.2874111235141754, -0.27993249893188477, -0.2943165898323059, -1.2151654958724976, -0.32598912715911865, -0.34123703837394714, -0.2463483214378357, -0.8286824226379395, -0.9917872548103333, 0.0575004480779171, -1.3502115671492043, -0.07241161255305428, -89.33237468689033, 9362.0, 30146.0, 35388.0, 9362.0, 8.112398147583008, -0.3692570626735687, 0.27636104822158813, 0.07873868197202682, -0.07903661578893661, -0.028657158836722374, 0.9987176656723022, -0.043440356850624084, -0.04855918884277344, 1.491943359375, 1.40185546875, 0.0417938232421875, 1.4912109375, 1.361572265625, 10.0, 1.0, 10.0, 1.4154202938079834
12407, 1.1571098566055298, 1.1264674663543701, -0.28778961300849915, -0.27993249893188477, -0.2943165898323059, -1.2151654958724976, -0.32598912715911865, -0.34123703837394714, -0.2463483214378357, -0.8286122679710388, -0.9919312000274658, 0.05756460875272751, -1.4107368449115767, -0.16204259930751164, -89.30869082003429, 9362.0, 30146.0, 35388.0, 9362.0, 8.112398147583008, -0.5741065144538879, 0.3190642297267914, 0.0634308010339737, -0.08091632276773453, -0.026923038065433502, 0.9986404180526733, -0.043440356850624084, -0.04855918884277344, 1.491943359375, 1.3974609375, 0.03759765625, 1.4912109375, 1.361572265625, 10.0, 1.0, 10.0, 1.4154547452926636
12417, 1.153173565864563, 1.1269512176513672, -0.2874877154827118, -0.28649115562438965, -0.3011809289455414, -1.2200961112976074, -0.32987675070762634, -0.34519296884536743, -0.2467048168182373, -0.8286789655685425, -0.9917792081832886, 0.05749194696545601, -1.3485810082045189, -0.06225868744678564, -89.34113156666675, 9362.0, 30146.0, 35388.0, 9362.0, 8.112398147583008, -0.15844158828258514, -0.16578775644302368, 0.11638479679822922, -0.07858574390411377, -0.024449443444609642, 0.9960000514984131, -0.043440356850624084, -0.04855918884277344, 1.491943359375, 1.41357421875, 0.0542449951171875, 1.493408203125, 1.361572265625, 10.0, 1.0, 10.0, 1.4153414964675903
12467, 1.1513534784317017, 1.1231915950775146, -0.2928597331047058, -0.30322644114494324, -0.3186853528022766, -1.2324788570404053, -0.3395378589630127, -0.3549736738204956, -0.24839334189891815, -0.8285472393035889, -0.9919945597648621, 0.05753164365887642, -1.39703176594261, -0.14217192267307155, -89.36422947493575, 9362.0, 30146.0, 35388.0, 9362.0, 8.112398147583008, 0.11125928163528442, 0.09634634107351303, -0.1853637844324112, -0.07978782057762146, -0.027528975158929825, 0.9991940259933472, -0.043440356850624084, -0.04855918884277344, 1.491943359375, 1.368896484375, 0.01885986328125, 1.49560546875, 1.396728515625, 10.0, 1.0, 10.0, 1.4153414964675903
12527, 1.1727701425552368, 1.1199923753738403, -0.301675021648407, -0.32044434547424316, -0.33667874336242676, -1.2449339628219604, -0.34915995597839355, -0.36476626992225647, -0.25036105513572693, -0.8285897374153137, -0.9919445514678955, 0.05756485089659691, -1.4072628496731452, -0.18566394669727515, -89.3045608704919, 9362.0, 30146.0, 35388.0, 9362.0, 8.112398147583008, 0.46614521741867065, 0.12534010410308838, -0.32656317949295044, -0.08271662145853043, -0.02259124629199505, 0.9986621737480164, -0.043440356850624084, -0.04855918884277344, 1.491943359375, 1.44287109375, 0.0936279296875, 1.49560546875, 1.396728515625, 10.0, 1.0, 10.0, 1.4149495363235474
12547, 1.1797019243240356, 1.1235411167144775, -0.3013973534107208, -0.32044434547424316, -0.33667874336242676, -1.2449339628219604, -0.34915995597839355, -0.36476626992225647, -0.25036105513572693, -0.8285964131355286, -0.9919517040252686, 0.05755617842078209, -1.4036211998774277, -0.18044942913192585, -89.30209512634747, 9362.0, 30146.0, 35388.0, 9362.0, 8.112398147583008, 0.22610686719417572, 0.23570238053798676, 0.5184694528579712, -0.08013740181922913, -0.02159980498254299, 0.9959587454795837, -0.043440356850624084, -0.04855918884277344, 1.491943359375, 1.40771484375, 0.0478363037109375, 1.4970703125, 1.396728515625, 10.0, 1.0, 10.0, 1.4149495363235474
12567, 1.18218994140625, 1.123782753944397, -0.3040430247783661, -0.33814316987991333, -0.3551657497882843, -1.2574810981750488, -0.35878312587738037, -0.37472307682037354, -0.25218525528907776, -0.8286716341972351, -0.9917982220649719, 0.0574825257062912, -1.3498823396032191, -0.09314504709820426, -89.32372623293877, 9362.0, 30146.0, 35388.0, 9362.0, 8.112398147583008, 0.20988668501377106, 0.21899594366550446, 0.1587553471326828, -0.08108940720558167, -0.023470880463719368, 0.9978352189064026, -0.04371369257569313, -0.14711761474609375, 1.48388671875, 1.40771484375, 0.0478363037109375, 1.4970703125, 1.396728515625, 10.0, 1.0, 10.0, 1.4150190353393555
12687, 1.1583263874053955, 1.12504243850708, -0.2993451654911041, -0.3825870454311371, -0.4015774726867676, -1.2880216836929321, -0.3819713890552521, -0.39875370264053345, -0.25655531883239746, -0.8285988569259644, -0.9919367432594299, 0.05752956494688988, -1.4095114675802634, -0.16539299125881257, -89.3005367819146, 9362.0, 30146.0, 35388.0, 9362.0, 8.112398147583008, -0.20340245962142944, 0.4354144036769867, -0.40426233410835266, -0.07791102677583694, -0.027262620627880096, 0.992308497428894, -0.04371369257569313, -0.14711761474609375, 1.48388671875, 1.40185546875, 0.0417938232421875, 1.493408203125, 1.396728515625, 10.0, 1.0, 10.0, 1.4146109819412231
12707, 1.1567370891571045, 1.1246836185455322, -0.3014485538005829, -0.3825870454311371, -0.4015774726867676, -1.2880216836929321, -0.3819713890552521, -0.39875370264053345, -0.25655531883239746, -0.8286751508712769, -0.9917850494384766, 0.057472120970487595, -1.348348962430086, -0.08677039783208329, -89.33131825225277, 9362.0, 30146.0, 35388.0, 9362.0, 8.112398147583008, -0.17365409433841705, -0.2223348319530487, 0.11622684448957443, -0.07978750765323639, -0.02968052588403225, 1.0003513097763062, -0.04371369257569313, -0.14711761474609375, 1.48388671875, 1.424560546875, 0.0678253173828125, 1.493408203125, 1.396728515625, 10.0, 1.0, 10.0, 1.4142954349517822
12807, 1.1686993837356567, 1.1154017448425293, -0.29990771412849426, -0.42576950788497925, -0.44662779569625854, -1.316514253616333, -0.40316805243492126, -0.4203587770462036, -0.26039981842041016, -0.8285710215568542, -0.991958498954773, 0.05754023790359497, -1.4155010403519186, -0.19281609553942758, -89.31144768228813, 9362.0, 30146.0, 35388.0, 9362.0, 8.112398147583008, 0.36280399560928345, 0.4496390223503113, 0.21214008331298828, -0.08214586973190308, -0.026559650897979736, 0.9986417293548584, -0.04946190118789673, -0.0037593841552734375, 1.49560546875, 1.4384765625, 0.0871429443359375, 1.49560546875, 1.396728515625, 10.0, 1.0, 10.0, 1.414027452468872
12847, 1.1798824071884155, 1.1226752996444702, -0.2972741425037384, -0.4461670219898224, -0.4678925573825836, -1.3296046257019043, -0.41275715827941895, -0.43027788400650024, -0.262082040309906, -0.8285747170448303, -0.9919664263725281, 0.057548876851797104, -1.4120691359620854, -0.1879807898136221, -89.30172268804374, 9362.0, 30146.0, 35388.0, 9362.0, 8.112398147583008, 0.2410838007926941, -0.3490939736366272, 0.13907480239868164, -0.08044780045747757, -0.025598157197237015, 0.9907368421554565, -0.04946190118789673, -0.0037593841552734375, 1.49560546875, 1.3740234375, 0.0210723876953125, 1.49267578125, 1.396728515625, 10.0, 1.0, 10.0, 1.4140875339508057
12887, 1.185836672782898, 1.1270793676376343, -0.2968066930770874, -0.4461670219898224, -0.4678925573825836, -1.3296046257019043, -0.41275715827941895, -0.43027788400650024, -0.262082040309906, -0.828675389289856, -0.9917953014373779, 0.05747942999005318, -1.3525746437136736, -0.08674591372295026, -89.33081754884243, 9362.0, 30146.0, 35388.0, 9362.0, 8.112398147583008, -0.12101191282272339, -0.033865053206682205, 0.2549201250076294, -0.08010775595903397, -0.024582652375102043, 0.995984673500061, -0.04946190118789673, -0.0037593841552734375, 1.49560546875, 1.46044921875, 0.12200927734375, 1.494140625, 1.396728515625, 10.0, 1.0, 10.0, 1.414047360420227
12987, 1.1670136451721191, 1.129757285118103, -0.3025284707546234, -0.5014549493789673, -0.5255218744277954, -1.3640997409820557, -0.4378735423088074, -0.4563179314136505, -0.2676366865634918, -0.8285823464393616, -0.9919338822364807, 0.057532329112291336, -1.4144610119407552, -0.16106146558882983, -89.30171296308377, 9362.0, 30146.0, 35388.0, 9362.0, 8.112398147583008, -0.0694984495639801, 0.14987410604953766, -0.009456681087613106, -0.08017118275165558, -0.02639722265303135, 0.9946572780609131, -0.04946190118789673, -0.0037593841552734375, 1.49560546875, 1.367431640625, 0.0183258056640625, 1.493408203125, 1.396728515625, 10.0, 1.0, 10.0, 1.4143760204315186
13027, 1.1654528379440308, 1.1278862953186035, -0.3015909492969513, -0.523590624332428, -0.5485853552818298, -1.3775372505187988, -0.44755882024765015, -0.46622365713119507, -0.26943257451057434, -0.8286734819412231, -0.9918410778045654, 0.057594362646341324, -1.3683124193292306, -0.14028051759959226, -89.26721899025705, 9362.0, 30146.0, 35388.0, 9362.0, 8.112398147583008, -0.13911716639995575, -0.1458917260169983, 0.07896251976490021, -0.07819630950689316, -0.025682272389531136, 0.995535671710968, -0.04946190118789673, -0.0037593841552734375, 1.49560546875, 1.4267578125, 0.070709228515625, 1.494140625, 1.396728515625, 10.0, 1.0, 10.0, 1.4142941236495972
13047, 1.167418122291565, 1.1272114515304565, -0.301232248544693, -0.523590624332428, -0.5485853552818298, -1.3775372505187988, -0.44755882024765015, -0.46622365713119507, -0.26943257451057434, -0.8286638259887695, -0.9917915463447571, 0.05747906118631363, -1.3596857903879034, -0.08705257269051003, -89.3328125255593, 9362.0, 30146.0, 35388.0, 9362.0, 8.112398147583008, 0.2023255079984665, 0.047746412456035614, 0.11065160483121872, -0.08078154176473618, -0.02754860185086727, 0.99611496925354, -0.04946190118789673, -0.0037593841552734375, 1.49560546875, 1.41943359375, 0.0612945556640625, 1.494140625, 1.396728515625, 10.0, 1.0, 10.0, 1.4142941236495972
13067, 1.1725980043411255, 1.122611165046692, -0.3024364709854126, -0.523590624332428, -0.5485853552818298, -1.3775372505187988, -0.44755882024765015, -0.46622365713119507, -0.26943257451057434, -0.8285685777664185, -0.9919454455375671, 0.057522136718034744, -1.4062892100715103, -0.1843587656207717, -89.29921710012681, 9362.0, 30146.0, 35388.0, 9362.0, 8.112398147583008, 0.20293834805488586, -0.3681721091270447, -0.06738603115081787, -0.08078154176473618, -0.02754860185086727, 0.99611496925354, -0.049918122589588165, -0.03959846496582031, 1.49267578125, 1.4560546875, 0.1147003173828125, 1.493408203125, 1.396728515625, 10.0, 1.0, 10.0, 1.4142941236495972
13087, 1.1789257526397705, 1.127049446105957, -0.3031763434410095, -0.523590624332428, -0.5485853552818298, -1.3775372505187988, -0.44755882024765015, -0.46622365713119507, -0.26943257451057434, -0.8285768628120422, -0.9919522404670715, 0.05755816772580147, -1.4223343259732417, -0.18962354579494445, -89.3026120447601, 9362.0, 30146.0, 35388.0, 9362.0, 8.112398147583008, 0.3760465085506439, -0.48045846819877625, 0.03865790739655495, -0.0813995897769928, -0.02656739391386509, 0.9977549910545349, -0.049918122589588165, -0.03959846496582031, 1.49267578125, 1.427490234375, 0.0716400146484375, 1.493408203125, 1.396728515625, 10.0, 1.0, 10.0, 1.4144177436828613
