timeTick, roll, pitch, yaw, stateX, stateY, stateZ, stateVX, stateVY, stateVZ, otX0, otY0, otZ0, otRoll0, otPitch0, otYaw0, left wing, pitch motor, yaw motor, right wing, voltage, roll rate, pitch rate, yaw rate, A_x, A_y, A_z, current, i_raw, v_raw, airflow_voltage, airflow_speed, pot_Pitch, voltage_nKF, kFFx, state, State, volt_KF
15945, 0.8029714226722717, 0.8742088675498962, 2.213911294937134, 0, 0, 0, 0, 0, 0, -0.8238906860351562, -0.9791351556777954, 0.0561290867626667, -2.325265107802337, 0.24196345794669583, -91.81147544286137, 0, 0, 0, 0, 0, 0, 0, 0, 0, 0, 0, 0, 0, 0, 0, 0, 0, 0, 0, 0, 0, 0
15955, 0.803519070148468, 0.8747177124023438, 2.2148244380950928, 0.0001888593251351267, 0.00018756644567474723, -5.313906669616699, 0.008013504557311535, 0.007957273162901402, -0.7423324584960938, -0.8239255547523499, -0.9790858626365662, 0.05616753548383713, -2.3535980792573583, 0.2451030350215433, -91.85362215968203, 9362.0, 30146.0, 35388.0, 9362.0, 0, 0.207838773727417, 0.41173237562179565, 0.1343008577823639, -0.10475299507379532, -0.03518219664692879, 0.9954317808151245, 0, 0, 0, 0, 0, 0, 0, 0, 0, 0, 0
15965, 0.8034340143203735, 0.8749119639396667, 2.2147631645202637, 0.00026182562578469515, 0.00026002409867942333, -5.321332931518555, 0.006579784210771322, 0.006534244399517775, -0.7429389953613281, -0.82391357421875, -0.9791043996810913, 0.056162431836128235, -2.3471721083992736, 0.23903931920295918, -91.858719047447, 9362.0, 30146.0, 35388.0, 9362.0, 0, -0.024731386452913284, 0.056782107800245285, -0.014523192308843136, -0.1047634705901146, -0.03447993844747543, 0.9931277632713318, 0, 0, 0, 0.961669921875, 3.9338836669921875, 0, 1.732177734375, 10.0, 1.0, 10.0, 1.358814001083374
15975, 0.8039807081222534, 0.8726727962493896, 2.214111804962158, 0.0003204436507076025, 0.0003182395303156227, -5.328764915466309, 0.0051438212394714355, 0.0051088458858430386, -0.7434499263763428, -0.8239223957061768, -0.9790858626365662, 0.056173186749219894, -2.3518688022944554, 0.25353250175538733, -91.85459328243546, 9362.0, 30146.0, 35388.0, 9362.0, 0, -0.030213085934519768, -0.007408914156258106, -0.12993022799491882, -0.10892214626073837, -0.03392280638217926, 0.991960346698761, 0, 0, 0, 0.626220703125, 23.379318237304688, 1.48974609375, 1.67724609375, 10.0, 1.0, 10.0, 1.3580036163330078
15985, 0.8031009435653687, 0.8762428164482117, 2.214571475982666, 0.00036472189822234213, 0.000362223043339327, -5.336203575134277, 0.0037117800675332546, 0.0036878774408251047, -0.7442533373832703, -0.8238862752914429, -0.979138970375061, 0.05612577497959137, -2.327359689976291, 0.24170114991059677, -91.81233030098433, 9362.0, 30146.0, 35388.0, 9362.0, 0, 0.02428857609629631, -0.345683753490448, -0.11713644862174988, -0.10742370039224625, -0.03270932286977768, 0.9946292042732239, 0, 0, 0, 1.89990234375, 1.4202880859375, 1.48974609375, 1.236328125, 10.0, 1.0, 10.0, 1.3569811582565308
15995, 0.8033072352409363, 0.8758770227432251, 2.2138171195983887, 0.00039468848262913525, 0.0003919827286154032, -5.343649387359619, 0.002281586406752467, 0.00226404145359993, -0.7449158430099487, -0.8238784074783325, -0.9791401028633118, 0.056116629391908646, -2.3165501237512136, 0.24405220434815078, -91.81362221111394, 9362.0, 30146.0, 35388.0, 9362.0, 0, 0.0886702761054039, 0.20798194408416748, 0.14312517642974854, -0.1066586971282959, -0.03405039757490158, 0.9950100779533386, 0, 0, 0, 1.36083984375, 0.016387939453125, 1.48974609375, 1.2509765625, 10.0, 1.0, 10.0, 1.3589338064193726
16005, 0.8034675717353821, 0.8756231665611267, 2.214020013809204, 0.0004103165993001312, 0.00040750441257841885, -5.351101398468018, 0.0008440161473117769, 0.0008403180981986225, -0.7454977035522461, -0.8238841891288757, -0.9791258573532104, 0.056128062307834625, -2.326414038391164, 0.24978393374772168, -91.80417304657932, 9362.0, 30146.0, 35388.0, 9362.0, 0, -0.05737798288464546, -0.027774421498179436, -0.024515176191926003, -0.10712407529354095, -0.037035681307315826, 0.9924329519271851, 0, 0, 0, 0.927978515625, 4.929107666015625, 1.48974609375, 1.833984375, 10.0, 1.0, 10.0, 1.3598438501358032
16015, 0.8037807941436768, 0.8747392892837524, 2.2151150703430176, 0.00041157242958433926, 0.00040878765867091715, -5.3585591316223145, -0.0005928446771577001, -0.0005836730124428868, -0.7460838556289673, -0.8239147067070007, -0.9790922999382019, 0.05618482828140259, -2.34968674318967, 0.2527748884632217, -91.85969816677397, 9362.0, 30146.0, 35388.0, 9362.0, 0, -0.15959112346172333, -0.22225980460643768, -0.006652433890849352, -0.10608133673667908, -0.03521187603473663, 0.9948253035545349, 0, 0, 0, 1.85595703125, 1.1980743408203125, 1.4912109375, 0.7236328125, 10.0, 1.0, 10.0, 1.3576973676681519
16025, 0.8035893440246582, 0.874800443649292, 2.216050624847412, 0.0003984707873314619, 0.0003958384913858026, -5.366023540496826, -0.0020274685230106115, -0.0020061826799064875, -0.746790885925293, -0.8238834142684937, -0.9791308641433716, 0.05614848807454109, -2.3302606398601298, 0.2460648027036143, -91.8122813356104, 9362.0, 30146.0, 35388.0, 9362.0, 0, 0.07768309116363525, 0.16797418892383575, 0.11671990901231766, -0.10542293637990952, -0.03451015427708626, 0.9930762052536011, 0, 0, 0, 1.74169921875, 0.78497314453125, 1.4912109375, 1.667724609375, 10.0, 1.0, 10.0, 1.3559662103652954
16035, 0.8033723831176758, 0.8740926384925842, 2.2153007984161377, 0.0003710217715706676, 0.00036865289439447224, -5.3734941482543945, -0.0034623094834387302, -0.0034309565089643, -0.7473772168159485, -0.8238782286643982, -0.9791311621665955, 0.0561041533946991, -2.3174547131893175, 0.24585520880265221, -91.82046348033568, 9362.0, 30146.0, 35388.0, 9362.0, 0, 0.08714126795530319, 0.08556719124317169, 0.34274694323539734, -0.1065540462732315, -0.03467657044529915, 0.9931250810623169, 0, 0, 0, 1.519775390625, 0.236236572265625, 1.489013671875, 1.367431640625, 10.0, 1.0, 10.0, 1.3532310724258423
16045, 0.8024924993515015, 0.8736933469772339, 2.2158477306365967, 0.0003292348701506853, 0.0003272319445386529, -5.380971431732178, -0.004895100835710764, -0.004853213205933571, -0.7481127977371216, -0.8238828182220459, -0.9791380763053894, 0.05613214895129204, -2.3214169397038713, 0.24856459780366436, -91.81146965797528, 9362.0, 30146.0, 35388.0, 9362.0, 8.152067184448242, -0.24902363121509552, -0.3848484456539154, -0.18536746501922607, -0.10714340209960938, -0.03405061364173889, 0.9928761124610901, -0.05814686417579651, -0.03959846496582031, 1.49267578125, 1.57763671875, 0.3647918701171875, 1.489013671875, 1.127197265625, 10.0, 1.0, 10.0, 1.3546802997589111
16055, 0.8024256229400635, 0.8736037611961365, 2.2160696983337402, 0.00027312192833051085, 0.00027158670127391815, -5.388455867767334, -0.006327474489808083, -0.006275862921029329, -0.7487944960594177, -0.8238813281059265, -0.9791367650032043, 0.05614016577601433, -2.3202723168867636, 0.23396269436727835, -91.82032590561707, 9362.0, 30146.0, 35388.0, 9362.0, 8.152067184448242, 0.017727117985486984, 0.07067226618528366, 0.19605295360088348, -0.10672540962696075, -0.03293022885918617, 0.9949818253517151, -0.05814686417579651, -0.03959846496582031, 1.49267578125, 1.74609375, 0.7981414794921875, 1.491943359375, 1.734375, 10.0, 1.0, 10.0, 1.354398250579834
16065, 0.8029353022575378, 0.8727151155471802, 2.217773675918579, 0.00020268591470085084, 0.00020172004587948322, -5.395946979522705, -0.007759721949696541, -0.00769747793674469, -0.7494422197341919, -0.8239081501960754, -0.9790909290313721, 0.05616737902164459, -2.3428077417385795, 0.2501902293156206, -91.86178246668808, 9362.0, 30146.0, 35388.0, 9362.0, 8.152067184448242, 0.04917839914560318, -0.32455119490623474, -0.19549496471881866, -0.10651356726884842, -0.0334058478474617, 0.9932434558868408, -0.05814686417579651, -0.03959846496582031, 1.49267578125, 1.55419921875, 0.311279296875, 1.491943359375, 1.036376953125, 10.0, 1.0, 10.0, 1.3549472093582153
16075, 0.8035392165184021, 0.8718530535697937, 2.2158310413360596, 0.00011792291479650885, 0.00011763252405216917, -5.403444290161133, -0.009192846715450287, -0.009120067581534386, -0.7500177621841431, -0.8239079713821411, -0.9790908694267273, 0.056158266961574554, -2.3432273525473803, 0.25249237360790744, -91.80441320694882, 9362.0, 30146.0, 35388.0, 9362.0, 8.152067184448242, -0.05173188075423241, 0.023808656260371208, 0.04298098012804985, -0.10743051022291183, -0.031372640281915665, 0.9900802969932556, -0.05814686417579651, -0.03959846496582031, 1.49267578125, 1.623046875, 0.4723663330078125, 1.491943359375, 0.695068359375, 10.0, 1.0, 10.0, 1.3558244705200195
16085, 0.8031461834907532, 0.8733047246932983, 2.2171220779418945, 1.8854720110539347e-05, 1.9332866941113025e-05, -5.410948753356934, -0.01062085758894682, -0.010539811104536057, -0.7508400678634644, -0.8238823413848877, -0.9791484475135803, 0.05612881854176521, -2.321532057500064, 0.24586387110701935, -91.81749279051921, 9362.0, 30146.0, 35388.0, 9362.0, 8.152067184448242, -0.02965734899044037, 0.13971932232379913, -0.12294314801692963, -0.10661409050226212, -0.034242045134305954, 0.9927471280097961, -0.05814686417579651, -0.03959846496582031, 1.49267578125, 0.896484375, 6.0094451904296875, 1.491943359375, 1.8251953125, 10.0, 1.0, 10.0, 1.3532495498657227
16095, 0.8033040165901184, 0.8720735311508179, 2.217862844467163, -9.448447963222861e-05, -9.31670147110708e-05, -5.418461322784424, -0.012046927586197853, -0.01196020282804966, -0.7516872882843018, -0.8238717913627625, -0.9791465997695923, 0.05612348020076752, -2.329090868455636, 0.23703998922709957, -91.80921526677973, 9362.0, 30146.0, 35388.0, 9362.0, 8.152067184448242, -0.19461052119731903, -0.22690974175930023, 0.07112352550029755, -0.10841145366430283, -0.03481011465191841, 0.9959404468536377, -0.05814686417579651, -0.03959846496582031, 1.49267578125, 0.53759765625, 33.34123229980469, 1.48828125, 1.465576171875, 10.0, 1.0, 10.0, 1.3540000915527344
16105, 0.8028515577316284, 0.8713381886482239, 2.2195346355438232, -0.0002221132890554145, -0.00021988464868627489, -5.425981521606445, -0.01347882766276598, -0.01338334009051323, -0.7523084282875061, -0.8239116072654724, -0.9791006445884705, 0.056164566427469254, -2.347533049737972, 0.25107706946772623, -91.85348821016638, 9362.0, 30146.0, 35388.0, 9362.0, 8.152067184448242, 0.003084347816184163, 0.024376140907406807, -0.10883258283138275, -0.10781599581241608, -0.035111431032419205, 0.9939783215522766, -0.05814686417579651, -0.03959846496582031, 1.49267578125, 1.40185546875, 0.0417938232421875, 1.48828125, 1.11474609375, 10.0, 1.0, 10.0, 1.3525866270065308
16115, 0.802234411239624, 0.8702583909034729, 2.2181944847106934, -0.00036406225990504026, -0.000360846403054893, -5.433506965637207, -0.014910934492945671, -0.01480905432254076, -0.752768874168396, -0.8239149451255798, -0.9790937304496765, 0.05615809187293053, -2.3499450524085033, 0.24510101600623102, -91.85629444535815, 9362.0, 30146.0, 35388.0, 9362.0, 8.152067184448242, -0.16081781685352325, -0.35142970085144043, -0.2769136130809784, -0.1073799729347229, -0.03477195277810097, 0.9937355518341064, -0.05814686417579651, -0.03959846496582031, 1.49267578125, 0.87744140625, 6.7387847900390625, 1.48681640625, 1.76513671875, 10.0, 1.0, 10.0, 1.3499475717544556
16125, 0.8012519478797913, 0.872501790523529, 2.2182114124298096, -0.000520313682500273, -0.0005160492146387696, -5.441037654876709, -0.01633939892053604, -0.0162314735352993, -0.7533968091011047, -0.8238816857337952, -0.9791120290756226, 0.05611446127295494, -2.3232391004068793, 0.26084887717351535, -91.81756953113201, 9362.0, 30146.0, 35388.0, 9362.0, 8.152067184448242, -0.10678008943796158, 0.007697432301938534, -0.13740947842597961, -0.10923346877098083, -0.033681053668260574, 0.9927476644515991, -0.05814686417579651, -0.03959846496582031, 1.49267578125, 1.65673828125, 0.55560302734375, 1.48681640625, 1.7373046875, 10.0, 1.0, 10.0, 1.351530909538269
16135, 0.8006604909896851, 0.8728597164154053, 2.2166857719421387, -0.0006908432114869356, -0.0006854726234450936, -5.448574542999268, -0.017766481265425682, -0.017653219401836395, -0.7539941668510437, -0.8239086270332336, -0.9791145920753479, 0.05616118758916855, -2.3525070370195325, 0.24832128318104196, -91.85621732985565, 9362.0, 30146.0, 35388.0, 9362.0, 8.152067184448242, -0.002184681361541152, -0.11135917901992798, -0.23348666727542877, -0.10950862616300583, -0.0363314263522625, 0.993263304233551, -0.05814686417579651, -0.03959846496582031, 1.49267578125, 0.856201171875, 7.624542236328125, 1.490478515625, 1.21875, 10.0, 1.0, 10.0, 1.3508610725402832
16145, 0.8008744716644287, 0.8728644847869873, 2.2158336639404297, -0.0008756486931815743, -0.0008690917165949941, -5.456118583679199, -0.019194642081856728, -0.019070571288466454, -0.7547863721847534, -0.8239188194274902, -0.9791005849838257, 0.05610615760087967, -2.3486893833423346, 0.2545805001661279, -91.86041394056971, 9362.0, 30146.0, 35388.0, 9362.0, 8.17190170288086, -0.02520538680255413, -0.10042046755552292, -0.07113741338253021, -0.10502665489912033, -0.035419270396232605, 0.9950637221336365, -0.07574725896120071, -0.07543754577636719, 1.48974609375, 1.56005859375, 0.324493408203125, 1.490478515625, 0.856201171875, 10.0, 1.0, 10.0, 1.3513950109481812
16155, 0.8007085919380188, 0.8738170266151428, 2.215726613998413, -0.0010747563792392612, -0.0010668962495401502, -5.463669300079346, -0.02062690258026123, -0.020490307360887527, -0.7553451061248779, -0.8238935470581055, -0.9790877103805542, 0.056144990026950836, -2.3498459406404915, 0.2535604231873094, -91.85699950527992, 9362.0, 30146.0, 35388.0, 9362.0, 8.17190170288086, -0.03513435274362564, 0.019657105207443237, 0.09893187135457993, -0.10607168823480606, -0.03635085001587868, 0.9930219650268555, -0.07574725896120071, -0.07543754577636719, 1.48974609375, 1.58203125, 0.37493896484375, 1.4912109375, 1.79150390625, 10.0, 1.0, 10.0, 1.351006031036377
16165, 0.7990176677703857, 0.8756706118583679, 2.216262102127075, -0.0012881879229098558, -0.001278901007026434, -5.471225261688232, -0.02205938659608364, -0.021910637617111206, -0.7558876276016235, -0.8238857388496399, -0.9791356325149536, 0.056106310337781906, -2.3249536922830663, 0.24504166124972926, -91.82243664501149, 9362.0, 30146.0, 35388.0, 9362.0, 8.17190170288086, -0.10886237025260925, -0.2907457947731018, 0.025600505992770195, -0.10642003268003464, -0.035486627370119095, 0.9938344359397888, -0.07574725896120071, -0.07543754577636719, 1.48974609375, 1.883056640625, 1.329254150390625, 1.4912109375, 1.28466796875, 10.0, 1.0, 10.0, 1.3482723236083984
16175, 0.7996893525123596, 0.8752725124359131, 2.217568874359131, -0.0015159409958869219, -0.0015050966758280993, -5.478787422180176, -0.023491188883781433, -0.023328522220253944, -0.7565861940383911, -0.8238911628723145, -0.979108452796936, 0.05611258000135422, -2.349900457548339, 0.2496041853976294, -91.86415564569872, 9362.0, 30146.0, 35388.0, 9362.0, 8.17190170288086, 0.01596691645681858, 0.1892601102590561, 0.041324250400066376, -0.10855542123317719, -0.0350409671664238, 0.9941259622573853, -0.07574725896120071, -0.07543754577636719, 1.48974609375, 1.128662109375, 0.9422607421875, 1.493408203125, 0.626220703125, 10.0, 1.0, 10.0, 1.34970223903656
16185, 0.7992656826972961, 0.8757628798484802, 2.215343475341797, -0.0017580371350049973, -0.0017454660264775157, -5.486356258392334, -0.02492799609899521, -0.024745382368564606, -0.757165789604187, -0.8239133358001709, -0.979076623916626, 0.05613064765930176, -2.348843189889035, 0.2523101065008291, -91.8567247734981, 9362.0, 30146.0, 35388.0, 9362.0, 8.17190170288086, -0.06697950512170792, 0.08534210175275803, 0.017744004726409912, -0.11007216572761536, -0.03435478359460831, 0.9944839477539062, -0.07574725896120071, -0.07543754577636719, 1.48974609375, 1.30224609375, 0.0460052490234375, 1.493408203125, 1.72412109375, 10.0, 1.0, 10.0, 1.3483227491378784
16195, 0.8001323938369751, 0.8751637935638428, 2.215710401535034, -0.002014499856159091, -0.002000011969357729, -5.493930816650391, -0.02636459842324257, -0.026163781061768532, -0.7577131390571594, -0.8238651752471924, -0.9791452288627625, 0.05606766790151596, -2.334890175408078, 0.2454603477264925, -91.80812079193963, 9362.0, 30146.0, 35388.0, 9362.0, 8.17190170288086, 0.25186580419540405, 0.024459267035126686, -0.014424588531255722, -0.10800143331289291, -0.036093614995479584, 0.9932123422622681, -0.07574725896120071, -0.07543754577636719, 1.48974609375, 1.4443359375, 0.0959930419921875, 1.490478515625, 1.78271484375, 10.0, 1.0, 10.0, 1.3482593297958374
16205, 0.8007626533508301, 0.8743954300880432, 2.215461015701294, -0.0022853240370750427, -0.002268729265779257, -5.501511096954346, -0.027800213545560837, -0.02757965959608555, -0.7583863139152527, -0.8239010572433472, -0.9790647029876709, 0.05610911175608635, -2.3515238060936925, 0.2522302204712332, -91.85781713156342, 9362.0, 30146.0, 35388.0, 9362.0, 8.17190170288086, -0.0678701400756836, 0.0009342607227154076, -0.06562797725200653, -0.10719975084066391, -0.038203440606594086, 0.9928749203681946, -0.07574725896120071, -0.07543754577636719, 1.48974609375, 1.84130859375, 1.1338958740234375, 1.490478515625, 0.77490234375, 10.0, 1.0, 10.0, 1.348570466041565
16215, 0.7994368076324463, 0.8715487122535706, 2.216763496398926, -0.0025704994332045317, -0.0025516131427139044, -5.509098052978516, -0.029234901070594788, -0.028997108340263367, -0.7590503692626953, -0.8239192962646484, -0.9791194200515747, 0.05612511932849884, -2.351660838675325, 0.24538371818002247, -91.85941098132885, 9362.0, 30146.0, 35388.0, 9362.0, 8.17190170288086, -0.13362736999988556, 0.22958025336265564, 0.08378040045499802, -0.10749576985836029, -0.03561357781291008, 0.9931265115737915, -0.07574725896120071, -0.07543754577636719, 1.48974609375, 1.414306640625, 0.05517578125, 1.487548828125, 0.796875, 10.0, 1.0, 10.0, 1.350027084350586
16225, 0.8005147576332092, 0.8733704090118408, 2.215864896774292, -0.0028700113762170076, -0.002848672913387418, -5.516692161560059, -0.030667465180158615, -0.030414873734116554, -0.7597660422325134, -0.8238153457641602, -0.9788896441459656, 0.05610112100839615, -2.407133732612387, 0.36734531899080025, -91.87081757640895, 9362.0, 30146.0, 35388.0, 9362.0, 8.17190170288086, 0.10563614964485168, -0.12802156805992126, -0.13581310212612152, -0.10792955011129379, -0.03344622999429703, 0.9924619197845459, -0.07574725896120071, -0.07543754577636719, 1.48974609375, 1.289794921875, 0.065032958984375, 1.487548828125, 1.8486328125, 10.0, 1.0, 10.0, 1.3476656675338745
16235, 0.8017369508743286, 0.8751382231712341, 2.214644432067871, -0.0031838228460401297, -0.0031598960049450397, -5.524293422698975, -0.03209482133388519, -0.031829722225666046, -0.7605112791061401, -0.8239219784736633, -0.9791108965873718, 0.05611586198210716, -2.3469609068620847, 0.24741898636457904, -91.85954270579188, 9362.0, 30146.0, 35388.0, 9362.0, 8.17190170288086, 0.04026305675506592, 0.17309138178825378, -0.023416833952069283, -0.10843518376350403, -0.03333021327853203, 0.9907174706459045, -0.07574725896120071, -0.07543754577636719, 1.48974609375, 1.8837890625, 1.33306884765625, 1.48974609375, 1.6494140625, 10.0, 1.0, 10.0, 1.348479986190796
16255, 0.8035306930541992, 0.872560441493988, 2.2154927253723145, -0.0035119170788675547, -0.003485271241515875, -5.53190279006958, -0.03352402523159981, -0.03324529156088829, -0.7613381147384644, -0.8239204287528992, -0.9791094064712524, 0.05611027777194977, -2.342672156516587, 0.24426929699370703, -91.86168027122056, 9362.0, 30146.0, 35388.0, 9362.0, 8.17190170288086, 0.1605399250984192, -0.14482514560222626, -0.24989642202854156, -0.10682816803455353, -0.03466097265481949, 0.9931695461273193, -0.07574725896120071, -0.07543754577636719, 1.48974609375, 0.3896484375, 56.495811462402344, 1.48974609375, 1.1923828125, 10.0, 1.0, 10.0, 1.3489832878112793
16275, 0.8049608469009399, 0.8711442351341248, 2.2148067951202393, -0.004582065623253584, -0.004546476528048515, -5.554778575897217, -0.03781716153025627, -0.03750471770763397, -0.7636454701423645, -0.8238674402236938, -0.9791173338890076, 0.056041549891233444, -2.320832802421638, 0.2415804853457928, -91.81491129250641, 9362.0, 30146.0, 35388.0, 9362.0, 8.17190170288086, 0.07242322713136673, -0.17526380717754364, -0.22744865715503693, -0.1083608865737915, -0.034170567989349365, 0.9939119219779968, -0.07574725896120071, -0.07543754577636719, 1.48974609375, 0.3896484375, 56.495811462402344, 1.48974609375, 1.576904296875, 10.0, 1.0, 10.0, 1.3489832878112793
16315, 0.8047375679016113, 0.8712051510810852, 2.2122726440429688, -0.006209099665284157, -0.006160646211355925, -5.585371971130371, -0.043532777577638626, -0.043206315487623215, -0.7660188674926758, -0.8238232731819153, -0.9791337847709656, 0.05607687309384346, -2.3191484328546577, 0.24557847318999393, -91.79625736852076, 9362.0, 30146.0, 35388.0, 9362.0, 8.17190170288086, 0.017750106751918793, -0.01712202839553356, -0.1091390922665596, -0.10796992480754852, -0.03852177783846855, 0.9921914935112, -0.07574725896120071, -0.07543754577636719, 1.48974609375, 0.3896484375, 56.495811462402344, 1.48974609375, 1.65673828125, 10.0, 1.0, 10.0, 1.3489832878112793
16325, 0.8042802214622498, 0.8744043111801147, 2.209772825241089, -0.006651573348790407, -0.006599824875593185, -5.593035697937012, -0.044961947947740555, -0.044629406183958054, -0.7666991949081421, -0.8238104581832886, -0.9790935516357422, 0.05610624700784683, -2.333936755290651, 0.25365315533221633, -91.80249767277567, 9362.0, 30146.0, 35388.0, 9362.0, 8.17190170288086, -0.06843402981758118, -0.5271643400192261, -0.3265058398246765, -0.10607846081256866, -0.036277398467063904, 0.993223249912262, -0.07574725896120071, -0.07543754577636719, 1.48974609375, 0.3896484375, 56.495811462402344, 1.48974609375, 1.8369140625, 10.0, 1.0, 10.0, 1.3489832878112793
16335, 0.8049551248550415, 0.8748653531074524, 2.2085585594177246, -0.006651573348790407, -0.006599824875593185, -5.593035697937012, -0.044961947947740555, -0.044629406183958054, -0.7666991949081421, -0.8238257765769958, -0.9791221022605896, 0.056109700351953506, -2.3263154975533817, 0.2481591938712313, -91.7932887432176, 9362.0, 30146.0, 35388.0, 9362.0, 8.17190170288086, 0.057980749756097794, 0.22149580717086792, 0.027984926477074623, -0.1057613417506218, -0.03674725070595741, 0.9947283864021301, -0.07574725896120071, -0.07543754577636719, 1.48974609375, 0.3896484375, 56.495811462402344, 1.48974609375, 1.62744140625, 10.0, 1.0, 10.0, 1.3489832878112793
16355, 0.8054337501525879, 0.8731220364570618, 2.208949327468872, -0.006651573348790407, -0.006599824875593185, -5.593035697937012, -0.044961947947740555, -0.044629406183958054, -0.7666991949081421, -0.8238039612770081, -0.9791198968887329, 0.05609675124287605, -2.321613781021286, 0.24365929066547665, -91.80307524300586, 9362.0, 30146.0, 35388.0, 9362.0, 8.152067184448242, 0.12915652990341187, -0.07181761413812637, 0.0703471302986145, -0.10634865611791611, -0.03476952761411667, 0.9930199980735779, -0.0654599517583847, -0.04855918884277344, 1.491943359375, 0.3896484375, 56.495811462402344, 1.4912109375, 1.065673828125, 10.0, 1.0, 10.0, 1.3489832878112793
16375, 0.8056837916374207, 0.8753397464752197, 2.206871271133423, -0.009078490547835827, -0.009009355679154396, -5.631457805633545, -0.05211695283651352, -0.05175380781292915, -0.7701526880264282, -0.8237820267677307, -0.9789512157440186, 0.05612204223871231, -2.370258404034689, 0.36562903257939183, -91.8047177681474, 9362.0, 30146.0, 35388.0, 9362.0, 8.152067184448242, -0.033027999103069305, -0.18636111915111542, -0.04940078407526016, -0.10805216431617737, -0.03394200652837753, 0.9927761554718018, -0.0654599517583847, -0.04855918884277344, 1.491943359375, 0.3896484375, 56.495811462402344, 1.4912109375, 1.27294921875, 10.0, 1.0, 10.0, 1.3489832878112793
16385, 0.8041400909423828, 0.8737087249755859, 2.2068614959716797, -0.009078490547835827, -0.009009355679154396, -5.631457805633545, -0.05211695283651352, -0.05175380781292915, -0.7701526880264282, -0.8238577246665955, -0.9791378974914551, 0.05606594681739807, -2.3210936863034446, 0.24698008444380548, -91.80452787045319, 9362.0, 30146.0, 35388.0, 9362.0, 8.152067184448242, -0.019005220383405685, 0.2513905465602875, 0.17702698707580566, -0.10664216428995132, -0.03613848611712456, 0.9924059510231018, -0.0654599517583847, -0.04855918884277344, 1.491943359375, 0.3896484375, 56.495811462402344, 1.4912109375, 1.090576171875, 10.0, 1.0, 10.0, 1.3489832878112793
16395, 0.8047899007797241, 0.8740513920783997, 2.205871343612671, -0.010149444453418255, -0.010072939097881317, -5.646875858306885, -0.05498017370700836, -0.054604414850473404, -0.7716801166534424, -0.8238069415092468, -0.9791310429573059, 0.056083448231220245, -2.3302709181982144, 0.2527366372114557, -91.79560930855743, 9362.0, 30146.0, 35388.0, 9362.0, 8.152067184448242, 0.2611021399497986, 0.32687973976135254, -0.19473238289356232, -0.10951098054647446, -0.03660447895526886, 0.9927084445953369, -0.0654599517583847, -0.04855918884277344, 1.491943359375, 0.3896484375, 56.495811462402344, 1.4912109375, 1.090576171875, 10.0, 1.0, 10.0, 1.3489832878112793
16415, 0.8068394660949707, 0.8747721314430237, 2.2063982486724854, -0.011277670040726662, -0.011193488724529743, -5.66232442855835, -0.05784272029995918, -0.057451121509075165, -0.7731647491455078, -0.8238412141799927, -0.9791100025177002, 0.05614699050784111, -2.3314219667042044, 0.2566180053517826, -91.78300933667015, 9362.0, 30146.0, 35388.0, 9362.0, 8.152067184448242, 0.14540547132492065, 0.38280412554740906, -0.05736574903130531, -0.1082102507352829, -0.03589220717549324, 0.9926775693893433, -0.0654599517583847, -0.04855918884277344, 1.491943359375, 0.3896484375, 56.495811462402344, 1.48974609375, 0.699462890625, 10.0, 1.0, 10.0, 1.3489832878112793
16425, 0.8069820404052734, 0.8741669058799744, 2.2049381732940674, -0.011277670040726662, -0.011193488724529743, -5.66232442855835, -0.05784272029995918, -0.057451121509075165, -0.7731647491455078, -0.823846161365509, -0.9791310429573059, 0.056042686104774475, -2.3180339440497293, 0.24890786773437412, -91.80010021744727, 9362.0, 30146.0, 35388.0, 9362.0, 8.152067184448242, 0.07868431508541107, -0.38636720180511475, -0.366200715303421, -0.10733550041913986, -0.03516217693686485, 0.9931402206420898, -0.0654599517583847, -0.04855918884277344, 1.491943359375, 0.3896484375, 56.495811462402344, 1.48974609375, 0.699462890625, 10.0, 1.0, 10.0, 1.3489832878112793
16435, 0.8070786595344543, 0.873702347278595, 2.204723596572876, -0.011277670040726662, -0.011193488724529743, -5.66232442855835, -0.05784272029995918, -0.057451121509075165, -0.7731647491455078, -0.823817253112793, -0.9791222214698792, 0.05610109865665436, -2.327404760521328, 0.2518085886511017, -91.79396476902768, 9362.0, 30146.0, 35388.0, 9362.0, 8.152067184448242, 0.027608748525381088, 0.10011286288499832, -0.052198223769664764, -0.10703402012586594, -0.03665393963456154, 0.9951953887939453, -0.0654599517583847, -0.04855918884277344, 1.491943359375, 0.3896484375, 56.495811462402344, 1.48974609375, 1.752685546875, 10.0, 1.0, 10.0, 1.3489832878112793
16455, 0.807040810585022, 0.873569905757904, 2.2063262462615967, -0.013706021010875702, -0.013605701737105846, -5.693308353424072, -0.06357461214065552, -0.06316299736499786, -0.7759003639221191, -0.8238489627838135, -0.9791269302368164, 0.05607002228498459, -2.3224114160455964, 0.24478651798884243, -91.79543761222568, 9362.0, 30146.0, 35388.0, 9362.0, 8.152067184448242, -0.14298486709594727, 0.11667381227016449, 0.11207802593708038, -0.10528838634490967, -0.034389398992061615, 0.994259238243103, -0.07980269193649292, -0.10231781005859375, 1.487548828125, 0.3896484375, 56.495811462402344, 1.493408203125, 0.64013671875, 10.0, 1.0, 10.0, 1.3489832878112793
16465, 0.80665123462677, 0.8724483251571655, 2.2065305709838867, -0.013706021010875702, -0.013605701737105846, -5.693308353424072, -0.06357461214065552, -0.06316299736499786, -0.7759003639221191, -0.8238217234611511, -0.9791249632835388, 0.056102603673934937, -2.3229954710733676, 0.24944753815165654, -91.79896883692963, 9362.0, 30146.0, 35388.0, 9362.0, 8.152067184448242, -0.02950335666537285, 0.3742208778858185, -0.028443410992622375, -0.10538677126169205, -0.0341903455555439, 0.992073118686676, -0.07980269193649292, -0.10231781005859375, 1.487548828125, 0.3896484375, 56.495811462402344, 1.493408203125, 1.7314453125, 10.0, 1.0, 10.0, 1.3489832878112793
16505, 0.807648241519928, 0.8703622817993164, 2.2078940868377686, -0.01706351339817047, -0.016942312940955162, -5.732195854187012, -0.07071574777364731, -0.07029803842306137, -0.7797464728355408, -0.8238182663917542, -0.979128360748291, 0.05611385777592659, -2.321602803471333, 0.2485517061863618, -91.80357072290398, 9362.0, 30146.0, 35388.0, 9362.0, 8.152067184448242, 0.018535053357481956, -0.2225746214389801, 0.2126905471086502, -0.10987496376037598, -0.03556504473090172, 0.9911296963691711, -0.07980269193649292, -0.10231781005859375, 1.487548828125, 0.3896484375, 56.495811462402344, 1.490478515625, 1.661865234375, 10.0, 1.0, 10.0, 1.3489832878112793
16515, 0.8076999187469482, 0.8724062442779541, 2.2070107460021973, -0.01777780055999756, -0.017652422189712524, -5.739997386932373, -0.07214164733886719, -0.07172386348247528, -0.7805949449539185, -0.8238306641578674, -0.9791241884231567, 0.05615808442234993, -2.3290636638363016, 0.24898850595627664, -91.80189266623417, 9362.0, 30146.0, 35388.0, 9362.0, 8.152067184448242, 0.05196496099233627, -0.10801652073860168, -0.08162526041269302, -0.10987496376037598, -0.03556504473090172, 0.9911296963691711, -0.07980269193649292, -0.10231781005859375, 1.487548828125, 0.3896484375, 56.495811462402344, 1.490478515625, 1.481689453125, 10.0, 1.0, 10.0, 1.3489832878112793
16525, 0.8087579011917114, 0.8698092103004456, 2.205793619155884, -0.01777780055999756, -0.017652422189712524, -5.739997386932373, -0.07214164733886719, -0.07172386348247528, -0.7805949449539185, -0.8238375782966614, -0.9791101217269897, 0.056152328848838806, -2.3345186701988334, 0.24342288523001798, -91.792772808928, 9362.0, 30146.0, 35388.0, 9362.0, 8.152067184448242, 0.115818552672863, 0.29323339462280273, 0.052155766636133194, -0.1083391085267067, -0.03269059956073761, 0.9931185245513916, -0.07980269193649292, -0.10231781005859375, 1.487548828125, 0.3896484375, 56.495811462402344, 1.490478515625, 0.38671875, 10.0, 1.0, 10.0, 1.3489832878112793
16535, 0.8096423149108887, 0.8706996440887451, 2.2047383785247803, -0.019249141216278076, -0.01911546289920807, -5.755624771118164, -0.07499527931213379, -0.0745810940861702, -0.7820830345153809, -0.8238216638565063, -0.9791240692138672, 0.056108467280864716, -2.318505427532563, 0.24887421262931753, -91.79775744239514, 9362.0, 30146.0, 35388.0, 9362.0, 8.152067184448242, -0.013976063579320908, -0.1926375925540924, -0.19871537387371063, -0.1049649566411972, -0.03168513625860214, 0.9922884702682495, -0.07980269193649292, -0.10231781005859375, 1.487548828125, 0.3896484375, 56.495811462402344, 1.490478515625, 0.38671875, 10.0, 1.0, 10.0, 1.3489832878112793
16555, 0.8104095458984375, 0.8722881078720093, 2.204103708267212, -0.020777525380253792, -0.020635686814785004, -5.771282196044922, -0.07784386724233627, -0.07744220644235611, -0.7836446762084961, -0.8238127827644348, -0.979131281375885, 0.056173793971538544, -2.3255502840990463, 0.25176241903454866, -91.79611873034328, 9362.0, 30146.0, 35388.0, 9362.0, 8.152067184448242, 0.14882129430770874, -0.5036731362342834, -0.1337011605501175, -0.10878477245569229, -0.03335653245449066, 0.991405725479126, -0.07980269193649292, -0.10231781005859375, 1.487548828125, 0.3896484375, 56.495811462402344, 1.490478515625, 1.140380859375, 10.0, 1.0, 10.0, 1.3489832878112793
16575, 0.8121112585067749, 0.8710248470306396, 2.204777956008911, -0.02236287109553814, -0.022213179618120193, -5.786970615386963, -0.08069311082363129, -0.08030688762664795, -0.7852355241775513, -0.8238288164138794, -0.979124128818512, 0.0561060830950737, -2.3292299997067087, 0.2563332640322926, -91.79950631729503, 9362.0, 30146.0, 35388.0, 9362.0, 8.152067184448242, 0.1770934760570526, 0.08042776584625244, 0.09153259545564651, -0.1089339330792427, -0.03688958287239075, 0.9922080039978027, -0.07980269193649292, -0.10231781005859375, 1.487548828125, 0.3896484375, 56.495811462402344, 1.490478515625, 1.8046875, 10.0, 1.0, 10.0, 1.3489832878112793
16585, 0.8124305009841919, 0.87281334400177, 2.2056398391723633, -0.02236287109553814, -0.022213179618120193, -5.786970615386963, -0.08069311082363129, -0.08030688762664795, -0.7852355241775513, -0.8238301873207092, -0.9791406393051147, 0.056123506277799606, -2.324152295223653, 0.25501330047205784, -91.79946160901929, 9362.0, 30146.0, 35388.0, 9362.0, 8.152067184448242, 0.022233080118894577, 0.11325766146183014, 0.06169535592198372, -0.1092255488038063, -0.0358014851808548, 0.9923734664916992, -0.07980269193649292, -0.10231781005859375, 1.487548828125, 0.3896484375, 56.495811462402344, 1.490478515625, 0.6650390625, 10.0, 1.0, 10.0, 1.3489832878112793
16615, 0.814965009689331, 0.8686637282371521, 2.2043349742889404, -0.02484787628054619, -0.02468695491552353, -5.810562610626221, -0.08497471362352371, -0.08461302518844604, -0.7875409126281738, -0.8238259553909302, -0.9791237711906433, 0.056096356362104416, -2.329621076391681, 0.25376573292206217, -91.80141645834877, 9362.0, 30146.0, 35388.0, 9362.0, 8.152067184448242, 0.1522015929222107, 0.3281516432762146, 0.2236173152923584, -0.10734953731298447, -0.0345163494348526, 0.9937127232551575, -0.07980269193649292, -0.10231781005859375, 1.487548828125, 0.3896484375, 56.495811462402344, 1.494873046875, 1.83251953125, 10.0, 1.0, 10.0, 1.3489832878112793
16625, 0.8149950504302979, 0.8683972954750061, 2.2039060592651367, -0.02484787628054619, -0.02468695491552353, -5.810562610626221, -0.08497471362352371, -0.08461302518844604, -0.7875409126281738, -0.8238309025764465, -0.9791395664215088, 0.05610444396734238, -2.329668801480605, 0.24634104414951707, -91.80707257553914, 9362.0, 30146.0, 35388.0, 9362.0, 8.152067184448242, 0.03222910314798355, 0.13973961770534515, 0.2338012456893921, -0.10919440537691116, -0.03609469532966614, 0.9914383292198181, -0.07980269193649292, -0.10231781005859375, 1.487548828125, 0.3896484375, 56.495811462402344, 1.494873046875, 0.885498046875, 10.0, 1.0, 10.0, 1.3489832878112793
16635, 0.8150293231010437, 0.8690980076789856, 2.205599784851074, -0.02484787628054619, -0.02468695491552353, -5.810562610626221, -0.08497471362352371, -0.08461302518844604, -0.7875409126281738, -0.8238242864608765, -0.9791311025619507, 0.056151002645492554, -2.3277678458987503, 0.25427159005559474, -91.8020887276726, 9362.0, 30146.0, 35388.0, 9362.0, 8.152067184448242, 0.2316434681415558, -0.32232531905174255, -0.054732441902160645, -0.10712940990924835, -0.03507145494222641, 0.9938393235206604, -0.07980269193649292, -0.10231781005859375, 1.487548828125, 0.3896484375, 56.495811462402344, 1.48974609375, 0.885498046875, 10.0, 1.0, 10.0, 1.3489832878112793
16655, 0.8163148164749146, 0.8713328838348389, 2.205198287963867, -0.029274631291627884, -0.029097458347678185, -5.850030422210693, -0.09209255874156952, -0.09181229025125504, -0.7911235690116882, -0.8238242268562317, -0.9791253209114075, 0.056100960820913315, -2.323826316950228, 0.25487206723141753, -91.79823562885133, 9362.0, 30146.0, 35388.0, 9362.0, 8.152067184448242, -0.1023571714758873, 0.2821143865585327, -0.04140666872262955, -0.10907632112503052, -0.034249529242515564, 0.9925119280815125, -0.07980269193649292, -0.10231781005859375, 1.487548828125, 0.3896484375, 56.495811462402344, 1.48974609375, 1.80322265625, 10.0, 1.0, 10.0, 1.3489832878112793
16665, 0.8158835172653198, 0.8715378046035767, 2.2041282653808594, -0.029274631291627884, -0.029097458347678185, -5.850030422210693, -0.09209255874156952, -0.09181229025125504, -0.7911235690116882, -0.8238144516944885, -0.9791391491889954, 0.05613918974995613, -2.3321517236286793, 0.2522570805933242, -91.8070157031714, 9362.0, 30146.0, 35388.0, 9362.0, 8.152067184448242, 0.0176624096930027, -0.1954718679189682, -0.11980316042900085, -0.10910322517156601, -0.034776777029037476, 0.9914595484733582, -0.07980269193649292, -0.10231781005859375, 1.487548828125, 0.3896484375, 56.495811462402344, 1.48974609375, 0.66796875, 10.0, 1.0, 10.0, 1.3489832878112793
16675, 0.8165875673294067, 0.871898889541626, 2.2021708488464355, -0.029274631291627884, -0.029097458347678185, -5.850030422210693, -0.09209255874156952, -0.09181229025125504, -0.7911235690116882, -0.8238149285316467, -0.9791191220283508, 0.05615812912583351, -2.329391532864403, 0.2508990061610916, -91.79717359875816, 9362.0, 30146.0, 35388.0, 9362.0, 8.152067184448242, 0.09631937742233276, 0.1393037736415863, -0.34565117955207825, -0.10547370463609695, -0.03407355770468712, 0.9950949549674988, -0.07980269193649292, -0.10231781005859375, 1.487548828125, 0.3896484375, 56.495811462402344, 1.48974609375, 1.734375, 10.0, 1.0, 10.0, 1.3489832878112793
16695, 0.8172828555107117, 0.8721044063568115, 2.2010068893432617, -0.033072445541620255, -0.03288542851805687, -5.88173246383667, -0.09780281037092209, -0.09758958220481873, -0.7937622666358948, -0.8238251209259033, -0.9791206121444702, 0.056133948266506195, -2.3265509636690833, 0.26086835048639045, -91.80015700188252, 9362.0, 30146.0, 35388.0, 9362.0, 8.152067184448242, 0.06320428103208542, 0.033585578203201294, 0.21989482641220093, -0.10990311205387115, -0.0359530970454216, 0.9931296110153198, -0.07980269193649292, -0.10231781005859375, 1.487548828125, 0.3896484375, 56.495811462402344, 1.4912109375, 0.823974609375, 10.0, 1.0, 10.0, 1.3489832878112793
16725, 0.8143805265426636, 0.8738796710968018, 2.204505443572998, -0.0360708013176918, -0.035878125578165054, -5.905576229095459, -0.10208778828382492, -0.10192324966192245, -0.7958883047103882, -0.8238243460655212, -0.9791293144226074, 0.056124333292245865, -2.3259174488495375, 0.24490270987939766, -91.7936563305386, 9362.0, 30146.0, 35388.0, 9362.0, 8.152067184448242, -0.02022436633706093, -0.35041797161102295, 0.02519969455897808, -0.10767978429794312, -0.03636575862765312, 0.9936673045158386, -0.07980269193649292, -0.10231781005859375, 1.487548828125, 0.3896484375, 56.495811462402344, 1.4912109375, 1.31396484375, 10.0, 1.0, 10.0, 1.3489832878112793
16735, 0.8142991662025452, 0.8731063604354858, 2.204146146774292, -0.0360708013176918, -0.035878125578165054, -5.905576229095459, -0.10208778828382492, -0.10192324966192245, -0.7958883047103882, -0.823822557926178, -0.9791145324707031, 0.056138403713703156, -2.3290428025397767, 0.26545305777250405, -91.80071571542558, 9362.0, 30146.0, 35388.0, 9362.0, 8.152067184448242, 0.01737825758755207, 0.2622811198234558, -0.06895845383405685, -0.10644341260194778, -0.03437051922082901, 0.9937223792076111, -0.07980269193649292, -0.10231781005859375, 1.487548828125, 0.3896484375, 56.495811462402344, 1.494140625, 1.31396484375, 10.0, 1.0, 10.0, 1.3489832878112793
16765, 0.8152385950088501, 0.8680012226104736, 2.2074005603790283, -0.040268830955028534, -0.04007042944431305, -5.937461853027344, -0.10781043767929077, -0.10769084095954895, -0.7983536720275879, -0.8238278031349182, -0.9791315197944641, 0.05612519755959511, -2.3221930706751217, 0.25412969312705513, -91.80008121009497, 9362.0, 30146.0, 35388.0, 9362.0, 8.152067184448242, -0.05091966316103935, 0.12690316140651703, -0.04232816398143768, -0.10725443810224533, -0.03362216055393219, 0.9945521950721741, -0.07980269193649292, -0.10231781005859375, 1.487548828125, 0.3896484375, 56.495811462402344, 1.49267578125, 1.54833984375, 10.0, 1.0, 10.0, 1.3489832878112793
16785, 0.8138670921325684, 0.8673903346061707, 2.209392547607422, -0.042453501373529434, -0.04225311055779457, -5.9534406661987305, -0.11065592616796494, -0.11057701706886292, -0.7995660305023193, -0.8238324522972107, -0.9791048765182495, 0.05613218620419502, -2.325658110451057, 0.27003781554088846, -91.80064546234301, 9362.0, 30146.0, 35388.0, 9362.0, 8.152067184448242, 0.008216921240091324, -0.02577408030629158, 0.005969591438770294, -0.10755975544452667, -0.034823913127183914, 0.993322491645813, -0.07980269193649292, -0.10231781005859375, 1.487548828125, 0.3896484375, 56.495811462402344, 1.49267578125, 1.7958984375, 10.0, 1.0, 10.0, 1.3489832878112793
16795, 0.8140102028846741, 0.8676682114601135, 2.2093300819396973, -0.042453501373529434, -0.04225311055779457, -5.9534406661987305, -0.11065592616796494, -0.11057701706886292, -0.7995660305023193, -0.8238556981086731, -0.9790716171264648, 0.056162308901548386, -2.3364248646531953, 0.2531770047383475, -91.8490631050439, 9362.0, 30146.0, 35388.0, 9362.0, 8.152067184448242, 0.14895324409008026, 0.03806281089782715, -0.14327852427959442, -0.10755975544452667, -0.034823913127183914, 0.993322491645813, -0.07980269193649292, -0.10231781005859375, 1.487548828125, 0.3896484375, 56.495811462402344, 1.49267578125, 1.7958984375, 10.0, 1.0, 10.0, 1.3489832878112793
16805, 0.813507616519928, 0.8667423129081726, 2.208772897720337, -0.044695012271404266, -0.04449344053864479, -5.969446659088135, -0.11349557340145111, -0.11345601826906204, -0.8010135889053345, -0.8238106966018677, -0.9791250228881836, 0.056138504296541214, -2.3236147499070796, 0.24940924249480645, -91.80583009686923, 9362.0, 30146.0, 35388.0, 9362.0, 8.152067184448242, -0.1838528960943222, 0.17641858756542206, 0.0746828019618988, -0.10683067888021469, -0.037793923169374466, 0.9938260316848755, -0.07980269193649292, -0.10231781005859375, 1.487548828125, 0.3896484375, 56.495811462402344, 1.49267578125, 1.7958984375, 10.0, 1.0, 10.0, 1.3489832878112793
16815, 0.8121755123138428, 0.8665925860404968, 2.2098262310028076, -0.044695012271404266, -0.04449344053864479, -5.969446659088135, -0.11349557340145111, -0.11345601826906204, -0.8010135889053345, -0.8238071799278259, -0.9791454672813416, 0.056143566966056824, -2.326423158816288, 0.24921610767847824, -91.79577438665721, 9362.0, 30146.0, 35388.0, 9362.0, 8.152067184448242, -0.20349003374576569, -0.40031319856643677, -0.14125126600265503, -0.10605218261480331, -0.03641568124294281, 0.9942203164100647, -0.07980269193649292, -0.10231781005859375, 1.487548828125, 0.3896484375, 56.495811462402344, 1.49267578125, 1.69482421875, 10.0, 1.0, 10.0, 1.3489832878112793
16835, 0.8121033906936646, 0.8680202960968018, 2.2076690196990967, -0.048163801431655884, -0.04796190932393074, -5.993507385253906, -0.11775627732276917, -0.11777345091104507, -0.8029782176017761, -0.8238284587860107, -0.9791163802146912, 0.05612551048398018, -2.327773982149713, 0.24672739529552246, -91.80206090003519, 9362.0, 30146.0, 35388.0, 9362.0, 8.152067184448242, 0.17504163086414337, -0.0035061470698565245, -0.07214945554733276, -0.10736077278852463, -0.036780133843421936, 0.9924765229225159, -0.07980269193649292, -0.10231781005859375, 1.487548828125, 0.3896484375, 56.495811462402344, 1.49267578125, 1.598876953125, 10.0, 1.0, 10.0, 1.3489832878112793
16855, 0.8136783242225647, 0.8712013363838196, 2.203084707260132, -0.048163801431655884, -0.04796190932393074, -5.993507385253906, -0.11775627732276917, -0.11777345091104507, -0.8029782176017761, -0.8238088488578796, -0.9791437387466431, 0.056144341826438904, -2.32937816050117, 0.25600371973848723, -91.79734036897636, 9362.0, 30146.0, 35388.0, 9362.0, 8.17190170288086, 0.0170296560972929, 0.01668558642268181, -0.21783438324928284, -0.10661361366510391, -0.03362973779439926, 0.9922443628311157, -0.07373637706041336, -0.12023735046386719, 1.486083984375, 0.3896484375, 56.495811462402344, 1.49267578125, 1.7431640625, 10.0, 1.0, 10.0, 1.3489832878112793
16865, 0.8146939873695374, 0.8726485967636108, 2.2008323669433594, -0.05176045000553131, -0.05155978351831436, -6.017629146575928, -0.12202031910419464, -0.12208562344312668, -0.8051888346672058, -0.8238286972045898, -0.9791362285614014, 0.05613473802804947, -2.3343587436162907, 0.2484382740452986, -91.80655680772604, 9362.0, 30146.0, 35388.0, 9362.0, 8.17190170288086, 0.021925080567598343, -0.14894837141036987, -0.21086375415325165, -0.10829295963048935, -0.0336419939994812, 0.9909313917160034, -0.07373637706041336, -0.12023735046386719, 1.486083984375, 0.3896484375, 56.495811462402344, 1.49267578125, 1.7431640625, 10.0, 1.0, 10.0, 1.3489832878112793
16885, 0.8152704238891602, 0.8685081005096436, 2.2008235454559326, -0.054229360073804855, -0.054030243307352066, -6.033750057220459, -0.12487149983644485, -0.12496104091405869, -0.806930422782898, -0.8238133788108826, -0.9791327714920044, 0.05615315958857536, -2.322481827720039, 0.24910119058540658, -91.80109589756563, 9362.0, 30146.0, 35388.0, 9362.0, 8.17190170288086, 0.0158309955149889, 0.04989394173026085, 0.02716587483882904, -0.10533344745635986, -0.03525505214929581, 0.9915260076522827, -0.07373637706041336, -0.12023735046386719, 1.486083984375, 0.3896484375, 56.495811462402344, 1.49267578125, 1.765869140625, 10.0, 1.0, 10.0, 1.3489832878112793
16915, 0.8156830668449402, 0.8640060424804688, 2.200923442840576, -0.058039505034685135, -0.05784382298588753, -6.05799674987793, -0.12913872301578522, -0.12928101420402527, -0.8093381524085999, -0.8238192200660706, -0.9791148900985718, 0.05613129213452339, -2.3315479958598755, 0.25555323018409126, -91.7990373020037, 9362.0, 30146.0, 35388.0, 9362.0, 8.17190170288086, 0.04398496448993683, 0.07981950044631958, -0.2044444978237152, -0.10728535801172256, -0.033971283584833145, 0.9954923987388611, -0.07373637706041336, -0.12023735046386719, 1.486083984375, 0.3896484375, 56.495811462402344, 1.4912109375, 1.765869140625, 10.0, 1.0, 10.0, 1.3489832878112793
16955, 0.8144773840904236, 0.8584705591201782, 2.2013752460479736, -0.06331855058670044, -0.06313064694404602, -6.09041166305542, -0.1348091959953308, -0.13505896925926208, -0.811456561088562, -0.8238232135772705, -0.9791114926338196, 0.056117210537195206, -2.3227835277946043, 0.25122597896731236, -91.79775796525207, 9362.0, 30146.0, 35388.0, 9362.0, 8.17190170288086, 0.1498996764421463, 0.01912924088537693, -0.012498109601438046, -0.10794568806886673, -0.03656049445271492, 0.9933469295501709, -0.07373637706041336, -0.12023735046386719, 1.486083984375, 0.3896484375, 56.495811462402344, 1.4912109375, 1.79150390625, 10.0, 1.0, 10.0, 1.3489832878112793
16975, 0.8160361051559448, 0.8633823990821838, 2.200740337371826, -0.0660429447889328, -0.06586069613695145, -6.106651782989502, -0.13762523233890533, -0.1379421055316925, -0.8127391338348389, -0.8238098621368408, -0.9791315793991089, 0.05611377954483032, -2.3299967224303053, 0.24886489073321627, -91.80000829445119, 9362.0, 30146.0, 35388.0, 9362.0, 8.17190170288086, -0.10302881896495819, -0.2707770764827728, -0.15199358761310577, -0.10898461192846298, -0.03659125044941902, 0.9908558130264282, -0.07373637706041336, -0.12023735046386719, 1.486083984375, 0.3896484375, 56.495811462402344, 1.4912109375, 1.0576171875, 10.0, 1.0, 10.0, 1.3489832878112793
16985, 0.8149403929710388, 0.8658535480499268, 2.2005975246429443, -0.0660429447889328, -0.06586069613695145, -6.106651782989502, -0.13762523233890533, -0.1379421055316925, -0.8127391338348389, -0.8238281607627869, -0.9791185855865479, 0.05609852075576782, -2.3305422010202435, 0.245853235733847, -91.80280839048379, 9362.0, 30146.0, 35388.0, 9362.0, 8.17190170288086, -0.15609797835350037, -0.17473247647285461, -0.011998399160802364, -0.10673683136701584, -0.03485579043626785, 0.9919119477272034, -0.07373637706041336, -0.12023735046386719, 1.486083984375, 0.3896484375, 56.495811462402344, 1.4912109375, 1.0576171875, 10.0, 1.0, 10.0, 1.3489832878112793
17005, 0.8162254095077515, 0.8617823719978333, 2.203747272491455, -0.07023503631353378, -0.0700637549161911, -6.131073951721191, -0.14185690879821777, -0.14226247370243073, -0.8152866363525391, -0.8238244652748108, -0.9791333675384521, 0.05610911175608635, -2.328798857885013, 0.24417524689775405, -91.79788067602621, 9362.0, 30146.0, 35388.0, 9362.0, 8.17190170288086, 0.02034958451986313, 0.40063783526420593, 0.05553320422768593, -0.10695713758468628, -0.034025147557258606, 0.9908336400985718, -0.07373637706041336, -0.12023735046386719, 1.486083984375, 0.3896484375, 56.495811462402344, 1.491943359375, 1.549072265625, 10.0, 1.0, 10.0, 1.3489832878112793
17015, 0.8166625499725342, 0.8620012998580933, 2.201064109802246, -0.07166067510843277, -0.07149358838796616, -6.139230728149414, -0.1432705968618393, -0.14370355010032654, -0.8161144256591797, -0.8238204717636108, -0.9791212677955627, 0.056108035147190094, -2.3279393182460653, 0.24786582349165087, -91.79693920765254, 9362.0, 30146.0, 35388.0, 9362.0, 8.17190170288086, -0.16632845997810364, -0.03893182426691055, -0.2326170951128006, -0.10853824019432068, -0.03365129232406616, 0.9926241636276245, -0.07373637706041336, -0.12023735046386719, 1.486083984375, 0.3896484375, 56.495811462402344, 1.491943359375, 1.549072265625, 10.0, 1.0, 10.0, 1.3489832878112793
17035, 0.816586434841156, 0.8574438691139221, 2.201885223388672, -0.07455427199602127, -0.07439649105072021, -6.155569076538086, -0.14609025418758392, -0.14658822119235992, -0.8176591992378235, -0.8239020109176636, -0.9790944457054138, 0.05611809343099594, -2.356501019111389, 0.2550652909539224, -91.85982619923901, 9362.0, 30146.0, 35388.0, 9362.0, 8.17190170288086, -0.0898289680480957, -0.1285795420408249, 0.19246405363082886, -0.10858868062496185, -0.0379568412899971, 0.9930755496025085, -0.07373637706041336, -0.12023735046386719, 1.486083984375, 0.3896484375, 56.495811462402344, 1.491943359375, 1.617919921875, 10.0, 1.0, 10.0, 1.3489832878112793
17055, 0.8160848021507263, 0.8557006120681763, 2.2013418674468994, -0.07750419527292252, -0.07735716551542282, -6.171934604644775, -0.14890097081661224, -0.14947843551635742, -0.8189278841018677, -0.8238668441772461, -0.9791363477706909, 0.05606038123369217, -2.327261418016564, 0.2432452079049483, -91.80670413861463, 9362.0, 30146.0, 35388.0, 9362.0, 8.152067184448242, 0.09774462133646011, 0.04541045054793358, -0.1923999786376953, -0.10889624804258347, -0.033907294273376465, 0.9930093884468079, -0.07373637706041336, -0.12023735046386719, 1.486083984375, 0.3896484375, 56.495811462402344, 1.491943359375, 1.67724609375, 10.0, 1.0, 10.0, 1.3489832878112793
17075, 0.815646767616272, 0.8532680869102478, 2.203263759613037, -0.08051026612520218, -0.08037559688091278, -6.188326835632324, -0.15170523524284363, -0.15236468613147736, -0.8202832937240601, -0.8238991498947144, -0.9790818095207214, 0.056110233068466187, -2.3498864304510625, 0.26006526430003873, -91.86176161900241, 9362.0, 30146.0, 35388.0, 9362.0, 8.152067184448242, 0.07562121748924255, 0.24162110686302185, 0.3967621326446533, -0.10694490373134613, -0.03428066521883011, 0.9899873733520508, -0.07373637706041336, -0.12023735046386719, 1.486083984375, 0.3896484375, 56.495811462402344, 1.491943359375, 1.762939453125, 10.0, 1.0, 10.0, 1.3489832878112793
17085, 0.814582884311676, 0.8531837463378906, 2.20440673828125, -0.08203431218862534, -0.08190643787384033, -6.196533679962158, -0.1531042605638504, -0.15380364656448364, -0.8210935592651367, -0.8239049315452576, -0.9790889024734497, 0.05610527843236923, -2.3509803602381254, 0.2528431857070075, -91.86139388516831, 9362.0, 30146.0, 35388.0, 9362.0, 8.152067184448242, 0.041626591235399246, -0.03836934268474579, 0.12131481617689133, -0.10589843988418579, -0.034694597125053406, 0.9914120435714722, -0.07373637706041336, -0.12023735046386719, 1.486083984375, 0.3896484375, 56.495811462402344, 1.491943359375, 1.762939453125, 10.0, 1.0, 10.0, 1.3489832878112793
17095, 0.8160167932510376, 0.8535915613174438, 2.2052254676818848, -0.08203431218862534, -0.08190643787384033, -6.196533679962158, -0.1531042605638504, -0.15380364656448364, -0.8210935592651367, -0.8239091634750366, -0.9790869951248169, 0.05607577785849571, -2.3531049091318486, 0.2531410113898005, -91.85212908076653, 9362.0, 30146.0, 35388.0, 9362.0, 8.152067184448242, 0.0897769182920456, -0.03493389114737511, 0.28946220874786377, -0.10435275733470917, -0.0346817746758461, 0.9956279993057251, -0.07373637706041336, -0.12023735046386719, 1.486083984375, 0.3896484375, 56.495811462402344, 1.491943359375, 1.80615234375, 10.0, 1.0, 10.0, 1.3489832878112793
17105, 0.8145310282707214, 0.8543298244476318, 2.20589542388916, -0.08203431218862534, -0.08190643787384033, -6.196533679962158, -0.1531042605638504, -0.15380364656448364, -0.8210935592651367, -0.823916494846344, -0.9790886044502258, 0.056109439581632614, -2.351802589830418, 0.24485682493110517, -91.8513467908356, 9362.0, 30146.0, 35388.0, 9362.0, 8.152067184448242, -0.05774623900651932, -0.08541958034038544, -0.06878431886434555, -0.10515443980693817, -0.03307893127202988, 0.9939082264900208, -0.07373637706041336, -0.12023735046386719, 1.486083984375, 0.3896484375, 56.495811462402344, 1.491943359375, 0.342041015625, 10.0, 1.0, 10.0, 1.3489832878112793
17115, 0.8147161602973938, 0.8565025925636292, 2.2051146030426025, -0.08203431218862534, -0.08190643787384033, -6.196533679962158, -0.1531042605638504, -0.15380364656448364, -0.8210935592651367, -0.8239036202430725, -0.9790935516357422, 0.05611459165811539, -2.3537938154012985, 0.24680828776178032, -91.85185085110241, 9362.0, 30146.0, 35388.0, 9362.0, 8.152067184448242, -0.13339324295520782, -0.4670959711074829, -0.03093384951353073, -0.10948572307825089, -0.03441485017538071, 0.9943313598632812, -0.07373637706041336, -0.12023735046386719, 1.486083984375, 0.3896484375, 56.495811462402344, 1.493408203125, 0.342041015625, 10.0, 1.0, 10.0, 1.3489832878112793
17125, 0.8154568672180176, 0.8573638200759888, 2.2043328285217285, -0.08827009797096252, -0.0881737619638443, -6.229440212249756, -0.15869133174419403, -0.15956707298755646, -0.8238894939422607, -0.8239096403121948, -0.9790983200073242, 0.05612058937549591, -2.353033101506626, 0.2580634999585243, -91.85574264881662, 9362.0, 30146.0, 35388.0, 9362.0, 8.152067184448242, 0.0637308731675148, 0.21270814538002014, 0.1973346769809723, -0.10791727900505066, -0.03325844183564186, 0.9922575950622559, -0.07373637706041336, -0.12023735046386719, 1.486083984375, 0.3896484375, 56.495811462402344, 1.493408203125, 0.342041015625, 10.0, 1.0, 10.0, 1.3489832878112793
17155, 0.8132497668266296, 0.8594023585319519, 2.206143617630005, -0.09309396147727966, -0.09302561730146408, -6.25418758392334, -0.16290010511875153, -0.16388918459415436, -0.8260136246681213, -0.823895275592804, -0.9790927171707153, 0.05613724887371063, -2.3521535430243463, 0.25025290162381, -91.85510144113037, 9362.0, 30146.0, 35388.0, 9362.0, 8.152067184448242, -0.2361316978931427, 0.2851162552833557, 0.2325739711523056, -0.10706666857004166, -0.03499384596943855, 0.9915147423744202, -0.07373637706041336, -0.12023735046386719, 1.486083984375, 0.3896484375, 56.495811462402344, 1.4912109375, 1.260498046875, 10.0, 1.0, 10.0, 1.3489832878112793
17165, 0.8121273517608643, 0.8578762412071228, 2.2066969871520996, -0.09309396147727966, -0.09302561730146408, -6.25418758392334, -0.16290010511875153, -0.16388918459415436, -0.8260136246681213, -0.8238927125930786, -0.9791021347045898, 0.0561237633228302, -2.350310366029265, 0.24603359840855887, -91.85830497033696, 9362.0, 30146.0, 35388.0, 9362.0, 8.152067184448242, -0.2524987459182739, 0.1353113055229187, 0.23539146780967712, -0.1063639223575592, -0.03535023331642151, 0.9944162368774414, -0.07373637706041336, -0.12023735046386719, 1.486083984375, 0.3896484375, 56.495811462402344, 1.4912109375, 1.6728515625, 10.0, 1.0, 10.0, 1.3489832878112793
17185, 0.8112369775772095, 0.8570737838745117, 2.203547716140747, -0.0980442687869072, -0.09800699353218079, -6.279002666473389, -0.1671200692653656, -0.16820304095745087, -0.8281121253967285, -0.8238953351974487, -0.9790977239608765, 0.05609374865889549, -2.3540159038730772, 0.24718175106949047, -91.86463299272896, 9362.0, 30146.0, 35388.0, 9362.0, 8.152067184448242, -0.07473642379045486, -0.18196022510528564, -0.1554432213306427, -0.1063639223575592, -0.03535023331642151, 0.9944162368774414, -0.07373637706041336, -0.12023735046386719, 1.486083984375, 0.3896484375, 56.495811462402344, 1.490478515625, 1.56591796875, 10.0, 1.0, 10.0, 1.3489832878112793
17195, 0.8116833567619324, 0.8586047291755676, 2.2023706436157227, -0.0980442687869072, -0.09800699353218079, -6.279002666473389, -0.1671200692653656, -0.16820304095745087, -0.8281121253967285, -0.8238969445228577, -0.9790878295898438, 0.05611930787563324, -2.3560586391977045, 0.2534436799766411, -91.86000831417884, 9362.0, 30146.0, 35388.0, 9362.0, 8.152067184448242, -0.07473642379045486, -0.18196022510528564, -0.1554432213306427, -0.1054108664393425, -0.0349847674369812, 0.9917997121810913, -0.07373637706041336, -0.12023735046386719, 1.486083984375, 0.3896484375, 56.495811462402344, 1.490478515625, 1.56591796875, 10.0, 1.0, 10.0, 1.3489832878112793
17215, 0.8127145767211914, 0.8576018810272217, 2.2020771503448486, -0.10312109440565109, -0.10311770439147949, -6.3038740158081055, -0.17133378982543945, -0.17250876128673553, -0.8301330208778381, -0.8238941431045532, -0.979101300239563, 0.05613700672984123, -2.357291196750499, 0.24788827168583794, -91.86336583040719, 9362.0, 30146.0, 35388.0, 9362.0, 8.152067184448242, 0.2670842409133911, 0.2849681079387665, -0.010033870115876198, -0.10739824920892715, -0.03422371298074722, 0.9915553331375122, -0.07373637706041336, -0.12023735046386719, 1.486083984375, 0.3896484375, 56.495811462402344, 1.490478515625, 1.154296875, 10.0, 1.0, 10.0, 1.3489832878112793
17225, 0.8131269216537476, 0.8546612858772278, 2.20304799079895, -0.10312109440565109, -0.10311770439147949, -6.3038740158081055, -0.17133378982543945, -0.17250876128673553, -0.8301330208778381, -0.8238826394081116, -0.9790995121002197, 0.05612238869071007, -2.3444373657959123, 0.253404130866528, -91.85948521535512, 9362.0, 30146.0, 35388.0, 9362.0, 8.152067184448242, -0.13524490594863892, 0.2782260775566101, 0.3759928047657013, -0.1055070236325264, -0.033976826816797256, 0.9926509261131287, -0.07373637706041336, -0.12023735046386719, 1.486083984375, 0.3896484375, 56.495811462402344, 1.490478515625, 0.98583984375, 10.0, 1.0, 10.0, 1.3489832878112793
17265, 0.811380922794342, 0.8489347696304321, 2.2082316875457764, -0.1118629053235054, -0.11192251741886139, -6.345479965209961, -0.17832988500595093, -0.1796845942735672, -0.8340181708335876, -0.8238539695739746, -0.9791473150253296, 0.05609811469912529, -2.3255863724931407, 0.25215789603996086, -91.81361123420905, 9362.0, 30146.0, 35388.0, 9362.0, 8.152067184448242, -0.05041544511914253, 0.21391136944293976, -0.02145949751138687, -0.10834644734859467, -0.03842991963028908, 0.993831992149353, -0.07710297405719757, -0.03959846496582031, 1.49267578125, 0.3896484375, 56.495811462402344, 1.493408203125, 0.85546875, 10.0, 1.0, 10.0, 1.3489832878112793
17285, 0.8116452693939209, 0.8463044166564941, 2.207695960998535, -0.11545734852552414, -0.11554490029811859, -6.3621721267700195, -0.18111321330070496, -0.18255411088466644, -0.8352339863777161, -0.8239086866378784, -0.9790911078453064, 0.0561303086578846, -2.3522692952841435, 0.25318646545647994, -91.86234618913784, 9362.0, 30146.0, 35388.0, 9362.0, 8.152067184448242, -0.15395818650722504, -0.12861374020576477, 0.3437079191207886, -0.10510731488466263, -0.034964241087436676, 0.9930692315101624, -0.07710297405719757, -0.03959846496582031, 1.49267578125, 0.3896484375, 56.495811462402344, 1.491943359375, 1.27880859375, 10.0, 1.0, 10.0, 1.3489832878112793
