timeTick, roll, pitch, yaw, stateX, stateY, stateZ, stateVX, stateVY, stateVZ, otX0, otY0, otZ0, otRoll0, otPitch0, otYaw0, left wing, pitch motor, yaw motor, right wing, voltage, roll rate, pitch rate, yaw rate, A_x, A_y, A_z, current, i_raw, v_raw, airflow_voltage, airflow_speed, pot_Pitch, voltage_nKF, kFFx, state, State, volt_KF
27411, -10.934343338012695, 1.5534486770629883, -106.10132598876953, 0, 0, 0, 0, 0, 0, 0, 0, 0, 0, 0, 0, 0, 0, 0, 0, 0, 0, 0, 0, 0, 0, 0, 0, 0, 0, 0, 0, 0, 0, 0, 0, 0, 0
27421, -11.10494613647461, 1.3657615184783936, -105.81050109863281, 0.0, 0.0, 0.697182297706604, 0.0, 0.0, 0.7321000099182129, 0, 0, 0, 0, 0, 0, 9362.0, 30146.0, 35388.0, 9362.0, 0, -8.979783058166504, 13.16806697845459, 28.8222713470459, 0, 0, 0, 0, 0, 0, 0, 0, 0, 0, 0, 0, 0, 0
27431, -11.152950286865234, 1.1883890628814697, -105.61727142333984, 0.0, 0.0, 0.7070435285568237, 0.0, 0.0, 0.9861230850219727, 0, 0, 0, 0, 0, 0, 9362.0, 30146.0, 35388.0, 9362.0, 0, -1.5318812131881714, 19.109575271606445, 27.418176651000977, 0.021902956068515778, -0.26068124175071716, 0.9811170101165771, 0, 0, 0, 1.48388671875, 0.1642303466796875, 0, 1.58349609375, 10.0, 1.0, 10.0, 1.5362905263900757
27441, -11.110275268554688, 0.8525748252868652, -105.35104370117188, 0.0, 0.0, 0.7159061431884766, 0.0, 0.0, 0.8862614631652832, 0, 0, 0, 0, 0, 0, 9362.0, 30146.0, 35388.0, 9362.0, 0, 7.752011775970459, 25.491077423095703, 27.755216598510742, 0.03163936361670494, -0.25991371273994446, 1.0113091468811035, 0, 0, 0, 1.60107421875, 0.4197540283203125, 1.52783203125, 1.57470703125, 10.0, 1.0, 10.0, 1.5362153053283691
27451, -11.003304481506348, 0.5764525532722473, -105.1911392211914, 0.0, 0.0, 0.7277045249938965, 0.0, 0.0, 1.1798381805419922, 0, 0, 0, 0, 0, 0, 9362.0, 30146.0, 35388.0, 9362.0, 0, 16.719419479370117, 31.89304542541504, 25.59168243408203, 0.03506496548652649, -0.23330838978290558, 1.01949143409729, 0, 0, 0, 1.53955078125, 0.278778076171875, 1.52783203125, 1.67431640625, 10.0, 1.0, 10.0, 1.5364201068878174
27461, -10.73058032989502, 0.10494110733270645, -104.98088836669922, 0.0, 0.0, 0.7383171319961548, 0.0, 0.0, 1.06126070022583, 0, 0, 0, 0, 0, 0, 9362.0, 30146.0, 35388.0, 9362.0, 0, 25.600984573364258, 37.71044921875, 24.33091163635254, 0.02343294955790043, -0.209049791097641, 0.993679404258728, 0, 0, 0, 1.54541015625, 0.291656494140625, 1.49560546875, 1.69189453125, 10.0, 1.0, 10.0, 1.5360877513885498
27471, -10.4835786819458, -0.2518332004547119, -104.86442565917969, 0.0, 0.0, 0.7423923015594482, 0.0, 0.0, 0.4075169563293457, 0, 0, 0, 0, 0, 0, 9362.0, 30146.0, 35388.0, 9362.0, 0, 32.98509216308594, 42.54970169067383, 21.29673957824707, 0.009035184979438782, -0.1893130987882614, 0.9589769840240479, 0, 0, 0, 1.56591796875, 0.337738037109375, 1.49560546875, 1.58642578125, 10.0, 1.0, 10.0, 1.5365334749221802
27481, -10.03162670135498, -0.831782341003418, -104.74394989013672, 0.0, 0.0, 0.7460479140281677, 0.0, 0.0, 0.36556124687194824, 0, 0, 0, 0, 0, 0, 9362.0, 30146.0, 35388.0, 9362.0, 0, 39.70743942260742, 47.47294616699219, 17.589725494384766, -0.001604751218110323, -0.1723734736442566, 0.9373248815536499, 0, 0, 0, 1.587890625, 0.38861083984375, 1.49560546875, 1.63330078125, 10.0, 1.0, 10.0, 1.5361891984939575
27491, -9.687356948852539, -1.2485628128051758, -104.67929077148438, 0.0, 0.0, 0.7389366626739502, 0.0, 0.0, -0.7111251354217529, 0, 0, 0, 0, 0, 0, 9362.0, 30146.0, 35388.0, 9362.0, 0, 45.262290954589844, 51.710235595703125, 17.738197326660156, -0.004516652785241604, -0.1786869764328003, 0.9371982216835022, 0, 0, 0, 1.54248046875, 0.28521728515625, 1.49560546875, 1.59375, 10.0, 1.0, 10.0, 1.5365791320800781
27501, -9.119355201721191, -1.930261492729187, -104.54607391357422, 0.0, 0.0, 0.7325193881988525, 0.0, 0.0, -0.6417274475097656, 0, 0, 0, 0, 0, 0, 9362.0, 30146.0, 35388.0, 9362.0, 0, 49.31938552856445, 55.50479507446289, 20.43163299560547, -0.013261801563203335, -0.20406825840473175, 0.9411278367042542, 0, 0, 0, 1.58935546875, 0.3920440673828125, 1.49267578125, 1.5322265625, 10.0, 1.0, 10.0, 1.5369492769241333
27511, -8.716912269592285, -2.4071314334869385, -104.46408081054688, 0.0, 0.0, 0.7278298139572144, 0.0, 0.0, -0.46895742416381836, 0, 0, 0, 0, 0, 0, 9362.0, 30146.0, 35388.0, 9362.0, 8.271075248718262, 52.897884368896484, 59.3746452331543, 19.09229850769043, -0.01829550974071026, -0.21907542645931244, 0.9499005079269409, 0, 0, 0, 1.546875, 0.2949676513671875, 1.49267578125, 1.5849609375, 10.0, 1.0, 10.0, 1.5373297929763794
27521, -8.079880714416504, -3.157985210418701, -104.34925079345703, 0.0, 0.0, 0.7235978841781616, 0.0, 0.0, -0.42319297790527344, 0, 0, 0, 0, 0, 0, 9362.0, 30146.0, 35388.0, 9362.0, 8.271075248718262, 55.799137115478516, 62.526981353759766, 18.90920066833496, -0.01059931330382824, -0.23177871108055115, 0.9520306587219238, -0.020103121176362038, 0.05000114440917969, 1.5, 1.6201171875, 0.4653778076171875, 1.493408203125, 1.681640625, 10.0, 1.0, 10.0, 1.5371818542480469
27531, -7.6383957862854, -3.6686229705810547, -104.25813293457031, 0.0, 0.0, 0.7225157022476196, 0.0, 0.0, -0.10821819305419922, 0, 0, 0, 0, 0, 0, 9362.0, 30146.0, 35388.0, 9362.0, 8.271075248718262, 57.52666091918945, 62.95243453979492, 20.99139404296875, -0.006550413556396961, -0.24907037615776062, 0.9612623453140259, -0.020103121176362038, 0.05000114440917969, 1.5, 1.64208984375, 0.519073486328125, 1.493408203125, 1.69189453125, 10.0, 1.0, 10.0, 1.5372356176376343
27541, -6.961474418640137, -4.436920166015625, -104.10296630859375, 0.0, 0.0, 0.7215307354927063, 0.0, 0.0, -0.09849667549133301, 0, 0, 0, 0, 0, 0, 9362.0, 30146.0, 35388.0, 9362.0, 8.271075248718262, 57.956565856933594, 62.78577423095703, 21.002878189086914, -0.025643937289714813, -0.24585114419460297, 0.9613872170448303, -0.020103121176362038, 0.05000114440917969, 1.5, 1.66259765625, 0.5705108642578125, 1.49853515625, 1.70068359375, 10.0, 1.0, 10.0, 1.5374163389205933
27551, -6.512209415435791, -4.922708034515381, -104.01326751708984, 0.0, 0.0, 0.7173561453819275, 0.0, 0.0, -0.41745901107788086, 0, 0, 0, 0, 0, 0, 9362.0, 30146.0, 35388.0, 9362.0, 8.271075248718262, 57.198753356933594, 59.0554084777832, 17.472713470458984, -0.03891584649682045, -0.21863985061645508, 0.9412229657173157, -0.020103121176362038, 0.05000114440917969, 1.5, 1.430419921875, 0.0756378173828125, 1.49853515625, 1.65966796875, 10.0, 1.0, 10.0, 1.53782320022583
27561, -5.826481342315674, -5.611451148986816, -103.89729309082031, 0.0, 0.0, 0.7135854363441467, 0.0, 0.0, -0.37707090377807617, 0, 0, 0, 0, 0, 0, 9362.0, 30146.0, 35388.0, 9362.0, 8.271075248718262, 58.48363494873047, 55.874900817871094, 15.431833267211914, -0.04175000637769699, -0.18914084136486053, 0.9193911552429199, -0.020103121176362038, 0.05000114440917969, 1.5, 1.468505859375, 0.13604736328125, 1.499267578125, 1.5234375, 10.0, 1.0, 10.0, 1.5382194519042969
27571, -5.369626045227051, -6.041833400726318, -103.80374908447266, 0.0, 0.0, 0.7074320912361145, 0.0, 0.0, -0.6153345108032227, 0, 0, 0, 0, 0, 0, 9362.0, 30146.0, 35388.0, 9362.0, 8.271075248718262, 57.75267028808594, 52.46815490722656, 18.690608978271484, -0.047286782413721085, -0.1761808693408966, 0.8956912159919739, -0.020103121176362038, 0.05000114440917969, 1.5, 1.56591796875, 0.337738037109375, 1.499267578125, 1.5146484375, 10.0, 1.0, 10.0, 1.5385798215866089
27581, -4.694045066833496, -6.637330532073975, -103.62826538085938, 0.0, 0.0, 0.7018276453018188, 0.0, 0.0, -0.5604445934295654, 0, 0, 0, 0, 0, 0, 9362.0, 30146.0, 35388.0, 9362.0, 8.271075248718262, 56.5192756652832, 47.345924377441406, 18.315114974975586, -0.06249738484621048, -0.17704758048057556, 0.8932875990867615, -0.020103121176362038, 0.05000114440917969, 1.5, 1.588623046875, 0.390350341796875, 1.496337890625, 1.587890625, 10.0, 1.0, 10.0, 1.5390223264694214
27591, -4.2508368492126465, -7.000391006469727, -103.49030303955078, 0.0, 0.0, 0.6961913704872131, 0.0, 0.0, -0.5636274814605713, 0, 0, 0, 0, 0, 0, 9362.0, 30146.0, 35388.0, 9362.0, 8.271075248718262, 54.61978530883789, 43.19856643676758, 18.85050392150879, -0.0813777968287468, -0.17394112050533295, 0.9211735725402832, -0.020103121176362038, 0.05000114440917969, 1.5, 1.478759765625, 0.1546478271484375, 1.496337890625, 1.640625, 10.0, 1.0, 10.0, 1.5392645597457886
27601, -3.6014766693115234, -7.473902225494385, -103.3319091796875, 0.0, 0.0, 0.6910775899887085, 0.0, 0.0, -0.5113780498504639, 0, 0, 0, 0, 0, 0, 9362.0, 30146.0, 35388.0, 9362.0, 8.271075248718262, 52.95395278930664, 37.58945083618164, 14.945435523986816, -0.09447931498289108, -0.1335238367319107, 0.9391990900039673, -0.020103121176362038, 0.05000114440917969, 1.5, 1.66552734375, 0.5779266357421875, 1.49267578125, 1.6728515625, 10.0, 1.0, 10.0, 1.5392377376556396
27611, -3.190866708755493, -7.741305351257324, -103.24146270751953, 0.0, 0.0, 0.680448055267334, 0.0, 0.0, -1.0629534721374512, 0, 0, 0, 0, 0, 0, 9362.0, 30146.0, 35388.0, 9362.0, 8.251240730285645, 49.14102554321289, 31.158811569213867, 11.920836448669434, -0.09545575827360153, -0.1012561246752739, 0.9539526700973511, -0.020103121176362038, 0.05000114440917969, 1.5, 1.65087890625, 0.5408935546875, 1.49267578125, 1.651611328125, 10.0, 1.0, 10.0, 1.5392248630523682
27621, -2.617048740386963, -8.075118064880371, -103.10494995117188, 0.0, 0.0, 0.6708734631538391, 0.0, 0.0, -0.9574592113494873, 0, 0, 0, 0, 0, 0, 9362.0, 30146.0, 35388.0, 9362.0, 8.251240730285645, 45.40269088745117, 26.465591430664062, 13.19516658782959, -0.09816056489944458, -0.08043812215328217, 0.9580711722373962, -0.03298069164156914, -0.2098369598388672, 1.478759765625, 1.67578125, 0.604156494140625, 1.49560546875, 1.65087890625, 10.0, 1.0, 10.0, 1.538922905921936
27631, -2.2696332931518555, -8.260540008544922, -102.9852066040039, 0.0, 0.0, 0.6638916730880737, 0.0, 0.0, -0.6981790065765381, 0, 0, 0, 0, 0, 0, 9362.0, 30146.0, 35388.0, 9362.0, 8.251240730285645, 40.5045166015625, 22.593873977661133, 17.98760986328125, -0.10420367866754532, -0.05940438061952591, 0.9561026692390442, -0.03298069164156914, -0.2098369598388672, 1.478759765625, 1.534423828125, 0.267578125, 1.49560546875, 1.4794921875, 10.0, 1.0, 10.0, 1.5393226146697998
27641, -1.8146756887435913, -8.49822998046875, -102.751953125, 0.0, 0.0, 0.6576005816459656, 0.0, 0.0, -0.6291091442108154, 0, 0, 0, 0, 0, 0, 9362.0, 30146.0, 35388.0, 9362.0, 8.251240730285645, 33.797332763671875, 18.479738235473633, 20.375886917114258, -0.1105254739522934, -0.06623709201812744, 0.9454282522201538, -0.03298069164156914, -0.2098369598388672, 1.478759765625, 1.48095703125, 0.1587677001953125, 1.500732421875, 1.41064453125, 10.0, 1.0, 10.0, 1.5397511720657349
27651, -1.5695651769638062, -8.62369155883789, -102.6010971069336, 0.0, 0.0, 0.6431806683540344, 0.0, 0.0, -1.4419913291931152, 0, 0, 0, 0, 0, 0, 9362.0, 30146.0, 35388.0, 9362.0, 8.251240730285645, 26.690258026123047, 14.458443641662598, 19.19719696044922, -0.12192092090845108, -0.06674917787313461, 0.9324288964271545, -0.03298069164156914, -0.2098369598388672, 1.478759765625, 1.65673828125, 0.55560302734375, 1.500732421875, 1.666259765625, 10.0, 1.0, 10.0, 1.5396627187728882
27661, -1.2983198165893555, -8.794900894165039, -102.36661529541016, 0.0, 0.0, 0.6301761865615845, 0.0, 0.0, -1.3004481792449951, 0, 0, 0, 0, 0, 0, 9362.0, 30146.0, 35388.0, 9362.0, 8.251240730285645, 18.554834365844727, 13.87502670288086, 20.533666610717773, -0.133854478597641, -0.08133675158023834, 0.923610270023346, -0.03298069164156914, -0.2098369598388672, 1.478759765625, 1.39306640625, 0.0337982177734375, 1.49560546875, 1.41943359375, 10.0, 1.0, 10.0, 1.5398658514022827
27671, -1.1765215396881104, -8.901604652404785, -102.21333312988281, 0.0, 0.0, 0.6140885353088379, 0.0, 0.0, -0.7640838623046875, 0, 0, 0, 0, 0, 0, 9362.0, 30146.0, 35388.0, 9362.0, 8.251240730285645, 11.430998802185059, 12.263046264648438, 18.837099075317383, -0.1510019302368164, -0.07800649106502533, 0.9167404770851135, -0.03298069164156914, -0.2098369598388672, 1.478759765625, 1.606201171875, 0.4319305419921875, 1.49560546875, 1.60693359375, 10.0, 1.0, 10.0, 1.539772391319275
27681, -1.0756875276565552, -9.049189567565918, -102.01245880126953, 0.0, 0.0, 0.6140885353088379, 0.0, 0.0, -0.7640838623046875, 0, 0, 0, 0, 0, 0, 9362.0, 30146.0, 35388.0, 9362.0, 8.251240730285645, 4.933348178863525, 11.247373580932617, 16.15241241455078, -0.1678355187177658, -0.06367366760969162, 0.9200004935264587, -0.03298069164156914, -0.2098369598388672, 1.478759765625, 1.383544921875, 0.026611328125, 1.48828125, 1.49853515625, 10.0, 1.0, 10.0, 1.5399428606033325
27691, -1.0644402503967285, -9.142509460449219, -101.90670776367188, 0.0, 0.0, 0.6099244356155396, 0.0, 0.0, -0.416409969329834, 0, 0, 0, 0, 0, 0, 9362.0, 30146.0, 35388.0, 9362.0, 8.251240730285645, -1.9745151996612549, 9.908369064331055, 11.482736587524414, -0.1771078109741211, -0.06194668263196945, 0.952154278755188, -0.03298069164156914, -0.2098369598388672, 1.478759765625, 1.63916015625, 0.51190185546875, 1.48828125, 1.6875, 10.0, 1.0, 10.0, 1.5397149324417114
27701, -1.1245847940444946, -9.26826000213623, -101.80387115478516, 0.0, 0.0, 0.6061685681343079, 0.0, 0.0, -0.37558674812316895, 0, 0, 0, 0, 0, 0, 9362.0, 30146.0, 35388.0, 9362.0, 8.251240730285645, -7.791880130767822, 9.202947616577148, 7.903799057006836, -0.19283436238765717, -0.04146943241357803, 0.9912216663360596, -0.03298069164156914, -0.2098369598388672, 1.478759765625, 1.5849609375, 0.381805419921875, 1.49560546875, 1.55419921875, 10.0, 1.0, 10.0, 1.5400567054748535
27711, -1.2062464952468872, -9.349881172180176, -101.73302459716797, 0.0, 0.0, 0.6011441349983215, 0.0, 0.0, -0.5024433135986328, 0, 0, 0, 0, 0, 0, 9362.0, 30146.0, 35388.0, 9362.0, 8.271075248718262, -13.59643840789795, 8.630841255187988, 9.140247344970703, -0.2106868475675583, -0.021865537390112877, 1.01007080078125, -0.03298069164156914, -0.2098369598388672, 1.478759765625, 1.65380859375, 0.548309326171875, 1.49560546875, 1.647216796875, 10.0, 1.0, 10.0, 1.540124535560608
27721, -1.3922241926193237, -9.467644691467285, -101.61726379394531, 0.0, 0.0, 0.5966167449951172, 0.0, 0.0, -0.45273900032043457, 0, 0, 0, 0, 0, 0, 9362.0, 30146.0, 35388.0, 9362.0, 8.271075248718262, -19.347379684448242, 8.307585716247559, 9.702736854553223, -0.22405686974525452, -0.010762364603579044, 1.0108968019485474, -0.03945165500044823, -0.2098369598388672, 1.478759765625, 1.61279296875, 0.4476470947265625, 1.494140625, 1.6171875, 10.0, 1.0, 10.0, 1.5396995544433594
27731, -1.566402792930603, -9.543389320373535, -101.5589370727539, 0.0, 0.0, 0.5936320424079895, 0.0, 0.0, -0.29847025871276855, 0, 0, 0, 0, 0, 0, 9362.0, 30146.0, 35388.0, 9362.0, 8.271075248718262, -25.229379653930664, 7.786431789398193, 5.91367244720459, -0.22493907809257507, 0.0031506414525210857, 1.0014750957489014, -0.03945165500044823, -0.2098369598388672, 1.478759765625, 1.48095703125, 0.1587677001953125, 1.494140625, 1.63916015625, 10.0, 1.0, 10.0, 1.539893388748169
27771, -2.8168132305145264, -9.892687797546387, -101.4063491821289, 0.0, 0.0, 0.5736243724822998, 0.0, 0.0, -0.7498502731323242, 0, 0, 0, 0, 0, 0, 9362.0, 30146.0, 35388.0, 9362.0, 8.271075248718262, -34.61612319946289, 7.657735347747803, 4.542537689208984, -0.22493907809257507, 0.0031506414525210857, 1.0014750957489014, -0.03945165500044823, -0.2098369598388672, 1.478759765625, 1.65234375, 0.5445709228515625, 1.50146484375, 1.58935546875, 10.0, 1.0, 10.0, 1.5402501821517944
27791, -3.4630815982818604, -10.10422134399414, -101.36458587646484, 0.0, 0.0, 0.5672682523727417, 0.0, 0.0, 0.04356503486633301, 0, 0, 0, 0, 0, 0, 9362.0, 30146.0, 35388.0, 9362.0, 8.271075248718262, -26.941490173339844, 10.70254898071289, 2.6081430912017822, -0.22493907809257507, 0.0031506414525210857, 1.0014750957489014, -0.03945165500044823, -0.2098369598388672, 1.478759765625, 1.32861328125, 0.0214385986328125, 1.494140625, 1.63330078125, 10.0, 1.0, 10.0, 1.5402501821517944
27801, -3.774508476257324, -10.24750804901123, -101.3377685546875, 0.0, 0.0, 0.5672682523727417, 0.0, 0.0, 0.04356503486633301, 0, 0, 0, 0, 0, 0, 9362.0, 30146.0, 35388.0, 9362.0, 8.271075248718262, -26.941490173339844, 10.70254898071289, 2.6081430912017822, -0.22493907809257507, 0.0031506414525210857, 1.0014750957489014, -0.03945165500044823, -0.2098369598388672, 1.478759765625, 1.4853515625, 0.1669921875, 1.494140625, 1.63330078125, 10.0, 1.0, 10.0, 1.5412187576293945
27811, -3.946720600128174, -10.34050178527832, -101.31367492675781, 0.0, 0.0, 0.5672682523727417, 0.0, 0.0, 0.04356503486633301, 0, 0, 0, 0, 0, 0, 9362.0, 30146.0, 35388.0, 9362.0, 8.271075248718262, -26.941490173339844, 10.70254898071289, 2.6081430912017822, -0.22493907809257507, 0.0031506414525210857, 1.0014750957489014, -0.03945165500044823, -0.2098369598388672, 1.478759765625, 1.5703125, 0.34783935546875, 1.494140625, 1.51611328125, 10.0, 1.0, 10.0, 1.5412187576293945
27831, -4.216890811920166, -10.545976638793945, -101.24768829345703, 0.0, 0.0, 0.5840238332748413, 0.0, 0.0, 0.22056102752685547, 0, 0, 0, 0, 0, 0, 9362.0, 30146.0, 35388.0, 9362.0, 8.271075248718262, -26.941490173339844, 10.70254898071289, 2.6081430912017822, -0.22493907809257507, 0.0031506414525210857, 1.0014750957489014, -0.03945165500044823, -0.2098369598388672, 1.478759765625, 1.6025390625, 0.423187255859375, 1.4970703125, 1.59521484375, 10.0, 1.0, 10.0, 1.5417876243591309
27841, -4.319703578948975, -10.636168479919434, -101.21285247802734, 0.0, 0.0, 0.5840238332748413, 0.0, 0.0, 0.22056102752685547, 0, 0, 0, 0, 0, 0, 9362.0, 30146.0, 35388.0, 9362.0, 8.271075248718262, -26.941490173339844, 10.70254898071289, 2.6081430912017822, -0.22493907809257507, 0.0031506414525210857, 1.0014750957489014, -0.03945165500044823, -0.2098369598388672, 1.478759765625, 1.6025390625, 0.423187255859375, 1.49560546875, 1.59521484375, 10.0, 1.0, 10.0, 1.541455626487732
27861, -4.446036338806152, -10.78188419342041, -100.98728942871094, 0.0, 0.0, 0.5820829272270203, 0.0, 0.0, -0.18737316131591797, 0, 0, 0, 0, 0, 0, 9362.0, 30146.0, 35388.0, 9362.0, 8.271075248718262, -8.976641654968262, 6.599305629730225, 10.123230934143066, -0.22493907809257507, 0.0031506414525210857, 1.0014750957489014, -0.03945165500044823, -0.2098369598388672, 1.478759765625, 1.593017578125, 0.400604248046875, 1.49560546875, 1.598876953125, 10.0, 1.0, 10.0, 1.5412554740905762
27881, -4.499570846557617, -10.936676025390625, -100.71422576904297, 0.0, 0.0, 0.5820829272270203, 0.0, 0.0, -0.18737316131591797, 0, 0, 0, 0, 0, 0, 9362.0, 30146.0, 35388.0, 9362.0, 8.271075248718262, -4.943516254425049, 6.851791858673096, 15.322502136230469, -0.22493907809257507, 0.0031506414525210857, 1.0014750957489014, -0.03945165500044823, -0.2098369598388672, 1.478759765625, 1.5849609375, 0.381805419921875, 1.4970703125, 1.3505859375, 10.0, 1.0, 10.0, 1.5415167808532715
27891, -4.506069183349609, -11.009174346923828, -100.63203430175781, 0.0, 0.0, 0.5820829272270203, 0.0, 0.0, -0.18737316131591797, 0, 0, 0, 0, 0, 0, 9362.0, 30146.0, 35388.0, 9362.0, 8.271075248718262, -4.943516254425049, 6.851791858673096, 15.322502136230469, -0.22493907809257507, 0.0031506414525210857, 1.0014750957489014, -0.03945165500044823, -0.2098369598388672, 1.478759765625, 1.453125, 0.1099090576171875, 1.4970703125, 1.449462890625, 10.0, 1.0, 10.0, 1.5415012836456299
27901, -4.492076396942139, -11.130783081054688, -100.55248260498047, 0.0, 0.0, 0.5820829272270203, 0.0, 0.0, -0.18737316131591797, 0, 0, 0, 0, 0, 0, 9362.0, 30146.0, 35388.0, 9362.0, 8.271075248718262, 3.9431002140045166, 10.148995399475098, 6.285283088684082, -0.22493907809257507, 0.0031506414525210857, 1.0014750957489014, -0.03945165500044823, -0.2098369598388672, 1.478759765625, 1.34326171875, 0.01605224609375, 1.4970703125, 1.581298828125, 10.0, 1.0, 10.0, 1.5415012836456299
27921, -4.361588478088379, -11.288248062133789, -100.55339050292969, 0.0, 0.0, 0.5461164712905884, 0.0, 0.0, -0.5244791507720947, 0, 0, 0, 0, 0, 0, 9362.0, 30146.0, 35388.0, 9362.0, 8.271075248718262, 7.722658157348633, 9.457657814025879, 2.067711591720581, -0.22493907809257507, 0.0031506414525210857, 1.0014750957489014, -0.056241098791360855, 0.03208160400390625, 1.49853515625, 1.34326171875, 0.01605224609375, 1.4970703125, 1.57763671875, 10.0, 1.0, 10.0, 1.5411025285720825
27931, -4.2642598152160645, -11.306610107421875, -100.6131820678711, 0.0, 0.0, 0.5461164712905884, 0.0, 0.0, -0.5244791507720947, 0, 0, 0, 0, 0, 0, 9362.0, 30146.0, 35388.0, 9362.0, 8.271075248718262, 15.476314544677734, 2.2515709400177, -8.782979965209961, -0.22493907809257507, 0.0031506414525210857, 1.0014750957489014, -0.056241098791360855, 0.03208160400390625, 1.49853515625, 1.45751953125, 0.117095947265625, 1.4970703125, 1.51318359375, 10.0, 1.0, 10.0, 1.5411025285720825
27941, -4.098267078399658, -11.27200698852539, -100.7866439819336, 0.0, 0.0, 0.5518765449523926, 0.0, 0.0, 0.27623772621154785, 0, 0, 0, 0, 0, 0, 9362.0, 30146.0, 35388.0, 9362.0, 8.271075248718262, 15.476314544677734, 2.2515709400177, -8.782979965209961, -0.22493907809257507, 0.0031506414525210857, 1.0014750957489014, -0.056241098791360855, 0.03208160400390625, 1.49853515625, 1.45751953125, 0.117095947265625, 1.4970703125, 1.56005859375, 10.0, 1.0, 10.0, 1.5411025285720825
27961, -3.7743308544158936, -11.0646390914917, -101.12380981445312, 0.0, 0.0, 0.5555696487426758, 0.0, 0.0, 0.17472505569458008, 0, 0, 0, 0, 0, 0, 9362.0, 30146.0, 35388.0, 9362.0, 8.271075248718262, 18.86855125427246, -6.744781494140625, -18.15575408935547, -0.22493907809257507, 0.0031506414525210857, 1.0014750957489014, -0.056241098791360855, 0.03208160400390625, 1.49853515625, 1.600341796875, 0.4178924560546875, 1.4970703125, 1.562255859375, 10.0, 1.0, 10.0, 1.5411025285720825
28011, -2.779273748397827, -10.230560302734375, -101.67639923095703, 0.0, 0.0, 0.5840766429901123, 0.0, 0.0, 1.2928426265716553, 0, 0, 0, 0, 0, 0, 9362.0, 30146.0, 35388.0, 9362.0, 8.271075248718262, 24.442052841186523, -18.51334571838379, -12.803007125854492, -0.22493907809257507, 0.0031506414525210857, 1.0014750957489014, -0.056241098791360855, 0.03208160400390625, 1.49853515625, 1.556396484375, 0.316192626953125, 1.4970703125, 1.56298828125, 10.0, 1.0, 10.0, 1.5406298637390137
28031, -2.2277920246124268, -9.87559986114502, -101.96836853027344, 0.0, 0.0, 0.6050885915756226, 0.0, 0.0, 0.9377181529998779, 0, 0, 0, 0, 0, 0, 9362.0, 30146.0, 35388.0, 9362.0, 8.271075248718262, 30.10540771484375, -16.8994083404541, -14.35107707977295, -0.19774271547794342, -0.0601678304374218, 1.0334644317626953, -0.056241098791360855, 0.03208160400390625, 1.49853515625, 1.556396484375, 0.316192626953125, 1.4970703125, 1.56884765625, 10.0, 1.0, 10.0, 1.5391936302185059
28041, -1.868291974067688, -9.67612075805664, -102.14033508300781, 0.0, 0.0, 0.6050885915756226, 0.0, 0.0, 0.9377181529998779, 0, 0, 0, 0, 0, 0, 9362.0, 30146.0, 35388.0, 9362.0, 8.271075248718262, 30.10540771484375, -16.8994083404541, -14.35107707977295, -0.19774271547794342, -0.0601678304374218, 1.0334644317626953, -0.056241098791360855, 0.03208160400390625, 1.49853515625, 1.556396484375, 0.316192626953125, 1.499267578125, 1.56884765625, 10.0, 1.0, 10.0, 1.5393080711364746
28061, -1.2527152299880981, -9.342166900634766, -102.2196273803711, 0.0, 0.0, 0.6166378855705261, 0.0, 0.0, 0.14832615852355957, 0, 0, 0, 0, 0, 0, 9362.0, 30146.0, 35388.0, 9362.0, 8.271075248718262, 32.37492752075195, -16.536685943603516, -6.849135875701904, -0.19774271547794342, -0.0601678304374218, 1.0334644317626953, -0.056241098791360855, 0.03208160400390625, 1.49853515625, 1.5849609375, 0.381805419921875, 1.499267578125, 1.535888671875, 10.0, 1.0, 10.0, 1.5388356447219849
28071, -1.0153896808624268, -9.20567798614502, -102.16629791259766, 0.0, 0.0, 0.6166378855705261, 0.0, 0.0, 0.14832615852355957, 0, 0, 0, 0, 0, 0, 9362.0, 30146.0, 35388.0, 9362.0, 8.271075248718262, 32.37492752075195, -16.536685943603516, -6.849135875701904, -0.19774271547794342, -0.0601678304374218, 1.0334644317626953, -0.056241098791360855, 0.03208160400390625, 1.49853515625, 1.490478515625, 0.1768646240234375, 1.499267578125, 1.471435546875, 10.0, 1.0, 10.0, 1.538958191871643
28111, -0.226854145526886, -8.379782676696777, -101.95023345947266, 0.0, 0.0, 0.6003783941268921, 0.0, 0.0, -0.2177715301513672, 0, 0, 0, 0, 0, 0, 9362.0, 30146.0, 35388.0, 9362.0, 8.271075248718262, 32.37492752075195, -16.536685943603516, -6.849135875701904, -0.19774271547794342, -0.0601678304374218, 1.0334644317626953, -0.056241098791360855, 0.03208160400390625, 1.49853515625, 1.616455078125, 0.456512451171875, 1.49267578125, 1.471435546875, 10.0, 1.0, 10.0, 1.538958191871643
28121, -0.1632927656173706, -8.090601921081543, -101.96492767333984, 0.0, 0.0, 0.6022651791572571, 0.0, 0.0, 0.1803755760192871, 0, 0, 0, 0, 0, 0, 9362.0, 30146.0, 35388.0, 9362.0, 8.271075248718262, 6.655368328094482, -23.454809188842773, -2.428179979324341, -0.19774271547794342, -0.0601678304374218, 1.0334644317626953, -0.056241098791360855, 0.03208160400390625, 1.49853515625, 1.616455078125, 0.456512451171875, 1.494140625, 1.471435546875, 10.0, 1.0, 10.0, 1.538958191871643
28131, -0.16900674998760223, -7.895260810852051, -102.01435089111328, 0.0, 0.0, 0.6022651791572571, 0.0, 0.0, 0.1803755760192871, 0, 0, 0, 0, 0, 0, 9362.0, 30146.0, 35388.0, 9362.0, 8.271075248718262, 6.655368328094482, -23.454809188842773, -2.428179979324341, -0.19774271547794342, -0.0601678304374218, 1.0334644317626953, -0.056241098791360855, 0.03208160400390625, 1.49853515625, 1.357177734375, 0.0157928466796875, 1.494140625, 1.32275390625, 10.0, 1.0, 10.0, 1.537691354751587
28231, -1.9237101078033447, -6.531829833984375, -102.94573211669922, 0.0, 0.0, 0.5801122784614563, 0.0, 0.0, -0.9683787822723389, 0, 0, 0, 0, 0, 0, 9362.0, 30146.0, 35388.0, 9362.0, 8.271075248718262, 6.655368328094482, -23.454809188842773, -2.428179979324341, -0.19774271547794342, -0.0601678304374218, 1.0334644317626953, -0.056241098791360855, 0.03208160400390625, 1.49853515625, 1.41357421875, 0.0542449951171875, 1.494140625, 1.32275390625, 10.0, 1.0, 10.0, 1.5358017683029175
28241, -2.20357084274292, -6.62493371963501, -103.03246307373047, 0.0, 0.0, 0.5801122784614563, 0.0, 0.0, -0.9683787822723389, 0, 0, 0, 0, 0, 0, 9362.0, 30146.0, 35388.0, 9362.0, 8.271075248718262, 6.655368328094482, -23.454809188842773, -2.428179979324341, -0.19774271547794342, -0.0601678304374218, 1.0334644317626953, -0.056241098791360855, 0.03208160400390625, 1.49853515625, 1.44287109375, 0.0936279296875, 1.49267578125, 1.32275390625, 10.0, 1.0, 10.0, 1.5359547138214111
28281, -2.9905612468719482, -7.0594635009765625, -103.4069595336914, 0.0, 0.0, 0.5528934597969055, 0.0, 0.0, -0.4185616970062256, 0, 0, 0, 0, 0, 0, 9362.0, 30146.0, 35388.0, 9362.0, 8.271075248718262, -15.749958992004395, 12.07833480834961, -8.519481658935547, -0.11711464822292328, -0.16427268087863922, 1.0367705821990967, -0.056241098791360855, 0.03208160400390625, 1.49853515625, 1.60400390625, 0.4266204833984375, 1.49267578125, 1.576904296875, 10.0, 1.0, 10.0, 1.535231590270996
28291, -3.1049273014068604, -7.132302284240723, -103.50145721435547, 0.0, 0.0, 0.5528934597969055, 0.0, 0.0, -0.4185616970062256, 0, 0, 0, 0, 0, 0, 9362.0, 30146.0, 35388.0, 9362.0, 8.271075248718262, -15.749958992004395, 12.07833480834961, -8.519481658935547, -0.11711464822292328, -0.16427268087863922, 1.0367705821990967, -0.056241098791360855, 0.03208160400390625, 1.49853515625, 1.541748046875, 0.2835540771484375, 1.49267578125, 1.5029296875, 10.0, 1.0, 10.0, 1.5354186296463013
28301, -3.242554187774658, -7.222897052764893, -103.63121032714844, 0.0, 0.0, 0.5528934597969055, 0.0, 0.0, -0.4185616970062256, 0, 0, 0, 0, 0, 0, 9362.0, 30146.0, 35388.0, 9362.0, 8.271075248718262, -15.749958992004395, 12.07833480834961, -8.519481658935547, -0.11711464822292328, -0.16427268087863922, 1.0367705821990967, -0.056241098791360855, 0.03208160400390625, 1.49853515625, 1.4677734375, 0.1347198486328125, 1.503662109375, 1.5029296875, 10.0, 1.0, 10.0, 1.535561203956604
28311, -3.3080520629882812, -7.272583484649658, -103.70304870605469, 0.0, 0.0, 0.5528934597969055, 0.0, 0.0, -0.4185616970062256, 0, 0, 0, 0, 0, 0, 9362.0, 30146.0, 35388.0, 9362.0, 8.271075248718262, -15.749958992004395, 12.07833480834961, -8.519481658935547, -0.11711464822292328, -0.16427268087863922, 1.0367705821990967, -0.056241098791360855, 0.03208160400390625, 1.49853515625, 1.506591796875, 0.2088775634765625, 1.503662109375, 1.53515625, 10.0, 1.0, 10.0, 1.535561203956604
28331, -3.3632497787475586, -7.341346740722656, -103.83446502685547, 0.0, 0.0, 0.5446085333824158, 0.0, 0.0, 0.2802610397338867, 0, 0, 0, 0, 0, 0, 9362.0, 30146.0, 35388.0, 9362.0, 8.271075248718262, -15.749958992004395, 12.07833480834961, -8.519481658935547, -0.11711464822292328, -0.16427268087863922, 1.0367705821990967, -0.056241098791360855, 0.03208160400390625, 1.49853515625, 1.39599609375, 0.0362701416015625, 1.4970703125, 1.36376953125, 10.0, 1.0, 10.0, 1.5359745025634766
28341, -3.3148891925811768, -7.348818778991699, -103.83147430419922, 0.0, 0.0, 0.5446085333824158, 0.0, 0.0, 0.2802610397338867, 0, 0, 0, 0, 0, 0, 9362.0, 30146.0, 35388.0, 9362.0, 8.271075248718262, -15.749958992004395, 12.07833480834961, -8.519481658935547, -0.11711464822292328, -0.16427268087863922, 1.0367705821990967, -0.056241098791360855, 0.03208160400390625, 1.49853515625, 1.36376953125, 0.017181396484375, 1.499267578125, 1.36376953125, 10.0, 1.0, 10.0, 1.5361037254333496
28361, -3.136898994445801, -7.266025066375732, -103.66998291015625, 0.0, 0.0, 0.5410478115081787, 0.0, 0.0, -0.2881169319152832, 0, 0, 0, 0, 0, 0, 9362.0, 30146.0, 35388.0, 9362.0, 8.271075248718262, -15.749958992004395, 12.07833480834961, -8.519481658935547, -0.11711464822292328, -0.16427268087863922, 1.0367705821990967, -0.056241098791360855, 0.03208160400390625, 1.49853515625, 1.579833984375, 0.369873046875, 1.499267578125, 1.62744140625, 10.0, 1.0, 10.0, 1.5361777544021606
28371, -3.052485227584839, -7.20626974105835, -103.56505584716797, 0.0, 0.0, 0.5390004515647888, 0.0, 0.0, -0.20473599433898926, 0, 0, 0, 0, 0, 0, 9362.0, 30146.0, 35388.0, 9362.0, 8.271075248718262, -15.749958992004395, 12.07833480834961, -8.519481658935547, -0.11711464822292328, -0.16427268087863922, 1.0367705821990967, -0.056241098791360855, 0.03208160400390625, 1.49853515625, 1.579833984375, 0.369873046875, 1.499267578125, 1.368896484375, 10.0, 1.0, 10.0, 1.5363086462020874
28391, -2.9024839401245117, -7.013091087341309, -103.21878051757812, 0.0, 0.0, 0.5469781160354614, 0.0, 0.0, 0.9821951389312744, 0, 0, 0, 0, 0, 0, 9362.0, 30146.0, 35388.0, 9362.0, 8.271075248718262, 6.85176420211792, -9.732002258300781, 16.57201385498047, -0.11711464822292328, -0.16427268087863922, 1.0367705821990967, -0.056241098791360855, 0.03208160400390625, 1.49853515625, 1.5380859375, 0.2755889892578125, 1.499267578125, 1.58642578125, 10.0, 1.0, 10.0, 1.5358201265335083
28401, -2.8703017234802246, -6.888404846191406, -102.99910736083984, 0.0, 0.0, 0.5469781160354614, 0.0, 0.0, 0.9821951389312744, 0, 0, 0, 0, 0, 0, 9362.0, 30146.0, 35388.0, 9362.0, 8.271075248718262, 6.85176420211792, -9.732002258300781, 16.57201385498047, -0.11711464822292328, -0.16427268087863922, 1.0367705821990967, -0.056241098791360855, 0.03208160400390625, 1.49853515625, 1.4912109375, 0.178253173828125, 1.4970703125, 1.58642578125, 10.0, 1.0, 10.0, 1.5359175205230713
28441, -3.041189193725586, -6.573013782501221, -102.31749725341797, 0.0, 0.0, 0.5816739797592163, 0.0, 0.0, 0.6566762924194336, 0, 0, 0, 0, 0, 0, 9362.0, 30146.0, 35388.0, 9362.0, 8.271075248718262, -9.327919960021973, -4.8166937828063965, 16.436784744262695, -0.11711464822292328, -0.16427268087863922, 1.0367705821990967, -0.056241098791360855, 0.03208160400390625, 1.49853515625, 1.43115234375, 0.0766143798828125, 1.49853515625, 1.55419921875, 10.0, 1.0, 10.0, 1.5359175205230713
28451, -3.103874444961548, -6.545980930328369, -102.15181732177734, 0.0, 0.0, 0.5816739797592163, 0.0, 0.0, 0.6566762924194336, 0, 0, 0, 0, 0, 0, 9362.0, 30146.0, 35388.0, 9362.0, 8.271075248718262, -9.327919960021973, -4.8166937828063965, 16.436784744262695, -0.11711464822292328, -0.16427268087863922, 1.0367705821990967, -0.056241098791360855, 0.03208160400390625, 1.49853515625, 1.3037109375, 0.04412841796875, 1.49853515625, 1.318359375, 10.0, 1.0, 10.0, 1.535512924194336
28471, -3.3027827739715576, -6.572686672210693, -101.46773529052734, 0.0, 0.0, 0.6035400629043579, 0.0, 0.0, 0.9601354598999023, 0, 0, 0, 0, 0, 0, 9362.0, 30146.0, 35388.0, 9362.0, 8.271075248718262, -13.76915454864502, 0.2313622683286667, 34.25318145751953, -0.11711464822292328, -0.16427268087863922, 1.0367705821990967, -0.056241098791360855, 0.03208160400390625, 1.49853515625, 1.563720703125, 0.3327789306640625, 1.49853515625, 1.546875, 10.0, 1.0, 10.0, 1.5348999500274658
28481, -3.463892936706543, -6.67323112487793, -100.96149444580078, 0.0, 0.0, 0.6035400629043579, 0.0, 0.0, 0.9601354598999023, 0, 0, 0, 0, 0, 0, 9362.0, 30146.0, 35388.0, 9362.0, 8.271075248718262, -13.76915454864502, 0.2313622683286667, 34.25318145751953, -0.11711464822292328, -0.16427268087863922, 1.0367705821990967, -0.056241098791360855, 0.03208160400390625, 1.49853515625, 1.42236328125, 0.0649566650390625, 1.5, 1.546875, 10.0, 1.0, 10.0, 1.534942388534546
28491, -3.5863306522369385, -6.7812886238098145, -100.62073516845703, 0.0, 0.0, 0.6035400629043579, 0.0, 0.0, 0.9601354598999023, 0, 0, 0, 0, 0, 0, 9362.0, 30146.0, 35388.0, 9362.0, 8.271075248718262, -13.76915454864502, 0.2313622683286667, 34.25318145751953, -0.11711464822292328, -0.16427268087863922, 1.0367705821990967, -0.056241098791360855, 0.03208160400390625, 1.49853515625, 1.34765625, 0.0154571533203125, 1.5, 1.571044921875, 10.0, 1.0, 10.0, 1.534942388534546
28501, -3.7640743255615234, -6.9655280113220215, -100.11193084716797, 0.0, 0.0, 0.6035400629043579, 0.0, 0.0, 0.9601354598999023, 0, 0, 0, 0, 0, 0, 9362.0, 30146.0, 35388.0, 9362.0, 8.271075248718262, -13.76915454864502, 0.2313622683286667, 34.25318145751953, -0.11711464822292328, -0.16427268087863922, 1.0367705821990967, -0.056241098791360855, 0.03208160400390625, 1.49853515625, 1.528564453125, 0.2548828125, 1.496337890625, 1.571044921875, 10.0, 1.0, 10.0, 1.5351378917694092
28511, -3.8699021339416504, -7.10610294342041, -99.78974151611328, 0.0, 0.0, 0.6035400629043579, 0.0, 0.0, 0.9601354598999023, 0, 0, 0, 0, 0, 0, 9362.0, 30146.0, 35388.0, 9362.0, 8.271075248718262, -13.76915454864502, 0.2313622683286667, 34.25318145751953, -0.11711464822292328, -0.16427268087863922, 1.0367705821990967, -0.056241098791360855, 0.03208160400390625, 1.49853515625, 1.42822265625, 0.0726470947265625, 1.496337890625, 1.37548828125, 10.0, 1.0, 10.0, 1.5351378917694092
28561, -4.217642784118652, -7.963772773742676, -98.00810241699219, 0.0, 0.0, 0.606613278388977, 0.0, 0.0, -0.7374763488769531, 0, 0, 0, 0, 0, 0, 9362.0, 30146.0, 35388.0, 9362.0, 8.271075248718262, -6.097001552581787, 13.834893226623535, 32.436363220214844, -0.11711464822292328, -0.16427268087863922, 1.0367705821990967, -0.056241098791360855, 0.03208160400390625, 1.49853515625, 1.505859375, 0.2073974609375, 1.496337890625, 1.56005859375, 10.0, 1.0, 10.0, 1.5342284440994263
28651, -3.6263427734375, -8.137267112731934, -99.0108642578125, 0.0, 0.0, 0.5656531453132629, 0.0, 0.0, -0.13589262962341309, 0, 0, 0, 0, 0, 0, 9362.0, 30146.0, 35388.0, 9362.0, 8.271075248718262, 19.62395668029785, 0.8977681994438171, -24.43287467956543, -0.11711464822292328, -0.16427268087863922, 1.0367705821990967, -0.04716114699840546, -0.030637741088867188, 1.493408203125, 1.554931640625, 0.3128814697265625, 1.4912109375, 1.634033203125, 10.0, 1.0, 10.0, 1.5316061973571777
28711, -2.756138563156128, -8.782575607299805, -99.2891845703125, 0.0, 0.0, 0.5780009627342224, 0.0, 0.0, 0.4641294479370117, 0, 0, 0, 0, 0, 0, 9362.0, 30146.0, 35388.0, 9362.0, 8.271075248718262, 15.475741386413574, 17.429105758666992, -3.2827863693237305, -0.11711464822292328, -0.16427268087863922, 1.0367705821990967, -0.04716114699840546, -0.030637741088867188, 1.493408203125, 1.600341796875, 0.4178924560546875, 1.49560546875, 1.623046875, 10.0, 1.0, 10.0, 1.5316061973571777
28721, -2.639504909515381, -8.944705963134766, -99.44171142578125, 0.0, 0.0, 0.5822780728340149, 0.0, 0.0, 0.42771100997924805, 0, 0, 0, 0, 0, 0, 9362.0, 30146.0, 35388.0, 9362.0, 8.271075248718262, 15.475741386413574, 17.429105758666992, -3.2827863693237305, -0.11711464822292328, -0.16427268087863922, 1.0367705821990967, -0.028772519901394844, -0.021678924560546875, 1.494140625, 1.600341796875, 0.4178924560546875, 1.49560546875, 1.61572265625, 10.0, 1.0, 10.0, 1.5316061973571777
28741, -2.4960010051727295, -9.066385269165039, -99.6153335571289, 0.0, 0.0, 0.591896653175354, 0.0, 0.0, 0.45995116233825684, 0, 0, 0, 0, 0, 0, 9362.0, 30146.0, 35388.0, 9362.0, 8.271075248718262, 9.638320922851562, 7.3402886390686035, -9.591431617736816, -0.11711464822292328, -0.16427268087863922, 1.0367705821990967, -0.028772519901394844, -0.021678924560546875, 1.494140625, 1.623046875, 0.4723663330078125, 1.49560546875, 1.622314453125, 10.0, 1.0, 10.0, 1.530474066734314
28751, -2.4645097255706787, -9.061186790466309, -99.63290405273438, 0.0, 0.0, 0.591896653175354, 0.0, 0.0, 0.45995116233825684, 0, 0, 0, 0, 0, 0, 9362.0, 30146.0, 35388.0, 9362.0, 8.271075248718262, 9.638320922851562, 7.3402886390686035, -9.591431617736816, -0.11711464822292328, -0.16427268087863922, 1.0367705821990967, -0.028772519901394844, -0.021678924560546875, 1.494140625, 1.48388671875, 0.1642303466796875, 1.49560546875, 1.411376953125, 10.0, 1.0, 10.0, 1.5308935642242432
28791, -2.6059134006500244, -8.727174758911133, -99.00708770751953, 0.0, 0.0, 0.6121398210525513, 0.0, 0.0, 0.2996683120727539, 0, 0, 0, 0, 0, 0, 9362.0, 30146.0, 35388.0, 9362.0, 8.271075248718262, -9.352648735046387, -11.167424201965332, 20.31302833557129, -0.11711464822292328, -0.16427268087863922, 1.0367705821990967, -0.028772519901394844, -0.021678924560546875, 1.494140625, 1.680908203125, 0.6174774169921875, 1.50146484375, 1.34326171875, 10.0, 1.0, 10.0, 1.5312912464141846
28801, -2.7000513076782227, -8.637824058532715, -98.80187225341797, 0.0, 0.0, 0.6121398210525513, 0.0, 0.0, 0.2996683120727539, 0, 0, 0, 0, 0, 0, 9362.0, 30146.0, 35388.0, 9362.0, 8.271075248718262, -9.352648735046387, -11.167424201965332, 20.31302833557129, -0.11711464822292328, -0.16427268087863922, 1.0367705821990967, -0.028772519901394844, -0.021678924560546875, 1.494140625, 1.550537109375, 0.303131103515625, 1.49853515625, 1.34326171875, 10.0, 1.0, 10.0, 1.531761646270752
28831, -2.8233041763305664, -8.536870002746582, -98.55750274658203, 0.0, 0.0, 0.6218463182449341, 0.0, 0.0, 0.3342151641845703, 0, 0, 0, 0, 0, 0, 9362.0, 30146.0, 35388.0, 9362.0, 8.251240730285645, -1.8902920484542847, -3.7936363220214844, 7.424130916595459, -0.11711464822292328, -0.16427268087863922, 1.0367705821990967, -0.012563006021082401, 0.10376167297363281, 1.50439453125, 1.64208984375, 0.519073486328125, 1.49853515625, 1.634765625, 10.0, 1.0, 10.0, 1.5324517488479614
28891, -2.228318691253662, -8.388394355773926, -97.48371124267578, 0.0, 0.0, 0.6414732933044434, 0.0, 0.0, 0.3453075885772705, 0, 0, 0, 0, 0, 0, 9362.0, 30146.0, 35388.0, 9362.0, 8.251240730285645, 11.047850608825684, -3.446690082550049, 27.251924514770508, -0.11711464822292328, -0.16427268087863922, 1.0367705821990967, -0.012563006021082401, 0.10376167297363281, 1.50439453125, 1.6962890625, 0.657958984375, 1.493408203125, 1.72265625, 10.0, 1.0, 10.0, 1.532929539680481
28911, -1.878382682800293, -8.418139457702637, -96.81901550292969, 0.0, 0.0, 0.6467698216438293, 0.0, 0.0, 0.22203922271728516, 0, 0, 0, 0, 0, 0, 9362.0, 30146.0, 35388.0, 9362.0, 8.251240730285645, 14.194172859191895, 0.8076938986778259, 32.615753173828125, -0.11711464822292328, -0.16427268087863922, 1.0367705821990967, -0.012563006021082401, 0.10376167297363281, 1.50439453125, 1.72412109375, 0.73431396484375, 1.493408203125, 1.67431640625, 10.0, 1.0, 10.0, 1.5329551696777344
28951, -0.9944263100624084, -8.557936668395996, -95.77229309082031, 0.0, 0.0, 0.6597320437431335, 0.0, 0.0, 0.442737340927124, 0, 0, 0, 0, 0, 0, 9362.0, 30146.0, 35388.0, 9362.0, 8.251240730285645, 21.83084487915039, 4.426153182983398, 20.792144775390625, -0.11711464822292328, -0.16427268087863922, 1.0367705821990967, -0.012563006021082401, 0.10376167297363281, 1.50439453125, 1.693359375, 0.650238037109375, 1.496337890625, 1.707275390625, 10.0, 1.0, 10.0, 1.5333703756332397
28961, -0.7377039194107056, -8.509726524353027, -95.72530364990234, 0.0, 0.0, 0.660742461681366, 0.0, 0.0, -0.29747486114501953, 0, 0, 0, 0, 0, 0, 9362.0, 30146.0, 35388.0, 9362.0, 8.251240730285645, 21.83084487915039, 4.426153182983398, 20.792144775390625, -0.11711464822292328, -0.16427268087863922, 1.0367705821990967, -0.012563006021082401, 0.10376167297363281, 1.50439453125, 1.6083984375, 0.437225341796875, 1.496337890625, 1.658935546875, 10.0, 1.0, 10.0, 1.5333703756332397
28981, -0.35839763283729553, -8.276652336120605, -95.82244110107422, 0.0, 0.0, 0.660742461681366, 0.0, 0.0, -0.29747486114501953, 0, 0, 0, 0, 0, 0, 9362.0, 30146.0, 35388.0, 9362.0, 8.251240730285645, 20.76926040649414, -8.806312561035156, -3.5683391094207764, -0.11711464822292328, -0.16427268087863922, 1.0367705821990967, -0.012563006021082401, 0.10376167297363281, 1.50439453125, 1.450927734375, 0.1063690185546875, 1.49267578125, 1.658935546875, 10.0, 1.0, 10.0, 1.5336956977844238
28991, -0.24169722199440002, -8.146566390991211, -95.84796142578125, 0.0, 0.0, 0.6616674065589905, 0.0, 0.0, 0.36017298698425293, 0, 0, 0, 0, 0, 0, 9362.0, 30146.0, 35388.0, 9362.0, 8.251240730285645, 13.092052459716797, -15.943615913391113, -0.75992751121521, -0.11711464822292328, -0.16427268087863922, 1.0367705821990967, -0.012563006021082401, 0.10376167297363281, 1.50439453125, 1.450927734375, 0.1063690185546875, 1.49267578125, 1.688232421875, 10.0, 1.0, 10.0, 1.5336956977844238
29011, 0.0017773914150893688, -7.781330108642578, -95.66401672363281, 0.0, 0.0, 0.6677482724189758, 0.0, 0.0, 0.2865135669708252, 0, 0, 0, 0, 0, 0, 9362.0, 30146.0, 35388.0, 9362.0, 8.271075248718262, 13.092052459716797, -15.943615913391113, -0.75992751121521, -0.11711464822292328, -0.16427268087863922, 1.0367705821990967, -0.012563006021082401, 0.10376167297363281, 1.50439453125, 1.689697265625, 0.640533447265625, 1.4970703125, 1.66259765625, 10.0, 1.0, 10.0, 1.5339105129241943
29081, -0.1473260223865509, -6.750248432159424, -94.6416244506836, 0.0, 0.0, 0.6395224928855896, 0.0, 0.0, -0.5804359912872314, 0, 0, 0, 0, 0, 0, 9362.0, 30146.0, 35388.0, 9362.0, 8.271075248718262, -12.243986129760742, -10.132378578186035, 8.680058479309082, -0.08610832691192627, 0.04477526247501373, 0.9107303619384766, -0.012563006021082401, 0.10376167297363281, 1.50439453125, 1.6611328125, 0.566650390625, 1.494140625, 1.667724609375, 10.0, 1.0, 10.0, 1.5358670949935913
29091, -0.27770891785621643, -6.705498218536377, -94.52140045166016, 0.0, 0.0, 0.6395224928855896, 0.0, 0.0, -0.5804359912872314, 0, 0, 0, 0, 0, 0, 9362.0, 30146.0, 35388.0, 9362.0, 8.271075248718262, -12.243986129760742, -10.132378578186035, 8.680058479309082, -0.08610832691192627, 0.04477526247501373, 0.9107303619384766, -0.012563006021082401, 0.10376167297363281, 1.50439453125, 1.60107421875, 0.4197540283203125, 1.494140625, 1.658203125, 10.0, 1.0, 10.0, 1.5364267826080322
29101, -0.48397642374038696, -6.66567325592041, -94.29108428955078, 0.0, 0.0, 0.6180834770202637, 0.0, 0.0, -0.7674634456634521, 0, 0, 0, 0, 0, 0, 9362.0, 30146.0, 35388.0, 9362.0, 8.271075248718262, -12.243986129760742, -10.132378578186035, 8.680058479309082, -0.08610832691192627, 0.04477526247501373, 0.9107303619384766, -0.012563006021082401, 0.10376167297363281, 1.50439453125, 1.60107421875, 0.4197540283203125, 1.494140625, 1.666259765625, 10.0, 1.0, 10.0, 1.5364267826080322
29111, -0.6138826012611389, -6.669273853302002, -94.12776947021484, 0.0, 0.0, 0.6180834770202637, 0.0, 0.0, -0.7674634456634521, 0, 0, 0, 0, 0, 0, 9362.0, 30146.0, 35388.0, 9362.0, 8.271075248718262, -12.243986129760742, -10.132378578186035, 8.680058479309082, -0.08610832691192627, 0.04477526247501373, 0.9107303619384766, -0.012563006021082401, 0.10376167297363281, 1.50439453125, 1.67431640625, 0.6003570556640625, 1.494140625, 1.628173828125, 10.0, 1.0, 10.0, 1.5364267826080322
29121, -0.7939853072166443, -6.7073163986206055, -93.89997863769531, 0.0, 0.0, 0.6049818396568298, 0.0, 0.0, -0.6197750568389893, 0, 0, 0, 0, 0, 0, 9362.0, 30146.0, 35388.0, 9362.0, 8.271075248718262, -12.243986129760742, -10.132378578186035, 8.680058479309082, -0.08610832691192627, 0.04477526247501373, 0.9107303619384766, -0.012563006021082401, 0.10376167297363281, 1.50439453125, 1.631103515625, 0.49212646484375, 1.494140625, 1.716064453125, 10.0, 1.0, 10.0, 1.5364267826080322
29131, -0.8981861472129822, -6.751441955566406, -93.77641296386719, 0.0, 0.0, 0.598331868648529, 0.0, 0.0, -0.6649971008300781, 0, 0, 0, 0, 0, 0, 9362.0, 30146.0, 35388.0, 9362.0, 8.271075248718262, -12.243986129760742, -10.132378578186035, 8.680058479309082, -0.08610832691192627, 0.04477526247501373, 0.9107303619384766, -0.012563006021082401, 0.10376167297363281, 1.50439453125, 1.61279296875, 0.4476470947265625, 1.494140625, 1.716064453125, 10.0, 1.0, 10.0, 1.5373928546905518
29151, -1.0843230485916138, -6.926718235015869, -93.54375457763672, 0.0, 0.0, 0.598331868648529, 0.0, 0.0, -0.6649971008300781, 0, 0, 0, 0, 0, 0, 9362.0, 30146.0, 35388.0, 9362.0, 8.271075248718262, -13.761862754821777, 7.032938480377197, 10.896662712097168, -0.08610832691192627, 0.04477526247501373, 0.9107303619384766, -0.012563006021082401, 0.10376167297363281, 1.50439453125, 1.6875, 0.634674072265625, 1.49560546875, 1.6435546875, 10.0, 1.0, 10.0, 1.5383762121200562
29261, -0.7890210151672363, -8.345560073852539, -92.00106811523438, 0.0, 0.0, 0.5783901810646057, 0.0, 0.0, -0.07290840148925781, 0, 0, 0, 0, 0, 0, 9362.0, 30146.0, 35388.0, 9362.0, 8.271075248718262, -6.009364604949951, 8.401272773742676, 13.811474800109863, -0.08610832691192627, 0.04477526247501373, 0.9107303619384766, -0.012563006021082401, 0.10376167297363281, 1.50439453125, 1.55126953125, 0.304718017578125, 1.496337890625, 1.60107421875, 10.0, 1.0, 10.0, 1.541621208190918
29271, -0.6888922452926636, -8.486475944519043, -91.87351989746094, 0.0, 0.0, 0.5783901810646057, 0.0, 0.0, -0.07290840148925781, 0, 0, 0, 0, 0, 0, 9362.0, 30146.0, 35388.0, 9362.0, 8.271075248718262, 6.033353328704834, 14.094916343688965, 15.838769912719727, -0.08610832691192627, 0.04477526247501373, 0.9107303619384766, -0.012563006021082401, 0.10376167297363281, 1.50439453125, 1.68896484375, 0.6385955810546875, 1.496337890625, 1.66259765625, 10.0, 1.0, 10.0, 1.5417603254318237
29311, -0.5663279891014099, -8.92458438873291, -91.3089370727539, 0.0, 0.0, 0.5486571788787842, 0.0, 0.0, -0.9339213371276855, 0, 0, 0, 0, 0, 0, 9362.0, 30146.0, 35388.0, 9362.0, 8.271075248718262, -6.213985443115234, 5.259532451629639, 11.769309043884277, -0.2891710698604584, 0.1511952131986618, 0.9869660139083862, -0.012563006021082401, 0.10376167297363281, 1.50439453125, 1.5380859375, 0.2755889892578125, 1.496337890625, 1.45166015625, 10.0, 1.0, 10.0, 1.5418050289154053
29331, -0.8411239385604858, -8.986672401428223, -91.23678588867188, 0.0, 0.0, 0.5419765114784241, 0.0, 0.0, 0.1725614070892334, 0, 0, 0, 0, 0, 0, 9362.0, 30146.0, 35388.0, 9362.0, 8.271075248718262, -16.170236587524414, 0.8674991130828857, 3.077518939971924, -0.2891710698604584, 0.1511952131986618, 0.9869660139083862, -0.012563006021082401, 0.10376167297363281, 1.50439453125, 1.63916015625, 0.51190185546875, 1.496337890625, 1.66259765625, 10.0, 1.0, 10.0, 1.5413368940353394
29341, -1.0933958292007446, -9.019552230834961, -91.24626159667969, 0.0, 0.0, 0.5435203909873962, 0.0, 0.0, 0.1543879508972168, 0, 0, 0, 0, 0, 0, 9362.0, 30146.0, 35388.0, 9362.0, 8.271075248718262, -16.170236587524414, 0.8674991130828857, 3.077518939971924, -0.2891710698604584, 0.1511952131986618, 0.9869660139083862, -0.012563006021082401, 0.10376167297363281, 1.50439453125, 1.613525390625, 0.44940185546875, 1.496337890625, 1.66259765625, 10.0, 1.0, 10.0, 1.540864109992981
29411, -2.6623599529266357, -9.330357551574707, -91.3257827758789, 0.0, 0.0, 0.5255113840103149, 0.0, 0.0, -0.37122368812561035, 0, 0, 0, 0, 0, 0, 9362.0, 30146.0, 35388.0, 9362.0, 8.271075248718262, -22.485939025878906, 1.2307145595550537, -3.635328531265259, -0.2891710698604584, 0.1511952131986618, 0.9869660139083862, -0.012563006021082401, 0.10376167297363281, 1.50439453125, 1.65380859375, 0.548309326171875, 1.496337890625, 1.67431640625, 10.0, 1.0, 10.0, 1.5409761667251587
29431, -3.0789098739624023, -9.241133689880371, -91.54327392578125, 0.0, 0.0, 0.52217036485672, 0.0, 0.0, -0.33410191535949707, 0, 0, 0, 0, 0, 0, 9362.0, 30146.0, 35388.0, 9362.0, 8.271075248718262, -20.172657012939453, -5.519324779510498, -11.406057357788086, -0.2891710698604584, 0.1511952131986618, 0.9869660139083862, -0.029101243242621422, -0.03959846496582031, 1.49267578125, 1.52197265625, 0.2408599853515625, 1.496337890625, 1.5322265625, 10.0, 1.0, 10.0, 1.5415164232254028
29511, -3.7307870388031006, -8.037324905395508, -93.00785064697266, 0.0, 0.0, 0.44427016377449036, 0.0, 0.0, -0.7966071367263794, 0, 0, 0, 0, 0, 0, 9362.0, 30146.0, 35388.0, 9362.0, 8.271075248718262, -0.4801650047302246, -20.154447555541992, -22.12821388244629, -0.2891710698604584, 0.1511952131986618, 0.9869660139083862, -0.029101243242621422, -0.03959846496582031, 1.49267578125, 1.610595703125, 0.442352294921875, 1.5, 1.6376953125, 10.0, 1.0, 10.0, 1.5408796072006226
29551, -3.4150991439819336, -7.12255859375, -93.29663848876953, 0.0, 0.0, 0.4140450060367584, 0.0, 0.0, -1.188117265701294, 0, 0, 0, 0, 0, 0, 9362.0, 30146.0, 35388.0, 9362.0, 8.271075248718262, 5.565365791320801, -24.90176773071289, -10.218084335327148, -0.2891710698604584, 0.1511952131986618, 0.9869660139083862, -0.029101243242621422, -0.03959846496582031, 1.49267578125, 1.51025390625, 0.2164154052734375, 1.494873046875, 1.58935546875, 10.0, 1.0, 10.0, 1.5402379035949707
29561, -3.2616710662841797, -6.899811267852783, -93.22003936767578, 0.0, 0.0, 0.4033503532409668, 0.0, 0.0, -1.0694652795791626, 0, 0, 0, 0, 0, 0, 9362.0, 30146.0, 35388.0, 9362.0, 8.271075248718262, 5.565365791320801, -24.90176773071289, -10.218084335327148, -0.2891710698604584, 0.1511952131986618, 0.9869660139083862, -0.029101243242621422, -0.03959846496582031, 1.49267578125, 1.59814453125, 0.4127655029296875, 1.494873046875, 1.59228515625, 10.0, 1.0, 10.0, 1.539925217628479
29571, -3.139374256134033, -6.79744815826416, -93.13068389892578, 0.0, 0.0, 0.4033503532409668, 0.0, 0.0, -1.0694652795791626, 0, 0, 0, 0, 0, 0, 9362.0, 30146.0, 35388.0, 9362.0, 8.271075248718262, 5.565365791320801, -24.90176773071289, -10.218084335327148, -0.2891710698604584, 0.1511952131986618, 0.9869660139083862, -0.029101243242621422, -0.03959846496582031, 1.49267578125, 1.47509765625, 0.147857666015625, 1.494873046875, 1.5263671875, 10.0, 1.0, 10.0, 1.540145993232727
29581, -2.927399158477783, -6.733932018280029, -92.92587280273438, 0.0, 0.0, 0.4033503532409668, 0.0, 0.0, -1.0694652795791626, 0, 0, 0, 0, 0, 0, 9362.0, 30146.0, 35388.0, 9362.0, 8.271075248718262, 5.565365791320801, -24.90176773071289, -10.218084335327148, -0.2891710698604584, 0.1511952131986618, 0.9869660139083862, -0.029101243242621422, -0.03959846496582031, 1.49267578125, 1.6083984375, 0.437225341796875, 1.496337890625, 1.5263671875, 10.0, 1.0, 10.0, 1.5404771566390991
29591, -2.7683088779449463, -6.746090888977051, -92.78070068359375, 0.0, 0.0, 0.37342214584350586, 0.0, 0.0, -0.4347115755081177, 0, 0, 0, 0, 0, 0, 9362.0, 30146.0, 35388.0, 9362.0, 8.271075248718262, 5.565365791320801, -24.90176773071289, -10.218084335327148, -0.2891710698604584, 0.1511952131986618, 0.9869660139083862, -0.029101243242621422, -0.03959846496582031, 1.49267578125, 1.587890625, 0.38861083984375, 1.496337890625, 1.5263671875, 10.0, 1.0, 10.0, 1.5405666828155518
29601, -2.5186805725097656, -6.828510761260986, -92.62198638916016, 0.0, 0.0, 0.37342214584350586, 0.0, 0.0, -0.4347115755081177, 0, 0, 0, 0, 0, 0, 9362.0, 30146.0, 35388.0, 9362.0, 8.271075248718262, 5.565365791320801, -24.90176773071289, -10.218084335327148, -0.2891710698604584, 0.1511952131986618, 0.9869660139083862, -0.029101243242621422, -0.03959846496582031, 1.49267578125, 1.587890625, 0.38861083984375, 1.4970703125, 1.5263671875, 10.0, 1.0, 10.0, 1.5408525466918945
29621, -2.134504556655884, -7.018263816833496, -92.6307373046875, 0.0, 0.0, 0.37342214584350586, 0.0, 0.0, -0.4347115755081177, 0, 0, 0, 0, 0, 0, 9362.0, 30146.0, 35388.0, 9362.0, 8.271075248718262, 17.833324432373047, 10.902203559875488, 1.8407187461853027, -0.2891710698604584, 0.1511952131986618, 0.9869660139083862, -0.029101243242621422, -0.03959846496582031, 1.49267578125, 1.563720703125, 0.3327789306640625, 1.496337890625, 1.56005859375, 10.0, 1.0, 10.0, 1.5408525466918945
29631, -1.9965604543685913, -7.060703277587891, -92.72193145751953, 0.0, 0.0, 0.359172523021698, 0.0, 0.0, -0.2658545970916748, 0, 0, 0, 0, 0, 0, 9362.0, 30146.0, 35388.0, 9362.0, 8.271075248718262, 17.833324432373047, 10.902203559875488, 1.8407187461853027, -0.2891710698604584, 0.1511952131986618, 0.9869660139083862, -0.029101243242621422, -0.03959846496582031, 1.49267578125, 1.563720703125, 0.3327789306640625, 1.496337890625, 1.654541015625, 10.0, 1.0, 10.0, 1.5413119792938232
29671, -1.5457093715667725, -6.818971157073975, -93.63751220703125, 0.0, 0.0, 0.3585253655910492, 0.0, 0.0, 0.17099082469940186, 0, 0, 0, 0, 0, 0, 9362.0, 30146.0, 35388.0, 9362.0, 8.271075248718262, 11.14667797088623, -8.737813949584961, -24.536375045776367, -0.2891710698604584, 0.1511952131986618, 0.9869660139083862, -0.029101243242621422, -0.03959846496582031, 1.49267578125, 1.61572265625, 0.45465087890625, 1.49560546875, 1.50146484375, 10.0, 1.0, 10.0, 1.5411360263824463
29691, -1.4301881790161133, -6.442667007446289, -94.15996551513672, 0.0, 0.0, 0.37112918496131897, 0.0, 0.0, 0.3281533718109131, 0, 0, 0, 0, 0, 0, 9362.0, 30146.0, 35388.0, 9362.0, 8.271075248718262, 8.07447624206543, -17.047658920288086, -25.680625915527344, -0.2891710698604584, 0.1511952131986618, 0.9869660139083862, -0.029101243242621422, -0.03959846496582031, 1.49267578125, 1.593017578125, 0.400604248046875, 1.5, 1.60986328125, 10.0, 1.0, 10.0, 1.5411360263824463
29701, -1.3926814794540405, -6.23184061050415, -94.4647216796875, 0.0, 0.0, 0.37406042218208313, 0.0, 0.0, 0.293123722076416, 0, 0, 0, 0, 0, 0, 9362.0, 30146.0, 35388.0, 9362.0, 8.271075248718262, 8.07447624206543, -17.047658920288086, -25.680625915527344, -0.2891710698604584, 0.1511952131986618, 0.9869660139083862, -0.029101243242621422, -0.03959846496582031, 1.49267578125, 1.554931640625, 0.3128814697265625, 1.5, 1.60986328125, 10.0, 1.0, 10.0, 1.5405751466751099
29711, -1.3773490190505981, -6.112672328948975, -94.64030456542969, 0.0, 0.0, 0.37406042218208313, 0.0, 0.0, 0.293123722076416, 0, 0, 0, 0, 0, 0, 9362.0, 30146.0, 35388.0, 9362.0, 8.271075248718262, 8.07447624206543, -17.047658920288086, -25.680625915527344, -0.2891710698604584, 0.1511952131986618, 0.9869660139083862, -0.029101243242621422, -0.03959846496582031, 1.49267578125, 1.521240234375, 0.2393646240234375, 1.5, 1.5498046875, 10.0, 1.0, 10.0, 1.5405751466751099
29721, -1.3760355710983276, -5.970644474029541, -94.88358306884766, 0.0, 0.0, 0.37406042218208313, 0.0, 0.0, 0.293123722076416, 0, 0, 0, 0, 0, 0, 9362.0, 30146.0, 35388.0, 9362.0, 8.271075248718262, 1.2936627864837646, -10.0792818069458, -20.23773193359375, -0.2891710698604584, 0.1511952131986618, 0.9869660139083862, -0.029101243242621422, -0.03959846496582031, 1.49267578125, 1.46484375, 0.1295928955078125, 1.496337890625, 1.5498046875, 10.0, 1.0, 10.0, 1.5405751466751099
29751, -1.5287177562713623, -5.811254024505615, -95.3678207397461, 0.0, 0.0, 0.40747180581092834, 0.0, 0.0, -0.01156926155090332, 0, 0, 0, 0, 0, 0, 9362.0, 30146.0, 35388.0, 9362.0, 8.271075248718262, -4.014557361602783, -3.1602323055267334, -15.661839485168457, -0.2891710698604584, 0.1511952131986618, 0.9869660139083862, -0.029101243242621422, -0.03959846496582031, 1.49267578125, 1.63916015625, 0.51190185546875, 1.496337890625, 1.569580078125, 10.0, 1.0, 10.0, 1.54075026512146
29761, -1.6585512161254883, -5.775250434875488, -95.62137603759766, 0.0, 0.0, 0.40747180581092834, 0.0, 0.0, -0.01156926155090332, 0, 0, 0, 0, 0, 0, 9362.0, 30146.0, 35388.0, 9362.0, 8.271075248718262, -8.999297142028809, -0.5078902244567871, -22.80124855041504, -0.2891710698604584, 0.1511952131986618, 0.9869660139083862, -0.029101243242621422, -0.03959846496582031, 1.49267578125, 1.41357421875, 0.0542449951171875, 1.5, 1.569580078125, 10.0, 1.0, 10.0, 1.54075026512146
29781, -1.9465091228485107, -5.706233024597168, -96.21483612060547, 0.0, 0.0, 0.4083222448825836, 0.0, 0.0, 0.04347264766693115, 0, 0, 0, 0, 0, 0, 9362.0, 30146.0, 35388.0, 9362.0, 8.271075248718262, -11.386506080627441, -1.5067123174667358, -27.309921264648438, -0.2891710698604584, 0.1511952131986618, 0.9869660139083862, -0.029101243242621422, -0.03959846496582031, 1.49267578125, 1.607666015625, 0.43548583984375, 1.4912109375, 1.382080078125, 10.0, 1.0, 10.0, 1.5407212972640991
29811, -2.354198455810547, -5.643062114715576, -97.35173034667969, 0.0, 0.0, 0.39456188678741455, 0.0, 0.0, -0.7206112146377563, 0, 0, 0, 0, 0, 0, 9362.0, 30146.0, 35388.0, 9362.0, 8.271075248718262, -11.31970500946045, -1.7300337553024292, -41.241519927978516, -0.2891710698604584, 0.1511952131986618, 0.9869660139083862, -0.029101243242621422, -0.03959846496582031, 1.49267578125, 1.59814453125, 0.4127655029296875, 1.4912109375, 1.53955078125, 10.0, 1.0, 10.0, 1.5408656597137451
29841, -2.566279888153076, -5.659709453582764, -98.42936706542969, 0.0, 0.0, 0.38528797030448914, 0.0, 0.0, -0.1300722360610962, 0, 0, 0, 0, 0, 0, 9362.0, 30146.0, 35388.0, 9362.0, 8.271075248718262, -3.8683793544769287, 0.8290510177612305, -32.607322692871094, -0.2891710698604584, 0.1511952131986618, 0.9869660139083862, -0.029101243242621422, -0.03959846496582031, 1.49267578125, 1.60107421875, 0.4197540283203125, 1.49267578125, 1.47216796875, 10.0, 1.0, 10.0, 1.5412726402282715
29851, -2.5652823448181152, -5.643220901489258, -98.62767028808594, 0.0, 0.0, 0.38143083453178406, 0.0, 0.0, -0.3857135772705078, 0, 0, 0, 0, 0, 0, 9362.0, 30146.0, 35388.0, 9362.0, 8.271075248718262, 1.946447730064392, -2.92810320854187, -23.347335815429688, -0.2891710698604584, 0.1511952131986618, 0.9869660139083862, -0.029101243242621422, -0.03959846496582031, 1.49267578125, 1.56298828125, 0.3311767578125, 1.49267578125, 1.607666015625, 10.0, 1.0, 10.0, 1.5412726402282715
29861, -2.529514789581299, -5.556705474853516, -98.87527465820312, 0.0, 0.0, 0.38143083453178406, 0.0, 0.0, -0.3857135772705078, 0, 0, 0, 0, 0, 0, 9362.0, 30146.0, 35388.0, 9362.0, 8.271075248718262, 1.946447730064392, -2.92810320854187, -23.347335815429688, -0.2891710698604584, 0.1511952131986618, 0.9869660139083862, -0.029101243242621422, -0.03959846496582031, 1.49267578125, 1.37841796875, 0.023406982421875, 1.49267578125, 1.36669921875, 10.0, 1.0, 10.0, 1.5407276153564453
29901, -2.3411197662353516, -4.768710613250732, -99.61878204345703, 0.0, 0.0, 0.3386312425136566, 0.0, 0.0, -1.0534316301345825, 0, 0, 0, 0, 0, 0, 9362.0, 30146.0, 35388.0, 9362.0, 8.271075248718262, 5.609772682189941, -21.150798797607422, -19.727340698242188, -0.2891710698604584, 0.1511952131986618, 0.9869660139083862, -0.029101243242621422, -0.03959846496582031, 1.49267578125, 1.553466796875, 0.309661865234375, 1.49267578125, 1.5703125, 10.0, 1.0, 10.0, 1.5400524139404297
