timeTick, roll, pitch, yaw, stateX, stateY, stateZ, stateVX, stateVY, stateVZ, otX0, otY0, otZ0, otRoll0, otPitch0, otYaw0, left wing, pitch motor, yaw motor, right wing, voltage, roll rate, pitch rate, yaw rate, A_x, A_y, A_z, current, i_raw, v_raw, airflow_voltage, airflow_speed, pot_Pitch, voltage_nKF, kFFx, state, State, volt_KF
18702, 0.6270816326141357, -7.337319374084473, 88.14453887939453, 0, 0, 0, 0, 0, 0, 0, 0, 0, 0, 0, 0, 0, 0, 0, 0, 0, 0, 0, 0, 0, 0, 0, 0, 0, 0, 0, 0, 0, 0, 0, 0, 0, 0
18712, 0.7181130647659302, -7.459222793579102, 88.22782897949219, 0.0, 0.0, 0.5925019383430481, 0.0, 0.0, -0.1621544361114502, 0, 0, 0, 0, 0, 0, 9362.0, 30146.0, 35388.0, 9362.0, 0, 10.309986114501953, 14.960177421569824, 10.461953163146973, -0.14188441634178162, -0.009355418384075165, 1.0520466566085815, 0, 0, 0, 0, 0, 0, 0, 0, 0, 0, 0
18722, 0.8174958825111389, -7.579761981964111, 88.40457153320312, 0.0, 0.0, 0.5943400859832764, 0.0, 0.0, 0.18381476402282715, 0, 0, 0, 0, 0, 0, 9362.0, 30146.0, 35388.0, 9362.0, 0, 7.57319450378418, 11.228410720825195, 14.94836139678955, -0.10617993026971817, -0.03436160832643509, 1.0904957056045532, 0, 0, 0, 1.516845703125, 0.23004150390625, 0, 1.553466796875, 10.0, 1.0, 10.0, 1.5006345510482788
18732, 0.8423272967338562, -7.606622219085693, 88.52487182617188, 0.0, 0.0, 0.5960508584976196, 0.0, 0.0, 0.17107725143432617, 0, 0, 0, 0, 0, 0, 9362.0, 30146.0, 35388.0, 9362.0, 0, 2.7233755588531494, 4.986795425415039, 15.017678260803223, -0.08170825242996216, -0.06647182255983353, 1.1338332891464233, 0, 0, 0, 1.590087890625, 0.3937835693359375, 1.496337890625, 1.53076171875, 10.0, 1.0, 10.0, 1.5004243850708008
18742, 0.8047008514404297, -7.552707672119141, 88.68378448486328, 0.0, 0.0, 0.5949253439903259, 0.0, 0.0, -0.11255145072937012, 0, 0, 0, 0, 0, 0, 9362.0, 30146.0, 35388.0, 9362.0, 0, -3.0297493934631348, -2.779629707336426, 13.245689392089844, -0.06275130808353424, -0.09031940996646881, 1.156265139579773, 0, 0, 0, 1.566650390625, 0.3395233154296875, 1.496337890625, 1.572509765625, 10.0, 1.0, 10.0, 1.500945806503296
18752, 0.728502631187439, -7.459758281707764, 88.77053833007812, 0.0, 0.0, 0.5940422415733337, 0.0, 0.0, -0.08831024169921875, 0, 0, 0, 0, 0, 0, 9362.0, 30146.0, 35388.0, 9362.0, 0, -8.933233261108398, -9.664090156555176, 11.046799659729004, -0.05548872426152229, -0.09033024311065674, 1.1584938764572144, 0, 0, 0, 1.634033203125, 0.499237060546875, 1.496337890625, 1.667724609375, 10.0, 1.0, 10.0, 1.5007994174957275
18762, 0.5359680652618408, -7.225144386291504, 88.84535217285156, 0.0, 0.0, 0.5922431349754333, 0.0, 0.0, -0.17991065979003906, 0, 0, 0, 0, 0, 0, 9362.0, 30146.0, 35388.0, 9362.0, 0, -14.865779876708984, -17.67742919921875, 6.781075477600098, -0.04767462611198425, -0.08766326308250427, 1.1446040868759155, 0, 0, 0, 1.622314453125, 0.470672607421875, 1.496337890625, 1.63623046875, 10.0, 1.0, 10.0, 1.5007922649383545
18772, 0.3584456145763397, -7.012557029724121, 88.84895324707031, 0.0, 0.0, 0.5907425880432129, 0.0, 0.0, -0.1500546932220459, 0, 0, 0, 0, 0, 0, 9362.0, 30146.0, 35388.0, 9362.0, 0, -20.674184799194336, -24.72313690185547, 0.8868004083633423, -0.04151071980595589, -0.07026860862970352, 1.0970568656921387, 0, 0, 0, 1.53515625, 0.2692413330078125, 1.496337890625, 1.484619140625, 10.0, 1.0, 10.0, 1.5009262561798096
18782, 0.047114577144384384, -6.644542694091797, 88.81299591064453, 0.0, 0.0, 0.5888928174972534, 0.0, 0.0, -0.18497705459594727, 0, 0, 0, 0, 0, 0, 9362.0, 30146.0, 35388.0, 9362.0, 0, -24.156463623046875, -29.164037704467773, -3.149595260620117, -0.04450575262308121, -0.06535272300243378, 1.045542597770691, 0, 0, 0, 1.50146484375, 0.1985626220703125, 1.496337890625, 1.64794921875, 10.0, 1.0, 10.0, 1.5011639595031738
18792, -0.17311622202396393, -6.38869571685791, 88.7939224243164, 0.0, 0.0, 0.5872400403022766, 0.0, 0.0, -0.16527771949768066, 0, 0, 0, 0, 0, 0, 9362.0, 30146.0, 35388.0, 9362.0, 0, -26.411781311035156, -30.62474250793457, -2.396641492843628, -0.050836704671382904, -0.039591338485479355, 1.0140031576156616, 0, 0, 0, 1.61279296875, 0.4476470947265625, 1.497802734375, 1.631103515625, 10.0, 1.0, 10.0, 1.5010006427764893
18802, -0.48110345005989075, -6.021540641784668, 88.7872085571289, 0.0, 0.0, 0.5873892307281494, 0.0, 0.0, 0.014919042587280273, 0, 0, 0, 0, 0, 0, 9362.0, 30146.0, 35388.0, 9362.0, 8.17190170288086, -25.089195251464844, -29.41111183166504, -0.9788030385971069, -0.053355343639850616, -0.005196867976337671, 0.9830812811851501, -0.03956160694360733, 0.0052013397216796875, 1.496337890625, 1.48388671875, 0.1642303466796875, 1.497802734375, 1.67138671875, 10.0, 1.0, 10.0, 1.5011062622070312
18812, -0.6769996881484985, -5.797298431396484, 88.79786682128906, 0.0, 0.0, 0.5875180959701538, 0.0, 0.0, 0.012886524200439453, 0, 0, 0, 0, 0, 0, 9362.0, 30146.0, 35388.0, 9362.0, 8.17190170288086, -25.03805160522461, -26.82106590270996, 1.0690944194793701, -0.051878806203603745, 0.011260759085416794, 0.9746848940849304, -0.03956160694360733, 0.0052013397216796875, 1.496337890625, 1.64501953125, 0.5263671875, 1.49560546875, 1.494140625, 10.0, 1.0, 10.0, 1.501236915588379
18822, -0.9582502245903015, -5.500692844390869, 88.85139465332031, 0.0, 0.0, 0.5909112691879272, 0.0, 0.0, 0.33931732177734375, 0, 0, 0, 0, 0, 0, 9362.0, 30146.0, 35388.0, 9362.0, 8.17190170288086, -24.73868179321289, -23.989715576171875, 3.757627248764038, -0.05084308609366417, 0.01369341928511858, 0.9707469940185547, -0.03956160694360733, 0.0052013397216796875, 1.496337890625, 1.625244140625, 0.477783203125, 1.49560546875, 1.47802734375, 10.0, 1.0, 10.0, 1.5015360116958618
18832, -1.1260836124420166, -5.344006538391113, 88.92864990234375, 0.0, 0.0, 0.5939598083496094, 0.0, 0.0, 0.3048539161682129, 0, 0, 0, 0, 0, 0, 9362.0, 30146.0, 35388.0, 9362.0, 8.17190170288086, -22.655799865722656, -19.157560348510742, 9.198665618896484, -0.06098045036196709, 0.014604735188186169, 0.9700995087623596, -0.03956160694360733, 0.0052013397216796875, 1.496337890625, 1.651611328125, 0.5428314208984375, 1.493408203125, 1.45751953125, 10.0, 1.0, 10.0, 1.5019267797470093
18842, -1.3366553783416748, -5.181825160980225, 89.10929870605469, 0.0, 0.0, 0.5879511833190918, 0.0, 0.0, -0.6008625030517578, 0, 0, 0, 0, 0, 0, 9362.0, 30146.0, 35388.0, 9362.0, 8.17190170288086, -19.828861236572266, -13.5326509475708, 14.786881446838379, -0.07392405718564987, 0.012746326625347137, 0.9927151799201965, -0.03956160694360733, 0.0052013397216796875, 1.496337890625, 1.628173828125, 0.484893798828125, 1.493408203125, 1.53515625, 10.0, 1.0, 10.0, 1.5022954940795898
18852, -1.448958396911621, -5.113750457763672, 89.26129913330078, 0.0, 0.0, 0.5825382471084595, 0.0, 0.0, -0.5412936210632324, 0, 0, 0, 0, 0, 0, 9362.0, 30146.0, 35388.0, 9362.0, 8.17190170288086, -16.41512107849121, -8.428409576416016, 18.784841537475586, -0.06836076080799103, 0.0016897456953302026, 1.0219149589538574, -0.03956160694360733, 0.0052013397216796875, 1.496337890625, 1.607666015625, 0.43548583984375, 1.49267578125, 1.651611328125, 10.0, 1.0, 10.0, 1.5025681257247925
18862, -1.5866774320602417, -5.063783168792725, 89.52045440673828, 0.0, 0.0, 0.5803971290588379, 0.0, 0.0, -0.2141118049621582, 0, 0, 0, 0, 0, 0, 9362.0, 30146.0, 35388.0, 9362.0, 8.17190170288086, -13.608006477355957, -3.876487970352173, 21.664087295532227, -0.05754237249493599, -0.021346893161535263, 1.049702763557434, -0.03956160694360733, 0.0052013397216796875, 1.496337890625, 1.604736328125, 0.428436279296875, 1.49267578125, 1.409912109375, 10.0, 1.0, 10.0, 1.5028330087661743
18872, -1.6658475399017334, -5.050128936767578, 89.69094848632812, 0.0, 0.0, 0.5784743428230286, 0.0, 0.0, -0.19227862358093262, 0, 0, 0, 0, 0, 0, 9362.0, 30146.0, 35388.0, 9362.0, 8.17190170288086, -11.244561195373535, -1.2791712284088135, 21.452131271362305, -0.046716976910829544, -0.06401044875383377, 1.0761617422103882, -0.03956160694360733, 0.0052013397216796875, 1.496337890625, 1.541015625, 0.2819976806640625, 1.4970703125, 1.66552734375, 10.0, 1.0, 10.0, 1.5029350519180298
18882, -1.7850860357284546, -5.029294490814209, 89.8612289428711, 0.0, 0.0, 0.5685645937919617, 0.0, 0.0, -0.9909749031066895, 0, 0, 0, 0, 0, 0, 9362.0, 30146.0, 35388.0, 9362.0, 8.17190170288086, -9.625903129577637, -0.5534846782684326, 14.066802024841309, -0.0317562110722065, -0.11834215372800827, 1.0982576608657837, -0.03956160694360733, 0.0052013397216796875, 1.496337890625, 1.613525390625, 0.44940185546875, 1.4970703125, 1.55712890625, 10.0, 1.0, 10.0, 1.5032380819320679
18892, -1.8648003339767456, -4.987607002258301, 89.89275360107422, 0.0, 0.0, 0.559705376625061, 0.0, 0.0, -0.8859217166900635, 0, 0, 0, 0, 0, 0, 9362.0, 30146.0, 35388.0, 9362.0, 8.17190170288086, -7.685486793518066, -3.909454584121704, 3.8936822414398193, -0.013909625820815563, -0.17263999581336975, 1.093299388885498, -0.03956160694360733, 0.0052013397216796875, 1.496337890625, 1.53662109375, 0.27239990234375, 1.496337890625, 1.632568359375, 10.0, 1.0, 10.0, 1.5035494565963745
18902, -1.9819626808166504, -4.888996601104736, 89.83806610107422, 0.0, 0.0, 0.5572417974472046, 0.0, 0.0, -0.24635791778564453, 0, 0, 0, 0, 0, 0, 9362.0, 30146.0, 35388.0, 9362.0, 8.191736221313477, -6.150659084320068, -6.584354400634766, -5.031494617462158, -0.01635749638080597, -0.1964113712310791, 1.0607616901397705, -0.0481165312230587, -0.030637741088867188, 1.493408203125, 1.475830078125, 0.1492767333984375, 1.496337890625, 1.625244140625, 10.0, 1.0, 10.0, 1.5036678314208984
18912, -2.045598030090332, -4.799466133117676, 89.76854705810547, 0.0, 0.0, 0.5550552010536194, 0.0, 0.0, -0.2186596393585205, 0, 0, 0, 0, 0, 0, 9362.0, 30146.0, 35388.0, 9362.0, 8.191736221313477, -4.120235443115234, -9.933528900146484, -8.73176097869873, -0.04935692995786667, -0.17471711337566376, 1.0274903774261475, -0.0481165312230587, -0.030637741088867188, 1.493408203125, 1.447998046875, 0.1016693115234375, 1.493408203125, 1.616455078125, 10.0, 1.0, 10.0, 1.5035128593444824
18922, -2.094481945037842, -4.623990058898926, 89.62163543701172, 0.0, 0.0, 0.5519903898239136, 0.0, 0.0, -0.30648112297058105, 0, 0, 0, 0, 0, 0, 9362.0, 30146.0, 35388.0, 9362.0, 8.191736221313477, -0.7728992700576782, -14.386271476745605, -12.436623573303223, -0.08870421350002289, -0.13704004883766174, 1.0168447494506836, -0.0481165312230587, -0.030637741088867188, 1.493408203125, 1.469970703125, 0.1386566162109375, 1.493408203125, 1.62744140625, 10.0, 1.0, 10.0, 1.5034023523330688
18932, -2.0873703956604004, -4.498797416687012, 89.51447296142578, 0.0, 0.0, 0.5492246747016907, 0.0, 0.0, -0.27657151222229004, 0, 0, 0, 0, 0, 0, 9362.0, 30146.0, 35388.0, 9362.0, 8.191736221313477, 3.6176340579986572, -15.990323066711426, -13.919173240661621, -0.12590061128139496, -0.1100287213921547, 1.0141472816467285, -0.0481165312230587, -0.030637741088867188, 1.493408203125, 1.63916015625, 0.51190185546875, 1.49267578125, 1.529296875, 10.0, 1.0, 10.0, 1.5035072565078735
18942, -1.9981392621994019, -4.3248090744018555, 89.38638305664062, 0.0, 0.0, 0.5478243231773376, 0.0, 0.0, -0.14003515243530273, 0, 0, 0, 0, 0, 0, 9362.0, 30146.0, 35388.0, 9362.0, 8.191736221313477, 9.852940559387207, -15.433237075805664, -11.217342376708984, -0.14417050778865814, -0.09200114011764526, 1.0035138130187988, -0.0481165312230587, -0.030637741088867188, 1.493408203125, 1.63037109375, 0.490264892578125, 1.49267578125, 1.61865234375, 10.0, 1.0, 10.0, 1.503958821296692
18952, -1.8921046257019043, -4.222860813140869, 89.34217834472656, 0.0, 0.0, 0.5465567708015442, 0.0, 0.0, -0.1267552375793457, 0, 0, 0, 0, 0, 0, 9362.0, 30146.0, 35388.0, 9362.0, 8.191736221313477, 14.615793228149414, -14.30166244506836, -5.890869617462158, -0.1489490121603012, -0.07171828299760818, 0.9821335077285767, -0.0481165312230587, -0.030637741088867188, 1.493408203125, 1.49560546875, 0.1868743896484375, 1.494140625, 1.63037109375, 10.0, 1.0, 10.0, 1.5036919116973877
18962, -1.6508346796035767, -4.102313041687012, 89.35955047607422, 0.0, 0.0, 0.5383028388023376, 0.0, 0.0, -0.8253931999206543, 0, 0, 0, 0, 0, 0, 9362.0, 30146.0, 35388.0, 9362.0, 8.191736221313477, 20.469297409057617, -11.837841033935547, 1.044838309288025, -0.1362454891204834, -0.04854392260313034, 0.955793023109436, -0.0481165312230587, -0.030637741088867188, 1.493408203125, 1.41650390625, 0.0577545166015625, 1.494140625, 1.584228515625, 10.0, 1.0, 10.0, 1.503546118736267
18972, -1.441054344177246, -4.051614761352539, 89.43819427490234, 0.0, 0.0, 0.5308672785758972, 0.0, 0.0, -0.743556022644043, 0, 0, 0, 0, 0, 0, 9362.0, 30146.0, 35388.0, 9362.0, 8.191736221313477, 25.757829666137695, -8.018115997314453, 9.685652732849121, -0.11736460030078888, -0.03297736495733261, 0.9415280818939209, -0.0481165312230587, -0.030637741088867188, 1.493408203125, 1.629638671875, 0.4884490966796875, 1.490478515625, 1.370361328125, 10.0, 1.0, 10.0, 1.5039373636245728
18982, -1.070812463760376, -4.0137152671813965, 89.62002563476562, 0.0, 0.0, 0.525804877281189, 0.0, 0.0, -0.5062401294708252, 0, 0, 0, 0, 0, 0, 9362.0, 30146.0, 35388.0, 9362.0, 8.191736221313477, 30.50235939025879, -4.168388366699219, 15.118227005004883, -0.09093470126390457, -0.047797348350286484, 0.9511838555335999, -0.0481165312230587, -0.030637741088867188, 1.493408203125, 1.642822265625, 0.5209503173828125, 1.490478515625, 1.639892578125, 10.0, 1.0, 10.0, 1.5041515827178955
18992, -0.8080233335494995, -3.997532367706299, 89.75456237792969, 0.0, 0.0, 0.5212345719337463, 0.0, 0.0, -0.4570305347442627, 0, 0, 0, 0, 0, 0, 9362.0, 30146.0, 35388.0, 9362.0, 8.191736221313477, 32.74265670776367, -2.5465145111083984, 16.869077682495117, -0.07680265605449677, -0.06575018167495728, 0.9830631613731384, -0.0481165312230587, -0.030637741088867188, 1.493408203125, 1.65380859375, 0.548309326171875, 1.494873046875, 1.46337890625, 10.0, 1.0, 10.0, 1.5045201778411865
19002, -0.4083019495010376, -3.9707512855529785, 89.9430923461914, 0.0, 0.0, 0.5236786007881165, 0.0, 0.0, 0.24440288543701172, 0, 0, 0, 0, 0, 0, 9362.0, 30146.0, 35388.0, 9362.0, 8.191736221313477, 33.75380325317383, -2.2584714889526367, 15.807060241699219, -0.07076805830001831, -0.07962767034769058, 1.012708067893982, -0.03987788036465645, -0.03959846496582031, 1.49267578125, 1.477294921875, 0.1519775390625, 1.494873046875, 1.640625, 10.0, 1.0, 10.0, 1.5046979188919067
19012, -0.1541530042886734, -3.9354372024536133, 90.05485534667969, 0.0, 0.0, 0.525871753692627, 0.0, 0.0, 0.2193152904510498, 0, 0, 0, 0, 0, 0, 9362.0, 30146.0, 35388.0, 9362.0, 8.191736221313477, 32.79740905761719, -4.529366493225098, 14.062793731689453, -0.07204630225896835, -0.1010185107588768, 1.0542607307434082, -0.03987788036465645, -0.03959846496582031, 1.49267578125, 1.37109375, 0.0197906494140625, 1.49267578125, 1.57763671875, 10.0, 1.0, 10.0, 1.5044008493423462
19022, 0.19661085307598114, -3.8511486053466797, 90.1988754272461, 0.0, 0.0, 0.528395414352417, 0.0, 0.0, 0.2523660659790039, 0, 0, 0, 0, 0, 0, 9362.0, 30146.0, 35388.0, 9362.0, 8.191736221313477, 30.515092849731445, -6.848028659820557, 12.679123878479004, -0.07385141402482986, -0.0993979200720787, 1.0869684219360352, -0.03987788036465645, -0.03959846496582031, 1.49267578125, 1.6435546875, 0.5228118896484375, 1.49267578125, 1.5205078125, 10.0, 1.0, 10.0, 1.5048010349273682
19032, 0.40569448471069336, -3.7738654613494873, 90.26268768310547, 0.0, 0.0, 0.5307112336158752, 0.0, 0.0, 0.2315819263458252, 0, 0, 0, 0, 0, 0, 9362.0, 30146.0, 35388.0, 9362.0, 8.191736221313477, 27.551393508911133, -9.67300796508789, 8.21170425415039, -0.07698193192481995, -0.08357436954975128, 1.092488169670105, -0.03987788036465645, -0.03959846496582031, 1.49267578125, 1.616455078125, 0.456512451171875, 1.490478515625, 1.47802734375, 10.0, 1.0, 10.0, 1.5051976442337036
19042, 0.6765097975730896, -3.6220755577087402, 90.37155151367188, 0.0, 0.0, 0.526272714138031, 0.0, 0.0, -0.44385194778442383, 0, 0, 0, 0, 0, 0, 9362.0, 30146.0, 35388.0, 9362.0, 8.191736221313477, 23.854890823364258, -12.733709335327148, 9.175954818725586, -0.08568255603313446, -0.06968623399734497, 1.0719411373138428, -0.03987788036465645, -0.03959846496582031, 1.49267578125, 1.590087890625, 0.3937835693359375, 1.490478515625, 1.42529296875, 10.0, 1.0, 10.0, 1.5053246021270752
19052, 0.8290616869926453, -3.4885854721069336, 90.4551010131836, 0.0, 0.0, 0.5223169326782227, 0.0, 0.0, -0.39557814598083496, 0, 0, 0, 0, 0, 0, 9362.0, 30146.0, 35388.0, 9362.0, 8.191736221313477, 23.854890823364258, -12.733709335327148, 9.175954818725586, -0.08568255603313446, -0.06968623399734497, 1.0719411373138428, -0.03987788036465645, -0.03959846496582031, 1.49267578125, 1.5849609375, 0.381805419921875, 1.5, 1.6435546875, 10.0, 1.0, 10.0, 1.5053246021270752
19062, 1.0264099836349487, -3.2549586296081543, 90.53497314453125, 0.0, 0.0, 0.5223169326782227, 0.0, 0.0, -0.39557814598083496, 0, 0, 0, 0, 0, 0, 9362.0, 30146.0, 35388.0, 9362.0, 8.191736221313477, 23.854890823364258, -12.733709335327148, 9.175954818725586, -0.033839982002973557, -0.024719201028347015, 1.0396854877471924, -0.03987788036465645, -0.03959846496582031, 1.49267578125, 1.46337890625, 0.1270751953125, 1.5, 1.63916015625, 10.0, 1.0, 10.0, 1.5053246021270752
19072, 1.1349141597747803, -3.090898275375366, 90.5474624633789, 0.0, 0.0, 0.5290746092796326, 0.0, 0.0, 0.31998753547668457, 0, 0, 0, 0, 0, 0, 9362.0, 30146.0, 35388.0, 9362.0, 8.191736221313477, 23.854890823364258, -12.733709335327148, 9.175954818725586, -0.015939924865961075, -0.01800856553018093, 0.9978506565093994, -0.03987788036465645, -0.03959846496582031, 1.49267578125, 1.59814453125, 0.4127655029296875, 1.5, 1.51318359375, 10.0, 1.0, 10.0, 1.5053246021270752
19082, 1.2684540748596191, -2.849498987197876, 90.54853057861328, 0.0, 0.0, 0.5286681652069092, 0.0, 0.0, -0.04064440727233887, 0, 0, 0, 0, 0, 0, 9362.0, 30146.0, 35388.0, 9362.0, 8.191736221313477, 11.773344039916992, -19.260231018066406, 0.18264853954315186, -0.015939924865961075, -0.01800856553018093, 0.9978506565093994, -0.03987788036465645, -0.03959846496582031, 1.49267578125, 1.572509765625, 0.3528594970703125, 1.5, 1.64501953125, 10.0, 1.0, 10.0, 1.5053246021270752
19092, 1.3309681415557861, -2.6976685523986816, 90.5659408569336, 0.0, 0.0, 0.5286681652069092, 0.0, 0.0, -0.04064440727233887, 0, 0, 0, 0, 0, 0, 9362.0, 30146.0, 35388.0, 9362.0, 8.191736221313477, 11.773344039916992, -19.260231018066406, 0.18264853954315186, -0.01806272752583027, 0.018938634544610977, 0.9021701216697693, -0.03987788036465645, -0.03959846496582031, 1.49267578125, 1.371826171875, 0.02008056640625, 1.496337890625, 1.587890625, 10.0, 1.0, 10.0, 1.5053246021270752
19112, 1.3679101467132568, -2.3975770473480225, 90.73741912841797, 0.0, 0.0, 0.5185863375663757, 0.0, 0.0, -0.9692072868347168, 0, 0, 0, 0, 0, 0, 9362.0, 30146.0, 35388.0, 9362.0, 8.191736221313477, -1.0070738792419434, -12.859772682189941, 12.289755821228027, -0.053744230419397354, 0.0010582252871245146, 0.9447778463363647, -0.0338677354156971, -0.15607833862304688, 1.483154296875, 1.625244140625, 0.477783203125, 1.4912109375, 1.44287109375, 10.0, 1.0, 10.0, 1.5053246021270752
19122, 1.2773700952529907, -2.2831029891967773, 90.94231414794922, 0.0, 0.0, 0.5185863375663757, 0.0, 0.0, -0.9692072868347168, 0, 0, 0, 0, 0, 0, 9362.0, 30146.0, 35388.0, 9362.0, 8.191736221313477, -7.587813854217529, -9.987192153930664, 17.182329177856445, -0.07018805295228958, -0.00804736278951168, 0.9932929277420044, -0.0338677354156971, -0.15607833862304688, 1.483154296875, 1.58056640625, 0.3715972900390625, 1.4912109375, 1.546875, 10.0, 1.0, 10.0, 1.5053246021270752
19132, 1.162536859512329, -2.236646890640259, 91.11202239990234, 0.0, 0.0, 0.5009508728981018, 0.0, 0.0, -0.4192471504211426, 0, 0, 0, 0, 0, 0, 9362.0, 30146.0, 35388.0, 9362.0, 8.191736221313477, -14.002817153930664, -6.102200031280518, 21.563705444335938, -0.07018805295228958, -0.00804736278951168, 0.9932929277420044, -0.0338677354156971, -0.15607833862304688, 1.483154296875, 1.58056640625, 0.3715972900390625, 1.4912109375, 1.421630859375, 10.0, 1.0, 10.0, 1.5053246021270752
19142, 0.9277320504188538, -2.193427324295044, 91.35730743408203, 0.0, 0.0, 0.5009508728981018, 0.0, 0.0, -0.4192471504211426, 0, 0, 0, 0, 0, 0, 9362.0, 30146.0, 35388.0, 9362.0, 8.191736221313477, -14.002817153930664, -6.102200031280518, 21.563705444335938, -0.061337172985076904, -0.0660008117556572, 1.05657160282135, -0.0338677354156971, -0.15607833862304688, 1.483154296875, 1.552734375, 0.3080596923828125, 1.4912109375, 1.623046875, 10.0, 1.0, 10.0, 1.5053246021270752
19152, 0.72679603099823, -2.1902575492858887, 91.4963150024414, 0.0, 0.0, 0.5020973682403564, 0.0, 0.0, 0.05491375923156738, 0, 0, 0, 0, 0, 0, 9362.0, 30146.0, 35388.0, 9362.0, 8.191736221313477, -23.162511825561523, -0.13989880681037903, 17.460899353027344, -0.03876553103327751, -0.11986715346574783, 1.0509445667266846, -0.0338677354156971, -0.15607833862304688, 1.483154296875, 1.57177734375, 0.3512115478515625, 1.4912109375, 1.62890625, 10.0, 1.0, 10.0, 1.5053246021270752
19162, 0.3679410517215729, -2.2289938926696777, 91.6804428100586, 0.0, 0.0, 0.5020973682403564, 0.0, 0.0, 0.05491375923156738, 0, 0, 0, 0, 0, 0, 9362.0, 30146.0, 35388.0, 9362.0, 8.191736221313477, -23.162511825561523, -0.13989880681037903, 17.460899353027344, -0.0273642186075449, -0.17138558626174927, 1.035132646560669, -0.0338677354156971, -0.15607833862304688, 1.483154296875, 1.57177734375, 0.3512115478515625, 1.4912109375, 1.62158203125, 10.0, 1.0, 10.0, 1.5053246021270752
19172, 0.1097615510225296, -2.2794065475463867, 91.78707122802734, 0.0, 0.0, 0.5020973682403564, 0.0, 0.0, 0.05491375923156738, 0, 0, 0, 0, 0, 0, 9362.0, 30146.0, 35388.0, 9362.0, 8.191736221313477, -23.162511825561523, -0.13989880681037903, 17.460899353027344, -0.011271517723798752, -0.20095519721508026, 1.037696123123169, -0.0338677354156971, -0.15607833862304688, 1.483154296875, 1.390869140625, 0.0319671630859375, 1.493408203125, 1.62158203125, 10.0, 1.0, 10.0, 1.5053246021270752
19182, -0.2755945920944214, -2.4029414653778076, 91.88497924804688, 0.0, 0.0, 0.5020973682403564, 0.0, 0.0, 0.05491375923156738, 0, 0, 0, 0, 0, 0, 9362.0, 30146.0, 35388.0, 9362.0, 8.191736221313477, -23.162511825561523, -0.13989880681037903, 17.460899353027344, 0.0020965365692973137, -0.19181206822395325, 1.0244816541671753, -0.0338677354156971, -0.15607833862304688, 1.483154296875, 1.53515625, 0.2692413330078125, 1.493408203125, 1.6171875, 10.0, 1.0, 10.0, 1.5053246021270752
19192, -0.5118767023086548, -2.5224640369415283, 91.90963745117188, 0.0, 0.0, 0.4945882558822632, 0.0, 0.0, -0.10558068752288818, 0, 0, 0, 0, 0, 0, 9362.0, 30146.0, 35388.0, 9362.0, 8.191736221313477, -23.162511825561523, -0.13989880681037903, 17.460899353027344, 0.0020965365692973137, -0.19181206822395325, 1.0244816541671753, -0.0338677354156971, -0.15607833862304688, 1.483154296875, 1.53515625, 0.2692413330078125, 1.49560546875, 1.611328125, 10.0, 1.0, 10.0, 1.5053246021270752
19202, -0.8217670321464539, -2.769644021987915, 91.92396545410156, 0.0, 0.0, 0.48707249760627747, 0.0, 0.0, -0.7515758275985718, 0, 0, 0, 0, 0, 0, 9362.0, 30146.0, 35388.0, 9362.0, 8.17190170288086, -22.88964080810547, 21.857019424438477, 1.4371217489242554, -0.00981720071285963, -0.13193032145500183, 0.9530799984931946, -0.04480862244963646, -0.06647872924804688, 1.490478515625, 1.53515625, 0.2692413330078125, 1.49560546875, 1.611328125, 10.0, 1.0, 10.0, 1.5053246021270752
19212, -0.9854575395584106, -2.991236686706543, 91.93944549560547, 0.0, 0.0, 0.48707249760627747, 0.0, 0.0, -0.7515758275985718, 0, 0, 0, 0, 0, 0, 9362.0, 30146.0, 35388.0, 9362.0, 8.17190170288086, -22.88964080810547, 21.857019424438477, 1.4371217489242554, -0.03863835707306862, -0.1081051155924797, 0.9280179738998413, -0.04480862244963646, -0.06647872924804688, 1.490478515625, 1.53515625, 0.2692413330078125, 1.494140625, 1.61572265625, 10.0, 1.0, 10.0, 1.5053246021270752
19222, -1.170303463935852, -3.399841070175171, 91.9848403930664, 0.0, 0.0, 0.4867524802684784, 0.0, 0.0, 0.6454825401306152, 0, 0, 0, 0, 0, 0, 9362.0, 30146.0, 35388.0, 9362.0, 8.17190170288086, -22.88964080810547, 21.857019424438477, 1.4371217489242554, -0.07294435799121857, -0.04265008866786957, 0.9333058595657349, -0.04480862244963646, -0.06647872924804688, 1.490478515625, 1.53515625, 0.2692413330078125, 1.494140625, 1.61865234375, 10.0, 1.0, 10.0, 1.5053246021270752
19232, -1.2422338724136353, -3.7236390113830566, 92.07720947265625, 0.0, 0.0, 0.49252966046333313, 0.0, 0.0, 0.5777180194854736, 0, 0, 0, 0, 0, 0, 9362.0, 30146.0, 35388.0, 9362.0, 8.17190170288086, -22.88964080810547, 21.857019424438477, 1.4371217489242554, -0.10705754905939102, 0.008601068519055843, 0.9364722967147827, -0.04480862244963646, -0.06647872924804688, 1.490478515625, 1.53515625, 0.2692413330078125, 1.5029296875, 1.6494140625, 10.0, 1.0, 10.0, 1.5053246021270752
19242, -1.2843753099441528, -4.266723155975342, 92.25958251953125, 0.0, 0.0, 0.495524525642395, 0.0, 0.0, 0.29948651790618896, 0, 0, 0, 0, 0, 0, 9362.0, 30146.0, 35388.0, 9362.0, 8.17190170288086, -6.4147419929504395, 43.86652755737305, 15.863515853881836, -0.1325049251317978, 0.0674280971288681, 0.9469876289367676, -0.04480862244963646, -0.06647872924804688, 1.490478515625, 1.50732421875, 0.2104644775390625, 1.5029296875, 1.42529296875, 10.0, 1.0, 10.0, 1.5053246021270752
19252, -1.26600980758667, -4.646022796630859, 92.42090606689453, 0.0, 0.0, 0.4982047975063324, 0.0, 0.0, 0.2680271863937378, 0, 0, 0, 0, 0, 0, 9362.0, 30146.0, 35388.0, 9362.0, 8.17190170288086, -1.6998016834259033, 45.831050872802734, 21.132204055786133, -0.13597410917282104, 0.07885494083166122, 0.9831881523132324, -0.04480862244963646, -0.06647872924804688, 1.490478515625, 1.50732421875, 0.2104644775390625, 1.5029296875, 1.52783203125, 10.0, 1.0, 10.0, 1.5053246021270752
19262, -1.1986018419265747, -5.203035831451416, 92.66136932373047, 0.0, 0.0, 0.5055354833602905, 0.0, 0.0, 0.733068585395813, 0, 0, 0, 0, 0, 0, 9362.0, 30146.0, 35388.0, 9362.0, 8.17190170288086, 2.6995372772216797, 45.0280876159668, 21.91809844970703, -0.12464726716279984, 0.05643681436777115, 1.0209873914718628, -0.04480862244963646, -0.06647872924804688, 1.490478515625, 1.50732421875, 0.2104644775390625, 1.5029296875, 1.4794921875, 10.0, 1.0, 10.0, 1.5053246021270752
19272, -1.1379673480987549, -5.538910865783691, 92.81033325195312, 0.0, 0.0, 0.5121288299560547, 0.0, 0.0, 0.659334659576416, 0, 0, 0, 0, 0, 0, 9362.0, 30146.0, 35388.0, 9362.0, 8.17190170288086, 2.6995372772216797, 45.0280876159668, 21.91809844970703, -0.08789108693599701, -0.07005182653665543, 1.0495425462722778, -0.04480862244963646, -0.06647872924804688, 1.490478515625, 1.50732421875, 0.2104644775390625, 1.493408203125, 1.6259765625, 10.0, 1.0, 10.0, 1.5053246021270752
19282, -1.0710457563400269, -6.00105619430542, 93.00284576416016, 0.0, 0.0, 0.5121288299560547, 0.0, 0.0, 0.659334659576416, 0, 0, 0, 0, 0, 0, 9362.0, 30146.0, 35388.0, 9362.0, 8.17190170288086, 2.6995372772216797, 45.0280876159668, 21.91809844970703, -0.05053999274969101, -0.12544701993465424, 1.0653594732284546, -0.04480862244963646, -0.06647872924804688, 1.490478515625, 1.447265625, 0.1004791259765625, 1.493408203125, 1.634765625, 10.0, 1.0, 10.0, 1.5053246021270752
19292, -1.0298421382904053, -6.257609844207764, 93.11195373535156, 0.0, 0.0, 0.5203210711479187, 0.0, 0.0, 0.3894984722137451, 0, 0, 0, 0, 0, 0, 9362.0, 30146.0, 35388.0, 9362.0, 8.17190170288086, 2.6995372772216797, 45.0280876159668, 21.91809844970703, -0.021220462396740913, -0.14662085473537445, 1.0673633813858032, -0.04480862244963646, -0.06647872924804688, 1.490478515625, 1.447265625, 0.1004791259765625, 1.4912109375, 1.57177734375, 10.0, 1.0, 10.0, 1.5053246021270752
19302, -0.9664502739906311, -6.543679714202881, 93.23371124267578, 0.0, 0.0, 0.5203210711479187, 0.0, 0.0, 0.3894984722137451, 0, 0, 0, 0, 0, 0, 9362.0, 30146.0, 35388.0, 9362.0, 8.17190170288086, 2.6995372772216797, 45.0280876159668, 21.91809844970703, -0.011353404261171818, -0.1339578777551651, 1.0627915859222412, -0.01704682596027851, 0.10376167297363281, 1.50439453125, 1.3271484375, 0.022308349609375, 1.4912109375, 1.59228515625, 10.0, 1.0, 10.0, 1.5053246021270752
19312, -0.9098088145256042, -6.67156457901001, 93.29121398925781, 0.0, 0.0, 0.5203210711479187, 0.0, 0.0, 0.3894984722137451, 0, 0, 0, 0, 0, 0, 9362.0, 30146.0, 35388.0, 9362.0, 8.17190170288086, 7.807318687438965, 18.10643196105957, 7.579886436462402, -0.01996242254972458, -0.07264740020036697, 1.0227245092391968, -0.01704682596027851, 0.10376167297363281, 1.50439453125, 1.3271484375, 0.022308349609375, 1.497802734375, 1.46337890625, 10.0, 1.0, 10.0, 1.5053246021270752
19322, -0.7921631336212158, -6.7919745445251465, 93.41361999511719, 0.0, 0.0, 0.5203210711479187, 0.0, 0.0, 0.3894984722137451, 0, 0, 0, 0, 0, 0, 9362.0, 30146.0, 35388.0, 9362.0, 8.17190170288086, 8.117513656616211, 11.561842918395996, 9.696940422058105, -0.04857148230075836, 0.025717057287693024, 0.9743728041648865, -0.01704682596027851, 0.10376167297363281, 1.50439453125, 1.404052734375, 0.04400634765625, 1.497802734375, 1.61279296875, 10.0, 1.0, 10.0, 1.5053246021270752
19332, -0.6691672801971436, -6.852969169616699, 93.57765197753906, 0.0, 0.0, 0.5203210711479187, 0.0, 0.0, 0.3894984722137451, 0, 0, 0, 0, 0, 0, 9362.0, 30146.0, 35388.0, 9362.0, 8.17190170288086, 9.921965599060059, 7.986843109130859, 19.94891357421875, -0.09702695906162262, 0.13599377870559692, 0.9216979146003723, -0.01704682596027851, 0.10376167297363281, 1.50439453125, 1.5029296875, 0.201446533203125, 1.497802734375, 1.588623046875, 10.0, 1.0, 10.0, 1.5053246021270752
19342, -0.42399051785469055, -6.961787700653076, 93.94253540039062, 0.0, 0.0, 0.5642114877700806, 0.0, 0.0, 1.4214277267456055, 0, 0, 0, 0, 0, 0, 9362.0, 30146.0, 35388.0, 9362.0, 8.17190170288086, 11.912761688232422, 8.339824676513672, 29.7739200592041, -0.1340859830379486, 0.19683419167995453, 0.9001131653785706, -0.01704682596027851, 0.10376167297363281, 1.50439453125, 1.59375, 0.4024658203125, 1.497802734375, 1.5146484375, 10.0, 1.0, 10.0, 1.5053246021270752
19352, -0.23451383411884308, -7.059323310852051, 94.23926544189453, 0.0, 0.0, 0.5642114877700806, 0.0, 0.0, 1.4214277267456055, 0, 0, 0, 0, 0, 0, 9362.0, 30146.0, 35388.0, 9362.0, 8.17190170288086, 11.912761688232422, 8.339824676513672, 29.7739200592041, -0.13433757424354553, 0.18266461789608002, 0.9263981580734253, -0.01704682596027851, 0.10376167297363281, 1.50439453125, 1.59375, 0.4024658203125, 1.49853515625, 1.46484375, 10.0, 1.0, 10.0, 1.5098291635513306
19362, 0.07207562029361725, -7.230031967163086, 94.68936920166016, 0.0, 0.0, 0.5927515625953674, 0.0, 0.0, 1.5807747840881348, 0, 0, 0, 0, 0, 0, 9362.0, 30146.0, 35388.0, 9362.0, 8.17190170288086, 17.591224670410156, 14.34967041015625, 37.060394287109375, -0.113123819231987, 0.1290973573923111, 0.9697439670562744, -0.01704682596027851, 0.10376167297363281, 1.50439453125, 1.59375, 0.4024658203125, 1.49853515625, 1.46484375, 10.0, 1.0, 10.0, 1.5098291635513306
19372, 0.28494811058044434, -7.361668109893799, 94.95926666259766, 0.0, 0.0, 0.5927515625953674, 0.0, 0.0, 1.5807747840881348, 0, 0, 0, 0, 0, 0, 9362.0, 30146.0, 35388.0, 9362.0, 8.17190170288086, 20.49114227294922, 17.37308692932129, 33.19913101196289, -0.09156141430139542, 0.07407253235578537, 0.9952031970024109, -0.01704682596027851, 0.10376167297363281, 1.50439453125, 1.4970703125, 0.18975830078125, 1.493408203125, 1.46484375, 10.0, 1.0, 10.0, 1.5098291635513306
19382, 0.6025035977363586, -7.551270484924316, 95.28680419921875, 0.0, 0.0, 0.6170344948768616, 0.0, 0.0, 1.0062336921691895, 0, 0, 0, 0, 0, 0, 9362.0, 30146.0, 35388.0, 9362.0, 8.17190170288086, 20.49114227294922, 17.37308692932129, 33.19913101196289, -0.07534971088171005, 0.04212484136223793, 0.9954918026924133, -0.01704682596027851, 0.10376167297363281, 1.50439453125, 1.4970703125, 0.18975830078125, 1.493408203125, 1.612060546875, 10.0, 1.0, 10.0, 1.5098291635513306
19392, 0.8050006628036499, -7.645307540893555, 95.4366226196289, 0.0, 0.0, 0.6170344948768616, 0.0, 0.0, 1.0062336921691895, 0, 0, 0, 0, 0, 0, 9362.0, 30146.0, 35388.0, 9362.0, 8.17190170288086, 22.48341178894043, 13.400391578674316, 18.21839714050293, -0.0635964646935463, 0.025144217535853386, 0.9958628416061401, -0.01704682596027851, 0.10376167297363281, 1.50439453125, 1.482421875, 0.161529541015625, 1.49853515625, 1.57177734375, 10.0, 1.0, 10.0, 1.5098291635513306
19402, 1.086069941520691, -7.725549221038818, 95.60081481933594, 0.0, 0.0, 0.6287645697593689, 0.0, 0.0, 0.2677321434020996, 0, 0, 0, 0, 0, 0, 9362.0, 30146.0, 35388.0, 9362.0, 8.17190170288086, 21.382413864135742, 8.84404468536377, 12.925392150878906, -0.0635964646935463, 0.025144217535853386, 0.9958628416061401, -0.05013945698738098, -0.23671722412109375, 1.4765625, 1.482421875, 0.161529541015625, 1.49853515625, 1.57177734375, 10.0, 1.0, 10.0, 1.5098291635513306
19412, 1.2539641857147217, -7.731080532073975, 95.70543670654297, 0.0, 0.0, 0.6287645697593689, 0.0, 0.0, 0.2677321434020996, 0, 0, 0, 0, 0, 0, 9362.0, 30146.0, 35388.0, 9362.0, 8.17190170288086, 21.382413864135742, 8.84404468536377, 12.925392150878906, -0.05169191211462021, 0.04441061243414879, 0.9622843861579895, -0.05013945698738098, -0.23671722412109375, 1.4765625, 1.482421875, 0.161529541015625, 1.49560546875, 1.515380859375, 10.0, 1.0, 10.0, 1.5098291635513306
19422, 1.4723602533340454, -7.674103260040283, 95.86370086669922, 0.0, 0.0, 0.6196643710136414, 0.0, 0.0, -1.150655746459961, 0, 0, 0, 0, 0, 0, 9362.0, 30146.0, 35388.0, 9362.0, 8.17190170288086, 15.97102165222168, -2.92037034034729, 13.237874984741211, -0.056970153003931046, 0.03795425966382027, 0.9601637721061707, -0.05013945698738098, -0.23671722412109375, 1.4765625, 1.604736328125, 0.428436279296875, 1.49560546875, 1.4208984375, 10.0, 1.0, 10.0, 1.5098291635513306
19432, 1.5955740213394165, -7.601561546325684, 95.96797180175781, 0.0, 0.0, 0.6093047857284546, 0.0, 0.0, -1.0359585285186768, 0, 0, 0, 0, 0, 0, 9362.0, 30146.0, 35388.0, 9362.0, 8.17190170288086, 13.82717227935791, -7.119599342346191, 13.331900596618652, -0.0590931661427021, 0.008711367845535278, 0.978840708732605, -0.05013945698738098, -0.23671722412109375, 1.4765625, 1.604736328125, 0.428436279296875, 1.49560546875, 1.60107421875, 10.0, 1.0, 10.0, 1.5098291635513306
19442, 1.7402961254119873, -7.4724345207214355, 96.10433959960938, 0.0, 0.0, 0.6093047857284546, 0.0, 0.0, -1.0359585285186768, 0, 0, 0, 0, 0, 0, 9362.0, 30146.0, 35388.0, 9362.0, 8.17190170288086, 13.82717227935791, -7.119599342346191, 13.331900596618652, -0.06251077353954315, -0.016084956005215645, 0.9975778460502625, -0.05013945698738098, -0.23671722412109375, 1.4765625, 1.41357421875, 0.0542449951171875, 1.49560546875, 1.60107421875, 10.0, 1.0, 10.0, 1.5098291635513306
19452, 1.816087245941162, -7.3898820877075195, 96.18142700195312, 0.0, 0.0, 0.592621922492981, 0.0, 0.0, -0.7904052734375, 0, 0, 0, 0, 0, 0, 9362.0, 30146.0, 35388.0, 9362.0, 8.17190170288086, 9.41578483581543, -8.660599708557129, 9.934392929077148, -0.07422661036252975, -0.029134172946214676, 1.0043511390686035, -0.05013945698738098, -0.23671722412109375, 1.4765625, 1.41357421875, 0.0542449951171875, 1.49560546875, 1.421630859375, 10.0, 1.0, 10.0, 1.5098291635513306
19462, 1.9289015531539917, -7.291772365570068, 96.2928237915039, 0.0, 0.0, 0.592621922492981, 0.0, 0.0, -0.7904052734375, 0, 0, 0, 0, 0, 0, 9362.0, 30146.0, 35388.0, 9362.0, 8.17190170288086, 9.41578483581543, -8.660599708557129, 9.934392929077148, -0.09865064918994904, -0.021278297528624535, 0.983983039855957, -0.05013945698738098, -0.23671722412109375, 1.4765625, 1.41357421875, 0.0542449951171875, 1.49560546875, 1.63916015625, 10.0, 1.0, 10.0, 1.5098291635513306
19472, 2.0188353061676025, -7.244783401489258, 96.38525390625, 0.0, 0.0, 0.5822159051895142, 0.0, 0.0, -0.4930734634399414, 0, 0, 0, 0, 0, 0, 9362.0, 30146.0, 35388.0, 9362.0, 8.17190170288086, 10.437630653381348, -5.158840656280518, 11.615735054016113, -0.12159999459981918, 0.009487700648605824, 0.9783849716186523, -0.05013945698738098, -0.23671722412109375, 1.4765625, 1.41357421875, 0.0542449951171875, 1.49560546875, 1.573974609375, 10.0, 1.0, 10.0, 1.5098291635513306
19482, 2.1752681732177734, -7.196294784545898, 96.50857543945312, 0.0, 0.0, 0.5822159051895142, 0.0, 0.0, -0.4930734634399414, 0, 0, 0, 0, 0, 0, 9362.0, 30146.0, 35388.0, 9362.0, 8.17190170288086, 10.437630653381348, -5.158840656280518, 11.615735054016113, -0.13779893517494202, 0.05418131500482559, 0.9819290637969971, -0.05013945698738098, -0.23671722412109375, 1.4765625, 1.51318359375, 0.2224273681640625, 1.49560546875, 1.619384765625, 10.0, 1.0, 10.0, 1.5098291635513306
19492, 2.3002967834472656, -7.17673397064209, 96.56765747070312, 0.0, 0.0, 0.5822159051895142, 0.0, 0.0, -0.4930734634399414, 0, 0, 0, 0, 0, 0, 9362.0, 30146.0, 35388.0, 9362.0, 8.17190170288086, 10.437630653381348, -5.158840656280518, 11.615735054016113, -0.14586089551448822, 0.05652426928281784, 0.9890477657318115, -0.05013945698738098, -0.23671722412109375, 1.4765625, 1.552734375, 0.3080596923828125, 1.494140625, 1.61865234375, 10.0, 1.0, 10.0, 1.5098291635513306
19512, 2.662318706512451, -7.09254789352417, 96.7115707397461, 0.0, 0.0, 0.5471941232681274, 0.0, 0.0, -1.259368658065796, 0, 0, 0, 0, 0, 0, 9362.0, 30146.0, 35388.0, 9362.0, 8.17190170288086, 17.195768356323242, -5.497845649719238, 8.568254470825195, -0.143508642911911, 0.0724053829908371, 0.9900335669517517, -0.0371963307261467, -0.10231781005859375, 1.487548828125, 1.47509765625, 0.147857666015625, 1.494140625, 1.365234375, 10.0, 1.0, 10.0, 1.5098291635513306
19522, 2.8892853260040283, -6.985012054443359, 96.8154067993164, 0.0, 0.0, 0.5471941232681274, 0.0, 0.0, -1.259368658065796, 0, 0, 0, 0, 0, 0, 9362.0, 30146.0, 35388.0, 9362.0, 8.17190170288086, 17.195768356323242, -5.497845649719238, 8.568254470825195, -0.13357296586036682, 0.08322439342737198, 0.9825011491775513, -0.0371963307261467, -0.10231781005859375, 1.487548828125, 1.47509765625, 0.147857666015625, 1.494140625, 1.63037109375, 10.0, 1.0, 10.0, 1.5098291635513306
19532, 3.041203498840332, -6.888054847717285, 96.89437866210938, 0.0, 0.0, 0.5204578638076782, 0.0, 0.0, -1.2665987014770508, 0, 0, 0, 0, 0, 0, 9362.0, 30146.0, 35388.0, 9362.0, 8.17190170288086, 17.067331314086914, -11.539660453796387, 10.16556167602539, -0.11372891068458557, 0.08133493363857269, 0.9839632511138916, -0.0371963307261467, -0.10231781005859375, 1.487548828125, 1.571044921875, 0.349578857421875, 1.494140625, 1.51611328125, 10.0, 1.0, 10.0, 1.5098291635513306
19542, 3.250298023223877, -6.722421169281006, 97.01582336425781, 0.0, 0.0, 0.5123374462127686, 0.0, 0.0, -0.8120417594909668, 0, 0, 0, 0, 0, 0, 9362.0, 30146.0, 35388.0, 9362.0, 8.17190170288086, 15.657995223999023, -13.032744407653809, 10.335234642028809, -0.10865717381238937, 0.08654624968767166, 0.9812932014465332, -0.0371963307261467, -0.10231781005859375, 1.487548828125, 1.571044921875, 0.349578857421875, 1.494140625, 1.5732421875, 10.0, 1.0, 10.0, 1.5098291635513306
19552, 3.36662220954895, -6.602627277374268, 97.09901428222656, 0.0, 0.0, 0.5050264000892639, 0.0, 0.0, -0.7311046123504639, 0, 0, 0, 0, 0, 0, 9362.0, 30146.0, 35388.0, 9362.0, 8.17190170288086, 12.430890083312988, -14.738414764404297, 11.032611846923828, -0.13151702284812927, 0.0944405272603035, 0.9502484798431396, -0.0371963307261467, -0.10231781005859375, 1.487548828125, 1.571044921875, 0.349578857421875, 1.494140625, 1.565185546875, 10.0, 1.0, 10.0, 1.5098291635513306
19562, 3.51971435546875, -6.418486595153809, 97.20101928710938, 0.0, 0.0, 0.5050264000892639, 0.0, 0.0, -0.7311046123504639, 0, 0, 0, 0, 0, 0, 9362.0, 30146.0, 35388.0, 9362.0, 8.17190170288086, 12.430890083312988, -14.738414764404297, 11.032611846923828, -0.14560092985630035, 0.08798173069953918, 0.925800085067749, -0.0371963307261467, -0.10231781005859375, 1.487548828125, 1.4560546875, 0.1147003173828125, 1.494140625, 1.641357421875, 10.0, 1.0, 10.0, 1.5098291635513306
19572, 3.595505952835083, -6.30007266998291, 97.22615051269531, 0.0, 0.0, 0.5050264000892639, 0.0, 0.0, -0.7311046123504639, 0, 0, 0, 0, 0, 0, 9362.0, 30146.0, 35388.0, 9362.0, 8.17190170288086, 8.905939102172852, -15.622642517089844, 4.047412395477295, -0.14560092985630035, 0.08798173069953918, 0.925800085067749, -0.0371963307261467, -0.10231781005859375, 1.487548828125, 1.546142578125, 0.2932891845703125, 1.496337890625, 1.4150390625, 10.0, 1.0, 10.0, 1.5098291635513306
19582, 3.6456868648529053, -6.136178493499756, 97.19123077392578, 0.0, 0.0, 0.5050264000892639, 0.0, 0.0, -0.7311046123504639, 0, 0, 0, 0, 0, 0, 9362.0, 30146.0, 35388.0, 9362.0, 8.17190170288086, 8.905939102172852, -15.622642517089844, 4.047412395477295, -0.13023152947425842, -0.013247283175587654, 0.9205873012542725, -0.0371963307261467, -0.10231781005859375, 1.487548828125, 1.44873046875, 0.102813720703125, 1.496337890625, 1.628173828125, 10.0, 1.0, 10.0, 1.5098291635513306
19592, 3.6330039501190186, -6.040145397186279, 97.12948608398438, 0.0, 0.0, 0.5050264000892639, 0.0, 0.0, -0.7311046123504639, 0, 0, 0, 0, 0, 0, 9362.0, 30146.0, 35388.0, 9362.0, 8.17190170288086, 8.905939102172852, -15.622642517089844, 4.047412395477295, -0.11177892237901688, -0.0669308602809906, 0.9599280953407288, -0.0371963307261467, -0.10231781005859375, 1.487548828125, 1.48828125, 0.172576904296875, 1.496337890625, 1.648681640625, 10.0, 1.0, 10.0, 1.5098291635513306
19602, 3.553856372833252, -5.931288242340088, 96.9793472290039, 0.0, 0.0, 0.5050264000892639, 0.0, 0.0, -0.7311046123504639, 0, 0, 0, 0, 0, 0, 9362.0, 30146.0, 35388.0, 9362.0, 8.17190170288086, 8.905939102172852, -15.622642517089844, 4.047412395477295, -0.1116296723484993, -0.07226039469242096, 1.0075764656066895, -0.04533344507217407, 0.014162063598632812, 1.4970703125, 1.41064453125, 0.0509490966796875, 1.496337890625, 1.648681640625, 10.0, 1.0, 10.0, 1.5098291635513306
19612, 3.4807450771331787, -5.881592750549316, 96.85465240478516, 0.0, 0.0, 0.5050264000892639, 0.0, 0.0, -0.7311046123504639, 0, 0, 0, 0, 0, 0, 9362.0, 30146.0, 35388.0, 9362.0, 8.17190170288086, -5.173582077026367, -7.638440132141113, -14.83572006225586, -0.13020870089530945, -0.03034244105219841, 1.041277289390564, -0.04533344507217407, 0.014162063598632812, 1.4970703125, 1.41064453125, 0.0509490966796875, 1.496337890625, 1.521240234375, 10.0, 1.0, 10.0, 1.5098291635513306
19622, 3.3582186698913574, -5.846236228942871, 96.66011810302734, 0.0, 0.0, 0.47247374057769775, 0.0, 0.0, 0.28825998306274414, 0, 0, 0, 0, 0, 0, 9362.0, 30146.0, 35388.0, 9362.0, 8.17190170288086, -7.8687543869018555, -5.140844345092773, -15.946578025817871, -0.1624293029308319, 0.03810655698180199, 1.0553491115570068, -0.04533344507217407, 0.014162063598632812, 1.4970703125, 1.41064453125, 0.0509490966796875, 1.496337890625, 1.49853515625, 10.0, 1.0, 10.0, 1.5098291635513306
19632, 3.2815921306610107, -5.849771499633789, 96.54055786132812, 0.0, 0.0, 0.47509410977363586, 0.0, 0.0, 0.26203691959381104, 0, 0, 0, 0, 0, 0, 9362.0, 30146.0, 35388.0, 9362.0, 8.17190170288086, -8.791147232055664, -2.0270609855651855, -14.95439624786377, -0.1624293029308319, 0.03810655698180199, 1.0553491115570068, -0.04533344507217407, 0.014162063598632812, 1.4970703125, 1.41064453125, 0.0509490966796875, 1.496337890625, 1.436279296875, 10.0, 1.0, 10.0, 1.5098291635513306
19642, 3.191962957382202, -5.871237277984619, 96.38765716552734, 0.0, 0.0, 0.47509410977363586, 0.0, 0.0, 0.26203691959381104, 0, 0, 0, 0, 0, 0, 9362.0, 30146.0, 35388.0, 9362.0, 8.17190170288086, -8.791147232055664, -2.0270609855651855, -14.95439624786377, -0.18156105279922485, 0.14446265995502472, 0.9851368069648743, -0.04533344507217407, 0.014162063598632812, 1.4970703125, 1.63037109375, 0.490264892578125, 1.496337890625, 1.642822265625, 10.0, 1.0, 10.0, 1.5098291635513306
19652, 3.1554818153381348, -5.883813381195068, 96.30236053466797, 0.0, 0.0, 0.47509410977363586, 0.0, 0.0, 0.26203691959381104, 0, 0, 0, 0, 0, 0, 9362.0, 30146.0, 35388.0, 9362.0, 8.17190170288086, -8.791147232055664, -2.0270609855651855, -14.95439624786377, -0.16047218441963196, 0.16436366736888885, 0.9369646906852722, -0.04533344507217407, 0.014162063598632812, 1.4970703125, 1.620849609375, 0.4671783447265625, 1.490478515625, 1.385009765625, 10.0, 1.0, 10.0, 1.5098291635513306
19662, 3.1398284435272217, -5.8845415115356445, 96.20657348632812, 0.0, 0.0, 0.47509410977363586, 0.0, 0.0, 0.26203691959381104, 0, 0, 0, 0, 0, 0, 9362.0, 30146.0, 35388.0, 9362.0, 8.17190170288086, -8.791147232055664, -2.0270609855651855, -14.95439624786377, -0.12019842863082886, 0.16604726016521454, 0.8770315051078796, -0.04533344507217407, 0.014162063598632812, 1.4970703125, 1.587890625, 0.38861083984375, 1.490478515625, 1.63330078125, 10.0, 1.0, 10.0, 1.5098291635513306
19672, 3.1538543701171875, -5.865631103515625, 96.14530181884766, 0.0, 0.0, 0.47509410977363586, 0.0, 0.0, 0.26203691959381104, 0, 0, 0, 0, 0, 0, 9362.0, 30146.0, 35388.0, 9362.0, 8.17190170288086, -0.05366085469722748, -2.881657123565674, -7.651788234710693, -0.08677895367145538, 0.14250847697257996, 0.8443741798400879, -0.04533344507217407, 0.014162063598632812, 1.4970703125, 1.528564453125, 0.2548828125, 1.490478515625, 1.60693359375, 10.0, 1.0, 10.0, 1.5098291635513306
19682, 3.194417953491211, -5.80835485458374, 95.99703216552734, 0.0, 0.0, 0.48417526483535767, 0.0, 0.0, 0.1459866762161255, 0, 0, 0, 0, 0, 0, 9362.0, 30146.0, 35388.0, 9362.0, 8.17190170288086, 3.200864553451538, -4.841762542724609, -12.262011528015137, -0.048456065356731415, 0.09053778648376465, 0.8517640233039856, -0.04533344507217407, 0.014162063598632812, 1.4970703125, 1.528564453125, 0.2548828125, 1.490478515625, 1.47802734375, 10.0, 1.0, 10.0, 1.5098291635513306
19692, 3.230583667755127, -5.766737461090088, 95.861328125, 0.0, 0.0, 0.48536890745162964, 0.0, 0.0, 0.11936426162719727, 0, 0, 0, 0, 0, 0, 9362.0, 30146.0, 35388.0, 9362.0, 8.17190170288086, 3.200864553451538, -4.841762542724609, -12.262011528015137, -0.025203712284564972, 0.03654845431447029, 0.8735995292663574, -0.04533344507217407, 0.014162063598632812, 1.4970703125, 1.528564453125, 0.2548828125, 1.490478515625, 1.56005859375, 10.0, 1.0, 10.0, 1.5098291635513306
19702, 3.2876601219177246, -5.750340938568115, 95.61206817626953, 0.0, 0.0, 0.4951235353946686, 0.0, 0.0, 0.975462794303894, 0, 0, 0, 0, 0, 0, 9362.0, 30146.0, 35388.0, 9362.0, 8.191736221313477, 3.200864553451538, -4.841762542724609, -12.262011528015137, -0.036552127450704575, 0.01812369003891945, 0.898373007774353, -0.04533344507217407, 0.014162063598632812, 1.4970703125, 1.489013671875, 0.174041748046875, 1.490478515625, 1.56005859375, 10.0, 1.0, 10.0, 1.5098291635513306
19712, 3.3490536212921143, -5.7721848487854, 95.44001007080078, 0.0, 0.0, 0.4951235353946686, 0.0, 0.0, 0.975462794303894, 0, 0, 0, 0, 0, 0, 9362.0, 30146.0, 35388.0, 9362.0, 8.191736221313477, 10.049389839172363, 2.4384214878082275, -21.39437484741211, -0.0638066828250885, 0.05502230301499367, 0.9369929432868958, -0.04533344507217407, 0.014162063598632812, 1.4970703125, 1.489013671875, 0.174041748046875, 1.49560546875, 1.56005859375, 10.0, 1.0, 10.0, 1.5098291635513306
19722, 3.490842580795288, -5.863039016723633, 95.18511199951172, 0.0, 0.0, 0.4951235353946686, 0.0, 0.0, 0.975462794303894, 0, 0, 0, 0, 0, 0, 9362.0, 30146.0, 35388.0, 9362.0, 8.191736221313477, 10.049389839172363, 2.4384214878082275, -21.39437484741211, -0.10123926401138306, 0.09937047958374023, 1.0016539096832275, -0.04533344507217407, 0.014162063598632812, 1.4970703125, 1.3916015625, 0.0325927734375, 1.49560546875, 1.642822265625, 10.0, 1.0, 10.0, 1.5098291635513306
19732, 3.6146998405456543, -5.970821857452393, 95.02689361572266, 0.0, 0.0, 0.5259528160095215, 0.0, 0.0, 1.0482609272003174, 0, 0, 0, 0, 0, 0, 9362.0, 30146.0, 35388.0, 9362.0, 8.191736221313477, 10.049389839172363, 2.4384214878082275, -21.39437484741211, -0.13717427849769592, 0.13893750309944153, 1.0621389150619507, -0.04533344507217407, 0.014162063598632812, 1.4970703125, 1.552001953125, 0.3063201904296875, 1.49267578125, 1.6611328125, 10.0, 1.0, 10.0, 1.5098291635513306
19742, 3.8436474800109863, -6.204633712768555, 94.82041931152344, 0.0, 0.0, 0.5337703227996826, 0.0, 0.0, 0.7817506790161133, 0, 0, 0, 0, 0, 0, 9362.0, 30146.0, 35388.0, 9362.0, 8.191736221313477, 19.673444747924805, 17.68421745300293, -17.990978240966797, -0.14841912686824799, 0.14275474846363068, 1.083520531654358, -0.04533344507217407, 0.014162063598632812, 1.4970703125, 1.525634765625, 0.248626708984375, 1.49267578125, 1.55859375, 10.0, 1.0, 10.0, 1.5098291635513306
19752, 4.018962860107422, -6.386672496795654, 94.70718383789062, 0.0, 0.0, 0.5408774614334106, 0.0, 0.0, 0.7107138633728027, 0, 0, 0, 0, 0, 0, 9362.0, 30146.0, 35388.0, 9362.0, 8.191736221313477, 19.673444747924805, 17.68421745300293, -17.990978240966797, -0.1341729313135147, 0.1375364065170288, 1.066008448600769, -0.04533344507217407, 0.014162063598632812, 1.4970703125, 1.606201171875, 0.4319305419921875, 1.50146484375, 1.598876953125, 10.0, 1.0, 10.0, 1.5098291635513306
19762, 4.2940168380737305, -6.670708656311035, 94.55369567871094, 0.0, 0.0, 0.5456727743148804, 0.0, 0.0, 0.47953128814697266, 0, 0, 0, 0, 0, 0, 9362.0, 30146.0, 35388.0, 9362.0, 8.191736221313477, 23.162309646606445, 23.000484466552734, -14.250091552734375, -0.1341729313135147, 0.1375364065170288, 1.066008448600769, -0.04533344507217407, 0.014162063598632812, 1.4970703125, 1.598876953125, 0.414520263671875, 1.50146484375, 1.377685546875, 10.0, 1.0, 10.0, 1.5098291635513306
19772, 4.4754791259765625, -6.848967552185059, 94.46328735351562, 0.0, 0.0, 0.5456727743148804, 0.0, 0.0, 0.47953128814697266, 0, 0, 0, 0, 0, 0, 9362.0, 30146.0, 35388.0, 9362.0, 8.191736221313477, 23.162309646606445, 23.000484466552734, -14.250091552734375, -0.0660790205001831, 0.08529003709554672, 0.9713188409805298, -0.04533344507217407, 0.014162063598632812, 1.4970703125, 1.53369140625, 0.265960693359375, 1.496337890625, 1.61279296875, 10.0, 1.0, 10.0, 1.5098291635513306
19782, 4.721756458282471, -7.102850914001465, 94.31376647949219, 0.0, 0.0, 0.5440582633018494, 0.0, 0.0, -0.5944192409515381, 0, 0, 0, 0, 0, 0, 9362.0, 30146.0, 35388.0, 9362.0, 8.191736221313477, 23.162309646606445, 23.000484466552734, -14.250091552734375, -0.05566328018903732, 0.06880906969308853, 0.9609611630439758, -0.04533344507217407, 0.014162063598632812, 1.4970703125, 1.522705078125, 0.242462158203125, 1.496337890625, 1.50146484375, 10.0, 1.0, 10.0, 1.5098291635513306
19792, 4.8579277992248535, -7.2643866539001465, 94.20536804199219, 0.0, 0.0, 0.5387108325958252, 0.0, 0.0, -0.534743070602417, 0, 0, 0, 0, 0, 0, 9362.0, 30146.0, 35388.0, 9362.0, 8.191736221313477, 23.162309646606445, 23.000484466552734, -14.250091552734375, -0.08006853610277176, 0.07981833815574646, 0.9769231081008911, -0.04533344507217407, 0.014162063598632812, 1.4970703125, 1.522705078125, 0.242462158203125, 1.4912109375, 1.600341796875, 10.0, 1.0, 10.0, 1.5098291635513306
19802, 5.006062984466553, -7.505175590515137, 94.03784942626953, 0.0, 0.0, 0.545382559299469, 0.0, 0.0, 0.6671726703643799, 0, 0, 0, 0, 0, 0, 9362.0, 30146.0, 35388.0, 9362.0, 8.17190170288086, 13.829545974731445, 19.193363189697266, -15.587361335754395, -0.12567850947380066, 0.1124725341796875, 0.9947261214256287, -0.04533344507217407, 0.014162063598632812, 1.4970703125, 1.522705078125, 0.242462158203125, 1.4912109375, 1.600341796875, 10.0, 1.0, 10.0, 1.5098291635513306
19812, 5.064932823181152, -7.6671953201293945, 93.93081665039062, 0.0, 0.0, 0.5513893961906433, 0.0, 0.0, 0.6006836891174316, 0, 0, 0, 0, 0, 0, 9362.0, 30146.0, 35388.0, 9362.0, 8.17190170288086, 13.829545974731445, 19.193363189697266, -15.587361335754395, -0.17520937323570251, 0.1550404578447342, 1.0054621696472168, -0.04533344507217407, 0.014162063598632812, 1.4970703125, 1.522705078125, 0.242462158203125, 1.4912109375, 1.635498046875, 10.0, 1.0, 10.0, 1.5098291635513306
19822, 5.080594062805176, -7.925801753997803, 93.7613296508789, 0.0, 0.0, 0.5578906536102295, 0.0, 0.0, 0.6501257419586182, 0, 0, 0, 0, 0, 0, 9362.0, 30146.0, 35388.0, 9362.0, 8.17190170288086, 1.5941622257232666, 19.047494888305664, -15.759552001953125, -0.20916426181793213, 0.16996686160564423, 1.0038378238677979, -0.04533344507217407, 0.014162063598632812, 1.4970703125, 1.522705078125, 0.242462158203125, 1.4912109375, 1.58935546875, 10.0, 1.0, 10.0, 1.5098291635513306
19832, 5.034692287445068, -8.104954719543457, 93.63435363769531, 0.0, 0.0, 0.5637439489364624, 0.0, 0.0, 0.585329532623291, 0, 0, 0, 0, 0, 0, 9362.0, 30146.0, 35388.0, 9362.0, 8.17190170288086, -4.886499404907227, 19.200809478759766, -17.715375900268555, -0.23236271739006042, 0.14701588451862335, 1.0110329389572144, -0.04533344507217407, 0.014162063598632812, 1.4970703125, 1.522705078125, 0.242462158203125, 1.4912109375, 1.4384765625, 10.0, 1.0, 10.0, 1.5098291635513306
19842, 4.868523120880127, -8.370810508728027, 93.4345932006836, 0.0, 0.0, 0.5733892321586609, 0.0, 0.0, 0.9645283222198486, 0, 0, 0, 0, 0, 0, 9362.0, 30146.0, 35388.0, 9362.0, 8.17190170288086, -4.886499404907227, 19.200809478759766, -17.715375900268555, -0.24238137900829315, 0.09354627132415771, 1.0206650495529175, -0.04533344507217407, 0.014162063598632812, 1.4970703125, 1.522705078125, 0.242462158203125, 1.4912109375, 1.617919921875, 10.0, 1.0, 10.0, 1.5098291635513306
19852, 4.696370601654053, -8.53449821472168, 93.28765869140625, 0.0, 0.0, 0.5820827484130859, 0.0, 0.0, 0.8693516254425049, 0, 0, 0, 0, 0, 0, 9362.0, 30146.0, 35388.0, 9362.0, 8.17190170288086, -17.67363739013672, 17.113086700439453, -19.48451805114746, -0.2317345291376114, 0.015117444097995758, 1.036466360092163, -0.04533344507217407, 0.014162063598632812, 1.4970703125, 1.522705078125, 0.242462158203125, 1.4912109375, 1.53076171875, 10.0, 1.0, 10.0, 1.5098291635513306
19862, 4.357635021209717, -8.757241249084473, 93.04427337646484, 0.0, 0.0, 0.5820827484130859, 0.0, 0.0, 0.8693516254425049, 0, 0, 0, 0, 0, 0, 9362.0, 30146.0, 35388.0, 9362.0, 8.17190170288086, -22.3865966796875, 15.811159133911133, -20.662866592407227, -0.21003501117229462, -0.0656295195221901, 1.0493680238723755, -0.04533344507217407, 0.014162063598632812, 1.4970703125, 1.564453125, 0.3344879150390625, 1.4912109375, 1.4208984375, 10.0, 1.0, 10.0, 1.5098291635513306
19872, 4.095945358276367, -8.882959365844727, 92.86890411376953, 0.0, 0.0, 0.5820827484130859, 0.0, 0.0, 0.8693516254425049, 0, 0, 0, 0, 0, 0, 9362.0, 30146.0, 35388.0, 9362.0, 8.17190170288086, -25.327470779418945, 13.719405174255371, -22.087722778320312, -0.17688995599746704, -0.11546505242586136, 1.047128677368164, -0.04533344507217407, 0.014162063598632812, 1.4970703125, 1.564453125, 0.3344879150390625, 1.496337890625, 1.38427734375, 10.0, 1.0, 10.0, 1.5098291635513306
19882, 3.681739091873169, -9.05337142944336, 92.59439086914062, 0.0, 0.0, 0.5820827484130859, 0.0, 0.0, 0.8693516254425049, 0, 0, 0, 0, 0, 0, 9362.0, 30146.0, 35388.0, 9362.0, 8.17190170288086, -27.249563217163086, 13.08000659942627, -23.198062896728516, -0.1461859494447708, -0.10267841815948486, 1.0370687246322632, -0.04533344507217407, 0.014162063598632812, 1.4970703125, 1.46630859375, 0.132171630859375, 1.496337890625, 1.60400390625, 10.0, 1.0, 10.0, 1.5098291635513306
19892, 3.4118800163269043, -9.16680908203125, 92.42357635498047, 0.0, 0.0, 0.5820827484130859, 0.0, 0.0, 0.8693516254425049, 0, 0, 0, 0, 0, 0, 9362.0, 30146.0, 35388.0, 9362.0, 8.17190170288086, -27.753217697143555, 13.565046310424805, -21.278600692749023, -0.12882333993911743, -0.03795768693089485, 1.003574252128601, -0.04533344507217407, 0.014162063598632812, 1.4970703125, 1.5234375, 0.2439727783203125, 1.49560546875, 1.645751953125, 10.0, 1.0, 10.0, 1.5098291635513306
19902, 3.021296977996826, -9.360294342041016, 92.17144775390625, 0.0, 0.0, 0.6433020830154419, 0.0, 0.0, 0.8033454418182373, 0, 0, 0, 0, 0, 0, 9362.0, 30146.0, 35388.0, 9362.0, 8.17190170288086, -28.342763900756836, 15.473089218139648, -21.4663028717041, -0.14119566977024078, 0.026219667866826057, 1.005639672279358, -0.05503193661570549, -0.2187976837158203, 1.47802734375, 1.5234375, 0.2439727783203125, 1.49560546875, 1.645751953125, 10.0, 1.0, 10.0, 1.5098291635513306
19912, 2.7753055095672607, -9.505861282348633, 92.0149154663086, 0.0, 0.0, 0.6505332589149475, 0.0, 0.0, 0.7231175899505615, 0, 0, 0, 0, 0, 0, 9362.0, 30146.0, 35388.0, 9362.0, 8.17190170288086, -27.539642333984375, 17.539424896240234, -20.184234619140625, -0.16752728819847107, 0.06066856533288956, 1.045048475265503, -0.05503193661570549, -0.2187976837158203, 1.47802734375, 1.5234375, 0.2439727783203125, 1.49267578125, 1.645751953125, 10.0, 1.0, 10.0, 1.5098291635513306
19922, 2.4241576194763184, -9.743989944458008, 91.79912567138672, 0.0, 0.0, 0.6581441760063171, 0.0, 0.0, 0.7610917091369629, 0, 0, 0, 0, 0, 0, 9362.0, 30146.0, 35388.0, 9362.0, 8.17190170288086, -27.539642333984375, 17.539424896240234, -20.184234619140625, -0.1925765872001648, 0.07401584833860397, 1.0764416456222534, -0.05503193661570549, -0.2187976837158203, 1.47802734375, 1.57177734375, 0.3512115478515625, 1.49267578125, 1.4970703125, 10.0, 1.0, 10.0, 1.5098291635513306
19932, 2.200169563293457, -9.906525611877441, 91.66299438476562, 0.0, 0.0, 0.6650538444519043, 0.0, 0.0, 0.6909668445587158, 0, 0, 0, 0, 0, 0, 9362.0, 30146.0, 35388.0, 9362.0, 8.17190170288086, -27.539642333984375, 17.539424896240234, -20.184234619140625, -0.21127519011497498, 0.06214641407132149, 1.0677642822265625, -0.05503193661570549, -0.2187976837158203, 1.47802734375, 1.61279296875, 0.4476470947265625, 1.49267578125, 1.4765625, 10.0, 1.0, 10.0, 1.5098291635513306
19942, 1.8816649913787842, -10.135534286499023, 91.45745849609375, 0.0, 0.0, 0.6650538444519043, 0.0, 0.0, 0.6909668445587158, 0, 0, 0, 0, 0, 0, 9362.0, 30146.0, 35388.0, 9362.0, 8.17190170288086, -27.539642333984375, 17.539424896240234, -20.184234619140625, -0.21226166188716888, 0.04355863109230995, 1.015419363975525, -0.05503193661570549, -0.2187976837158203, 1.47802734375, 1.4970703125, 0.18975830078125, 1.49267578125, 1.44140625, 10.0, 1.0, 10.0, 1.5098291635513306
19952, 1.6878538131713867, -10.279010772705078, 91.32927703857422, 0.0, 0.0, 0.6665773391723633, 0.0, 0.0, 0.07296204566955566, 0, 0, 0, 0, 0, 0, 9362.0, 30146.0, 35388.0, 9362.0, 8.17190170288086, -21.14497184753418, 16.702232360839844, -16.185958862304688, -0.21268902719020844, 0.016288436949253082, 0.9838947057723999, -0.05503193661570549, -0.2187976837158203, 1.47802734375, 1.4970703125, 0.18975830078125, 1.49267578125, 1.48095703125, 10.0, 1.0, 10.0, 1.5098291635513306
19962, 1.4136242866516113, -10.473428726196289, 91.13016510009766, 0.0, 0.0, 0.655750572681427, 0.0, 0.0, -1.082676649093628, 0, 0, 0, 0, 0, 0, 9362.0, 30146.0, 35388.0, 9362.0, 8.17190170288086, -18.783246994018555, 15.128437042236328, -16.815032958984375, -0.21823790669441223, -0.027593528851866722, 0.9809626936912537, -0.05503193661570549, -0.2187976837158203, 1.47802734375, 1.4970703125, 0.18975830078125, 1.49267578125, 1.591552734375, 10.0, 1.0, 10.0, 1.5098291635513306
19972, 1.242000937461853, -10.587447166442871, 90.99853515625, 0.0, 0.0, 0.655750572681427, 0.0, 0.0, -1.082676649093628, 0, 0, 0, 0, 0, 0, 9362.0, 30146.0, 35388.0, 9362.0, 8.17190170288086, -16.329273223876953, 13.076221466064453, -16.15699005126953, -0.215437114238739, -0.07629957795143127, 0.9801161289215088, -0.05503193661570549, -0.2187976837158203, 1.47802734375, 1.36669921875, 0.01806640625, 1.49267578125, 1.566650390625, 10.0, 1.0, 10.0, 1.5098291635513306
