timeTick, roll, pitch, yaw, stateX, stateY, stateZ, stateVX, stateVY, stateVZ, otX0, otY0, otZ0, otRoll0, otPitch0, otYaw0, left wing, pitch motor, yaw motor, right wing, voltage, roll rate, pitch rate, yaw rate, A_x, A_y, A_z, current, i_raw, v_raw, airflow_voltage, airflow_speed, pot_Pitch, voltage_nKF, kFFx, state, State, volt_KF
19246, -2.553534984588623, -6.541050434112549, 93.0435562133789, 0, 0, 0, 0, 0, 0, 0, 0, 0, 0, 0, 0, 0, 0, 0, 0, 0, 0, 0, 0, 0, 0, 0, 0, 0, 0, 0, 0, 0, 0, 0, 0, 0, 0
19256, -2.456939697265625, -6.554652690887451, 93.13710021972656, 0.0, 0.0, 0.5107532739639282, 0.0, 0.0, 0.32293200492858887, 0, 0, 0, 0, 0, 0, 9362.0, 30146.0, 35388.0, 9362.0, 0, 11.4672269821167, 1.776984691619873, 11.501341819763184, -0.06140100955963135, -0.05292390659451485, 0.9226275086402893, 0, 0, 0, 1.4765625, 0.1505584716796875, 0, 0, 0, 0, 0, 0
19266, -2.3347394466400146, -6.636157989501953, 93.27587890625, 0.0, 0.0, 0.5108853578567505, 0.0, 0.0, 0.013208389282226562, 0, 0, 0, 0, 0, 0, 9362.0, 30146.0, 35388.0, 9362.0, 0, 9.874820709228516, 5.484335422515869, 12.280091285705566, -0.0944378599524498, -0.07608810067176819, 0.9489524960517883, 0, 0, 0, 1.382080078125, 0.0256195068359375, 0, 1.54833984375, 10.0, 1.0, 10.0, 1.5480715036392212
19276, -2.2643325328826904, -6.746495723724365, 93.35767364501953, 0.0, 0.0, 0.5109999775886536, 0.0, 0.0, 0.011461973190307617, 0, 0, 0, 0, 0, 0, 9362.0, 30146.0, 35388.0, 9362.0, 0, 9.011312484741211, 11.466086387634277, 11.157833099365234, -0.12133736908435822, -0.09457135200500488, 0.9736121892929077, 0, 0, 0, 1.45458984375, 0.11224365234375, 1.497802734375, 1.569580078125, 10.0, 1.0, 10.0, 1.5483015775680542
19286, -2.1704063415527344, -7.0149641036987305, 93.46131896972656, 0.0, 0.0, 0.5111060738563538, 0.0, 0.0, 0.010609626770019531, 0, 0, 0, 0, 0, 0, 9362.0, 30146.0, 35388.0, 9362.0, 0, 8.7058744430542, 20.871105194091797, 9.679144859313965, -0.14727669954299927, -0.11845674365758896, 1.012520670890808, 0, 0, 0, 1.54248046875, 0.28521728515625, 1.497802734375, 1.59228515625, 10.0, 1.0, 10.0, 1.548665165901184
19296, -2.111928939819336, -7.259088516235352, 93.5158920288086, 0.0, 0.0, 0.5112034678459167, 0.0, 0.0, 0.009739398956298828, 0, 0, 0, 0, 0, 0, 9362.0, 30146.0, 35388.0, 9362.0, 0, 8.41122055053711, 27.98213768005371, 8.669464111328125, -0.1672814041376114, -0.1299612671136856, 1.0509415864944458, 0, 0, 0, 1.6845703125, 0.62701416015625, 1.493408203125, 1.63916015625, 10.0, 1.0, 10.0, 1.5480622053146362
19306, -2.0164713859558105, -7.685860633850098, 93.57415008544922, 0.0, 0.0, 0.5124136209487915, 0.0, 0.0, 0.12101531028747559, 0, 0, 0, 0, 0, 0, 9362.0, 30146.0, 35388.0, 9362.0, 0, 8.922420501708984, 34.3088264465332, 6.523774147033691, -0.16613607108592987, -0.1241520419716835, 1.0691781044006348, 0, 0, 0, 1.67724609375, 0.6079559326171875, 1.493408203125, 1.636962890625, 10.0, 1.0, 10.0, 1.5484635829925537
19316, -1.9463703632354736, -7.987209796905518, 93.60121154785156, 0.0, 0.0, 0.5135384798049927, 0.0, 0.0, 0.11248588562011719, 0, 0, 0, 0, 0, 0, 9362.0, 30146.0, 35388.0, 9362.0, 0, 9.711190223693848, 37.2568473815918, 4.934116363525391, -0.16011618077754974, -0.11232825368642807, 1.0604169368743896, 0, 0, 0, 1.708740234375, 0.6916351318359375, 1.4912109375, 1.60400390625, 10.0, 1.0, 10.0, 1.5486576557159424
19326, -1.836538553237915, -8.422602653503418, 93.63577270507812, 0.0, 0.0, 0.5255307555198669, 0.0, 0.0, 1.1992275714874268, 0, 0, 0, 0, 0, 0, 9362.0, 30146.0, 35388.0, 9362.0, 0, 10.247488975524902, 36.82283401489258, 4.636731147766113, -0.1569700986146927, -0.09966760873794556, 1.0392062664031982, 0, 0, 0, 1.698486328125, 0.6639404296875, 1.4912109375, 1.65966796875, 10.0, 1.0, 10.0, 1.548302412033081
19336, -1.7697879076004028, -8.678686141967773, 93.64714050292969, 0.0, 0.0, 0.5363366007804871, 0.0, 0.0, 1.0805845260620117, 0, 0, 0, 0, 0, 0, 9362.0, 30146.0, 35388.0, 9362.0, 0, 9.245748519897461, 33.07087326049805, 2.339989185333252, -0.1539173722267151, -0.0873003676533699, 1.0092755556106567, 0, 0, 0, 1.634765625, 0.5010528564453125, 1.491943359375, 1.58349609375, 10.0, 1.0, 10.0, 1.5482192039489746
19346, -1.6709766387939453, -8.992887496948242, 93.66968536376953, 0.0, 0.0, 0.542235255241394, 0.0, 0.0, 0.5898654460906982, 0, 0, 0, 0, 0, 0, 9362.0, 30146.0, 35388.0, 9362.0, 8.152067184448242, 9.001416206359863, 27.5205135345459, 3.124547243118286, -0.15819764137268066, -0.07408560812473297, 0.9773176312446594, -0.030672572553157806, 0.05000114440917969, 1.5, 1.52490234375, 0.247039794921875, 1.491943359375, 1.693359375, 10.0, 1.0, 10.0, 1.5485714673995972
19356, -1.6148872375488281, -9.146517753601074, 93.67769622802734, 0.0, 0.0, 0.5475447177886963, 0.0, 0.0, 0.5309462547302246, 0, 0, 0, 0, 0, 0, 9362.0, 30146.0, 35388.0, 9362.0, 8.152067184448242, 7.83202600479126, 20.41980743408203, 1.9131406545639038, -0.1655072569847107, -0.05463753268122673, 0.9531257748603821, -0.030672572553157806, 0.05000114440917969, 1.5, 1.329345703125, 0.02105712890625, 1.4970703125, 1.442138671875, 10.0, 1.0, 10.0, 1.5491586923599243
19366, -1.5398870706558228, -9.298433303833008, 93.68026733398438, 0.0, 0.0, 0.5577923059463501, 0.0, 0.0, 1.0247588157653809, 0, 0, 0, 0, 0, 0, 9362.0, 30146.0, 35388.0, 9362.0, 8.152067184448242, 6.754099369049072, 12.897346496582031, 0.29428279399871826, -0.17903578281402588, -0.04378378763794899, 0.9474471211433411, -0.030672572553157806, 0.05000114440917969, 1.5, 1.67724609375, 0.6079559326171875, 1.4970703125, 1.4853515625, 10.0, 1.0, 10.0, 1.5496190786361694
19376, -1.4958932399749756, -9.349702835083008, 93.69062805175781, 0.0, 0.0, 0.5670157670974731, 0.0, 0.0, 0.9223461151123047, 0, 0, 0, 0, 0, 0, 9362.0, 30146.0, 35388.0, 9362.0, 8.152067184448242, 5.98159122467041, 6.766993999481201, 1.102689266204834, -0.18897832930088043, -0.034946259111166, 0.9406259059906006, -0.030672572553157806, 0.05000114440917969, 1.5, 1.67724609375, 0.6079559326171875, 1.49560546875, 1.5029296875, 10.0, 1.0, 10.0, 1.5499669313430786
19386, -1.4438201189041138, -9.382336616516113, 93.74111938476562, 0.0, 0.0, 0.5753174424171448, 0.0, 0.0, 0.8301675319671631, 0, 0, 0, 0, 0, 0, 9362.0, 30146.0, 35388.0, 9362.0, 8.152067184448242, 4.319494247436523, 2.3338043689727783, 4.130212783813477, -0.20109979808330536, -0.04343412443995476, 0.9475323557853699, -0.030672572553157806, 0.05000114440917969, 1.5, 1.489013671875, 0.174041748046875, 1.49560546875, 1.57177734375, 10.0, 1.0, 10.0, 1.5504039525985718
19396, -1.4213793277740479, -9.377857208251953, 93.78034973144531, 0.0, 0.0, 0.5827895998954773, 0.0, 0.0, 0.747215747833252, 0, 0, 0, 0, 0, 0, 9362.0, 30146.0, 35388.0, 9362.0, 8.152067184448242, 2.8608508110046387, -1.1490814685821533, 5.018604755401611, -0.2070980817079544, -0.0496612973511219, 0.9670034646987915, -0.030672572553157806, 0.05000114440917969, 1.5, 1.458984375, 0.1195831298828125, 1.49560546875, 1.5205078125, 10.0, 1.0, 10.0, 1.5499414205551147
19406, -1.3994536399841309, -9.342041969299316, 93.82171630859375, 0.0, 0.0, 0.5906091332435608, 0.0, 0.0, 0.7819533348083496, 0, 0, 0, 0, 0, 0, 9362.0, 30146.0, 35388.0, 9362.0, 8.152067184448242, 2.4057421684265137, -3.723768472671509, 3.517991542816162, -0.20954661071300507, -0.06033112853765488, 0.990635871887207, -0.030672572553157806, 0.05000114440917969, 1.5, 1.63623046875, 0.504730224609375, 1.49560546875, 1.51904296875, 10.0, 1.0, 10.0, 1.5496771335601807
19416, -1.390683889389038, -9.306100845336914, 93.843994140625, 0.0, 0.0, 0.5976473689079285, 0.0, 0.0, 0.7038235664367676, 0, 0, 0, 0, 0, 0, 9362.0, 30146.0, 35388.0, 9362.0, 8.152067184448242, 1.7356970310211182, -4.964006423950195, 2.8110501766204834, -0.20119214057922363, -0.0708724781870842, 0.9989756941795349, -0.030672572553157806, 0.05000114440917969, 1.5, 1.45166015625, 0.107452392578125, 1.4970703125, 1.639892578125, 10.0, 1.0, 10.0, 1.5498673915863037
19426, -1.3913822174072266, -9.2247314453125, 93.87208557128906, 0.0, 0.0, 0.6067167520523071, 0.0, 0.0, 0.9069383144378662, 0, 0, 0, 0, 0, 0, 9362.0, 30146.0, 35388.0, 9362.0, 8.152067184448242, 1.0922925472259521, -7.213859558105469, 1.9821734428405762, -0.18603454530239105, -0.0820883959531784, 0.9931060075759888, -0.030672572553157806, 0.05000114440917969, 1.5, 1.428955078125, 0.073577880859375, 1.4970703125, 1.6025390625, 10.0, 1.0, 10.0, 1.549811601638794
19436, -1.400688886642456, -9.147552490234375, 93.8958969116211, 0.0, 0.0, 0.614879846572876, 0.0, 0.0, 0.8163094520568848, 0, 0, 0, 0, 0, 0, 9362.0, 30146.0, 35388.0, 9362.0, 8.152067184448242, 0.1076778769493103, -9.178804397583008, 2.7389395236968994, -0.1720016896724701, -0.09388630092144012, 0.9825542569160461, -0.030672572553157806, 0.05000114440917969, 1.5, 1.5380859375, 0.2755889892578125, 1.49853515625, 1.576904296875, 10.0, 1.0, 10.0, 1.5493810176849365
19446, -1.4256232976913452, -9.000020027160645, 93.94924926757812, 0.0, 0.0, 0.6178531646728516, 0.0, 0.0, 0.2973318099975586, 0, 0, 0, 0, 0, 0, 9362.0, 30146.0, 35388.0, 9362.0, 8.17190170288086, -0.8096726536750793, -12.326221466064453, 4.19480037689209, -0.1569727212190628, -0.09277590364217758, 0.9710869789123535, -0.03617546334862709, -0.09335899353027344, 1.48828125, 1.41650390625, 0.0577545166015625, 1.49853515625, 1.53515625, 10.0, 1.0, 10.0, 1.5491647720336914
19456, -1.455256700515747, -8.89058780670166, 93.98235321044922, 0.0, 0.0, 0.6205297112464905, 0.0, 0.0, 0.2676546573638916, 0, 0, 0, 0, 0, 0, 9362.0, 30146.0, 35388.0, 9362.0, 8.17190170288086, -2.94043231010437, -13.507662773132324, 4.303080081939697, -0.15336807072162628, -0.07770171761512756, 0.9600070118904114, -0.03617546334862709, -0.09335899353027344, 1.48828125, 1.663330078125, 0.5723114013671875, 1.493408203125, 1.6083984375, 10.0, 1.0, 10.0, 1.5491158962249756
19466, -1.5138657093048096, -8.711872100830078, 94.03743743896484, 0.0, 0.0, 0.6223927140235901, 0.0, 0.0, 0.18630027770996094, 0, 0, 0, 0, 0, 0, 9362.0, 30146.0, 35388.0, 9362.0, 8.17190170288086, -4.336144924163818, -14.740670204162598, 4.429834842681885, -0.14606830477714539, -0.06821272522211075, 0.9633325338363647, -0.03617546334862709, -0.09335899353027344, 1.48828125, 1.614990234375, 0.4530181884765625, 1.493408203125, 1.53955078125, 10.0, 1.0, 10.0, 1.5494722127914429
19476, -1.5666879415512085, -8.588740348815918, 94.0577163696289, 0.0, 0.0, 0.6240699887275696, 0.0, 0.0, 0.16772747039794922, 0, 0, 0, 0, 0, 0, 9362.0, 30146.0, 35388.0, 9362.0, 8.17190170288086, -5.9884209632873535, -15.369585037231445, 2.8057541847229004, -0.14261184632778168, -0.05810025706887245, 0.9814474582672119, -0.03617546334862709, -0.09335899353027344, 1.48828125, 1.5556640625, 0.3145904541015625, 1.491943359375, 1.679443359375, 10.0, 1.0, 10.0, 1.5498321056365967
19486, -1.6588411331176758, -8.417834281921387, 94.05677795410156, 0.0, 0.0, 0.6212059855461121, 0.0, 0.0, -0.28640031814575195, 0, 0, 0, 0, 0, 0, 9362.0, 30146.0, 35388.0, 9362.0, 8.17190170288086, -6.86767578125, -14.34961223602295, 0.04567090421915054, -0.1484886109828949, -0.054635461419820786, 0.9970546960830688, -0.03617546334862709, -0.09335899353027344, 1.48828125, 1.6259765625, 0.4795989990234375, 1.491943359375, 1.56884765625, 10.0, 1.0, 10.0, 1.5497417449951172
19496, -1.7213659286499023, -8.318155288696289, 94.04017639160156, 0.0, 0.0, 0.618628978729248, 0.0, 0.0, -0.25770068168640137, 0, 0, 0, 0, 0, 0, 9362.0, 30146.0, 35388.0, 9362.0, 8.17190170288086, -7.178807735443115, -13.122756958007812, -2.1358635425567627, -0.15090441703796387, -0.05343058705329895, 0.9907600283622742, -0.03617546334862709, -0.09335899353027344, 1.48828125, 1.47216796875, 0.142547607421875, 1.49853515625, 1.418701171875, 10.0, 1.0, 10.0, 1.5497697591781616
19506, -1.8068468570709229, -8.204766273498535, 94.00308990478516, 0.0, 0.0, 0.6135765314102173, 0.0, 0.0, -0.5052447319030762, 0, 0, 0, 0, 0, 0, 9362.0, 30146.0, 35388.0, 9362.0, 8.17190170288086, -6.353222846984863, -10.052349090576172, -3.113192081451416, -0.1491318792104721, -0.0541049987077713, 0.9863946437835693, -0.03617546334862709, -0.09335899353027344, 1.48828125, 1.682373046875, 0.6212310791015625, 1.49853515625, 1.58349609375, 10.0, 1.0, 10.0, 1.5494272708892822
19516, -1.857085108757019, -8.152663230895996, 93.97310638427734, 0.0, 0.0, 0.6090298891067505, 0.0, 0.0, -0.4546642303466797, 0, 0, 0, 0, 0, 0, 9362.0, 30146.0, 35388.0, 9362.0, 8.17190170288086, -5.178974628448486, -7.312967300415039, -4.134899616241455, -0.1515631079673767, -0.05772293731570244, 0.9877926707267761, -0.03617546334862709, -0.09335899353027344, 1.48828125, 1.66552734375, 0.5779266357421875, 1.49267578125, 1.616455078125, 10.0, 1.0, 10.0, 1.5489099025726318
19526, -1.9098438024520874, -8.123563766479492, 93.93054962158203, 0.0, 0.0, 0.6032983660697937, 0.0, 0.0, -0.5731523036956787, 0, 0, 0, 0, 0, 0, 9362.0, 30146.0, 35388.0, 9362.0, 8.17190170288086, -3.582714319229126, -3.368199110031128, -3.555288791656494, -0.1581093966960907, -0.06776773929595947, 0.9858595132827759, -0.03617546334862709, -0.09335899353027344, 1.48828125, 1.645751953125, 0.5281219482421875, 1.49267578125, 1.62158203125, 10.0, 1.0, 10.0, 1.5492761135101318
19536, -1.9234306812286377, -8.137104988098145, 93.89138793945312, 0.0, 0.0, 0.5981405377388, 0.0, 0.0, -0.5157828330993652, 0, 0, 0, 0, 0, 0, 9362.0, 30146.0, 35388.0, 9362.0, 8.17190170288086, -0.8449320197105408, 0.4782104790210724, -4.367602348327637, -0.16342897713184357, -0.06837712973356247, 0.9906408786773682, -0.03617546334862709, -0.09335899353027344, 1.48828125, 1.68603515625, 0.6308135986328125, 1.49267578125, 1.5966796875, 10.0, 1.0, 10.0, 1.549199104309082
19546, -1.9058306217193604, -8.20548152923584, 93.82685089111328, 0.0, 0.0, 0.5902184844017029, 0.0, 0.0, -0.7922053337097168, 0, 0, 0, 0, 0, 0, 9362.0, 30146.0, 35388.0, 9362.0, 8.17190170288086, 2.5106754302978516, 4.915505409240723, -5.153967380523682, -0.16090472042560577, -0.07545211166143417, 0.9902272820472717, -0.045881811529397964, 0.10376167297363281, 1.50439453125, 1.5966796875, 0.409210205078125, 1.49267578125, 1.645751953125, 10.0, 1.0, 10.0, 1.549594521522522
19556, -1.8638925552368164, -8.281781196594238, 93.78975677490234, 0.0, 0.0, 0.5830891728401184, 0.0, 0.0, -0.7129311561584473, 0, 0, 0, 0, 0, 0, 9362.0, 30146.0, 35388.0, 9362.0, 8.17190170288086, 6.280080318450928, 8.963196754455566, -4.042743682861328, -0.15805773437023163, -0.0754549577832222, 0.9894230365753174, -0.045881811529397964, 0.10376167297363281, 1.50439453125, 1.3212890625, 0.026214599609375, 1.49560546875, 1.355712890625, 10.0, 1.0, 10.0, 1.5494886636734009
19566, -1.7636638879776, -8.41512393951416, 93.7221908569336, 0.0, 0.0, 0.5837820768356323, 0.0, 0.0, 0.0692903995513916, 0, 0, 0, 0, 0, 0, 9362.0, 30146.0, 35388.0, 9362.0, 8.17190170288086, 9.437031745910645, 10.755169868469238, -4.830162048339844, -0.1553376168012619, -0.06953461468219757, 1.0065244436264038, -0.045881811529397964, 0.10376167297363281, 1.50439453125, 1.634765625, 0.5010528564453125, 1.49560546875, 1.553466796875, 10.0, 1.0, 10.0, 1.5491424798965454
19576, -1.6681991815567017, -8.511245727539062, 93.67173767089844, 0.0, 0.0, 0.5844062566757202, 0.0, 0.0, 0.06241798400878906, 0, 0, 0, 0, 0, 0, 9362.0, 30146.0, 35388.0, 9362.0, 8.17190170288086, 12.880142211914062, 12.3876953125, -5.770544528961182, -0.15392734110355377, -0.060347992926836014, 1.0183106660842896, -0.045881811529397964, 0.10376167297363281, 1.50439453125, 1.669921875, 0.589080810546875, 1.49853515625, 1.595947265625, 10.0, 1.0, 10.0, 1.5494177341461182
19586, -1.4933841228485107, -8.645393371582031, 93.60980987548828, 0.0, 0.0, 0.5805943608283997, 0.0, 0.0, -0.38118958473205566, 0, 0, 0, 0, 0, 0, 9362.0, 30146.0, 35388.0, 9362.0, 8.17190170288086, 15.379420280456543, 11.506098747253418, -5.052374362945557, -0.15285751223564148, -0.0509016290307045, 1.004482388496399, -0.045881811529397964, 0.10376167297363281, 1.50439453125, 1.64208984375, 0.519073486328125, 1.49853515625, 1.4619140625, 10.0, 1.0, 10.0, 1.5495531558990479
19596, -1.363402247428894, -8.718622207641602, 93.58673095703125, 0.0, 0.0, 0.5771641731262207, 0.0, 0.0, -0.3430187702178955, 0, 0, 0, 0, 0, 0, 9362.0, 30146.0, 35388.0, 9362.0, 8.17190170288086, 16.937211990356445, 9.825814247131348, -3.1118438243865967, -0.1421697586774826, -0.046004410833120346, 0.979154109954834, -0.045881811529397964, 0.10376167297363281, 1.50439453125, 1.61865234375, 0.461822509765625, 1.50146484375, 1.6845703125, 10.0, 1.0, 10.0, 1.5499382019042969
19606, -1.1568454504013062, -8.79821491241455, 93.58834838867188, 0.0, 0.0, 0.575718104839325, 0.0, 0.0, -0.1446068286895752, 0, 0, 0, 0, 0, 0, 9362.0, 30146.0, 35388.0, 9362.0, 8.17190170288086, 17.595060348510742, 7.407845497131348, -0.3986075222492218, -0.1380568891763687, -0.03340375795960426, 0.9508996605873108, -0.045881811529397964, 0.10376167297363281, 1.50439453125, 1.51904296875, 0.2346954345703125, 1.50146484375, 1.33154296875, 10.0, 1.0, 10.0, 1.5502641201019287
19616, -1.0198956727981567, -8.822540283203125, 93.60853576660156, 0.0, 0.0, 0.5744162201881409, 0.0, 0.0, -0.1301884651184082, 0, 0, 0, 0, 0, 0, 9362.0, 30146.0, 35388.0, 9362.0, 8.17190170288086, 17.595060348510742, 7.407845497131348, -0.3986075222492218, -0.1380568891763687, -0.03340375795960426, 0.9508996605873108, -0.045881811529397964, 0.10376167297363281, 1.50439453125, 1.5029296875, 0.201446533203125, 1.49560546875, 1.33154296875, 10.0, 1.0, 10.0, 1.5502641201019287
19626, -0.8334786891937256, -8.819621086120605, 93.6578369140625, 0.0, 0.0, 0.5704734921455383, 0.0, 0.0, -0.3942728042602539, 0, 0, 0, 0, 0, 0, 9362.0, 30146.0, 35388.0, 9362.0, 8.17190170288086, 17.595060348510742, 7.407845497131348, -0.3986075222492218, -0.1380568891763687, -0.03340375795960426, 0.9508996605873108, -0.045881811529397964, 0.10376167297363281, 1.50439453125, 1.6201171875, 0.4653778076171875, 1.49560546875, 1.654541015625, 10.0, 1.0, 10.0, 1.5502641201019287
19636, -0.7258517742156982, -8.796476364135742, 93.68219757080078, 0.0, 0.0, 0.5668784976005554, 0.0, 0.0, -0.359499454498291, 0, 0, 0, 0, 0, 0, 9362.0, 30146.0, 35388.0, 9362.0, 8.17190170288086, 13.883071899414062, -1.6686490774154663, 3.2961313724517822, -0.1380568891763687, -0.03340375795960426, 0.9508996605873108, -0.045881811529397964, 0.10376167297363281, 1.50439453125, 1.62744140625, 0.483154296875, 1.4970703125, 1.654541015625, 10.0, 1.0, 10.0, 1.5502641201019287
19656, -0.5226956009864807, -8.677910804748535, 93.73500061035156, 0.0, 0.0, 0.5624763369560242, 0.0, 0.0, -0.440216064453125, 0, 0, 0, 0, 0, 0, 9362.0, 30146.0, 35388.0, 9362.0, 8.152067184448242, 13.883071899414062, -1.6686490774154663, 3.2961313724517822, -0.13348591327667236, -0.06790854036808014, 0.9391145706176758, -0.03079330362379551, 0.10376167297363281, 1.50439453125, 1.423828125, 0.066802978515625, 1.4970703125, 1.654541015625, 10.0, 1.0, 10.0, 1.5502641201019287
19666, -0.43776029348373413, -8.58481216430664, 93.76054382324219, 0.0, 0.0, 0.5504908561706543, 0.0, 0.0, -0.7987380027770996, 0, 0, 0, 0, 0, 0, 9362.0, 30146.0, 35388.0, 9362.0, 8.152067184448242, 8.556231498718262, -7.869643688201904, 2.316443681716919, -0.15101146697998047, -0.08031847327947617, 0.9774219989776611, -0.03079330362379551, 0.10376167297363281, 1.50439453125, 1.4384765625, 0.0871429443359375, 1.4970703125, 1.654541015625, 10.0, 1.0, 10.0, 1.5502641201019287
19676, -0.39235007762908936, -8.524924278259277, 93.7717514038086, 0.0, 0.0, 0.5433048605918884, 0.0, 0.0, -0.7185995578765869, 0, 0, 0, 0, 0, 0, 9362.0, 30146.0, 35388.0, 9362.0, 8.152067184448242, 7.203364849090576, -8.178622245788574, 1.6462452411651611, -0.1660580188035965, -0.08472732454538345, 0.9989457726478577, -0.03079330362379551, 0.10376167297363281, 1.50439453125, 1.67724609375, 0.6079559326171875, 1.4970703125, 1.654541015625, 10.0, 1.0, 10.0, 1.5502641201019287
19696, -0.2960972785949707, -8.393073081970215, 93.74303436279297, 0.0, 0.0, 0.5455715656280518, 0.0, 0.0, 0.10750293731689453, 0, 0, 0, 0, 0, 0, 9362.0, 30146.0, 35388.0, 9362.0, 8.152067184448242, 6.541358470916748, -6.7718071937561035, -1.8281159400939941, -0.16857047379016876, -0.07724350690841675, 0.9910262227058411, -0.03079330362379551, 0.10376167297363281, 1.50439453125, 1.48974609375, 0.1755218505859375, 1.4970703125, 1.654541015625, 10.0, 1.0, 10.0, 1.5502641201019287
19706, -0.2431357353925705, -8.326251029968262, 93.71437072753906, 0.0, 0.0, 0.5449023842811584, 0.0, 0.0, -0.06691813468933105, 0, 0, 0, 0, 0, 0, 9362.0, 30146.0, 35388.0, 9362.0, 8.152067184448242, 6.348562717437744, -6.310332775115967, -1.9968451261520386, -0.16857047379016876, -0.07724350690841675, 0.9910262227058411, -0.03079330362379551, 0.10376167297363281, 1.50439453125, 1.64208984375, 0.519073486328125, 1.4970703125, 1.654541015625, 10.0, 1.0, 10.0, 1.5502641201019287
19716, -0.21068677306175232, -8.282532691955566, 93.69310760498047, 0.0, 0.0, 0.5443025231361389, 0.0, 0.0, -0.059986114501953125, 0, 0, 0, 0, 0, 0, 9362.0, 30146.0, 35388.0, 9362.0, 8.152067184448242, 6.2047295570373535, -5.942933082580566, -2.2644946575164795, -0.18237616121768951, -0.07118429243564606, 0.9726988673210144, -0.03079330362379551, 0.10376167297363281, 1.50439453125, 1.53662109375, 0.27239990234375, 1.4970703125, 1.654541015625, 10.0, 1.0, 10.0, 1.5502641201019287
19726, -0.1705566942691803, -8.206694602966309, 93.67440032958984, 0.0, 0.0, 0.5443130731582642, 0.0, 0.0, 0.001055002212524414, 0, 0, 0, 0, 0, 0, 9362.0, 30146.0, 35388.0, 9362.0, 8.152067184448242, 5.612452507019043, -6.647711277008057, -1.3490585088729858, -0.186049684882164, -0.07342088967561722, 0.9556800723075867, -0.03079330362379551, 0.10376167297363281, 1.50439453125, 1.58642578125, 0.3851776123046875, 1.4970703125, 1.654541015625, 10.0, 1.0, 10.0, 1.5502641201019287
19736, -0.15766504406929016, -8.14293098449707, 93.66688537597656, 0.0, 0.0, 0.5443249940872192, 0.0, 0.0, 0.0011920928955078125, 0, 0, 0, 0, 0, 0, 9362.0, 30146.0, 35388.0, 9362.0, 8.152067184448242, 4.121626377105713, -9.070768356323242, -1.0225797891616821, -0.186049684882164, -0.07342088967561722, 0.9556800723075867, -0.03079330362379551, 0.10376167297363281, 1.50439453125, 1.623046875, 0.4723663330078125, 1.4970703125, 1.541015625, 10.0, 1.0, 10.0, 1.5502641201019287
19756, -0.18427559733390808, -7.928647994995117, 93.70951080322266, 0.0, 0.0, 0.541218638420105, 0.0, 0.0, -0.14781951904296875, 0, 0, 0, 0, 0, 0, 9362.0, 30146.0, 35388.0, 9362.0, 8.152067184448242, -0.5103446841239929, -12.914996147155762, 3.557549238204956, -0.188587486743927, -0.09836903214454651, 0.9059606790542603, -0.02783174254000187, -0.18295860290527344, 1.48095703125, 1.38134765625, 0.025177001953125, 1.4970703125, 1.541015625, 10.0, 1.0, 10.0, 1.5502641201019287
19766, -0.2520586848258972, -7.748675346374512, 93.72514343261719, 0.0, 0.0, 0.539304256439209, 0.0, 0.0, -0.1914381980895996, 0, 0, 0, 0, 0, 0, 9362.0, 30146.0, 35388.0, 9362.0, 8.152067184448242, -2.800395965576172, -16.16616439819336, 2.342395544052124, -0.18815508484840393, -0.10590168833732605, 0.9016685485839844, -0.02783174254000187, -0.18295860290527344, 1.48095703125, 1.616455078125, 0.456512451171875, 1.4970703125, 1.541015625, 10.0, 1.0, 10.0, 1.5502641201019287
19776, -0.32061776518821716, -7.595276832580566, 93.710205078125, 0.0, 0.0, 0.5375526547431946, 0.0, 0.0, -0.17516016960144043, 0, 0, 0, 0, 0, 0, 9362.0, 30146.0, 35388.0, 9362.0, 8.152067184448242, -4.972847938537598, -19.686050415039062, -1.1205434799194336, -0.1764734983444214, -0.126695916056633, 0.8897556662559509, -0.02783174254000187, -0.18295860290527344, 1.48095703125, 1.4384765625, 0.0871429443359375, 1.4970703125, 1.541015625, 10.0, 1.0, 10.0, 1.5502641201019287
19786, -0.4522932469844818, -7.3265275955200195, 93.69408416748047, 0.0, 0.0, 0.5370146036148071, 0.0, 0.0, -0.05380511283874512, 0, 0, 0, 0, 0, 0, 9362.0, 30146.0, 35388.0, 9362.0, 8.152067184448242, -4.972847938537598, -19.686050415039062, -1.1205434799194336, -0.16848616302013397, -0.1508481204509735, 0.8734244108200073, -0.02783174254000187, -0.18295860290527344, 1.48095703125, 1.4560546875, 0.1147003173828125, 1.4970703125, 1.541015625, 10.0, 1.0, 10.0, 1.5502641201019287
19796, -0.5565692782402039, -7.131119251251221, 93.67902374267578, 0.0, 0.0, 0.5364799499511719, 0.0, 0.0, -0.05346536636352539, 0, 0, 0, 0, 0, 0, 9362.0, 30146.0, 35388.0, 9362.0, 8.152067184448242, -8.698114395141602, -25.61410140991211, -1.4328155517578125, -0.16088639199733734, -0.17281945049762726, 0.8884499669075012, -0.02783174254000187, -0.18295860290527344, 1.48095703125, 1.3388671875, 0.017120361328125, 1.4970703125, 1.541015625, 10.0, 1.0, 10.0, 1.5502641201019287
19936, -0.05867147445678711, -5.3521318435668945, 94.3028564453125, 0.0, 0.0, 0.5375171303749084, 0.0, 0.0, 0.04863739013671875, 0, 0, 0, 0, 0, 0, 9362.0, 30146.0, 35388.0, 9362.0, 8.17190170288086, 23.166545867919922, 5.875021457672119, 28.58331298828125, -0.1230100467801094, -0.1165974959731102, 1.0157642364501953, -0.02783174254000187, -0.18295860290527344, 1.48095703125, 1.635498046875, 0.5028533935546875, 1.4970703125, 1.541015625, 10.0, 1.0, 10.0, 1.5502641201019287
19946, 0.2858063578605652, -5.46640682220459, 94.71472930908203, 0.0, 0.0, 0.5781811475753784, 0.0, 0.0, 0.18625259399414062, 0, 0, 0, 0, 0, 0, 9362.0, 30146.0, 35388.0, 9362.0, 8.17190170288086, 26.898967742919922, 7.537234306335449, 33.06150817871094, -0.1230100467801094, -0.1165974959731102, 1.0157642364501953, -0.025334764271974564, -0.2098369598388672, 1.478759765625, 1.635498046875, 0.5028533935546875, 1.4970703125, 1.541015625, 10.0, 1.0, 10.0, 1.5502641201019287
20026, 2.7152299880981445, -5.782591819763184, 96.25397491455078, 0.0, 0.0, 0.5781811475753784, 0.0, 0.0, 0.18625259399414062, 0, 0, 0, 0, 0, 0, 9362.0, 30146.0, 35388.0, 9362.0, 8.17190170288086, 21.569692611694336, -1.240041971206665, 29.332674026489258, -0.1230100467801094, -0.1165974959731102, 1.0157642364501953, -0.025334764271974564, -0.2098369598388672, 1.478759765625, 1.3740234375, 0.0210723876953125, 1.497802734375, 1.541015625, 10.0, 1.0, 10.0, 1.5502641201019287
20036, 2.8631317615509033, -5.754031658172607, 96.504638671875, 0.0, 0.0, 0.5858156681060791, 0.0, 0.0, 0.22952556610107422, 0, 0, 0, 0, 0, 0, 9362.0, 30146.0, 35388.0, 9362.0, 8.17190170288086, 17.4528751373291, -1.4862492084503174, 32.02645492553711, -0.07980142533779144, -0.009000335820019245, 1.023274302482605, -0.025334764271974564, -0.2098369598388672, 1.478759765625, 1.654541015625, 0.5500640869140625, 1.497802734375, 1.541015625, 10.0, 1.0, 10.0, 1.5502641201019287
20046, 3.032984972000122, -5.697862148284912, 96.82807922363281, 0.0, 0.0, 0.5928115248680115, 0.0, 0.0, 0.6995856761932373, 0, 0, 0, 0, 0, 0, 9362.0, 30146.0, 35388.0, 9362.0, 8.152067184448242, 17.4528751373291, -1.4862492084503174, 32.02645492553711, -0.07282351702451706, -0.0043313028290867805, 1.0528531074523926, -0.03261658921837807, -0.03959846496582031, 1.49267578125, 1.654541015625, 0.5500640869140625, 1.497802734375, 1.541015625, 10.0, 1.0, 10.0, 1.5502641201019287
20056, 3.1143033504486084, -5.647216796875, 97.01358795166016, 0.0, 0.0, 0.5991222858428955, 0.0, 0.0, 0.6310760974884033, 0, 0, 0, 0, 0, 0, 9362.0, 30146.0, 35388.0, 9362.0, 8.152067184448242, 9.926623344421387, -4.053053379058838, 23.661155700683594, -0.0686928927898407, -0.011602380312979221, 1.0384807586669922, -0.03261658921837807, -0.03959846496582031, 1.49267578125, 1.3798828125, 0.0243377685546875, 1.497802734375, 1.541015625, 10.0, 1.0, 10.0, 1.5502641201019287
20066, 3.189060688018799, -5.5518574714660645, 97.31189727783203, 0.0, 0.0, 0.5991222858428955, 0.0, 0.0, 0.6310760974884033, 0, 0, 0, 0, 0, 0, 9362.0, 30146.0, 35388.0, 9362.0, 8.152067184448242, 6.340012073516846, -4.900720119476318, 25.450027465820312, -0.06930597126483917, -0.012507189996540546, 1.0086954832077026, -0.03261658921837807, -0.03959846496582031, 1.49267578125, 1.487548828125, 0.1712188720703125, 1.497802734375, 1.541015625, 10.0, 1.0, 10.0, 1.5502641201019287
20076, 3.2103710174560547, -5.464256286621094, 97.52567291259766, 0.0, 0.0, 0.5991222858428955, 0.0, 0.0, 0.6310760974884033, 0, 0, 0, 0, 0, 0, 9362.0, 30146.0, 35388.0, 9362.0, 8.152067184448242, 1.8805619478225708, -8.427491188049316, 26.708816528320312, -0.06930597126483917, -0.012507189996540546, 1.0086954832077026, -0.03261658921837807, -0.03959846496582031, 1.49267578125, 1.623046875, 0.4723663330078125, 1.497802734375, 1.497802734375, 10.0, 1.0, 10.0, 1.5502641201019287
20086, 3.214749574661255, -5.311472415924072, 97.90580749511719, 0.0, 0.0, 0.6082493662834167, 0.0, 0.0, 0.35024285316467285, 0, 0, 0, 0, 0, 0, 9362.0, 30146.0, 35388.0, 9362.0, 8.152067184448242, -1.7544028759002686, -9.616476058959961, 30.466588973999023, -0.05039215832948685, 0.003265105653554201, 0.953307569026947, -0.03261658921837807, -0.03959846496582031, 1.49267578125, 1.364501953125, 0.0173492431640625, 1.497802734375, 1.497802734375, 10.0, 1.0, 10.0, 1.5502641201019287
20096, 3.2051503658294678, -5.212072372436523, 98.1557846069336, 0.0, 0.0, 0.6082493662834167, 0.0, 0.0, 0.35024285316467285, 0, 0, 0, 0, 0, 0, 9362.0, 30146.0, 35388.0, 9362.0, 8.152067184448242, -3.2835192680358887, -10.551366806030273, 33.30092239379883, -0.05039215832948685, 0.003265105653554201, 0.953307569026947, -0.03261658921837807, -0.03959846496582031, 1.49267578125, 1.631103515625, 0.49212646484375, 1.497802734375, 1.458251953125, 10.0, 1.0, 10.0, 1.5502641201019287
20106, 3.19952392578125, -5.064189434051514, 98.47705841064453, 0.0, 0.0, 0.6060450673103333, 0.0, 0.0, -0.5357444286346436, 0, 0, 0, 0, 0, 0, 9362.0, 30146.0, 35388.0, 9362.0, 8.152067184448242, -2.711779832839966, -11.432605743408203, 27.56969451904297, -0.05039215832948685, 0.003265105653554201, 0.953307569026947, -0.03261658921837807, -0.03959846496582031, 1.49267578125, 1.634765625, 0.5010528564453125, 1.497802734375, 1.6201171875, 10.0, 1.0, 10.0, 1.5502641201019287
20116, 3.198760509490967, -4.989586353302002, 98.65177917480469, 0.0, 0.0, 0.6012287139892578, 0.0, 0.0, -0.48163533210754395, 0, 0, 0, 0, 0, 0, 9362.0, 30146.0, 35388.0, 9362.0, 8.152067184448242, -2.711779832839966, -11.432605743408203, 27.56969451904297, -0.1293645203113556, 0.1114957183599472, 0.9927732348442078, -0.03261658921837807, -0.03959846496582031, 1.49267578125, 1.4150390625, 0.05596923828125, 1.494140625, 1.6201171875, 10.0, 1.0, 10.0, 1.5502641201019287
20126, 3.1907660961151123, -4.878868579864502, 98.75924682617188, 0.0, 0.0, 0.5996359586715698, 0.0, 0.0, -0.15927553176879883, 0, 0, 0, 0, 0, 0, 9362.0, 30146.0, 35388.0, 9362.0, 8.152067184448242, -3.9545562267303467, -9.505859375, 11.197660446166992, -0.1293645203113556, 0.1114957183599472, 0.9927732348442078, -0.03261658921837807, -0.03959846496582031, 1.49267578125, 1.644287109375, 0.524505615234375, 1.494140625, 1.6201171875, 10.0, 1.0, 10.0, 1.5502641201019287
20136, 3.193744659423828, -4.818411350250244, 98.76366424560547, 0.0, 0.0, 0.5982077121734619, 0.0, 0.0, -0.14282464981079102, 0, 0, 0, 0, 0, 0, 9362.0, 30146.0, 35388.0, 9362.0, 8.152067184448242, -3.9545562267303467, -9.505859375, 11.197660446166992, -0.0901765450835228, 0.1453208178281784, 0.9748653769493103, -0.03261658921837807, -0.03959846496582031, 1.49267578125, 1.4091796875, 0.04937744140625, 1.49560546875, 1.6201171875, 10.0, 1.0, 10.0, 1.5502641201019287
20156, 3.214557647705078, -4.662872314453125, 98.79385375976562, 0.0, 0.0, 0.5905906558036804, 0.0, 0.0, -0.3605365753173828, 0, 0, 0, 0, 0, 0, 9362.0, 30146.0, 35388.0, 9362.0, 8.17190170288086, 0.009630745276808739, -7.829370498657227, 2.422762155532837, -0.0901765450835228, 0.1453208178281784, 0.9748653769493103, -0.04223984107375145, -0.021678924560546875, 1.494140625, 1.598876953125, 0.414520263671875, 1.49560546875, 1.6201171875, 10.0, 1.0, 10.0, 1.5502641201019287
20166, 3.2596755027770996, -4.529644966125488, 98.97490692138672, 0.0, 0.0, 0.58680659532547, 0.0, 0.0, -0.3784060478210449, 0, 0, 0, 0, 0, 0, 9362.0, 30146.0, 35388.0, 9362.0, 8.17190170288086, 2.0802135467529297, -9.054948806762695, 13.325740814208984, -0.05474228784441948, 0.06384807825088501, 0.9696858525276184, -0.04223984107375145, -0.021678924560546875, 1.494140625, 1.41357421875, 0.0542449951171875, 1.49560546875, 1.6201171875, 10.0, 1.0, 10.0, 1.5502641201019287
20176, 3.311833620071411, -4.403629779815674, 99.21328735351562, 0.0, 0.0, 0.5834058523178101, 0.0, 0.0, -0.3400743007659912, 0, 0, 0, 0, 0, 0, 9362.0, 30146.0, 35388.0, 9362.0, 8.17190170288086, 3.9808406829833984, -12.226945877075195, 27.15871810913086, -0.03959154710173607, 0.04450692608952522, 0.9595333337783813, -0.04223984107375145, -0.021678924560546875, 1.494140625, 1.65234375, 0.5445709228515625, 1.49560546875, 1.6201171875, 10.0, 1.0, 10.0, 1.5502641201019287
20186, 3.4368865489959717, -4.158724784851074, 99.72029876708984, 0.0, 0.0, 0.5841777920722961, 0.0, 0.0, 0.0771939754486084, 0, 0, 0, 0, 0, 0, 9362.0, 30146.0, 35388.0, 9362.0, 8.17190170288086, 7.5553812980651855, -15.946012496948242, 41.04290771484375, -0.026912730187177658, 0.03641650825738907, 0.9407297968864441, -0.04223984107375145, -0.021678924560546875, 1.494140625, 1.4326171875, 0.0786895751953125, 1.49560546875, 1.6201171875, 10.0, 1.0, 10.0, 1.5502641201019287
20196, 3.53041410446167, -3.936533212661743, 100.10545349121094, 0.0, 0.0, 0.5848636031150818, 0.0, 0.0, 0.06858110427856445, 0, 0, 0, 0, 0, 0, 9362.0, 30146.0, 35388.0, 9362.0, 8.17190170288086, 7.581886291503906, -22.560871124267578, 46.44830322265625, -0.011793218553066254, 0.04033074155449867, 0.9288986325263977, -0.04223984107375145, -0.021678924560546875, 1.494140625, 1.66259765625, 0.5705108642578125, 1.49560546875, 1.6201171875, 10.0, 1.0, 10.0, 1.5502641201019287
20206, 3.7265710830688477, -3.551656723022461, 100.76251220703125, 0.0, 0.0, 0.5794399976730347, 0.0, 0.0, -0.5423605442047119, 0, 0, 0, 0, 0, 0, 9362.0, 30146.0, 35388.0, 9362.0, 8.17190170288086, 11.2481050491333, -26.408952713012695, 59.744468688964844, -0.01239456795156002, 0.09703661501407623, 0.9669977426528931, -0.04223984107375145, -0.021678924560546875, 1.494140625, 1.37548828125, 0.021820068359375, 1.49560546875, 1.6201171875, 10.0, 1.0, 10.0, 1.5502641201019287
20216, 3.867255210876465, -3.2624671459198, 101.08653259277344, 0.0, 0.0, 0.5745612978935242, 0.0, 0.0, -0.4878699779510498, 0, 0, 0, 0, 0, 0, 9362.0, 30146.0, 35388.0, 9362.0, 8.17190170288086, 13.454885482788086, -30.666324615478516, 45.09909439086914, 0.008016163483262062, 0.1328134536743164, 0.9971107840538025, -0.04223984107375145, -0.021678924560546875, 1.494140625, 1.43408203125, 0.080810546875, 1.49560546875, 1.6201171875, 10.0, 1.0, 10.0, 1.5502641201019287
20226, 4.091020107269287, -2.802262306213379, 101.48054504394531, 0.0, 0.0, 0.566897451877594, 0.0, 0.0, -0.7663846015930176, 0, 0, 0, 0, 0, 0, 9362.0, 30146.0, 35388.0, 9362.0, 8.17190170288086, 14.501876831054688, -34.39753723144531, 36.659088134765625, 0.020164338871836662, 0.17793503403663635, 0.997623860836029, -0.04223984107375145, -0.021678924560546875, 1.494140625, 1.634033203125, 0.499237060546875, 1.49560546875, 1.6201171875, 10.0, 1.0, 10.0, 1.5502641201019287
20236, 4.228354454040527, -2.4929516315460205, 101.67401123046875, 0.0, 0.0, 0.5600051283836365, 0.0, 0.0, -0.689232349395752, 0, 0, 0, 0, 0, 0, 9362.0, 30146.0, 35388.0, 9362.0, 8.17190170288086, 13.768342971801758, -35.420406341552734, 27.45996856689453, 0.02318483591079712, 0.19153396785259247, 0.9971030950546265, -0.04223984107375145, -0.021678924560546875, 1.494140625, 1.40185546875, 0.0417938232421875, 1.49560546875, 1.6201171875, 10.0, 1.0, 10.0, 1.5502641201019287
20246, 4.409342288970947, -2.0540242195129395, 101.92837524414062, 0.0, 0.0, 0.5600051283836365, 0.0, 0.0, -0.689232349395752, 0, 0, 0, 0, 0, 0, 9362.0, 30146.0, 35388.0, 9362.0, 8.17190170288086, 12.095708847045898, -33.931640625, 23.26015853881836, 0.02318483591079712, 0.19153396785259247, 0.9971030950546265, -0.036306232213974, -0.030637741088867188, 1.493408203125, 1.44287109375, 0.0936279296875, 1.49560546875, 1.6201171875, 10.0, 1.0, 10.0, 1.5502641201019287
20256, 4.5069990158081055, -1.7829252481460571, 102.11986541748047, 0.0, 0.0, 0.5600051283836365, 0.0, 0.0, -0.689232349395752, 0, 0, 0, 0, 0, 0, 9362.0, 30146.0, 35388.0, 9362.0, 8.17190170288086, 10.0956449508667, -31.65713119506836, 26.080333709716797, 0.02318483591079712, 0.19153396785259247, 0.9971030950546265, -0.036306232213974, -0.030637741088867188, 1.493408203125, 1.60546875, 0.43011474609375, 1.4970703125, 1.6201171875, 10.0, 1.0, 10.0, 1.5502641201019287
20266, 4.612051486968994, -1.4417608976364136, 102.40031433105469, 0.0, 0.0, 0.550958514213562, 0.0, 0.0, -0.03969073295593262, 0, 0, 0, 0, 0, 0, 9362.0, 30146.0, 35388.0, 9362.0, 8.17190170288086, 7.671149253845215, -25.99510955810547, 24.80318260192871, 0.02318483591079712, 0.19153396785259247, 0.9971030950546265, -0.036306232213974, -0.030637741088867188, 1.493408203125, 1.64501953125, 0.5263671875, 1.4970703125, 1.6201171875, 10.0, 1.0, 10.0, 1.5502641201019287
20276, 4.659854412078857, -1.27757728099823, 102.5954360961914, 0.0, 0.0, 0.5506061315536499, 0.0, 0.0, -0.03523826599121094, 0, 0, 0, 0, 0, 0, 9362.0, 30146.0, 35388.0, 9362.0, 8.17190170288086, 6.185815811157227, -18.603464126586914, 26.33467674255371, 0.02318483591079712, 0.19153396785259247, 0.9971030950546265, -0.036306232213974, -0.030637741088867188, 1.493408203125, 1.65380859375, 0.548309326171875, 1.49560546875, 1.6201171875, 10.0, 1.0, 10.0, 1.5502641201019287
20286, 4.695793628692627, -1.1224030256271362, 102.89057922363281, 0.0, 0.0, 0.5486682653427124, 0.0, 0.0, -0.19378662109375, 0, 0, 0, 0, 0, 0, 9362.0, 30146.0, 35388.0, 9362.0, 8.17190170288086, 6.185815811157227, -18.603464126586914, 26.33467674255371, 0.04892672598361969, 0.016199130564928055, 1.1061623096466064, -0.036306232213974, -0.030637741088867188, 1.493408203125, 1.677978515625, 0.6098175048828125, 1.49560546875, 1.6201171875, 10.0, 1.0, 10.0, 1.5502641201019287
20296, 4.700142860412598, -1.087978720664978, 103.03939819335938, 0.0, 0.0, 0.5469730496406555, 0.0, 0.0, -0.16952157020568848, 0, 0, 0, 0, 0, 0, 9362.0, 30146.0, 35388.0, 9362.0, 8.17190170288086, 1.8532476425170898, -2.1954076290130615, 19.646778106689453, 0.04892672598361969, 0.016199130564928055, 1.1061623096466064, -0.036306232213974, -0.030637741088867188, 1.493408203125, 1.638427734375, 0.510040283203125, 1.496337890625, 1.6201171875, 10.0, 1.0, 10.0, 1.5502641201019287
20306, 4.672243118286133, -1.1035239696502686, 103.1677017211914, 0.0, 0.0, 0.5482920408248901, 0.0, 0.0, 0.13189911842346191, 0, 0, 0, 0, 0, 0, 9362.0, 30146.0, 35388.0, 9362.0, 8.17190170288086, -0.7974893450737, 2.197322130203247, 11.988471031188965, 0.04251037538051605, 0.028842246159911156, 1.1485168933868408, -0.036306232213974, -0.030637741088867188, 1.493408203125, 1.400390625, 0.04034423828125, 1.496337890625, 1.6201171875, 10.0, 1.0, 10.0, 1.5502641201019287
20316, 4.6312103271484375, -1.1552387475967407, 103.21566772460938, 0.0, 0.0, 0.5495631098747253, 0.0, 0.0, 0.1271069049835205, 0, 0, 0, 0, 0, 0, 9362.0, 30146.0, 35388.0, 9362.0, 8.17190170288086, -3.6030757427215576, 7.864024639129639, 5.2670769691467285, 0.05236852914094925, 0.04546753317117691, 1.1325831413269043, -0.036306232213974, -0.030637741088867188, 1.493408203125, 1.39013671875, 0.0314483642578125, 1.48828125, 1.6201171875, 10.0, 1.0, 10.0, 1.5502641201019287
20326, 4.518733501434326, -1.2715108394622803, 103.32379913330078, 0.0, 0.0, 0.5502701997756958, 0.0, 0.0, 0.0707089900970459, 0, 0, 0, 0, 0, 0, 9362.0, 30146.0, 35388.0, 9362.0, 8.17190170288086, -8.132328033447266, 11.429949760437012, 6.605138301849365, 0.06399240344762802, 0.06102587655186653, 1.0778790712356567, -0.036306232213974, -0.030637741088867188, 1.493408203125, 1.540283203125, 0.280364990234375, 1.48828125, 1.6201171875, 10.0, 1.0, 10.0, 1.5502641201019287
20336, 4.4140214920043945, -1.3626562356948853, 103.46626281738281, 0.0, 0.0, 0.5509443879127502, 0.0, 0.0, 0.06741881370544434, 0, 0, 0, 0, 0, 0, 9362.0, 30146.0, 35388.0, 9362.0, 8.17190170288086, -12.794174194335938, 14.361917495727539, 14.724189758300781, 0.06399240344762802, 0.06102587655186653, 1.0778790712356567, -0.036306232213974, -0.030637741088867188, 1.493408203125, 1.663330078125, 0.5723114013671875, 1.493408203125, 1.6201171875, 10.0, 1.0, 10.0, 1.5502641201019287
20346, 4.210018157958984, -1.5270262956619263, 103.74011993408203, 0.0, 0.0, 0.544463038444519, 0.0, 0.0, -0.6481349468231201, 0, 0, 0, 0, 0, 0, 9362.0, 30146.0, 35388.0, 9362.0, 8.17190170288086, -17.77202606201172, 16.838165283203125, 21.202136993408203, 0.06399240344762802, 0.06102587655186653, 1.0778790712356567, -0.015105183236300945, 0.06792068481445312, 1.50146484375, 1.67138671875, 0.5928802490234375, 1.493408203125, 1.6201171875, 10.0, 1.0, 10.0, 1.5502641201019287
20356, 4.045680999755859, -1.644978642463684, 103.90322875976562, 0.0, 0.0, 0.544463038444519, 0.0, 0.0, -0.6481349468231201, 0, 0, 0, 0, 0, 0, 9362.0, 30146.0, 35388.0, 9362.0, 8.17190170288086, -21.790721893310547, 17.76717758178711, 20.831562042236328, 0.05025793984532356, 0.1400703489780426, 1.0846619606018066, -0.015105183236300945, 0.06792068481445312, 1.50146484375, 1.505859375, 0.2073974609375, 1.493408203125, 1.6201171875, 10.0, 1.0, 10.0, 1.5502641201019287
20366, 3.7708287239074707, -1.8515950441360474, 104.02369689941406, 0.0, 0.0, 0.544463038444519, 0.0, 0.0, -0.6481349468231201, 0, 0, 0, 0, 0, 0, 9362.0, 30146.0, 35388.0, 9362.0, 8.17190170288086, -24.640729904174805, 19.320545196533203, 10.824583053588867, 0.05070555955171585, 0.14483535289764404, 1.08969247341156, -0.015105183236300945, 0.06792068481445312, 1.50146484375, 1.411376953125, 0.05181884765625, 1.493408203125, 1.6201171875, 10.0, 1.0, 10.0, 1.5502641201019287
20376, 3.5835278034210205, -2.000037431716919, 104.03327178955078, 0.0, 0.0, 0.5267801880836487, 0.0, 0.0, -0.5600631237030029, 0, 0, 0, 0, 0, 0, 9362.0, 30146.0, 35388.0, 9362.0, 8.17190170288086, -24.33027458190918, 20.603015899658203, 0.9115483164787292, 0.045755594968795776, 0.1082809567451477, 1.0569130182266235, -0.015105183236300945, 0.06792068481445312, 1.50146484375, 1.46923828125, 0.137359619140625, 1.493408203125, 1.6201171875, 10.0, 1.0, 10.0, 1.5502641201019287
20386, 3.3000895977020264, -2.223437547683716, 103.99608612060547, 0.0, 0.0, 0.5195789933204651, 0.0, 0.0, -0.7201194763183594, 0, 0, 0, 0, 0, 0, 9362.0, 30146.0, 35388.0, 9362.0, 8.17190170288086, -23.957897186279297, 19.90887451171875, -4.306612014770508, 0.02767430804669857, 0.07370956242084503, 1.0370573997497559, -0.015105183236300945, 0.06792068481445312, 1.50146484375, 1.64501953125, 0.5263671875, 1.493408203125, 1.6201171875, 10.0, 1.0, 10.0, 1.5502641201019287
20396, 3.1102404594421387, -2.364638328552246, 103.95552825927734, 0.0, 0.0, 0.5195789933204651, 0.0, 0.0, -0.7201194763183594, 0, 0, 0, 0, 0, 0, 9362.0, 30146.0, 35388.0, 9362.0, 8.17190170288086, -22.97899055480957, 18.99595069885254, -5.634572982788086, 0.02767430804669857, 0.07370956242084503, 1.0370573997497559, -0.015105183236300945, 0.06792068481445312, 1.50146484375, 1.70361328125, 0.6776885986328125, 1.49853515625, 1.6201171875, 10.0, 1.0, 10.0, 1.5502641201019287
20406, 2.8358514308929443, -2.53669810295105, 103.88604736328125, 0.0, 0.0, 0.5034593939781189, 0.0, 0.0, -0.9637594223022461, 0, 0, 0, 0, 0, 0, 9362.0, 30146.0, 35388.0, 9362.0, 8.17190170288086, -22.393104553222656, 15.459360122680664, -6.223034858703613, 0.02767430804669857, 0.07370956242084503, 1.0370573997497559, -0.015105183236300945, 0.06792068481445312, 1.50146484375, 1.673583984375, 0.598541259765625, 1.49853515625, 1.6201171875, 10.0, 1.0, 10.0, 1.5502641201019287
20416, 2.662976026535034, -2.6229336261749268, 103.82279968261719, 0.0, 0.0, 0.5034593939781189, 0.0, 0.0, -0.9637594223022461, 0, 0, 0, 0, 0, 0, 9362.0, 30146.0, 35388.0, 9362.0, 8.17190170288086, -20.85881233215332, 11.999438285827637, -7.585652828216553, 0.02767430804669857, 0.07370956242084503, 1.0370573997497559, -0.015105183236300945, 0.06792068481445312, 1.50146484375, 1.48681640625, 0.1698150634765625, 1.494873046875, 1.6201171875, 10.0, 1.0, 10.0, 1.5502641201019287
20426, 2.4105138778686523, -2.686785936355591, 103.68447875976562, 0.0, 0.0, 0.48606330156326294, 0.0, 0.0, -0.876733660697937, 0, 0, 0, 0, 0, 0, 9362.0, 30146.0, 35388.0, 9362.0, 8.17190170288086, -20.16312599182129, 6.603717803955078, -10.940238952636719, -0.005637639667838812, 0.025156378746032715, 1.1162055730819702, -0.015105183236300945, 0.06792068481445312, 1.50146484375, 1.688232421875, 0.6366729736328125, 1.494873046875, 1.6201171875, 10.0, 1.0, 10.0, 1.5502641201019287
20436, 2.244964838027954, -2.6838340759277344, 103.56334686279297, 0.0, 0.0, 0.48606330156326294, 0.0, 0.0, -0.876733660697937, 0, 0, 0, 0, 0, 0, 9362.0, 30146.0, 35388.0, 9362.0, 8.17190170288086, -19.512121200561523, 1.5904603004455566, -14.51677131652832, -0.005637639667838812, 0.025156378746032715, 1.1162055730819702, -0.015105183236300945, 0.06792068481445312, 1.50146484375, 1.670654296875, 0.59100341796875, 1.49853515625, 1.6201171875, 10.0, 1.0, 10.0, 1.5502641201019287
20446, 1.9975396394729614, -2.61456298828125, 103.35964965820312, 0.0, 0.0, 0.47396233677864075, 0.0, 0.0, -0.4267185926437378, 0, 0, 0, 0, 0, 0, 9362.0, 30146.0, 35388.0, 9362.0, 8.17190170288086, -19.940139770507812, -4.190254211425781, -16.550960540771484, -0.005637639667838812, 0.025156378746032715, 1.1162055730819702, -0.0344209186732769, -0.04855918884277344, 1.491943359375, 1.677978515625, 0.6098175048828125, 1.49853515625, 1.6201171875, 10.0, 1.0, 10.0, 1.5502641201019287
20456, 1.8414697647094727, -2.5388505458831787, 103.22811126708984, 0.0, 0.0, 0.47396233677864075, 0.0, 0.0, -0.4267185926437378, 0, 0, 0, 0, 0, 0, 9362.0, 30146.0, 35388.0, 9362.0, 8.17190170288086, -18.991905212402344, -7.829395771026611, -16.654809951782227, 0.038384657353162766, 0.03471048176288605, 1.0255602598190308, -0.0344209186732769, -0.04855918884277344, 1.491943359375, 1.48388671875, 0.1642303466796875, 1.49853515625, 1.6201171875, 10.0, 1.0, 10.0, 1.5502641201019287
20466, 1.6263964176177979, -2.406972646713257, 103.0670166015625, 0.0, 0.0, 0.4710462689399719, 0.0, 0.0, 0.09181797504425049, 0, 0, 0, 0, 0, 0, 9362.0, 30146.0, 35388.0, 9362.0, 8.17190170288086, -17.86117172241211, -9.423733711242676, -13.884489059448242, 0.038384657353162766, 0.03471048176288605, 1.0255602598190308, -0.0344209186732769, -0.04855918884277344, 1.491943359375, 1.69189453125, 0.6463165283203125, 1.49853515625, 1.6201171875, 10.0, 1.0, 10.0, 1.5502641201019287
20476, 1.508499026298523, -2.3232126235961914, 102.98316955566406, 0.0, 0.0, 0.4718690514564514, 0.0, 0.0, 0.08227825164794922, 0, 0, 0, 0, 0, 0, 9362.0, 30146.0, 35388.0, 9362.0, 8.17190170288086, -17.86117172241211, -9.423733711242676, -13.884489059448242, 0.04239672049880028, 0.03298885375261307, 0.9900199770927429, -0.0344209186732769, -0.04855918884277344, 1.491943359375, 1.61279296875, 0.4476470947265625, 1.49853515625, 1.6201171875, 10.0, 1.0, 10.0, 1.5502641201019287
20486, 1.3841396570205688, -2.2450242042541504, 102.86588287353516, 0.0, 0.0, 0.471510648727417, 0.0, 0.0, -0.03584027290344238, 0, 0, 0, 0, 0, 0, 9362.0, 30146.0, 35388.0, 9362.0, 8.17190170288086, -11.055724143981934, -5.974475860595703, -9.131855010986328, 0.04239672049880028, 0.03298885375261307, 0.9900199770927429, -0.0344209186732769, -0.04855918884277344, 1.491943359375, 1.669189453125, 0.5873260498046875, 1.49853515625, 1.6201171875, 10.0, 1.0, 10.0, 1.5502641201019287
20496, 1.3385560512542725, -2.2399377822875977, 102.77851104736328, 0.0, 0.0, 0.4711846113204956, 0.0, 0.0, -0.03260374069213867, 0, 0, 0, 0, 0, 0, 9362.0, 30146.0, 35388.0, 9362.0, 8.17190170288086, -11.055724143981934, -5.974475860595703, -9.131855010986328, 0.03295167535543442, 0.018857207149267197, 0.9986346364021301, -0.0344209186732769, -0.04855918884277344, 1.491943359375, 1.49267578125, 0.1811065673828125, 1.49853515625, 1.6201171875, 10.0, 1.0, 10.0, 1.5502641201019287
20506, 1.3344346284866333, -2.305424690246582, 102.65554809570312, 0.0, 0.0, 0.47307318449020386, 0.0, 0.0, 0.1888573169708252, 0, 0, 0, 0, 0, 0, 9362.0, 30146.0, 35388.0, 9362.0, 8.17190170288086, -11.055724143981934, -5.974475860595703, -9.131855010986328, 0.023328572511672974, 0.01468546874821186, 1.0078178644180298, -0.0344209186732769, -0.04855918884277344, 1.491943359375, 1.40771484375, 0.0478363037109375, 1.49853515625, 1.6201171875, 10.0, 1.0, 10.0, 1.5502641201019287
20516, 1.3765544891357422, -2.387382745742798, 102.61466979980469, 0.0, 0.0, 0.4747695028781891, 0.0, 0.0, 0.16963183879852295, 0, 0, 0, 0, 0, 0, 9362.0, 30146.0, 35388.0, 9362.0, 8.17190170288086, 4.616424083709717, 10.67868709564209, -6.797136306762695, 0.01307430025190115, 0.014580790884792805, 1.0194380283355713, -0.0344209186732769, -0.04855918884277344, 1.491943359375, 1.40185546875, 0.0417938232421875, 1.4970703125, 1.6201171875, 10.0, 1.0, 10.0, 1.5502641201019287
20526, 1.4965506792068481, -2.5324807167053223, 102.6446762084961, 0.0, 0.0, 0.47355711460113525, 0.0, 0.0, -0.1212388277053833, 0, 0, 0, 0, 0, 0, 9362.0, 30146.0, 35388.0, 9362.0, 8.17190170288086, 8.56714153289795, 13.299434661865234, 0.5744997262954712, 0.01307430025190115, 0.014580790884792805, 1.0194380283355713, -0.0344209186732769, -0.04855918884277344, 1.491943359375, 1.405517578125, 0.0454254150390625, 1.4970703125, 1.6201171875, 10.0, 1.0, 10.0, 1.5502641201019287
20536, 1.6072496175765991, -2.6328041553497314, 102.70002746582031, 0.0, 0.0, 0.47246265411376953, 0.0, 0.0, -0.10944604873657227, 0, 0, 0, 0, 0, 0, 9362.0, 30146.0, 35388.0, 9362.0, 8.17190170288086, 11.878843307495117, 13.605361938476562, 7.4163126945495605, 0.013826089911162853, 0.10041342675685883, 1.0173536539077759, -0.0344209186732769, -0.04855918884277344, 1.491943359375, 1.6376953125, 0.5082244873046875, 1.4912109375, 1.6201171875, 10.0, 1.0, 10.0, 1.5502641201019287
20546, 1.7997349500656128, -2.749833106994629, 102.86798095703125, 0.0, 0.0, 0.47246265411376953, 0.0, 0.0, -0.10944604873657227, 0, 0, 0, 0, 0, 0, 9362.0, 30146.0, 35388.0, 9362.0, 8.17190170288086, 14.592273712158203, 11.100834846496582, 14.056255340576172, 0.013826089911162853, 0.10041342675685883, 1.0173536539077759, 0.004976754076778889, 0.07688140869140625, 1.502197265625, 1.70361328125, 0.6776885986328125, 1.4912109375, 1.6201171875, 10.0, 1.0, 10.0, 1.5502641201019287
20556, 1.9265514612197876, -2.803504467010498, 103.01502227783203, 0.0, 0.0, 0.47246265411376953, 0.0, 0.0, -0.10944604873657227, 0, 0, 0, 0, 0, 0, 9362.0, 30146.0, 35388.0, 9362.0, 8.17190170288086, 13.763011932373047, 10.050470352172852, 17.67230224609375, 0.013826089911162853, 0.10041342675685883, 1.0173536539077759, 0.004976754076778889, 0.07688140869140625, 1.502197265625, 1.660400390625, 0.5649566650390625, 1.4970703125, 1.6201171875, 10.0, 1.0, 10.0, 1.5502641201019287
20566, 2.086456775665283, -2.8314175605773926, 103.24608612060547, 0.0, 0.0, 0.48022934794425964, 0.0, 0.0, 0.6534010171890259, 0, 0, 0, 0, 0, 0, 9362.0, 30146.0, 35388.0, 9362.0, 8.17190170288086, 12.168974876403809, 5.66878604888916, 17.919418334960938, 0.013826089911162853, 0.10041342675685883, 1.0173536539077759, 0.004976754076778889, 0.07688140869140625, 1.502197265625, 1.680908203125, 0.6174774169921875, 1.4970703125, 1.6201171875, 10.0, 1.0, 10.0, 1.5502641201019287
20576, 2.1713104248046875, -2.815981864929199, 103.41043853759766, 0.0, 0.0, 0.486106812953949, 0.0, 0.0, 0.5877465009689331, 0, 0, 0, 0, 0, 0, 9362.0, 30146.0, 35388.0, 9362.0, 8.17190170288086, 10.09103012084961, 1.6332976818084717, 21.048105239868164, 0.041350096464157104, 0.028327500447630882, 0.9592097997665405, 0.004976754076778889, 0.07688140869140625, 1.502197265625, 1.658203125, 0.5592803955078125, 1.49853515625, 1.6201171875, 10.0, 1.0, 10.0, 1.5502641201019287
20586, 2.260657548904419, -2.7684004306793213, 103.57250213623047, 0.0, 0.0, 0.486106812953949, 0.0, 0.0, 0.5877465009689331, 0, 0, 0, 0, 0, 0, 9362.0, 30146.0, 35388.0, 9362.0, 8.17190170288086, 8.273286819458008, -1.6066513061523438, 16.059215545654297, 0.041350096464157104, 0.028327500447630882, 0.9592097997665405, 0.004976754076778889, 0.07688140869140625, 1.502197265625, 1.49267578125, 0.1811065673828125, 1.49853515625, 1.6201171875, 10.0, 1.0, 10.0, 1.5502641201019287
20596, 2.3082048892974854, -2.7313461303710938, 103.62442779541016, 0.0, 0.0, 0.4961375594139099, 0.0, 0.0, 0.4749804735183716, 0, 0, 0, 0, 0, 0, 9362.0, 30146.0, 35388.0, 9362.0, 8.17190170288086, 8.172420501708984, -2.555854320526123, 8.420746803283691, 0.041350096464157104, 0.028327500447630882, 0.9592097997665405, 0.004976754076778889, 0.07688140869140625, 1.502197265625, 1.3798828125, 0.0243377685546875, 1.494140625, 1.6201171875, 10.0, 1.0, 10.0, 1.5502641201019287
20606, 2.3784220218658447, -2.7053403854370117, 103.61778259277344, 0.0, 0.0, 0.506422758102417, 0.0, 0.0, 1.028519868850708, 0, 0, 0, 0, 0, 0, 9362.0, 30146.0, 35388.0, 9362.0, 8.17190170288086, 8.196903228759766, -1.6313220262527466, 0.515536904335022, 0.041350096464157104, 0.028327500447630882, 0.9592097997665405, 0.004976754076778889, 0.07688140869140625, 1.502197265625, 1.672119140625, 0.5946807861328125, 1.494140625, 1.6201171875, 10.0, 1.0, 10.0, 1.5502641201019287
20616, 2.4347572326660156, -2.7117764949798584, 103.57781219482422, 0.0, 0.0, 0.5156764388084412, 0.0, 0.0, 0.925368070602417, 0, 0, 0, 0, 0, 0, 9362.0, 30146.0, 35388.0, 9362.0, 8.17190170288086, 9.643189430236816, 0.9359913468360901, -4.513895034790039, 0.041350096464157104, 0.028327500447630882, 0.9592097997665405, 0.004976754076778889, 0.07688140869140625, 1.502197265625, 1.669921875, 0.589080810546875, 1.48974609375, 1.6201171875, 10.0, 1.0, 10.0, 1.5502641201019287
20626, 2.5381643772125244, -2.7636923789978027, 103.47550201416016, 0.0, 0.0, 0.5190791487693787, 0.0, 0.0, 0.34027099609375, 0, 0, 0, 0, 0, 0, 9362.0, 30146.0, 35388.0, 9362.0, 8.17190170288086, 10.835044860839844, 3.521413803100586, -7.86984920501709, 0.041350096464157104, 0.028327500447630882, 0.9592097997665405, 0.004976754076778889, 0.07688140869140625, 1.502197265625, 1.69775390625, 0.6619415283203125, 1.48974609375, 1.6201171875, 10.0, 1.0, 10.0, 1.5502641201019287
20636, 2.614812135696411, -2.837754011154175, 103.38313293457031, 0.0, 0.0, 0.522141695022583, 0.0, 0.0, 0.30625462532043457, 0, 0, 0, 0, 0, 0, 9362.0, 30146.0, 35388.0, 9362.0, 8.17190170288086, 10.835044860839844, 3.521413803100586, -7.86984920501709, -0.04392194002866745, -0.009930124506354332, 1.0562201738357544, 0.004976754076778889, 0.07688140869140625, 1.502197265625, 1.50439453125, 0.2044219970703125, 1.4970703125, 1.6201171875, 10.0, 1.0, 10.0, 1.5502641201019287
20656, 2.851259469985962, -3.133178234100342, 103.30709075927734, 0.0, 0.0, 0.5232410430908203, 0.0, 0.0, 0.051915645599365234, 0, 0, 0, 0, 0, 0, 9362.0, 30146.0, 35388.0, 9362.0, 8.17190170288086, 11.066544532775879, 15.439398765563965, -1.4467439651489258, -0.06965670734643936, 0.034226976335048676, 1.0302393436431885, -0.02360614389181137, -0.0037593841552734375, 1.49560546875, 1.68310546875, 0.6232757568359375, 1.4970703125, 1.6201171875, 10.0, 1.0, 10.0, 1.5502641201019287
20666, 3.0114426612854004, -3.3483564853668213, 103.40536499023438, 0.0, 0.0, 0.5193294286727905, 0.0, 0.0, -0.3911614418029785, 0, 0, 0, 0, 0, 0, 9362.0, 30146.0, 35388.0, 9362.0, 8.17190170288086, 11.066544532775879, 15.439398765563965, -1.4467439651489258, -0.06965670734643936, 0.034226976335048676, 1.0302393436431885, -0.02360614389181137, -0.0037593841552734375, 1.49560546875, 1.527099609375, 0.2517852783203125, 1.4970703125, 1.6201171875, 10.0, 1.0, 10.0, 1.5502641201019287
20676, 3.109372854232788, -3.491036891937256, 103.49040222167969, 0.0, 0.0, 0.5158060193061829, 0.0, 0.0, -0.3523409366607666, 0, 0, 0, 0, 0, 0, 9362.0, 30146.0, 35388.0, 9362.0, 8.17190170288086, 9.511759757995605, 16.963172912597656, 9.281085014343262, -0.06965670734643936, 0.034226976335048676, 1.0302393436431885, -0.02360614389181137, -0.0037593841552734375, 1.49560546875, 1.64208984375, 0.519073486328125, 1.4970703125, 1.6201171875, 10.0, 1.0, 10.0, 1.5502641201019287
20686, 3.233322858810425, -3.695140838623047, 103.62751770019531, 0.0, 0.0, 0.5055221915245056, 0.0, 0.0, -1.0283827781677246, 0, 0, 0, 0, 0, 0, 9362.0, 30146.0, 35388.0, 9362.0, 8.17190170288086, 7.561136245727539, 16.856212615966797, 9.667930603027344, -0.06965670734643936, 0.034226976335048676, 1.0302393436431885, -0.02360614389181137, -0.0037593841552734375, 1.49560546875, 1.59228515625, 0.3989715576171875, 1.4970703125, 1.6201171875, 10.0, 1.0, 10.0, 1.5502641201019287
20696, 3.297264337539673, -3.810544490814209, 103.71150207519531, 0.0, 0.0, 0.49626389145851135, 0.0, 0.0, -0.9258300065994263, 0, 0, 0, 0, 0, 0, 9362.0, 30146.0, 35388.0, 9362.0, 8.17190170288086, 6.084957599639893, 14.962251663208008, 10.437556266784668, -0.105723075568676, 0.1246006041765213, 1.0014928579330444, -0.02360614389181137, -0.0037593841552734375, 1.49560546875, 1.517578125, 0.231689453125, 1.4970703125, 1.6201171875, 10.0, 1.0, 10.0, 1.5502641201019287
20706, 3.3615169525146484, -3.91892409324646, 103.78369140625, 0.0, 0.0, 0.47863152623176575, 0.0, 0.0, -1.7632365226745605, 0, 0, 0, 0, 0, 0, 9362.0, 30146.0, 35388.0, 9362.0, 8.17190170288086, 4.267728805541992, 10.033928871154785, 6.72890043258667, -0.105723075568676, 0.1246006041765213, 1.0014928579330444, -0.02360614389181137, -0.0037593841552734375, 1.49560546875, 1.69189453125, 0.6463165283203125, 1.4970703125, 1.6201171875, 10.0, 1.0, 10.0, 1.5502641201019287
20716, 3.365354537963867, -3.940431833267212, 103.77342987060547, 0.0, 0.0, 0.4627595841884613, 0.0, 0.0, -1.5871942043304443, 0, 0, 0, 0, 0, 0, 9362.0, 30146.0, 35388.0, 9362.0, 8.17190170288086, 0.44120314717292786, 3.66572904586792, -0.03623989596962929, -0.105723075568676, 0.1246006041765213, 1.0014928579330444, -0.02360614389181137, -0.0037593841552734375, 1.49560546875, 1.6259765625, 0.4795989990234375, 1.4970703125, 1.64501953125, 10.0, 1.0, 10.0, 1.5502641201019287
20726, 3.306835651397705, -3.910311460494995, 103.66719818115234, 0.0, 0.0, 0.4550323784351349, 0.0, 0.0, -0.7727205753326416, 0, 0, 0, 0, 0, 0, 9362.0, 30146.0, 35388.0, 9362.0, 8.17190170288086, -3.587759494781494, -1.1284358501434326, -7.7164387702941895, -0.105723075568676, 0.1246006041765213, 1.0014928579330444, -0.02360614389181137, -0.0037593841552734375, 1.49560546875, 1.497802734375, 0.19122314453125, 1.4970703125, 1.64501953125, 10.0, 1.0, 10.0, 1.5502641201019287
20736, 3.2140607833862305, -3.8481242656707764, 103.57288360595703, 0.0, 0.0, 0.44807514548301697, 0.0, 0.0, -0.695723295211792, 0, 0, 0, 0, 0, 0, 9362.0, 30146.0, 35388.0, 9362.0, 8.17190170288086, -9.63981819152832, -7.142875671386719, -11.735747337341309, -0.105723075568676, 0.1246006041765213, 1.0014928579330444, -0.02360614389181137, -0.0037593841552734375, 1.49560546875, 1.497802734375, 0.19122314453125, 1.4970703125, 1.64501953125, 10.0, 1.0, 10.0, 1.5508143901824951
20756, 2.8269801139831543, -3.615145206451416, 103.43646240234375, 0.0, 0.0, 0.43824583292007446, 0.0, 0.0, -0.46573877334594727, 0, 0, 0, 0, 0, 0, 9362.0, 30146.0, 35388.0, 9362.0, 8.17190170288086, -22.028108596801758, -12.868818283081055, -4.692869186401367, -0.05329839140176773, 0.09300863742828369, 0.988800585269928, -0.023742761462926865, -0.04855918884277344, 1.491943359375, 1.588623046875, 0.390350341796875, 1.4970703125, 1.64501953125, 10.0, 1.0, 10.0, 1.5508143901824951
20766, 2.4916207790374756, -3.50335955619812, 103.39813995361328, 0.0, 0.0, 0.43733111023902893, 0.0, 0.0, -0.09147226810455322, 0, 0, 0, 0, 0, 0, 9362.0, 30146.0, 35388.0, 9362.0, 8.17190170288086, -29.389240264892578, -9.270834922790527, -4.216684818267822, -0.06260097026824951, 0.12312710285186768, 1.00710129737854, -0.023742761462926865, -0.04855918884277344, 1.491943359375, 1.699951171875, 0.6678619384765625, 1.4970703125, 1.64501953125, 10.0, 1.0, 10.0, 1.5508143901824951
