timeTick, roll, pitch, yaw, stateX, stateY, stateZ, stateVX, stateVY, stateVZ, otX0, otY0, otZ0, otRoll0, otPitch0, otYaw0, left wing, pitch motor, yaw motor, right wing, voltage, roll rate, pitch rate, yaw rate, A_x, A_y, A_z, current, i_raw, v_raw, airflow_voltage, airflow_speed, pot_Pitch, voltage_nKF, kFFx, state, State, volt_KF
11856, 2.3966238498687744, 0.1341245025396347, -1.124537706375122, 0, 0, 0, 0, 0, 0, -0.8349989056587219, -0.9749080538749695, 0.05696776136755943, -1.5506723403377276, 0.7630743069868231, -92.87744974791528, 0, 0, 0, 0, 0, 0, 0, 0, 0, 0, 0, 0, 0, 0, 0, 0, 0, 0, 0, 0, 0, 0
11866, 2.3962152004241943, 0.13469363749027252, -1.1254844665527344, 1.5136156434891745e-05, 0.0001980211236514151, -1.7142798900604248, 0.0004444188089109957, 0.005822320934385061, -0.33546528220176697, -0.8350862860679626, -0.9747835993766785, 0.057042937725782394, -1.4969674508829633, 0.8260072887536296, -92.84337986775483, 9362.0, 30146.0, 35388.0, 9362.0, 0, 0.15798692405223846, -0.2873748540878296, 0.23787108063697815, -0.08566298335790634, -0.04441418871283531, 0.993893563747406, 0, 0, 0, 1.3974609375, 0.03759765625, 0, 0, 0, 0, 0, 0
11876, 2.3969950675964355, 0.1376536339521408, -1.1247016191482544, 1.8038643247564323e-05, 0.00023586324823554605, -1.7176374197006226, 0.000136016562464647, 0.0017461058450862765, -0.33604660630226135, -0.8350154757499695, -0.974981963634491, 0.05702230706810951, -1.5437966671404708, 0.6934867467508639, -92.87946786370512, 9362.0, 30146.0, 35388.0, 9362.0, 0, 0.04580976814031601, -0.0741155669093132, -0.004803771153092384, -0.08244623988866806, -0.04741515964269638, 0.9945477843284607, 0, 0, 0, 1.392333984375, 0.03314208984375, 1.487548828125, 1.399658203125, 10.0, 1.0, 10.0, 1.4347351789474487
11886, 2.397677421569824, 0.1402062475681305, -1.1234623193740845, 1.785369386197999e-05, 0.00023296920699067414, -1.721001386642456, -0.00017291547555942088, -0.002324912929907441, -0.3367350101470947, -0.8350189328193665, -0.9749698638916016, 0.0570448599755764, -1.5425407690273292, 0.6969853890331308, -92.87255465126147, 9362.0, 30146.0, 35388.0, 9362.0, 0, -0.07013121992349625, -0.13884489238262177, -0.27124494314193726, -0.08160125464200974, -0.04651366546750069, 0.9954572916030884, 0, 0, 0, 1.3857421875, 0.0280914306640625, 1.487548828125, 1.39013671875, 10.0, 1.0, 10.0, 1.434590220451355
11896, 2.3975906372070312, 0.13905584812164307, -1.1258087158203125, 1.4552680113411043e-05, 0.00018933633691631258, -1.7243716716766357, -0.0004871733544860035, -0.006401665974408388, -0.3373158872127533, -0.8350079655647278, -0.9749782681465149, 0.057040661573410034, -1.5454637655720416, 0.7034263237476068, -92.87515453602433, 9362.0, 30146.0, 35388.0, 9362.0, 0, -0.05417743697762489, 0.13497208058834076, -0.053437791764736176, -0.0818134993314743, -0.0448385626077652, 0.9960447549819946, 0, 0, 0, 1.37841796875, 0.023406982421875, 1.48828125, 1.3740234375, 10.0, 1.0, 10.0, 1.4344576597213745
11906, 2.3981027603149414, 0.13730603456497192, -1.1255241632461548, 8.086906746029854e-06, 0.00010492041474208236, -1.7277474403381348, -0.0008061588741838932, -0.010481507517397404, -0.33784839510917664, -0.8350085616111755, -0.9749890565872192, 0.05706503242254257, -1.5390455749940413, 0.6974715180948863, -92.87248100819214, 9362.0, 30146.0, 35388.0, 9362.0, 0, -0.0907893106341362, 0.5117970705032349, 0.24971194565296173, -0.08258001506328583, -0.04591263830661774, 0.9959942698478699, 0, 0, 0, 1.367431640625, 0.0183258056640625, 1.48828125, 1.3505859375, 10.0, 1.0, 10.0, 1.4341851472854614
11916, 2.3978559970855713, 0.13351374864578247, -1.1229171752929688, -1.5609439287800342e-06, -2.030872565228492e-05, -1.731128215789795, -0.0011234048288315535, -0.014564313925802708, -0.3383074104785919, -0.8349643349647522, -0.9748597145080566, 0.05690613389015198, -1.4483582795038752, 0.6551085095451583, -92.90513109080094, 9362.0, 30146.0, 35388.0, 9362.0, 0, -0.12678653001785278, 0.19325484335422516, 0.2881847620010376, -0.08188527822494507, -0.04687172919511795, 0.9959709644317627, 0, 0, 0, 1.4091796875, 0.04937744140625, 1.4912109375, 1.39892578125, 10.0, 1.0, 10.0, 1.4340373277664185
11926, 2.3978962898254395, 0.13176052272319794, -1.1213856935501099, -1.4365162314788904e-05, -0.00018635533342603594, -1.7345139980316162, -0.0014372882433235645, -0.0186450332403183, -0.3388390839099884, -0.8349291086196899, -0.9748101830482483, 0.05683903396129608, -1.4811659785246065, 0.7208321038908991, -92.9050967863803, 9362.0, 30146.0, 35388.0, 9362.0, 0, 0.3447107970714569, 0.22885701060295105, -0.3166568875312805, -0.0826808512210846, -0.04709654673933983, 0.9981642365455627, 0, 0, 0, 1.39013671875, 0.0314483642578125, 1.4912109375, 1.398193359375, 10.0, 1.0, 10.0, 1.4339208602905273
11936, 2.3989486694335938, 0.13096529245376587, -1.1244536638259888, -3.0276412871899083e-05, -0.00039322703378275037, -1.7379045486450195, -0.0017448661383241415, -0.02272931858897209, -0.3392784297466278, -0.8349416255950928, -0.9748818278312683, 0.056884877383708954, -1.4708902845202916, 0.6409305927399487, -92.90459004564987, 9362.0, 30146.0, 35388.0, 9362.0, 0, -0.0333869569003582, 0.04398031160235405, -0.37755388021469116, -0.0847681313753128, -0.04756864905357361, 0.995154082775116, 0, 0, 0, 1.383544921875, 0.026611328125, 1.49267578125, 1.339599609375, 10.0, 1.0, 10.0, 1.4338048696517944
11946, 2.399364471435547, 0.13007953763008118, -1.1262680292129517, -4.924996028421447e-05, -0.0006409690249711275, -1.7412989139556885, -0.002050066599622369, -0.026819055899977684, -0.3395901918411255, -0.8350353837013245, -0.9746766686439514, 0.056873731315135956, -1.4214115567938572, 0.7803321670530465, -92.85901740273, 9362.0, 30146.0, 35388.0, 9362.0, 0, 0.17960432171821594, 0.2993183135986328, 0.13284660875797272, -0.08440544456243515, -0.04804467782378197, 0.9924060702323914, 0, 0, 0, 1.400390625, 0.04034423828125, 1.49267578125, 1.404052734375, 10.0, 1.0, 10.0, 1.4337083101272583
11956, 2.3999805450439453, 0.12901510298252106, -1.1275455951690674, -7.126532727852464e-05, -0.0009295545169152319, -1.74469792842865, -0.00235314411111176, -0.03089802712202072, -0.3402027189731598, -0.834923505783081, -0.9748082160949707, 0.05683871731162071, -1.4862036125982716, 0.7211016822484169, -92.90000721189746, 9362.0, 30146.0, 35388.0, 9362.0, 8.132232666015625, -0.03272131830453873, -0.315120130777359, -0.1612137407064438, -0.08278670161962509, -0.04445922374725342, 0.9935072064399719, -0.06750170141458511, -0.0037593841552734375, 1.49560546875, 1.417236328125, 0.058624267578125, 1.48974609375, 1.3974609375, 10.0, 1.0, 10.0, 1.433669090270996
11966, 2.399491310119629, 0.13152265548706055, -1.1290947198867798, -9.630183922126889e-05, -0.0012588952668011189, -1.7481039762496948, -0.0026542628183960915, -0.03497011214494705, -0.3409969210624695, -0.8349362015724182, -0.9748830795288086, 0.05689341947436333, -1.4724423298549751, 0.6394897867084239, -92.9002129572374, 9362.0, 30146.0, 35388.0, 9362.0, 8.132232666015625, -0.04035424068570137, 0.2204935997724533, 0.20805151760578156, -0.08377835899591446, -0.04585545137524605, 0.9945905804634094, -0.06750170141458511, -0.0037593841552734375, 1.49560546875, 1.428955078125, 0.073577880859375, 1.48974609375, 1.373291015625, 10.0, 1.0, 10.0, 1.4334731101989746
11976, 2.398876667022705, 0.129581481218338, -1.1278711557388306, -0.00012434278323780745, -0.0016289858613163233, -1.751517415046692, -0.0029540068935602903, -0.039048001170158386, -0.34167876839637756, -0.8349426984786987, -0.9748806953430176, 0.05691281706094742, -1.4804187207529438, 0.6506178981352946, -92.89634173089483, 9362.0, 30146.0, 35388.0, 9362.0, 8.132232666015625, 0.06765829026699066, -0.10284841805696487, -0.2723037898540497, -0.08402341604232788, -0.04538851976394653, 0.9933688640594482, -0.06750170141458511, -0.0037593841552734375, 1.49560546875, 1.405517578125, 0.0454254150390625, 1.493408203125, 1.376953125, 10.0, 1.0, 10.0, 1.4333823919296265
11986, 2.3988759517669678, 0.12983790040016174, -1.12859046459198, -0.00015540355525445193, -0.002039858838543296, -1.7549374103546143, -0.003258082550019026, -0.04312659427523613, -0.3423217535018921, -0.8349823355674744, -0.9747316837310791, 0.05687912181019783, -1.4544895183897395, 0.7505975675611012, -92.88183549512009, 9362.0, 30146.0, 35388.0, 9362.0, 8.132232666015625, 0.08855545520782471, -0.07044824957847595, -0.004555893130600452, -0.08505009859800339, -0.043755993247032166, 0.9946529269218445, -0.06750170141458511, -0.0037593841552734375, 1.49560546875, 1.341064453125, 0.01654052734375, 1.493408203125, 1.386474609375, 10.0, 1.0, 10.0, 1.4332301616668701
11996, 2.3990390300750732, 0.13012129068374634, -1.1294605731964111, -0.0001894868619274348, -0.0024914967361837626, -1.758364200592041, -0.003558626165613532, -0.047200992703437805, -0.34304141998291016, -0.8349435329437256, -0.974889874458313, 0.056893717497587204, -1.4768605787675948, 0.6454176382789854, -92.9024856048575, 9362.0, 30146.0, 35388.0, 9362.0, 8.132232666015625, 0.14225736260414124, 0.3170725405216217, -0.11584831029176712, -0.08499051630496979, -0.04503469914197922, 0.9959189295768738, -0.06750170141458511, -0.0037593841552734375, 1.49560546875, 1.435546875, 0.0829315185546875, 1.493408203125, 1.4150390625, 10.0, 1.0, 10.0, 1.4330642223358154
12006, 2.399815082550049, 0.1272377222776413, -1.1302821636199951, -0.00022658031957689673, -0.0029839095659554005, -1.7617974281311035, -0.003860125783830881, -0.05128156766295433, -0.3436129689216614, -0.8349246978759766, -0.974808394908905, 0.0568389967083931, -1.4928272018218007, 0.7185592800123288, -92.90249120808362, 9362.0, 30146.0, 35388.0, 9362.0, 8.132232666015625, -0.008649872615933418, 0.4977456331253052, 0.2619068920612335, -0.08623114973306656, -0.04723422974348068, 0.9984791874885559, -0.06750170141458511, -0.0037593841552734375, 1.49560546875, 1.39306640625, 0.0337982177734375, 1.493408203125, 1.383544921875, 10.0, 1.0, 10.0, 1.432903528213501
12016, 2.3997750282287598, 0.12493138015270233, -1.1299225091934204, -0.0002666934742592275, -0.0035171557683497667, -1.7652357816696167, -0.0041625844314694405, -0.055367667227983475, -0.3440590798854828, -0.8349859118461609, -0.9748334884643555, 0.05690374597907066, -1.4911966206454563, 0.6336560846641532, -92.85901803594561, 9362.0, 30146.0, 35388.0, 9362.0, 8.132232666015625, -0.044243115931749344, -0.38332661986351013, -0.055833447724580765, -0.0848599299788475, -0.04519297182559967, 0.9987291693687439, -0.06750170141458511, -0.0037593841552734375, 1.49560546875, 1.352783203125, 0.015350341796875, 1.4912109375, 1.41064453125, 10.0, 1.0, 10.0, 1.4327173233032227
12026, 2.3994078636169434, 0.1277499496936798, -1.12997567653656, -0.00030981050804257393, -0.004091317765414715, -1.7686774730682373, -0.004460809286683798, -0.05946469306945801, -0.3442780077457428, -0.834958553314209, -0.9747875332832336, 0.05683474242687225, -1.4709871863376924, 0.7397876549741227, -92.91505039488618, 9362.0, 30146.0, 35388.0, 9362.0, 8.132232666015625, 0.2565325200557709, -0.05467414855957031, -0.0004357466532383114, -0.0851743146777153, -0.04583454877138138, 0.9963177442550659, -0.06750170141458511, -0.0037593841552734375, 1.49560546875, 1.376953125, 0.0225982666015625, 1.4912109375, 1.398193359375, 10.0, 1.0, 10.0, 1.4326053857803345
12036, 2.400639057159424, 0.1288827508687973, -1.1301671266555786, -0.0003558894677553326, -0.0047064428217709064, -1.772121548652649, -0.004754976369440556, -0.06356032937765121, -0.34453025460243225, -0.8349574208259583, -0.9747774004936218, 0.056857068091630936, -1.4542120180087321, 0.7287781925519994, -92.91209892531482, 9362.0, 30146.0, 35388.0, 9362.0, 8.132232666015625, -0.195069819688797, -0.25522366166114807, -0.2343468815088272, -0.08540995419025421, -0.04761191084980965, 0.9961556196212769, -0.06750170141458511, -0.0037593841552734375, 1.49560546875, 1.401123046875, 0.041015625, 1.487548828125, 1.376220703125, 10.0, 1.0, 10.0, 1.432588815689087
12046, 2.4003653526306152, 0.1301705688238144, -1.131648063659668, -0.0004049312265124172, -0.005362480878829956, -1.7755690813064575, -0.005053379572927952, -0.0676473006606102, -0.34497231245040894, -0.8349754810333252, -0.9747748970985413, 0.05686606839299202, -1.4603627475486518, 0.7277466031551114, -92.91275977446683, 9362.0, 30146.0, 35388.0, 9362.0, 8.132232666015625, 0.021282237023115158, 0.5292505025863647, 0.1402783840894699, -0.08464043587446213, -0.04622986912727356, 0.9944343566894531, -0.06750170141458511, -0.0037593841552734375, 1.49560546875, 1.39599609375, 0.0362701416015625, 1.487548828125, 1.41064453125, 10.0, 1.0, 10.0, 1.432517647743225
12056, 2.4000911712646484, 0.12708838284015656, -1.1305073499679565, -0.00045696640154346824, -0.006059391424059868, -1.779021143913269, -0.005353747401386499, -0.07173479348421097, -0.3454507887363434, -0.8349727988243103, -0.9747379422187805, 0.05687265843153, -1.457498799802177, 0.749115169630187, -92.87966744246533, 9362.0, 30146.0, 35388.0, 9362.0, 8.132232666015625, 0.012773108668625355, -0.36595141887664795, -0.3125382661819458, -0.08280837535858154, -0.04565547779202461, 0.9956091642379761, -0.06933160126209259, -0.01271820068359375, 1.494873046875, 1.390869140625, 0.0319671630859375, 1.493408203125, 1.3828125, 10.0, 1.0, 10.0, 1.4324088096618652
12066, 2.399763822555542, 0.12888188660144806, -1.132083535194397, -0.0005120142013765872, -0.006797140929847956, -1.7824788093566895, -0.00565576646476984, -0.0758151039481163, -0.34608936309814453, -0.834945023059845, -0.9748937487602234, 0.056894589215517044, -1.473485123409049, 0.6548530811165278, -92.90144788681582, 9362.0, 30146.0, 35388.0, 9362.0, 8.132232666015625, 0.012684081681072712, -0.03586380183696747, 0.10739634931087494, -0.08266916126012802, -0.04860752075910568, 0.9948851466178894, -0.06933160126209259, -0.01271820068359375, 1.494873046875, 1.40625, 0.04620361328125, 1.493408203125, 1.37255859375, 10.0, 1.0, 10.0, 1.4322148561477661
12076, 2.3996496200561523, 0.13200195133686066, -1.132381796836853, -0.0005700566107407212, -0.0075757065787911415, -1.785942554473877, -0.005952814593911171, -0.07989803701639175, -0.346655935049057, -0.8349317908287048, -0.9748765826225281, 0.05686909332871437, -1.4736185688123458, 0.6499460968841788, -92.90063600938589, 9362.0, 30146.0, 35388.0, 9362.0, 8.132232666015625, 0.04450804740190506, -0.19955508410930634, -0.07194960117340088, -0.08294157683849335, -0.04860310256481171, 0.9941785335540771, -0.06933160126209259, -0.01271820068359375, 1.494873046875, 1.405517578125, 0.0454254150390625, 1.490478515625, 1.3740234375, 10.0, 1.0, 10.0, 1.4320381879806519
12086, 2.399885654449463, 0.13237392902374268, -1.132376790046692, -0.0006310850731097162, -0.00839509628713131, -1.789412021636963, -0.006252870429307222, -0.08397980034351349, -0.34723562002182007, -0.8349511623382568, -0.9748969674110413, 0.05691727623343468, -1.4739478515466446, 0.6443780052171348, -92.90432461640312, 9362.0, 30146.0, 35388.0, 9362.0, 8.132232666015625, 0.10810146480798721, -0.07900477945804596, 0.30557021498680115, -0.08355847001075745, -0.045713674277067184, 0.9933704137802124, -0.06933160126209259, -0.01271820068359375, 1.494873046875, 1.415771484375, 0.0568695068359375, 1.490478515625, 1.4091796875, 10.0, 1.0, 10.0, 1.4319641590118408
12096, 2.400285005569458, 0.13414031267166138, -1.1326189041137695, -0.0006951390532776713, -0.00925527885556221, -1.792887806892395, -0.00655792374163866, -0.088056780397892, -0.347922682762146, -0.8349512815475464, -0.9747860431671143, 0.056839119642972946, -1.4681078634281028, 0.7356824953425587, -92.90887020021734, 9362.0, 30146.0, 35388.0, 9362.0, 8.132232666015625, 0.24350973963737488, 0.07299590110778809, -0.0961846113204956, -0.08334136754274368, -0.045936815440654755, 0.9936819672584534, -0.06933160126209259, -0.01271820068359375, 1.494873046875, 1.404052734375, 0.04400634765625, 1.486083984375, 1.424560546875, 10.0, 1.0, 10.0, 1.4318714141845703
12106, 2.4004998207092285, 0.1353430449962616, -1.133205533027649, -0.0007622463745065033, -0.010156228207051754, -1.7963706254959106, -0.006863531190901995, -0.09213300794363022, -0.3486369252204895, -0.8349716663360596, -0.9748727083206177, 0.0569172203540802, -1.454737732466776, 0.6567342662026192, -92.91082892079336, 9362.0, 30146.0, 35388.0, 9362.0, 8.132232666015625, 0.14698657393455505, -0.24902068078517914, 0.02841431275010109, -0.08434990048408508, -0.045564308762550354, 0.996317446231842, -0.06933160126209259, -0.01271820068359375, 1.494873046875, 1.4091796875, 0.04937744140625, 1.486083984375, 1.423095703125, 10.0, 1.0, 10.0, 1.4318430423736572
12116, 2.401431083679199, 0.13555392622947693, -1.1338502168655396, -0.0008324255468323827, -0.011097950860857964, -1.7998603582382202, -0.0071723307482898235, -0.09621153026819229, -0.3493109941482544, -0.8349632620811462, -0.9748619198799133, 0.05690854787826538, -1.4590582784573347, 0.6624405222868006, -92.9084838132374, 9362.0, 30146.0, 35388.0, 9362.0, 8.132232666015625, 0.14565391838550568, -0.05780988931655884, -0.2994020879268646, -0.08309688419103622, -0.04560695216059685, 0.9939716458320618, -0.06933160126209259, -0.01271820068359375, 1.494873046875, 1.401123046875, 0.041015625, 1.494873046875, 1.39013671875, 10.0, 1.0, 10.0, 1.4316818714141846
12126, 2.4011926651000977, 0.1355089694261551, -1.1362687349319458, -0.0009057060815393925, -0.012080498039722443, -1.8033559322357178, -0.007483819033950567, -0.1002979576587677, -0.34980395436286926, -0.8350490927696228, -0.9746502637863159, 0.05684390291571617, -1.462335681757642, 0.7716552536440986, -92.83306212413534, 9362.0, 30146.0, 35388.0, 9362.0, 8.132232666015625, 0.14465473592281342, 0.27982768416404724, 0.15892285108566284, -0.08450033515691757, -0.044588811695575714, 0.993751049041748, -0.06933160126209259, -0.01271820068359375, 1.494873046875, 1.370361328125, 0.0194549560546875, 1.494873046875, 1.404052734375, 10.0, 1.0, 10.0, 1.4315924644470215
12136, 2.4010140895843506, 0.13663417100906372, -1.1365172863006592, -0.0009821007261052728, -0.013103879988193512, -1.8068573474884033, -0.007795290555804968, -0.1043783500790596, -0.3504785895347595, -0.8349523544311523, -0.9747815728187561, 0.05684168264269829, -1.4716477051265346, 0.7290333709867696, -92.9146298089387, 9362.0, 30146.0, 35388.0, 9362.0, 8.132232666015625, -0.12295674532651901, -0.01540228258818388, -0.1049685850739479, -0.08429110050201416, -0.046148572117090225, 0.9948486089706421, -0.06933160126209259, -0.01271820068359375, 1.494873046875, 1.428955078125, 0.073577880859375, 1.493408203125, 1.41357421875, 10.0, 1.0, 10.0, 1.431370496749878
12146, 2.3995516300201416, 0.13496392965316772, -1.1361395120620728, -0.0010616101790219545, -0.014168058522045612, -1.8103655576705933, -0.008106612600386143, -0.10845745354890823, -0.3511746823787689, -0.8349273204803467, -0.9748969078063965, 0.05690626800060272, -1.4745997901273908, 0.6441674748648154, -92.90454322714433, 9362.0, 30146.0, 35388.0, 9362.0, 8.132232666015625, 0.22409208118915558, 0.027150357142090797, 0.107698455452919, -0.08411455899477005, -0.04783042520284653, 0.9942980408668518, -0.06933160126209259, -0.01271820068359375, 1.494873046875, 1.3857421875, 0.0280914306640625, 1.493408203125, 1.376953125, 10.0, 1.0, 10.0, 1.4311944246292114
12156, 2.400294780731201, 0.13532908260822296, -1.134969711303711, -0.0011442438699305058, -0.015273044817149639, -1.8138803243637085, -0.008420122787356377, -0.11253979802131653, -0.3517850637435913, -0.8349589109420776, -0.9748705625534058, 0.05691680312156677, -1.4610851006981933, 0.658556276586495, -92.91979583664758, 9362.0, 30146.0, 35388.0, 9362.0, 8.132232666015625, 0.05395934730768204, -0.05978139862418175, 0.18073996901512146, -0.08396696299314499, -0.047876376658678055, 0.9959800839424133, -0.0647532120347023, -0.030637741088867188, 1.493408203125, 1.3828125, 0.0261077880859375, 1.4912109375, 1.4326171875, 10.0, 1.0, 10.0, 1.4310331344604492
12186, 2.400054693222046, 0.13488733768463135, -1.1341698169708252, -0.0014108428731560707, -0.01883288100361824, -1.8244606256484985, -0.00935431756079197, -0.12477900832891464, -0.3536527156829834, -0.8349518775939941, -0.9748772382736206, 0.05692024901509285, -1.4658593306858494, 0.6581175101077008, -92.91336372623019, 9362.0, 30146.0, 35388.0, 9362.0, 8.132232666015625, -0.004120698198676109, 0.056431714445352554, -0.060020457953214645, -0.08396696299314499, -0.047876376658678055, 0.9959800839424133, -0.0647532120347023, -0.030637741088867188, 1.493408203125, 1.386474609375, 0.028656005859375, 1.4970703125, 1.4326171875, 10.0, 1.0, 10.0, 1.430571436882019
12206, 2.399754524230957, 0.13544906675815582, -1.1339881420135498, -0.0016041382914409041, -0.021410109475255013, -1.8315454721450806, -0.009975106455385685, -0.1329430788755417, -0.35484254360198975, -0.8350124955177307, -0.9746794700622559, 0.056829243898391724, -1.4421162189375751, 0.7676375630796315, -92.8704585900587, 9362.0, 30146.0, 35388.0, 9362.0, 8.132232666015625, -0.004120698198676109, 0.056431714445352554, -0.060020457953214645, -0.08447084575891495, -0.04590297490358353, 0.9947662949562073, -0.0647532120347023, -0.030637741088867188, 1.493408203125, 1.40185546875, 0.0417938232421875, 1.48974609375, 1.4326171875, 10.0, 1.0, 10.0, 1.430265188217163
12226, 2.4000487327575684, 0.13396765291690826, -1.1343501806259155, -0.0018098417203873396, -0.024150541052222252, -1.8386552333831787, -0.010596082545816898, -0.1411014348268509, -0.3561127483844757, -0.8349600434303284, -0.9748575091362, 0.05687786266207695, -1.4610240709228575, 0.6573658597939414, -92.90763314257714, 9362.0, 30146.0, 35388.0, 9362.0, 8.132232666015625, -0.07832787930965424, -0.027637867256999016, -0.03239411860704422, -0.08360090851783752, -0.04596882313489914, 0.9949039816856384, -0.0647532120347023, -0.030637741088867188, 1.493408203125, 1.37548828125, 0.021820068359375, 1.48974609375, 1.4326171875, 10.0, 1.0, 10.0, 1.4300203323364258
12266, 2.398817539215088, 0.12880565226078033, -1.1323339939117432, -0.0021415851078927517, -0.028567127883434296, -1.8493682146072388, -0.011519662104547024, -0.15333238244056702, -0.35820135474205017, -0.8349571228027344, -0.9748475551605225, 0.05689416080713272, -1.463871481403668, 0.6489678969422528, -92.91520003906165, 9362.0, 30146.0, 35388.0, 9362.0, 8.132232666015625, -0.25522708892822266, 0.07994960248470306, 0.14281566441059113, -0.08358870446681976, -0.046816665679216385, 0.9935975074768066, -0.06382988393306732, 0.08584022521972656, 1.5029296875, 1.39453125, 0.035003662109375, 1.49267578125, 1.4326171875, 10.0, 1.0, 10.0, 1.4297075271606445
12286, 2.3994011878967285, 0.12519395351409912, -1.1327779293060303, -0.0023781012278050184, -0.031715307384729385, -1.8565465211868286, -0.012128348462283611, -0.16148708760738373, -0.35960280895233154, -0.834969699382782, -0.9748367667198181, 0.05689486116170883, -1.4949619119826882, 0.6421006667795837, -92.86136441170474, 9362.0, 30146.0, 35388.0, 9362.0, 8.132232666015625, 0.05909515917301178, 0.4732935428619385, 0.0028484780341386795, -0.08358870446681976, -0.046816665679216385, 0.9935975074768066, -0.06382988393306732, 0.08584022521972656, 1.5029296875, 1.388671875, 0.03033447265625, 1.49267578125, 1.4326171875, 10.0, 1.0, 10.0, 1.429296612739563
12306, 2.399548292160034, 0.1257077306509018, -1.1311416625976562, -0.002755409339442849, -0.03674352541565895, -1.8673609495162964, -0.01302114874124527, -0.17372387647628784, -0.36146390438079834, -0.834936797618866, -0.9748960733413696, 0.05690167099237442, -1.4864333760684594, 0.6515314172642661, -92.91055175300097, 9362.0, 30146.0, 35388.0, 9362.0, 8.132232666015625, -0.11280757188796997, -0.1824653595685959, 0.20641042292118073, -0.08447446674108505, -0.04703078791499138, 0.994661271572113, -0.06382988393306732, 0.08584022521972656, 1.5029296875, 1.38427734375, 0.027099609375, 1.493408203125, 1.4326171875, 10.0, 1.0, 10.0, 1.429112434387207
12326, 2.400322914123535, 0.12310144305229187, -1.1311662197113037, -0.0030217154417186975, -0.04029965028166771, -1.8746012449264526, -0.013609692454338074, -0.18188762664794922, -0.3625994026660919, -0.8350128531455994, -0.9749823212623596, 0.05704214423894882, -1.5475733299681877, 0.6995830598069972, -92.87431848266726, 9362.0, 30146.0, 35388.0, 9362.0, 8.132232666015625, 0.0924500897526741, -0.3043995201587677, -0.22391928732395172, -0.0846743956208229, -0.04780836030840874, 0.9950740337371826, -0.06382988393306732, 0.08584022521972656, 1.5029296875, 1.40185546875, 0.0417938232421875, 1.493408203125, 1.4326171875, 10.0, 1.0, 10.0, 1.4286582469940186
12346, 2.4000067710876465, 0.12230799347162247, -1.1325502395629883, -0.003299752715975046, -0.044019125401973724, -1.8818632364273071, -0.014193017967045307, -0.19006036221981049, -0.3635850250720978, -0.8350126147270203, -0.9748976230621338, 0.05700010433793068, -1.5547449555829644, 0.7645394965308299, -92.8814024633307, 9362.0, 30146.0, 35388.0, 9362.0, 8.132232666015625, 0.0924500897526741, -0.3043995201587677, -0.22391928732395172, -0.08535194396972656, -0.04612608999013901, 0.9966954588890076, -0.06382988393306732, 0.08584022521972656, 1.5029296875, 1.3916015625, 0.0325927734375, 1.493408203125, 1.4326171875, 10.0, 1.0, 10.0, 1.4282188415527344
12366, 2.401153802871704, 0.11968966573476791, -1.133360505104065, -0.003299752715975046, -0.044019125401973724, -1.8818632364273071, -0.014193017967045307, -0.19006036221981049, -0.3635850250720978, -0.8350751996040344, -0.9747804999351501, 0.05698440968990326, -1.513573383309105, 0.8166115424290012, -92.84188637762416, 9362.0, 30146.0, 35388.0, 9362.0, 8.132232666015625, -0.218649223446846, 0.2767798602581024, 0.03277697041630745, -0.08535194396972656, -0.04612608999013901, 0.9966954588890076, -0.06382988393306732, 0.08584022521972656, 1.5029296875, 1.34912109375, 0.015380859375, 1.49267578125, 1.4326171875, 10.0, 1.0, 10.0, 1.4279476404190063
12386, 2.399824380874634, 0.11760488897562027, -1.136002779006958, -0.003890647552907467, -0.0519484207034111, -1.8964476585388184, -0.01534629799425602, -0.20639382302761078, -0.36591169238090515, -0.8349959254264832, -0.9749020934104919, 0.056975916028022766, -1.5665780800432028, 0.7647048370191953, -92.8845412452796, 9362.0, 30146.0, 35388.0, 9362.0, 8.132232666015625, 0.07838661968708038, -0.2844274342060089, 0.1205495297908783, -0.08339903503656387, -0.045427948236465454, 0.994983434677124, -0.06382988393306732, 0.08584022521972656, 1.5029296875, 1.37548828125, 0.021820068359375, 1.49267578125, 1.4326171875, 10.0, 1.0, 10.0, 1.4278610944747925
12406, 2.400533437728882, 0.11596132814884186, -1.135748028755188, -0.003890647552907467, -0.0519484207034111, -1.8964476585388184, -0.01534629799425602, -0.20639382302761078, -0.36591169238090515, -0.8350350260734558, -0.9749540090560913, 0.05703681707382202, -1.5341744038170384, 0.7146349679103707, -92.88365025971346, 9362.0, 30146.0, 35388.0, 9362.0, 8.132232666015625, 0.07838661968708038, -0.2844274342060089, 0.1205495297908783, -0.08430829644203186, -0.046264033764600754, 0.9967271089553833, -0.06382988393306732, 0.08584022521972656, 1.5029296875, 1.412841796875, 0.0534515380859375, 1.49267578125, 1.4326171875, 10.0, 1.0, 10.0, 1.427537441253662
12426, 2.3991143703460693, 0.113889679312706, -1.1372931003570557, -0.004363732878118753, -0.058324091136455536, -1.9074474573135376, -0.016194595023989677, -0.21865321695804596, -0.36735814809799194, -0.8350332379341125, -0.9749574065208435, 0.0570475310087204, -1.5340177088809528, 0.7128091809585726, -92.88849952020986, 9362.0, 30146.0, 35388.0, 9362.0, 8.132232666015625, -0.10575675964355469, 0.1958996206521988, -0.15016330778598785, -0.08430829644203186, -0.046264033764600754, 0.9967271089553833, -0.06382988393306732, 0.08584022521972656, 1.5029296875, 1.3916015625, 0.0325927734375, 1.494873046875, 1.4326171875, 10.0, 1.0, 10.0, 1.427308201789856
12486, 2.399381637573242, 0.10520248860120773, -1.1405856609344482, -0.005564319901168346, -0.07462991029024124, -1.933304786682129, -0.018088167533278465, -0.24723903834819794, -0.3711308538913727, -0.8350924253463745, -0.9747593998908997, 0.05702541768550873, -1.4931697004451066, 0.8438301955606562, -92.85406205242516, 9362.0, 30146.0, 35388.0, 9362.0, 8.132232666015625, -0.3138766288757324, -0.31663069128990173, -0.48160865902900696, -0.0853295773267746, -0.046485286206007004, 0.9975510835647583, -0.06382988393306732, 0.08584022521972656, 1.5029296875, 1.393798828125, 0.0344085693359375, 1.4912109375, 1.4326171875, 10.0, 1.0, 10.0, 1.4262365102767944
12566, 2.3984577655792236, 0.11236986517906189, -1.1454799175262451, -0.007095808628946543, -0.09571480751037598, -1.9631754159927368, -0.020211851224303246, -0.2798925042152405, -0.3752935230731964, -0.8350224494934082, -0.9749385118484497, 0.05700968578457832, -1.5325540515500098, 0.7077002200807385, -92.885995416436, 9362.0, 30146.0, 35388.0, 9362.0, 8.132232666015625, 0.02556527592241764, -0.2660543918609619, -0.107600137591362, -0.08407308906316757, -0.04430534690618515, 0.9957813620567322, -0.0753425732254982, -0.19191741943359375, 1.480224609375, 1.349853515625, 0.015350341796875, 1.494873046875, 1.4326171875, 10.0, 1.0, 10.0, 1.424944519996643
12606, 2.3993520736694336, 0.1046195775270462, -1.1424479484558105, -0.007925915531814098, -0.10723698139190674, -1.9782304763793945, -0.021288331598043442, -0.2962212562561035, -0.37736865878105164, -0.8351105451583862, -0.9747310280799866, 0.05700536072254181, -1.4844485775857708, 0.843423042980703, -92.85144808341313, 9362.0, 30146.0, 35388.0, 9362.0, 8.132232666015625, -0.07211095839738846, 0.2526116669178009, 0.20459626615047455, -0.08393435180187225, -0.045658331364393234, 0.9969826340675354, -0.0753425732254982, -0.19191741943359375, 1.480224609375, 1.392333984375, 0.03314208984375, 1.494873046875, 1.4326171875, 10.0, 1.0, 10.0, 1.4243392944335938
12626, 2.3986668586730957, 0.10247691720724106, -1.1422688961029053, -0.00835690088570118, -0.11324313282966614, -1.985787272453308, -0.021809281781315804, -0.3043920695781708, -0.3783531188964844, -0.835082471370697, -0.9747481346130371, 0.057011768221855164, -1.5087038443934446, 0.8296989214756536, -92.84326158594111, 9362.0, 30146.0, 35388.0, 9362.0, 8.132232666015625, -0.08395083248615265, 0.23269659280776978, 0.00871817022562027, -0.08393435180187225, -0.045658331364393234, 0.9969826340675354, -0.0753425732254982, -0.19191741943359375, 1.480224609375, 1.398193359375, 0.03826904296875, 1.48974609375, 1.4326171875, 10.0, 1.0, 10.0, 1.4240750074386597
12646, 2.3977415561676025, 0.10040806978940964, -1.1414047479629517, -0.008576273918151855, -0.11630747467279434, -1.9895734786987305, -0.022065307945013046, -0.3084755837917328, -0.37887778878211975, -0.835054874420166, -0.974831223487854, 0.05697590485215187, -1.5536299924083632, 0.7751570703703408, -92.84295415380582, 9362.0, 30146.0, 35388.0, 9362.0, 8.132232666015625, -0.08395083248615265, 0.23269659280776978, 0.00871817022562027, -0.08277661353349686, -0.047016341239213943, 0.9926055669784546, -0.0753425732254982, -0.19191741943359375, 1.480224609375, 1.33740234375, 0.0175323486328125, 1.48974609375, 1.4326171875, 10.0, 1.0, 10.0, 1.4237233400344849
12706, 2.3993282318115234, 0.09706762433052063, -1.1475719213485718, -0.010182934813201427, -0.13890016078948975, -2.0162413120269775, -0.02383837103843689, -0.3370336592197418, -0.38296911120414734, -0.8350642323493958, -0.9747973680496216, 0.056994203478097916, -1.5502759998110913, 0.7667946226388551, -92.83778621750366, 9362.0, 30146.0, 35388.0, 9362.0, 8.132232666015625, 0.0264586228877306, -0.0466371588408947, -0.22588123381137848, -0.08777642250061035, -0.04494846612215042, 0.9943988919258118, -0.05408841371536255, -0.14711761474609375, 1.48388671875, 1.3681640625, 0.0185394287109375, 1.49267578125, 1.4326171875, 10.0, 1.0, 10.0, 1.4224262237548828
12726, 2.3991429805755615, 0.09493842720985413, -1.1472015380859375, -0.010664675384759903, -0.1457224041223526, -2.023913860321045, -0.02433447353541851, -0.34519141912460327, -0.3842562437057495, -0.8351157307624817, -0.9747297763824463, 0.056975334882736206, -1.5342911663101586, 0.8152752104801095, -92.7961507215037, 9362.0, 30146.0, 35388.0, 9362.0, 8.132232666015625, 0.0264586228877306, -0.0466371588408947, -0.22588123381137848, -0.0870947316288948, -0.04584889858961105, 0.9956077933311462, -0.05408841371536255, -0.14711761474609375, 1.48388671875, 1.39306640625, 0.0337982177734375, 1.49267578125, 1.4326171875, 10.0, 1.0, 10.0, 1.4220356941223145
12746, 2.399014949798584, 0.09361986815929413, -1.1466203927993774, -0.010664675384759903, -0.1457224041223526, -2.023913860321045, -0.02433447353541851, -0.34519141912460327, -0.3842562437057495, -0.835025429725647, -0.9749310612678528, 0.05702221021056175, -1.5330743647183125, 0.7131483021235852, -92.887512410845, 9362.0, 30146.0, 35388.0, 9362.0, 8.132232666015625, 0.17791497707366943, 0.09533635526895523, 0.17796750366687775, -0.0852353647351265, -0.045719295740127563, 0.9954842925071716, -0.05408841371536255, -0.14711761474609375, 1.48388671875, 1.3974609375, 0.03759765625, 1.49267578125, 1.4326171875, 10.0, 1.0, 10.0, 1.4218639135360718
12766, 2.39971661567688, 0.09373389929533005, -1.1480083465576172, -0.011657615192234516, -0.15985670685768127, -2.039327621459961, -0.02530915103852749, -0.3615258038043976, -0.3863678574562073, -0.8350911140441895, -0.9747557640075684, 0.057003650814294815, -1.4999860946798207, 0.829507697497462, -92.85241204690122, 9362.0, 30146.0, 35388.0, 9362.0, 8.132232666015625, 0.005227474495768547, 0.11604007333517075, 0.18058685958385468, -0.08658485859632492, -0.045407485216856, 0.9936691522598267, -0.05408841371536255, -0.14711761474609375, 1.48388671875, 1.3564453125, 0.0156707763671875, 1.49267578125, 1.4326171875, 10.0, 1.0, 10.0, 1.4218639135360718
12786, 2.3990228176116943, 0.08920818567276001, -1.147447109222412, -0.011657615192234516, -0.15985670685768127, -2.039327621459961, -0.02530915103852749, -0.3615258038043976, -0.3863678574562073, -0.8350231647491455, -0.9749445915222168, 0.0570501945912838, -1.5383627225057543, 0.7076427360397588, -92.88622090452486, 9362.0, 30146.0, 35388.0, 9362.0, 8.132232666015625, -0.08663439750671387, 0.25216037034988403, -0.1397070735692978, -0.08658485859632492, -0.045407485216856, 0.9936691522598267, -0.05408841371536255, -0.14711761474609375, 1.48388671875, 1.35498046875, 0.01556396484375, 1.49560546875, 1.4326171875, 10.0, 1.0, 10.0, 1.42106294631958
12826, 2.397995948791504, 0.08511590957641602, -1.1448639631271362, -0.012952836230397224, -0.17844372987747192, -2.0587074756622314, -0.026491668075323105, -0.3819512128829956, -0.38887640833854675, -0.8350155353546143, -0.9749489426612854, 0.05706867203116417, -1.5317761853049132, 0.7173900875870345, -92.88560928139755, 9362.0, 30146.0, 35388.0, 9362.0, 8.132232666015625, -0.08663439750671387, 0.25216037034988403, -0.1397070735692978, -0.08429517596960068, -0.043058644980192184, 0.9944738149642944, -0.05408841371536255, -0.14711761474609375, 1.48388671875, 1.339599609375, 0.0168914794921875, 1.49267578125, 1.382080078125, 10.0, 1.0, 10.0, 1.4203567504882812
12866, 2.3986151218414307, 0.08883530646562576, -1.1443891525268555, -0.01430566981434822, -0.19805148243904114, -2.0782201290130615, -0.027621455490589142, -0.40236663818359375, -0.3914794325828552, -0.8349975943565369, -0.9749681949615479, 0.05701363831758499, -1.5454693059170794, 0.6970725194346699, -92.87319340460132, 9362.0, 30146.0, 35388.0, 9362.0, 8.132232666015625, 0.05221996828913689, -0.23017007112503052, -0.10046935081481934, -0.08277393132448196, -0.04487209767103195, 0.9972875118255615, -0.06664451956748962, -0.030637741088867188, 1.493408203125, 1.388671875, 0.03033447265625, 1.49267578125, 1.415771484375, 10.0, 1.0, 10.0, 1.4196035861968994
12926, 2.3985090255737305, 0.09111884981393814, -1.14895498752594, -0.015715761110186577, -0.21868079900741577, -2.097846508026123, -0.0287875235080719, -0.42279869318008423, -0.3937392830848694, -0.8350854516029358, -0.9747585654258728, 0.05703594535589218, -1.497611247607628, 0.8306033852434211, -92.84437831977888, 9362.0, 30146.0, 35388.0, 9362.0, 8.132232666015625, -0.2851746678352356, 0.43652138113975525, 0.18295130133628845, -0.08298324793577194, -0.04695207625627518, 0.9947211742401123, -0.06664451956748962, -0.030637741088867188, 1.493408203125, 1.3916015625, 0.0325927734375, 1.49267578125, 1.415771484375, 10.0, 1.0, 10.0, 1.4184799194335938
12946, 2.397890329360962, 0.08980802446603775, -1.1500442028045654, -0.01629619486629963, -0.22721843421459198, -2.1057326793670654, -0.029255179688334465, -0.4309667944908142, -0.3948644995689392, -0.835064172744751, -0.9748795628547668, 0.05701645091176033, -1.55021533580783, 0.693469626601285, -92.83630862426831, 9362.0, 30146.0, 35388.0, 9362.0, 8.132232666015625, 0.0908171683549881, 0.1002638190984726, 0.07731669396162033, -0.08272604644298553, -0.04843664914369583, 0.9972381591796875, -0.06664451956748962, -0.030637741088867188, 1.493408203125, 1.353515625, 0.0154571533203125, 1.494140625, 1.415771484375, 10.0, 1.0, 10.0, 1.418187141418457
12966, 2.39900803565979, 0.0931076779961586, -1.148247241973877, -0.01629619486629963, -0.22721843421459198, -2.1057326793670654, -0.029255179688334465, -0.4309667944908142, -0.3948644995689392, -0.8351349830627441, -0.9746896028518677, 0.05697260797023773, -1.5095858414773462, 0.8244208993260713, -92.7959585797381, 9362.0, 30146.0, 35388.0, 9362.0, 8.132232666015625, 0.0908171683549881, 0.1002638190984726, 0.07731669396162033, -0.08272604644298553, -0.04843664914369583, 0.9972381591796875, -0.060985736548900604, -0.03959846496582031, 1.49267578125, 1.348388671875, 0.0154571533203125, 1.494140625, 1.415771484375, 10.0, 1.0, 10.0, 1.417595624923706
12986, 2.4005587100982666, 0.08986349403858185, -1.1478761434555054, -0.01629619486629963, -0.22721843421459198, -2.1057326793670654, -0.029255179688334465, -0.4309667944908142, -0.3948644995689392, -0.8350523710250854, -0.974886953830719, 0.05704490840435028, -1.5405136670009767, 0.7006463684228379, -92.84364486631738, 9362.0, 30146.0, 35388.0, 9362.0, 8.132232666015625, 0.0005741322529502213, 0.11159133166074753, -0.010785645805299282, -0.08272604644298553, -0.04843664914369583, 0.9972381591796875, -0.060985736548900604, -0.03959846496582031, 1.49267578125, 1.392333984375, 0.03314208984375, 1.490478515625, 1.349853515625, 10.0, 1.0, 10.0, 1.4172933101654053
13026, 2.4027621746063232, 0.0867219939827919, -1.1513124704360962, -0.01902512088418007, -0.2676594853401184, -2.141477584838867, -0.031381893903017044, -0.4677349030971527, -0.3994295001029968, -0.8350623846054077, -0.9747976064682007, 0.05699145421385765, -1.553857944924859, 0.7633847212301248, -92.83330969181164, 9362.0, 30146.0, 35388.0, 9362.0, 8.132232666015625, 0.11245277523994446, 0.2478892207145691, -0.028090359643101692, -0.0838661938905716, -0.04535587877035141, 0.9968613982200623, -0.060985736548900604, -0.03959846496582031, 1.49267578125, 1.38720703125, 0.0291900634765625, 1.4912109375, 1.349853515625, 10.0, 1.0, 10.0, 1.4166507720947266
13126, 2.40226149559021, 0.07884490489959717, -1.1448619365692139, -0.02227792516350746, -0.3164774775505066, -2.1817119121551514, -0.03365326300263405, -0.50863116979599, -0.40517428517341614, -0.835074782371521, -0.9747825860977173, 0.05699193850159645, -1.5247518699362508, 0.8211138627191019, -92.84184677146403, 9362.0, 30146.0, 35388.0, 9362.0, 8.132232666015625, 0.1872684508562088, -0.01616571471095085, 0.4124777615070343, -0.08419405668973923, -0.044347792863845825, 0.9938130378723145, -0.060985736548900604, -0.03959846496582031, 1.49267578125, 1.3330078125, 0.0191650390625, 1.494140625, 1.349853515625, 10.0, 1.0, 10.0, 1.414960503578186
13146, 2.400484561920166, 0.08011947572231293, -1.142020344734192, -0.022955309599637985, -0.3267318606376648, -2.1898274421691895, -0.03408488258719444, -0.5168061256408691, -0.4063599109649658, -0.8350318670272827, -0.9749361276626587, 0.0570448637008667, -1.5392514531532477, 0.7100801843561158, -92.88444777708726, 9362.0, 30146.0, 35388.0, 9362.0, 8.132232666015625, -0.05941378325223923, -0.3000587821006775, -0.09235736727714539, -0.08419405668973923, -0.044347792863845825, 0.9938130378723145, -0.060985736548900604, -0.03959846496582031, 1.49267578125, 1.39306640625, 0.0337982177734375, 1.48974609375, 1.349853515625, 10.0, 1.0, 10.0, 1.4146802425384521
13186, 2.401323080062866, 0.08414009213447571, -1.1438591480255127, -0.024336235597729683, -0.3477307856082916, -2.206131935119629, -0.03496696054935455, -0.5331488251686096, -0.4086398482322693, -0.8350171446800232, -0.9748818874359131, 0.0569959357380867, -1.5607771240157824, 0.7655304546850914, -92.87864638901225, 9362.0, 30146.0, 35388.0, 9362.0, 8.132232666015625, 0.2154129296541214, 0.15982481837272644, -0.12622393667697906, -0.08555368334054947, -0.044574081897735596, 0.9942099452018738, -0.060985736548900604, -0.03959846496582031, 1.49267578125, 1.322021484375, 0.0257415771484375, 1.48974609375, 1.349853515625, 10.0, 1.0, 10.0, 1.413992166519165
13206, 2.402432441711426, 0.08570514619350433, -1.146226406097412, -0.024687036871910095, -0.35308265686035156, -2.210222005844116, -0.03519335016608238, -0.5372284650802612, -0.4093575179576874, -0.8350957036018372, -0.9747470021247864, 0.057000234723091125, -1.4922046308133894, 0.839617793846287, -92.85910137609449, 9362.0, 30146.0, 35388.0, 9362.0, 8.132232666015625, 0.11371942609548569, -0.19888636469841003, -0.4351210296154022, -0.08555368334054947, -0.044574081897735596, 0.9942099452018738, -0.060985736548900604, -0.03959846496582031, 1.49267578125, 1.36962890625, 0.01910400390625, 1.4912109375, 1.349853515625, 10.0, 1.0, 10.0, 1.4137988090515137
13226, 2.4003994464874268, 0.08832182735204697, -1.1483298540115356, -0.025752995163202286, -0.369383305311203, -2.22253155708313, -0.03587285429239273, -0.549488365650177, -0.41112688183784485, -0.8350785970687866, -0.9747500419616699, 0.056969378143548965, -1.5097101872888834, 0.8247135249511075, -92.84125541185803, 9362.0, 30146.0, 35388.0, 9362.0, 8.132232666015625, -0.27467140555381775, -0.3982040286064148, -0.060757994651794434, -0.08353421837091446, -0.047060076147317886, 0.9945979118347168, -0.060985736548900604, -0.03959846496582031, 1.49267578125, 1.32275390625, 0.0251312255859375, 1.4912109375, 1.349853515625, 10.0, 1.0, 10.0, 1.413368821144104
13246, 2.396916627883911, 0.0900159627199173, -1.1484476327896118, -0.026475034654140472, -0.3804548680782318, -2.2307636737823486, -0.03633309528231621, -0.5576639175415039, -0.41213884949684143, -0.8350043892860413, -0.9749613404273987, 0.057031530886888504, -1.5529160205747563, 0.6950974072433951, -92.8809545172061, 9362.0, 30146.0, 35388.0, 9362.0, 8.132232666015625, -0.29605159163475037, -0.03904696926474571, 0.030831344425678253, -0.08409658819437027, -0.04464739188551903, 0.9949667453765869, -0.060985736548900604, -0.03959846496582031, 1.49267578125, 1.371826171875, 0.02008056640625, 1.491943359375, 1.349853515625, 10.0, 1.0, 10.0, 1.4129749536514282
13266, 2.3963496685028076, 0.08859378844499588, -1.1484524011611938, -0.026839544996619225, -0.3860519230365753, -2.2348873615264893, -0.03656914457678795, -0.5617470741271973, -0.41262102127075195, -0.8351070880889893, -0.9747391939163208, 0.057010434567928314, -1.4784166966085737, 0.8432614122567941, -92.85015809779983, 9362.0, 30146.0, 35388.0, 9362.0, 8.132232666015625, -0.24655000865459442, 0.08367853611707687, -0.23274457454681396, -0.08409658819437027, -0.04464739188551903, 0.9949667453765869, -0.060985736548900604, -0.03959846496582031, 1.49267578125, 1.36669921875, 0.01806640625, 1.490478515625, 1.349853515625, 10.0, 1.0, 10.0, 1.4125490188598633
13286, 2.3955554962158203, 0.08606451749801636, -1.147640585899353, -0.027575623244047165, -0.3973684310913086, -2.2431509494781494, -0.03703823685646057, -0.5699038505554199, -0.4137369990348816, -0.8351088166236877, -0.9747264385223389, 0.05702001601457596, -1.4938325136640462, 0.8470447517737796, -92.8437938767148, 9362.0, 30146.0, 35388.0, 9362.0, 8.132232666015625, -0.00822090357542038, 0.22802719473838806, -0.22318169474601746, -0.0848102867603302, -0.044856876134872437, 0.9966174364089966, -0.060985736548900604, -0.03959846496582031, 1.49267578125, 1.38134765625, 0.025177001953125, 1.493408203125, 1.349853515625, 10.0, 1.0, 10.0, 1.4125077724456787
13306, 2.3958215713500977, 0.08275088667869568, -1.1455885171890259, -0.027575623244047165, -0.3973684310913086, -2.2431509494781494, -0.03703823685646057, -0.5699038505554199, -0.4137369990348816, -0.8350922465324402, -0.9747488498687744, 0.05700185149908066, -1.501796211156073, 0.8371049504737584, -92.85223197416738, 9362.0, 30146.0, 35388.0, 9362.0, 8.132232666015625, -0.17065146565437317, 0.21013742685317993, 0.1010395810008049, -0.08473079651594162, -0.0458027608692646, 0.9962460994720459, -0.060985736548900604, -0.03959846496582031, 1.49267578125, 1.30517578125, 0.0422515869140625, 1.489013671875, 1.349853515625, 10.0, 1.0, 10.0, 1.4119676351547241
13326, 2.3961007595062256, 0.08197955787181854, -1.145172119140625, -0.029456274583935738, -0.4263734221458435, -2.263904333114624, -0.038176029920578, -0.5902976989746094, -0.416337251663208, -0.8349868059158325, -0.9749585390090942, 0.05704588443040848, -1.5558885294049847, 0.7090303274963787, -92.87833805054903, 9362.0, 30146.0, 35388.0, 9362.0, 8.132232666015625, -0.12993839383125305, 0.1759812831878662, 0.09076279401779175, -0.08473079651594162, -0.0458027608692646, 0.9962460994720459, -0.060985736548900604, -0.03959846496582031, 1.49267578125, 1.36083984375, 0.016387939453125, 1.4912109375, 1.349853515625, 10.0, 1.0, 10.0, 1.4116320610046387
13366, 2.3978774547576904, 0.07363414764404297, -1.1436104774475098, -0.03100081905722618, -0.45031213760375977, -2.2805895805358887, -0.03904202580451965, -0.6066323518753052, -0.41808566451072693, -0.8350085616111755, -0.9749380946159363, 0.05701691657304764, -1.5400222152582745, 0.7121511319916181, -92.88600794884283, 9362.0, 30146.0, 35388.0, 9362.0, 8.132232666015625, 0.20196013152599335, -0.0534944050014019, 0.1796848326921463, -0.08596696704626083, -0.04874937981367111, 0.9950284361839294, -0.07949820160865784, -0.07543754577636719, 1.48974609375, 1.38427734375, 0.027099609375, 1.494140625, 1.349853515625, 10.0, 1.0, 10.0, 1.4110137224197388
13386, 2.3991198539733887, 0.0723983645439148, -1.1443777084350586, -0.03100081905722618, -0.45031213760375977, -2.2805895805358887, -0.03904202580451965, -0.6066323518753052, -0.41808566451072693, -0.8349763751029968, -0.9748597145080566, 0.056949272751808167, -1.5635456794491722, 0.7663827910544683, -92.87935893978018, 9362.0, 30146.0, 35388.0, 9362.0, 8.132232666015625, 0.20196013152599335, -0.0534944050014019, 0.1796848326921463, -0.08715458959341049, -0.04615841805934906, 0.9947851300239563, -0.07949820160865784, -0.07543754577636719, 1.48974609375, 1.39599609375, 0.0362701416015625, 1.489013671875, 1.37841796875, 10.0, 1.0, 10.0, 1.4107872247695923
13406, 2.3989813327789307, 0.0704798549413681, -1.1418713331222534, -0.03100081905722618, -0.45031213760375977, -2.2805895805358887, -0.03904202580451965, -0.6066323518753052, -0.41808566451072693, -0.8350862860679626, -0.9747363328933716, 0.05697840452194214, -1.5022026821196495, 0.8331684062087561, -92.85114383903677, 9362.0, 30146.0, 35388.0, 9362.0, 8.132232666015625, 0.06281249225139618, -0.02846466191112995, 0.13078464567661285, -0.08355981111526489, -0.04645618051290512, 0.9952108263969421, -0.07949820160865784, -0.07543754577636719, 1.48974609375, 1.3828125, 0.0261077880859375, 1.493408203125, 1.37841796875, 10.0, 1.0, 10.0, 1.4106485843658447
13426, 2.4008209705352783, 0.06826290488243103, -1.1403380632400513, -0.03338031843304634, -0.4874449074268341, -2.305774211883545, -0.04026922583580017, -0.6311363577842712, -0.4212118983268738, -0.8350822329521179, -0.9747391939163208, 0.05697014555335045, -1.5043957361090854, 0.8367276692294467, -92.86023353835621, 9362.0, 30146.0, 35388.0, 9362.0, 8.132232666015625, -0.02586168423295021, -0.054871127009391785, 0.292245477437973, -0.08614994585514069, -0.0455634742975235, 0.9959845542907715, -0.07949820160865784, -0.07543754577636719, 1.48974609375, 1.34033203125, 0.0166168212890625, 1.493408203125, 1.37841796875, 10.0, 1.0, 10.0, 1.4103542566299438
13446, 2.401977777481079, 0.06657615303993225, -1.136399745941162, -0.03378400579094887, -0.49377670884132385, -2.3099892139434814, -0.04046839848160744, -0.6352219581604004, -0.42176637053489685, -0.8350167274475098, -0.9748425483703613, 0.056962743401527405, -1.5488840759883609, 0.7840543685286718, -92.8791159828393, 9362.0, 30146.0, 35388.0, 9362.0, 8.132232666015625, -0.06749063730239868, 0.40498560667037964, 0.32524996995925903, -0.08614994585514069, -0.0455634742975235, 0.9959845542907715, -0.07949820160865784, -0.07543754577636719, 1.48974609375, 1.37109375, 0.0197906494140625, 1.49267578125, 1.37841796875, 10.0, 1.0, 10.0, 1.410010814666748
13466, 2.4045610427856445, 0.06717817485332489, -1.1352814435958862, -0.03500688448548317, -0.5130171775817871, -2.322669506072998, -0.04105495288968086, -0.6474841833114624, -0.4234340488910675, -0.8349874019622803, -0.9748745560646057, 0.05695544183254242, -1.554771456604973, 0.7679925190609254, -92.87230849383745, 9362.0, 30146.0, 35388.0, 9362.0, 8.132232666015625, -0.13651475310325623, -0.34623774886131287, 0.0404173918068409, -0.08528907597064972, -0.045280348509550095, 0.9962891936302185, -0.07949820160865784, -0.07543754577636719, 1.48974609375, 1.38427734375, 0.027099609375, 1.49267578125, 1.37841796875, 10.0, 1.0, 10.0, 1.410010814666748
13506, 2.4072606563568115, 0.06624334305524826, -1.133355975151062, -0.03624734282493591, -0.5326260328292847, -2.3353922367095947, -0.04164336621761322, -0.6597665548324585, -0.4249316453933716, -0.8350200653076172, -0.9749263525009155, 0.056996528059244156, -1.5371505910851189, 0.7140976025328314, -92.88679350822102, 9362.0, 30146.0, 35388.0, 9362.0, 8.132232666015625, 0.01661415584385395, -0.056702613830566406, -0.1368299424648285, -0.08119934797286987, -0.04591380059719086, 0.9976862072944641, -0.07949820160865784, -0.07543754577636719, 1.48974609375, 1.36669921875, 0.01806640625, 1.4912109375, 1.37841796875, 10.0, 1.0, 10.0, 1.40934157371521
13526, 2.4080305099487305, 0.06532261520624161, -1.1302441358566284, -0.03624734282493591, -0.5326260328292847, -2.3353922367095947, -0.04164336621761322, -0.6597665548324585, -0.4249316453933716, -0.8350145220756531, -0.9748404026031494, 0.05695309489965439, -1.5368217787223943, 0.7855512713399264, -92.8776582499224, 9362.0, 30146.0, 35388.0, 9362.0, 8.132232666015625, 0.10150142759084702, 0.3055741786956787, 0.34100890159606934, -0.08501648157835007, -0.04486430063843727, 0.9954236745834351, -0.07949820160865784, -0.07543754577636719, 1.48974609375, 1.3623046875, 0.0167999267578125, 1.494140625, 1.37841796875, 10.0, 1.0, 10.0, 1.4090514183044434
13546, 2.409188747406006, 0.06291680037975311, -1.1310828924179077, -0.03835400938987732, -0.566126823425293, -2.356698989868164, -0.042618438601493835, -0.680270791053772, -0.42729437351226807, -0.8350281715393066, -0.9749259948730469, 0.05700986087322235, -1.5342774833345312, 0.7076773131413177, -92.87663278891974, 9362.0, 30146.0, 35388.0, 9362.0, 8.132232666015625, -0.11260000616312027, -0.016221053898334503, 0.10441985726356506, -0.08514852076768875, -0.04565926268696785, 0.9953411221504211, -0.07949820160865784, -0.07543754577636719, 1.48974609375, 1.382080078125, 0.0256195068359375, 1.494140625, 1.37841796875, 10.0, 1.0, 10.0, 1.4088075160980225
13566, 2.408457040786743, 0.05887451395392418, -1.132368564605713, -0.039210181683301926, -0.5798141360282898, -2.36525821685791, -0.04299739748239517, -0.6884627342224121, -0.42862728238105774, -0.8350092768669128, -0.9749580025672913, 0.05701616778969765, -1.556746980759592, 0.7086473947341005, -92.87589858008056, 9362.0, 30146.0, 35388.0, 9362.0, 8.132232666015625, -0.11260000616312027, -0.016221053898334503, 0.10441985726356506, -0.08379444479942322, -0.04522132873535156, 0.9951908588409424, -0.06802523881196976, 0.07688140869140625, 1.502197265625, 1.35498046875, 0.01556396484375, 1.494140625, 1.37841796875, 10.0, 1.0, 10.0, 1.4088075160980225
13586, 2.406520128250122, 0.05955495685338974, -1.1341526508331299, -0.040073808282613754, -0.593665361404419, -2.373842477798462, -0.043363504111766815, -0.6966595649719238, -0.42981353402137756, -0.8351100087165833, -0.9746986627578735, 0.05698650702834129, -1.4867928487081936, 0.844883067202602, -92.84069140348905, 9362.0, 30146.0, 35388.0, 9362.0, 8.132232666015625, -0.021606359630823135, 0.22862397134304047, 0.37934762239456177, -0.08379444479942322, -0.04522132873535156, 0.9951908588409424, -0.06802523881196976, 0.07688140869140625, 1.502197265625, 1.3623046875, 0.0167999267578125, 1.49267578125, 1.37841796875, 10.0, 1.0, 10.0, 1.4083960056304932
13646, 2.4032351970672607, 0.05298002064228058, -1.1263164281845093, -0.04226457700133324, -0.6290109157562256, -2.395388126373291, -0.0442587174475193, -0.7171463370323181, -0.43228304386138916, -0.835085391998291, -0.9747293591499329, 0.056963592767715454, -1.4975195072017342, 0.8406862998778877, -92.86387663532886, 9362.0, 30146.0, 35388.0, 9362.0, 8.132232666015625, 0.10362260043621063, 0.2510629892349243, 0.008769918233156204, -0.08651145547628403, -0.04728609696030617, 0.992438793182373, -0.06802523881196976, 0.07688140869140625, 1.502197265625, 1.343994140625, 0.015899658203125, 1.489013671875, 1.37841796875, 10.0, 1.0, 10.0, 1.4078410863876343
13666, 2.402453660964966, 0.05078073590993881, -1.126564621925354, -0.04360010847449303, -0.6507089734077454, -2.4083919525146484, -0.04477473720908165, -0.7293968200683594, -0.43451017141342163, -0.8350651860237122, -0.9747694730758667, 0.056945450603961945, -1.5197450195394275, 0.827841257274514, -92.84187561630391, 9362.0, 30146.0, 35388.0, 9362.0, 8.132232666015625, 0.061945389956235886, 0.28554782271385193, 0.05848610773682594, -0.0845535546541214, -0.044686008244752884, 0.9969950318336487, -0.0805695503950119, -0.07543754577636719, 1.48974609375, 1.368896484375, 0.01885986328125, 1.494140625, 1.346923828125, 10.0, 1.0, 10.0, 1.4074008464813232
13676, 2.402292013168335, 0.0485454685986042, -1.1254891157150269, -0.04404869303107262, -0.6580234169960022, -2.412738800048828, -0.044942326843738556, -0.7334960699081421, -0.43486079573631287, -0.8350477814674377, -0.9747626781463623, 0.056971851736307144, -1.5281609536725118, 0.8293212660740608, -92.85178692238411, 9362.0, 30146.0, 35388.0, 9362.0, 8.132232666015625, -0.010520381852984428, -0.011175851337611675, 0.02778901718556881, -0.08638053387403488, -0.042995039373636246, 0.9951770901679993, -0.0805695503950119, -0.07543754577636719, 1.48974609375, 1.360107421875, 0.0162506103515625, 1.48828125, 1.346923828125, 10.0, 1.0, 10.0, 1.4073342084884644
13686, 2.4023523330688477, 0.050705935806035995, -1.1245293617248535, -0.04404869303107262, -0.6580234169960022, -2.412738800048828, -0.044942326843738556, -0.7334960699081421, -0.43486079573631287, -0.8349917531013489, -0.9749564528465271, 0.05700460821390152, -1.561681173371872, 0.7034707933423192, -92.88040114820305, 9362.0, 30146.0, 35388.0, 9362.0, 8.132232666015625, -0.10105892270803452, -0.2867390215396881, -0.3881179392337799, -0.08784178644418716, -0.04493536055088043, 0.9950661063194275, -0.0805695503950119, -0.07543754577636719, 1.48974609375, 1.34912109375, 0.015380859375, 1.48828125, 1.346923828125, 10.0, 1.0, 10.0, 1.4072257280349731
13706, 2.402467966079712, 0.051279086619615555, -1.121090054512024, -0.04540441185235977, -0.6802124381065369, -2.4258081912994385, -0.0454387366771698, -0.7457677125930786, -0.4364802837371826, -0.8350468873977661, -0.9747563004493713, 0.056948427110910416, -1.5208474382968549, 0.8234333722192559, -92.84094999713902, 9362.0, 30146.0, 35388.0, 9362.0, 8.132232666015625, 0.04962212219834328, 0.0634424015879631, 0.3053641617298126, -0.08468645066022873, -0.04664851725101471, 0.9950359463691711, -0.0805695503950119, -0.07543754577636719, 1.48974609375, 1.346923828125, 0.015472412109375, 1.48828125, 1.346923828125, 10.0, 1.0, 10.0, 1.4069793224334717
13726, 2.402672052383423, 0.05080481618642807, -1.112524151802063, -0.04585963860154152, -0.6876905560493469, -2.43017578125, -0.04560641199350357, -0.7498586773872375, -0.4370306432247162, -0.8350080251693726, -0.974853515625, 0.05695672333240509, -1.5360831440016047, 0.7686601123431842, -92.87302186759166, 9362.0, 30146.0, 35388.0, 9362.0, 8.132232666015625, 0.04962212219834328, 0.0634424015879631, 0.3053641617298126, -0.0837671086192131, -0.047500062733888626, 0.9981972575187683, -0.0805695503950119, -0.07543754577636719, 1.48974609375, 1.37841796875, 0.023406982421875, 1.48828125, 1.346923828125, 10.0, 1.0, 10.0, 1.4066834449768066
13786, 2.3974106311798096, 0.05182628333568573, -1.0897221565246582, -0.049093205481767654, -0.7411834597587585, -2.4608778953552246, -0.04678677022457123, -0.7784832119941711, -0.4406377971172333, -0.8349875807762146, -0.9748819470405579, 0.056956253945827484, -1.559646740668743, 0.7660272219879403, -92.87126248533441, 9362.0, 30146.0, 35388.0, 9362.0, 8.132232666015625, -0.24677933752536774, -0.21830178797245026, 0.33018600940704346, -0.08594368398189545, -0.0479336753487587, 0.9933552742004395, -0.057050686329603195, -0.01271820068359375, 1.494873046875, 1.3623046875, 0.0167999267578125, 1.493408203125, 1.346923828125, 10.0, 1.0, 10.0, 1.4055466651916504
13806, 2.3951449394226074, 0.05341193452477455, -1.0884439945220947, -0.05003228783607483, -0.7568346858024597, -2.4697039127349854, -0.047120049595832825, -0.7866411805152893, -0.4419436454772949, -0.834992527961731, -0.9748817086219788, 0.056930962949991226, -1.561755281318022, 0.7673413352831915, -92.86930481946234, 9362.0, 30146.0, 35388.0, 9362.0, 8.132232666015625, -0.13384704291820526, 0.5044620633125305, 0.8766653537750244, -0.08594368398189545, -0.0479336753487587, 0.9933552742004395, -0.057050686329603195, -0.01271820068359375, 1.494873046875, 1.35205078125, 0.015380859375, 1.493408203125, 1.346923828125, 10.0, 1.0, 10.0, 1.405322790145874
13826, 2.3950932025909424, 0.052451420575380325, -1.087178349494934, -0.050978053361177444, -0.7726491689682007, -2.478551149368286, -0.047456592321395874, -0.7948089241981506, -0.442821741104126, -0.8350017666816711, -0.9749610424041748, 0.05699911341071129, -1.5567052997231565, 0.6961545419014215, -92.87301124056113, 9362.0, 30146.0, 35388.0, 9362.0, 8.132232666015625, 0.16400353610515594, -0.18098773062229156, -0.312481164932251, -0.08395855128765106, -0.04679209738969803, 0.9952407479286194, -0.057050686329603195, -0.01271820068359375, 1.494873046875, 1.330810546875, 0.0203399658203125, 1.493408203125, 1.346923828125, 10.0, 1.0, 10.0, 1.4050793647766113
13846, 2.395409345626831, 0.05022187903523445, -1.0888996124267578, -0.05193047598004341, -0.7886269092559814, -2.4874184131622314, -0.047787539660930634, -0.8029666543006897, -0.44387346506118774, -0.8350213766098022, -0.9748663306236267, 0.056958943605422974, -1.5515247922341144, 0.7909377710973047, -92.88603733395664, 9362.0, 30146.0, 35388.0, 9362.0, 8.132232666015625, -0.10461114346981049, 0.14463549852371216, -0.38060668110847473, -0.08395855128765106, -0.04679209738969803, 0.9952407479286194, -0.057050686329603195, -0.01271820068359375, 1.494873046875, 1.393798828125, 0.0344085693359375, 1.493408203125, 1.346923828125, 10.0, 1.0, 10.0, 1.4047095775604248
