timeTick, roll, pitch, yaw, stateX, stateY, stateZ, stateVX, stateVY, stateVZ, otX0, otY0, otZ0, otRoll0, otPitch0, otYaw0, left wing, pitch motor, yaw motor, right wing, voltage, roll rate, pitch rate, yaw rate, A_x, A_y, A_z, current, i_raw, v_raw, airflow_voltage, airflow_speed, pot_Pitch
66231, -1.1457970142364502, -5.237602710723877, 16.299604415893555, 0, 0, 0, 0, 0, 0, -0.8195468783378601, -0.9806391596794128, 0.054603222757577896, -0.5675541084929396, -0.0457021918086582, -7.69920269540654, 0, 0, 0, 0, 0, 0, 0, 0, 0, 0, 0, 0, 0, 0, 0, 0, 0
66241, -1.1449100971221924, -5.2375359535217285, 16.29700469970703, -0.0022262746933847666, -0.0012169253313913941, -89.28533935546875, -0.21862280368804932, -0.11950360983610153, -2.752795696258545, -0.8195408582687378, -0.980636477470398, 0.054608624428510666, -0.5691051859325961, -0.04493328520112527, -7.70478182234203, 9362.0, 30146.0, 35388.0, 9362.0, 0, 0.07697778195142746, -0.016228005290031433, -0.11714272946119308, -0.07445216923952103, -0.03754039481282234, 0.9939358234405518, 0, 0, 0, 1.51611328125, 0.2286224365234375, 0
66251, -1.1447898149490356, -5.236734390258789, 16.296947479248047, -0.004372439347207546, -0.0023900659289211035, -89.31287384033203, -0.21060998737812042, -0.1151248887181282, -2.7535932064056396, -0.819543182849884, -0.9806306958198547, 0.054591868072748184, -0.5716599835943306, -0.04767697959232464, -7.702580220309262, 9362.0, 30146.0, 35388.0, 9362.0, 0, 0.15162281692028046, 0.026581233367323875, 0.18354330956935883, -0.07230766117572784, -0.03816049173474312, 0.9951514005661011, 0, 0, 0, 1.2041015625, 0.3609771728515625, 0
66261, -1.1434868574142456, -5.236874103546143, 16.296674728393555, -0.006640784442424774, -0.003630019724369049, -89.34317016601562, -0.2018163651227951, -0.1103212833404541, -2.754722833633423, -0.8195536136627197, -0.980631947517395, 0.05459633469581604, -0.5670929733047401, -0.04735240394535367, -7.695873519781576, 9362.0, 30146.0, 35388.0, 9362.0, 0, -0.017907526344060898, -0.09068335592746735, -0.3117515742778778, -0.07380913197994232, -0.03917286917567253, 0.994820237159729, 0, 0, 0, 1.412109375, 0.0526123046875, 1.49267578125
66271, -1.1436834335327148, -5.234539985656738, 16.29450225830078, -0.008618917316198349, -0.004711364861577749, -89.37071990966797, -0.19381015002727509, -0.10594778507947922, -2.755589723587036, -0.8195377588272095, -0.9806365370750427, 0.054600927978754044, -0.5655723934064816, -0.042063954625490396, -7.711108577959235, 9362.0, 30146.0, 35388.0, 9362.0, 0, 0.09198103100061417, -0.20325230062007904, -0.2653917670249939, -0.07461760193109512, -0.03998173773288727, 0.99411541223526, 0, 0, 0, 1.490478515625, 0.1768646240234375, 1.49267578125
66281, -1.1436911821365356, -5.232581615447998, 16.294166564941406, -0.010517016984522343, -0.00574900396168232, -89.39827728271484, -0.1858096569776535, -0.10158031433820724, -2.756537914276123, -0.8195348978042603, -0.9806347489356995, 0.05460210517048836, -0.5704256403733575, -0.04467405327346796, -7.704008060885774, 9362.0, 30146.0, 35388.0, 9362.0, 0, -0.12366221845149994, -0.31178224086761475, 0.054055001586675644, -0.07471997290849686, -0.03769770264625549, 0.9960660338401794, 0, 0, 0, 1.5087890625, 0.21337890625, 1.4912109375
66291, -1.1429566144943237, -5.234611988067627, 16.293668746948242, -0.012512549757957458, -0.006839971989393234, -89.42860412597656, -0.1770143210887909, -0.09677755832672119, -2.75759220123291, -0.8195515275001526, -0.980628490447998, 0.054587360471487045, -0.5730952396576303, -0.0497594458677213, -7.69557579037796, 9362.0, 30146.0, 35388.0, 9362.0, 0, 0.05071509629487991, -0.18994709849357605, -0.08041627705097198, -0.07494788616895676, -0.038111574947834015, 0.9966269135475159, 0, 0, 0, 1.54248046875, 0.28521728515625, 1.4912109375
66301, -1.144201636314392, -5.235321998596191, 16.293102264404297, -0.014411273412406445, -0.007878072559833527, -89.45894622802734, -0.16820812225341797, -0.09196803718805313, -2.758472204208374, -0.8195416927337646, -0.9806364178657532, 0.05460996553301811, -0.5693132165906712, -0.04892279999444327, -7.701375133931282, 9362.0, 30146.0, 35388.0, 9362.0, 0, -0.21922457218170166, 0.2763334810733795, -0.06970863044261932, -0.07657074183225632, -0.03866835683584213, 0.9962265491485596, 0, 0, 0, 1.569580078125, 0.3462371826171875, 1.494873046875
66311, -1.143423080444336, -5.2343854904174805, 16.294328689575195, -0.01605329103767872, -0.008775883354246616, -89.48653411865234, -0.16019530594348907, -0.087594173848629, -2.759229898452759, -0.8195395469665527, -0.9806258082389832, 0.054589685052633286, -0.5682738039040719, -0.041245893776959974, -7.701905301138598, 9362.0, 30146.0, 35388.0, 9362.0, 0, 0.1855333149433136, -0.2509772479534149, 0.0011667542858049273, -0.07620538771152496, -0.03866231441497803, 0.9955462217330933, 0, 0, 0, 1.417236328125, 0.058624267578125, 1.494873046875
66321, -1.1434229612350464, -5.233426094055176, 16.292543411254883, -0.01761521026492119, -0.009629962034523487, -89.51412963867188, -0.15218870341777802, -0.08322141319513321, -2.7600691318511963, -0.8195681571960449, -0.9806505441665649, 0.05455624684691429, -0.5581418848920874, -0.06025052006543774, -7.719501706198409, 9362.0, 30146.0, 35388.0, 9362.0, 0, -0.01024504192173481, 0.1568012535572052, 0.1765749305486679, -0.07493660598993301, -0.03948907181620598, 0.99403315782547, 0, 0, 0, 1.453125, 0.1099090576171875, 1.494140625
66331, -1.1426676511764526, -5.232948303222656, 16.29175567626953, -0.019097112119197845, -0.010440343990921974, -89.54173278808594, -0.1441914439201355, -0.07885517925024033, -2.7610092163085938, -0.8195439577102661, -0.9806260466575623, 0.05459149554371834, -0.5704656799468858, -0.05084230851036864, -7.702427744740381, 9362.0, 30146.0, 35388.0, 9362.0, 8.390083312988281, -0.10635121911764145, -0.21641016006469727, -0.09539564698934555, -0.07757093757390976, -0.0398787297308445, 0.9967513084411621, -0.11509984731674194, -0.14711761474609375, 1.48388671875, 1.5439453125, 0.2884979248046875, 1.494140625
66341, -1.1441946029663086, -5.233110427856445, 16.291385650634766, -0.02049901895225048, -0.011207050643861294, -89.56934356689453, -0.13618974387645721, -0.07448624074459076, -2.7618768215179443, -0.8195403218269348, -0.980635941028595, 0.05460185930132866, -0.5642846453745953, -0.04196596670612962, -7.705706140860841, 9362.0, 30146.0, 35388.0, 9362.0, 8.390083312988281, -0.009471175260841846, 0.10780580341815948, 0.01569765992462635, -0.07614624500274658, -0.040604930371046066, 0.9950831532478333, -0.11509984731674194, -0.14711761474609375, 1.48388671875, 1.4677734375, 0.1347198486328125, 1.49853515625
66351, -1.1436102390289307, -5.232154369354248, 16.291444778442383, -0.02182086743414402, -0.011930052191019058, -89.59696960449219, -0.12817995250225067, -0.07011423259973526, -2.7626423835754395, -0.8195740580558777, -0.9806486368179321, 0.05455508828163147, -0.5568690346373231, -0.05725559913994971, -7.717798212045205, 9362.0, 30146.0, 35388.0, 9362.0, 8.390083312988281, 0.04803674295544624, -0.6595150828361511, -0.07874453067779541, -0.07476427406072617, -0.03945302963256836, 0.9952040910720825, -0.11509984731674194, -0.14711761474609375, 1.48388671875, 1.568115234375, 0.3428955078125, 1.49853515625
66361, -1.1430442333221436, -5.232571125030518, 16.292152404785156, -0.023062702268362045, -0.012609366327524185, -89.62460327148438, -0.12018713355064392, -0.06574859470129013, -2.7636070251464844, -0.8195719718933105, -0.9806377291679382, 0.05458148941397667, -0.572025549211465, -0.04630783841011521, -7.679752748150448, 9362.0, 30146.0, 35388.0, 9362.0, 8.390083312988281, 0.12731711566448212, 0.36695772409439087, 0.2267124503850937, -0.07688286155462265, -0.037244610488414764, 0.9962657690048218, -0.11509984731674194, -0.14711761474609375, 1.48388671875, 1.467041015625, 0.1334686279296875, 1.490478515625
66371, -1.142745852470398, -5.235033988952637, 16.292537689208984, -0.024224581196904182, -0.013245011679828167, -89.6522445678711, -0.11218865215778351, -0.06138048321008682, -2.7644870281219482, -0.8195515871047974, -0.9806197881698608, 0.054576169699430466, -0.5730101138648779, -0.04159840087820044, -7.69682496292789, 9362.0, 30146.0, 35388.0, 9362.0, 8.390083312988281, -0.051504798233509064, 0.0915740504860878, -0.07505111396312714, -0.07701712101697922, -0.0380484014749527, 0.9983372688293457, -0.11509984731674194, -0.14711761474609375, 1.48388671875, 1.4736328125, 0.1452178955078125, 1.490478515625
66381, -1.1429574489593506, -5.235750198364258, 16.29177474975586, -0.02530638873577118, -0.01383693516254425, -89.67989349365234, -0.10417307168245316, -0.057004187256097794, -2.7651703357696533, -0.8195846080780029, -0.9806362986564636, 0.05453304201364517, -0.562578391706012, -0.05651069750467741, -7.7210964246494305, 9362.0, 30146.0, 35388.0, 9362.0, 8.390083312988281, 0.0023900216910988092, 0.11739590764045715, -0.06443480402231216, -0.07517718523740768, -0.03982929140329361, 0.9955229759216309, -0.11509984731674194, -0.14711761474609375, 1.48388671875, 1.434814453125, 0.081787109375, 1.489013671875
66391, -1.143812656402588, -5.23569393157959, 16.289518356323242, -0.026308031752705574, -0.014385098591446877, -89.70755004882812, -0.09615559875965118, -0.052628617733716965, -2.765882730484009, -0.8195582628250122, -0.9806172847747803, 0.054587025195360184, -0.5743180289871244, -0.04169340058376747, -7.697892174993054, 9362.0, 30146.0, 35388.0, 9362.0, 8.390083312988281, 0.06839601695537567, 0.21913911402225494, -0.1278539001941681, -0.0761515349149704, -0.039578091353178024, 0.9936364889144897, -0.11509984731674194, -0.14711761474609375, 1.48388671875, 1.242919921875, 0.1873626708984375, 1.489013671875
66401, -1.1446202993392944, -5.2387309074401855, 16.290122985839844, -0.027229584753513336, -0.014889552257955074, -89.73521423339844, -0.08815497905015945, -0.04826252534985542, -2.766814947128296, -0.8195531964302063, -0.9806279540061951, 0.05456983298063278, -0.576359783906718, -0.03975250032331701, -7.699946764961893, 9362.0, 30146.0, 35388.0, 9362.0, 8.390083312988281, -0.19526837766170502, 0.2631364166736603, -0.029713202267885208, -0.07631020247936249, -0.03994545713067055, 0.9942705631256104, -0.11509984731674194, -0.14711761474609375, 1.48388671875, 1.562255859375, 0.329437255859375, 1.4912109375
66411, -1.1435539722442627, -5.24069356918335, 16.29110336303711, -0.028071168810129166, -0.015350359492003918, -89.76288604736328, -0.08016212284564972, -0.04389889910817146, -2.767834186553955, -0.8195450305938721, -0.9806262850761414, 0.054577089846134186, -0.5759211714246445, -0.043962772572257336, -7.708848042249455, 9362.0, 30146.0, 35388.0, 9362.0, 8.390083312988281, 0.17944039404392242, 0.37244942784309387, 0.032382845878601074, -0.07532685995101929, -0.0399455763399601, 0.9933041334152222, -0.11509984731674194, -0.14711761474609375, 1.48388671875, 1.50146484375, 0.1985626220703125, 1.4912109375
66421, -1.1431260108947754, -5.243457317352295, 16.291744232177734, -0.02883280999958515, -0.015767520293593407, -89.79057312011719, -0.07216634601354599, -0.039533235132694244, -2.7688732147216797, -0.8196213841438293, -0.9806135296821594, 0.05445089191198349, -0.6131041136537937, -0.0922882452265128, -7.663423444168477, 9362.0, 30146.0, 35388.0, 9362.0, 8.390083312988281, -0.055824652314186096, 0.1784617304801941, -0.009645958431065083, -0.07524171471595764, -0.03935107961297035, 0.9949496388435364, -0.11509984731674194, -0.14711761474609375, 1.48388671875, 1.35498046875, 0.01556396484375, 1.48974609375
66431, -1.1441774368286133, -5.240595817565918, 16.29060935974121, -0.029514450579881668, -0.0161410141736269, -89.81826782226562, -0.06416183710098267, -0.03516552224755287, -2.7698512077331543, -0.819550633430481, -0.9806095361709595, 0.05456335097551346, -0.5730242502536503, -0.04006991905595214, -7.707354279405103, 9362.0, 30146.0, 35388.0, 9362.0, 8.390083312988281, -0.06879710406064987, -0.2793879508972168, 0.030207647010684013, -0.07451484352350235, -0.03696627914905548, 0.9961333274841309, -0.11064691096544266, -0.2904777526855469, 1.47216796875, 1.49560546875, 0.1868743896484375, 1.48974609375
66441, -1.1434005498886108, -5.241744041442871, 16.29153823852539, -0.03011597879230976, -0.016470804810523987, -89.8459701538086, -0.05614374205470085, -0.030792562291026115, -2.7707228660583496, -0.8195503354072571, -0.9806328415870667, 0.054572928696870804, -0.5715671765508785, -0.04143599180869728, -7.705372715288715, 9362.0, 30146.0, 35388.0, 9362.0, 8.390083312988281, -0.054338518530130386, 0.1926305890083313, 0.18860593438148499, -0.07541847974061966, -0.03660279139876366, 0.9958184361457825, -0.11064691096544266, -0.2904777526855469, 1.47216796875, 1.5087890625, 0.21337890625, 1.491943359375
66451, -1.1432026624679565, -5.2422099113464355, 16.292055130004883, -0.030637351796030998, -0.01675686426460743, -89.8736801147461, -0.04813092574477196, -0.0264191385358572, -2.771594285964966, -0.8195480108261108, -0.980619490146637, 0.054577216506004333, -0.5755477146221138, -0.04433293149256201, -7.696755788161531, 9362.0, 30146.0, 35388.0, 9362.0, 8.390083312988281, -0.0028594788163900375, 0.03515799343585968, -0.04344458132982254, -0.07653851062059402, -0.0376788005232811, 0.9959996938705444, -0.11064691096544266, -0.2904777526855469, 1.47216796875, 1.53955078125, 0.278778076171875, 1.491943359375
66461, -1.143142580986023, -5.243116855621338, 16.292591094970703, -0.031078575178980827, -0.01699918694794178, -89.90139770507812, -0.04011370614171028, -0.022045167163014412, -2.772439479827881, -0.8196483254432678, -0.9806292653083801, 0.05441033095121384, -0.5974577035683506, -0.10475488202925476, -7.683987216340577, 9362.0, 30146.0, 35388.0, 9362.0, 8.390083312988281, -0.10617280006408691, 0.31640973687171936, 0.28702691197395325, -0.07462223619222641, -0.03779115900397301, 0.996764063835144, -0.11064691096544266, -0.2904777526855469, 1.47216796875, 1.505126953125, 0.205902099609375, 1.48828125
66471, -1.1444751024246216, -5.243402481079102, 16.293258666992188, -0.03143959119915962, -0.017197752371430397, -89.92912292480469, -0.03208976611495018, -0.017667988315224648, -2.7732126712799072, -0.8196192383766174, -0.9806159138679504, 0.05445612967014313, -0.6096581680488198, -0.09435558657304455, -7.661946095693638, 9362.0, 30146.0, 35388.0, 9362.0, 8.390083312988281, 0.18604016304016113, -0.010101490654051304, -0.1419888287782669, -0.07449433207511902, -0.03838400915265083, 0.9969028234481812, -0.11064691096544266, -0.2904777526855469, 1.47216796875, 1.50732421875, 0.2104644775390625, 1.48828125
66481, -1.144586443901062, -5.243562698364258, 16.295913696289062, -0.0317203514277935, -0.01735253818333149, -89.95685577392578, -0.02406218647956848, -0.013289196416735649, -2.7739596366882324, -0.8196118474006653, -0.9806148409843445, 0.05446197837591171, -0.6060818782087295, -0.09007096950978166, -7.663695020930142, 9362.0, 30146.0, 35388.0, 9362.0, 8.390083312988281, -0.14949718117713928, -0.1437644213438034, 0.37606170773506165, -0.07591231912374496, -0.039884891360998154, 0.9972963333129883, -0.11064691096544266, -0.2904777526855469, 1.47216796875, 1.253173828125, 0.15313720703125, 1.48828125
66491, -1.1446281671524048, -5.243084907531738, 16.298189163208008, -0.03192082419991493, -0.01746351830661297, -89.9845962524414, -0.016032490879297256, -0.008906364440917969, -2.774676561355591, -0.8195514678955078, -0.9806178212165833, 0.05457320436835289, -0.5756586433364893, -0.048428393548022086, -7.696868126274712, 9362.0, 30146.0, 35388.0, 9362.0, 8.390083312988281, 0.03971100598573685, 0.21976234018802643, 0.24293556809425354, -0.07660972326993942, -0.037024982273578644, 0.9937259554862976, -0.11064691096544266, -0.2904777526855469, 1.47216796875, 1.27734375, 0.0894012451171875, 1.48828125
66501, -1.1445114612579346, -5.2420268058776855, 16.296871185302734, -0.0320410393178463, -0.017530689015984535, -90.01234436035156, -0.008010839112102985, -0.004527339246124029, -2.7754907608032227, -0.8196030855178833, -0.9806116223335266, 0.054448168724775314, -0.6128348128656494, -0.10779702927627, -7.666512840611605, 9362.0, 30146.0, 35388.0, 9362.0, 8.390083312988281, 0.10126841068267822, -0.15193897485733032, -0.13839299976825714, -0.07566559314727783, -0.03704666346311569, 0.9956117868423462, -0.11064691096544266, -0.2904777526855469, 1.47216796875, 1.481689453125, 0.1600799560546875, 1.4912109375
66511, -1.14372718334198, -5.243316173553467, 16.299015045166016, -0.03208110108971596, -0.01755410060286522, -90.04010772705078, -1.4191809896146879e-06, -0.00015498040011152625, -2.7764458656311035, -0.8196391463279724, -0.9806215167045593, 0.05440013110637665, -0.5986316346643477, -0.11048416187219345, -7.686670755199053, 9362.0, 30146.0, 35388.0, 9362.0, 8.390083312988281, 0.13504813611507416, -0.0638662576675415, 0.18218716979026794, -0.07615560293197632, -0.036812420934438705, 0.9955428242683411, -0.11064691096544266, -0.2904777526855469, 1.47216796875, 1.49267578125, 0.1811065673828125, 1.4912109375
66521, -1.1432288885116577, -5.242892742156982, 16.297775268554688, -0.0320410281419754, -0.017533766105771065, -90.06787872314453, 0.008015671744942665, 0.004222148098051548, -2.777285575866699, -0.8195998668670654, -0.9806104898452759, 0.05446085333824158, -0.6078147036346123, -0.10570738558999437, -7.668790929953528, 9362.0, 30146.0, 35388.0, 9362.0, 8.390083312988281, 0.06481798738241196, 0.043422650545835495, -0.2119438201189041, -0.07413176447153091, -0.035672929137945175, 0.9953450560569763, -0.11064691096544266, -0.2904777526855469, 1.47216796875, 1.31103515625, 0.0355682373046875, 1.491943359375
66531, -1.1437708139419556, -5.243919849395752, 16.29660415649414, -0.03192077949643135, -0.01746966503560543, -90.09565734863281, 0.01603437028825283, 0.008597970940172672, -2.7781362533569336, -0.8195475339889526, -0.9806156158447266, 0.054563142359256744, -0.5756338732657937, -0.04787325044384261, -7.698816370177267, 9362.0, 30146.0, 35388.0, 9362.0, 8.390083312988281, -0.09650345146656036, 0.05672163888812065, -0.13531480729579926, -0.07412073761224747, -0.037336647510528564, 0.9951764345169067, -0.10483839362859726, -0.20087814331054688, 1.4794921875, 1.532958984375, 0.2644195556640625, 1.491943359375
66541, -1.1437026262283325, -5.244010925292969, 16.29578971862793, -0.031720347702503204, -0.01736181229352951, -90.12344360351562, 0.02405242994427681, 0.012972423806786537, -2.7789909839630127, -0.8195995092391968, -0.9806084036827087, 0.05444797873497009, -0.6108560419215348, -0.10575449315547303, -7.668112608314455, 9362.0, 30146.0, 35388.0, 9362.0, 8.390083312988281, 0.21529369056224823, 0.16368220746517181, -0.07535853981971741, -0.07606374472379684, -0.0370151549577713, 0.9938520789146423, -0.10483839362859726, -0.20087814331054688, 1.4794921875, 1.283203125, 0.0772247314453125, 1.486083984375
66551, -1.1424477100372314, -5.245161056518555, 16.29480743408203, -0.031439803540706635, -0.017210250720381737, -90.15123748779297, 0.0320565328001976, 0.01733972877264023, -2.7800326347351074, -0.8195526599884033, -0.9806238412857056, 0.05456684157252312, -0.5650957398043869, -0.04477169981501561, -7.702605207037013, 9362.0, 30146.0, 35388.0, 9362.0, 8.390083312988281, 0.17036886513233185, 0.10247201472520828, -0.12416605651378632, -0.0754658654332161, -0.0377715639770031, 0.9956245422363281, -0.10483839362859726, -0.20087814331054688, 1.4794921875, 1.48681640625, 0.1698150634765625, 1.486083984375
66561, -1.1430684328079224, -5.246942520141602, 16.29326820373535, -0.031079189851880074, -0.0170150026679039, -90.17903900146484, 0.04006640613079071, 0.021709835156798363, -2.7810070514678955, -0.8196136951446533, -0.9806199073791504, 0.05444692075252533, -0.6103976842221, -0.09285261955344026, -7.660168260432453, 9362.0, 30146.0, 35388.0, 9362.0, 8.390083312988281, -0.10257993638515472, -0.11481136083602905, -0.11049314588308334, -0.07467277348041534, -0.039241474121809006, 0.9963135719299316, -0.10483839362859726, -0.20087814331054688, 1.4794921875, 1.529296875, 0.2564849853515625, 1.491943359375
66571, -1.1432795524597168, -5.246679782867432, 16.2936954498291, -0.030638404190540314, -0.016776029020547867, -90.20685577392578, 0.048090819269418716, 0.026084693148732185, -2.7818381786346436, -0.8195465207099915, -0.9806264638900757, 0.054561857134103775, -0.5733548839631201, -0.046081185569306626, -7.699729060963525, 9362.0, 30146.0, 35388.0, 9362.0, 8.390083312988281, -0.04363762214779854, 0.11588059365749359, 0.289487361907959, -0.07457682490348816, -0.039746981114149094, 0.9969642162322998, -0.10483839362859726, -0.20087814331054688, 1.4794921875, 1.51171875, 0.21942138671875, 1.491943359375
66581, -1.1434158086776733, -5.248645782470703, 16.29386329650879, -0.030117332935333252, -0.016493283212184906, -90.23468017578125, 0.05612313747406006, 0.03046445921063423, -2.7826035022735596, -0.8196016550064087, -0.9806224703788757, 0.05446811765432358, -0.6140089928180287, -0.10433038516623583, -7.66164679715309, 9362.0, 30146.0, 35388.0, 9362.0, 8.390083312988281, 0.07751664519309998, 0.24426311254501343, -0.07607156038284302, -0.07395646721124649, -0.04000043496489525, 0.996317446231842, -0.10483839362859726, -0.20087814331054688, 1.4794921875, 1.5673828125, 0.3411102294921875, 1.494873046875
66591, -1.1449486017227173, -5.246402263641357, 16.291988372802734, -0.029515935108065605, -0.01616673544049263, -90.26251220703125, 0.06415622681379318, 0.03484513238072395, -2.7833540439605713, -0.8196418881416321, -0.9806200861930847, 0.05440162867307663, -0.5987712468383538, -0.10677392132870978, -7.685002739962588, 9362.0, 30146.0, 35388.0, 9362.0, 8.390083312988281, -0.030505141243338585, -0.3210156559944153, -0.35539719462394714, -0.07833288609981537, -0.038877423852682114, 0.9974359273910522, -0.10483839362859726, -0.20087814331054688, 1.4794921875, 1.216552734375, 0.297210693359375, 1.494873046875
66601, -1.1445142030715942, -5.245364189147949, 16.29038429260254, -0.028834186494350433, -0.015796372666954994, -90.29035186767578, 0.07219359278678894, 0.03922725468873978, -2.7840921878814697, -0.8195481300354004, -0.9806098937988281, 0.05456323176622391, -0.5740925970979731, -0.04246810255850164, -7.699184902098576, 9362.0, 30146.0, 35388.0, 9362.0, 8.390083312988281, 0.18831810355186462, 0.28678274154663086, -0.022563494741916656, -0.07697806507349014, -0.039275992661714554, 0.9972718954086304, -0.10483839362859726, -0.20087814331054688, 1.4794921875, 1.52783203125, 0.253387451171875, 1.493408203125
66611, -1.144911289215088, -5.24610710144043, 16.290388107299805, -0.028072047978639603, -0.015382161363959312, -90.31819915771484, 0.08023422211408615, 0.04361468926072121, -2.784738779067993, -0.8196162581443787, -0.9806171655654907, 0.05446789786219597, -0.6103792148696212, -0.09183230209441717, -7.664893267266517, 9362.0, 30146.0, 35388.0, 9362.0, 8.390083312988281, -0.1436919867992401, 0.24805819988250732, -0.11287800222635269, -0.07589668035507202, -0.03983518108725548, 0.9948241710662842, -0.10483839362859726, -0.20087814331054688, 1.4794921875, 1.294921875, 0.0565948486328125, 1.493408203125
66621, -1.143760323524475, -5.245381832122803, 16.290876388549805, -0.027229567989706993, -0.01492411457002163, -90.34605407714844, 0.08826163411140442, 0.04799455404281616, -2.785526990890503, -0.8196545243263245, -0.9806272387504578, 0.05440931394696236, -0.6004759470754981, -0.10520682638156131, -7.683700120966062, 9362.0, 30146.0, 35388.0, 9362.0, 8.390083312988281, 0.11486688256263733, -0.10762340575456619, 0.019259316846728325, -0.07449320703744888, -0.039004530757665634, 0.9931899905204773, -0.10483839362859726, -0.20087814331054688, 1.4794921875, 1.213623046875, 0.3115234375, 1.494873046875
66631, -1.1436175107955933, -5.246587753295898, 16.290327072143555, -0.02630690298974514, -0.01442231610417366, -90.37391662597656, 0.09627112746238708, 0.052365176379680634, -2.7865450382232666, -0.8195433020591736, -0.980617880821228, 0.05457161366939545, -0.5764711616887394, -0.05170031415713083, -7.707154468177452, 9362.0, 30146.0, 35388.0, 9362.0, 8.390083312988281, -0.08876509219408035, 0.04513948783278465, -0.08324558287858963, -0.075106680393219, -0.03833724185824394, 0.9944686889648438, -0.0934893935918808, 0.06792068481445312, 1.50146484375, 1.468505859375, 0.13604736328125, 1.494873046875
66641, -1.142432689666748, -5.251005172729492, 16.29062843322754, -0.0253041572868824, -0.013876828365027905, -90.40178680419922, 0.10427792370319366, 0.05673236772418022, -2.7875876426696777, -0.8195794224739075, -0.9806347489356995, 0.054525651037693024, -0.5679529311069327, -0.057426186024514436, -7.720699090852966, 9362.0, 30146.0, 35388.0, 9362.0, 8.390083312988281, -0.041328951716423035, 0.21319043636322021, -0.1646234095096588, -0.0731920450925827, -0.03549809381365776, 0.9968045949935913, -0.0934893935918808, 0.06792068481445312, 1.50146484375, 1.465576171875, 0.130889892578125, 1.48974609375
66651, -1.1431108713150024, -5.25034236907959, 16.290674209594727, -0.02422124706208706, -0.013287619687616825, -90.4296646118164, 0.11230417340993881, 0.061109401285648346, -2.7884202003479004, -0.8195930123329163, -0.9806399941444397, 0.05452178418636322, -0.5642819326464236, -0.06082081114527682, -7.720771102699459, 9362.0, 30146.0, 35388.0, 9362.0, 8.390083312988281, 0.1575513780117035, 0.17046907544136047, 0.2857825756072998, -0.07305873185396194, -0.03676788508892059, 0.9968569278717041, -0.0934893935918808, 0.06792068481445312, 1.50146484375, 1.51025390625, 0.2164154052734375, 1.48974609375
66661, -1.1430741548538208, -5.25302791595459, 16.29161834716797, -0.02305798977613449, -0.012654614634811878, -90.45755004882812, 0.12034730613231659, 0.06549159437417984, -2.7891428470611572, -0.819607138633728, -0.9806076288223267, 0.05446247011423111, -0.6072342974079363, -0.10822123457043631, -7.664153601912392, 9362.0, 30146.0, 35388.0, 9362.0, 8.390083312988281, -0.17765164375305176, -0.11614878475666046, 0.20552794635295868, -0.07393728941679001, -0.039312805980443954, 0.9962822198867798, -0.0934893935918808, 0.06792068481445312, 1.50146484375, 1.559326171875, 0.32293701171875, 1.496337890625
66671, -1.1433006525039673, -5.253515720367432, 16.292530059814453, -0.02181435190141201, -0.011977807618677616, -90.48544311523438, 0.12838028371334076, 0.0698699802160263, -2.7899701595306396, -0.8196173906326294, -0.9806235432624817, 0.054467491805553436, -0.6069295193837255, -0.09511001360846194, -7.6579281678213675, 9362.0, 30146.0, 35388.0, 9362.0, 8.390083312988281, -0.02564011514186859, 0.15043529868125916, -0.15842217206954956, -0.07607291638851166, -0.0402112677693367, 0.9955040216445923, -0.0934893935918808, 0.06792068481445312, 1.50146484375, 1.39013671875, 0.0314483642578125, 1.496337890625
66681, -1.143323302268982, -5.252164840698242, 16.294240951538086, -0.02049034647643566, -0.011257201433181763, -90.51334381103516, 0.13642068207263947, 0.07425141334533691, -2.790759801864624, -0.8195605874061584, -0.9806129932403564, 0.05457330867648125, -0.572079882087169, -0.046130464195925924, -7.7051484484706885, 9362.0, 30146.0, 35388.0, 9362.0, 8.390083312988281, 0.0020243600010871887, -0.4242144525051117, -0.1658918261528015, -0.07291200011968613, -0.04049878567457199, 0.994975209236145, -0.0934893935918808, 0.06792068481445312, 1.50146484375, 1.493408203125, 0.1825714111328125, 1.48974609375
66691, -1.143376111984253, -5.253740310668945, 16.29627799987793, -0.02049034647643566, -0.011257201433181763, -90.51334381103516, 0.13642068207263947, 0.07425141334533691, -2.790759801864624, -0.8195638656616211, -0.9806224703788757, 0.05457498878240585, -0.5756831288323, -0.04564727628260812, -7.700120192874275, 9362.0, 30146.0, 35388.0, 9362.0, 8.390083312988281, 0.22445984184741974, 0.3983552157878876, 0.015293882228434086, -0.0735497698187828, -0.041214633733034134, 0.9958186149597168, -0.0934893935918808, 0.06792068481445312, 1.50146484375, 1.544677734375, 0.2900543212890625, 1.48974609375
66711, -1.1422957181930542, -5.257235050201416, 16.29740333557129, -0.016036231070756912, -0.00883263349533081, -90.59710693359375, 0.16052815318107605, 0.08739105612039566, -2.7932915687561035, -0.8195452690124512, -0.9806171655654907, 0.054563555866479874, -0.5804499492148115, -0.052687623285976315, -7.703604602254839, 9362.0, 30146.0, 35388.0, 9362.0, 8.390083312988281, 0.007347496226429939, 0.4284915626049042, 0.055002208799123764, -0.07664152979850769, -0.038012344390153885, 0.9949584007263184, -0.0934893935918808, 0.06792068481445312, 1.50146484375, 1.335205078125, 0.018280029296875, 1.48974609375
66721, -1.1419788599014282, -5.257998466491699, 16.29680633544922, -0.016036231070756912, -0.00883263349533081, -90.59710693359375, 0.16052815318107605, 0.08739105612039566, -2.7932915687561035, -0.8195886015892029, -0.9806318879127502, 0.054511360824108124, -0.571626709587108, -0.05698491122527116, -7.720439245663542, 9362.0, 30146.0, 35388.0, 9362.0, 8.390083312988281, -0.13440360128879547, 0.051865413784980774, -0.04936468228697777, -0.07565391063690186, -0.03841778635978699, 0.9931066632270813, -0.0934893935918808, 0.06792068481445312, 1.50146484375, 1.275146484375, 0.09429931640625, 1.48974609375
66741, -1.1438884735107422, -5.259219169616699, 16.298006057739258, -0.012664900161325932, -0.006997221149504185, -90.65299224853516, 0.1766013503074646, 0.09614725410938263, -2.795063018798828, -0.8195518851280212, -0.9806130528450012, 0.05456940829753876, -0.5698375657070722, -0.044303431883605526, -7.70222149584902, 9362.0, 30146.0, 35388.0, 9362.0, 8.390083312988281, -0.263963520526886, 0.017620688304305077, 0.08679064363241196, -0.0757051333785057, -0.040401481091976166, 0.996423602104187, -0.09339477121829987, -0.12023735046386719, 1.486083984375, 1.512451171875, 0.2209625244140625, 1.494873046875
66751, -1.142553448677063, -5.2617316246032715, 16.29752540588379, -0.012664900161325932, -0.006997221149504185, -90.65299224853516, 0.1766013503074646, 0.09614725410938263, -2.795063018798828, -0.8195549249649048, -0.9806192517280579, 0.0545651949942112, -0.5703905234382665, -0.04547354675125348, -7.701837102143396, 9362.0, 30146.0, 35388.0, 9362.0, 8.390083312988281, 0.11717353016138077, 0.19549660384655, -0.007283836603164673, -0.0757051333785057, -0.040401481091976166, 0.996423602104187, -0.09339477121829987, -0.12023735046386719, 1.486083984375, 1.54541015625, 0.291656494140625, 1.494873046875
66791, -1.1409379243850708, -5.2647786140441895, 16.29767417907715, -0.0006206226535141468, -0.00043964292854070663, -90.82083129882812, 0.22490252554416656, 0.12245053052902222, -2.7999467849731445, -0.8195821046829224, -0.9806265830993652, 0.054518938064575195, -0.5669709712231793, -0.055293339821503196, -7.724315453704391, 9362.0, 30146.0, 35388.0, 9362.0, 8.390083312988281, 0.2377767115831375, -0.21502873301506042, 0.06482337415218353, -0.07497967034578323, -0.038398705422878265, 0.9972158670425415, -0.09339477121829987, -0.12023735046386719, 1.486083984375, 1.219482421875, 0.283355712890625, 1.494873046875
66801, -1.1399637460708618, -5.264682769775391, 16.29791831970215, -0.0006206226535141468, -0.00043964292854070663, -90.82083129882812, 0.22490252554416656, 0.12245053052902222, -2.7999467849731445, -0.8195735812187195, -0.9806271195411682, 0.054522208869457245, -0.5656061135119976, -0.05881825761133541, -7.717614195068057, 9362.0, 30146.0, 35388.0, 9362.0, 8.390083312988281, -0.09090353548526764, 0.07734881341457367, 0.14397449791431427, -0.07360433042049408, -0.03656511381268501, 0.9959986805915833, -0.09339477121829987, -0.12023735046386719, 1.486083984375, 1.5234375, 0.2439727783203125, 1.494873046875
66811, -1.1397455930709839, -5.2661004066467285, 16.300003051757812, -0.0006206226535141468, -0.00043964292854070663, -90.82083129882812, 0.22490252554416656, 0.12245053052902222, -2.7999467849731445, -0.8196239471435547, -0.980600893497467, 0.054461218416690826, -0.6079398028371047, -0.08839467421245217, -7.663446829647759, 9362.0, 30146.0, 35388.0, 9362.0, 8.390083312988281, 0.056704919785261154, 0.19740144908428192, 0.20381294190883636, -0.07360433042049408, -0.03656511381268501, 0.9959986805915833, -0.09339477121829987, -0.12023735046386719, 1.486083984375, 1.53955078125, 0.278778076171875, 1.494873046875
66841, -1.1418894529342651, -5.260414123535156, 16.29697608947754, 0.009020889177918434, 0.004809391684830189, -90.93287658691406, 0.25715938210487366, 0.13999180495738983, -2.802990674972534, -0.8195407390594482, -0.980617344379425, 0.05455439165234566, -0.5696897316529292, -0.04163248465195579, -7.699215720002293, 9362.0, 30146.0, 35388.0, 9362.0, 8.390083312988281, -0.06748602539300919, 0.011249605566263199, 0.11917267739772797, -0.07660844922065735, -0.03987113758921623, 0.9925525784492493, -0.07786882668733597, -0.12023735046386719, 1.486083984375, 1.53955078125, 0.278778076171875, 1.49267578125
66851, -1.1410048007965088, -5.26081657409668, 16.294599533081055, 0.009020889177918434, 0.004809391684830189, -90.93287658691406, 0.25715938210487366, 0.13999180495738983, -2.802990674972534, -0.8195834159851074, -0.9806250929832458, 0.05450882762670517, -0.5672779993371481, -0.05898820026934004, -7.720417725787971, 9362.0, 30146.0, 35388.0, 9362.0, 8.390083312988281, 0.14951378107070923, -0.11536940187215805, -0.0786745697259903, -0.07656776160001755, -0.03727516904473305, 0.9942178130149841, -0.07786882668733597, -0.12023735046386719, 1.486083984375, 1.4794921875, 0.155975341796875, 1.49267578125
66861, -1.140317440032959, -5.263376235961914, 16.294553756713867, 0.009020889177918434, 0.004809391684830189, -90.93287658691406, 0.25715938210487366, 0.13999180495738983, -2.802990674972534, -0.819550096988678, -0.9806218147277832, 0.05456433445215225, -0.5736916933945541, -0.04447421285385644, -7.6982039559961155, 9362.0, 30146.0, 35388.0, 9362.0, 8.390083312988281, 0.021818717941641808, 0.05670852214097977, -0.08752842992544174, -0.07656776160001755, -0.03727516904473305, 0.9942178130149841, -0.07786882668733597, -0.12023735046386719, 1.486083984375, 1.50439453125, 0.2044219970703125, 1.49267578125
66871, -1.1395868062973022, -5.263951778411865, 16.29482650756836, 0.009020889177918434, 0.004809391684830189, -90.93287658691406, 0.25715938210487366, 0.13999180495738983, -2.802990674972534, -0.8196167945861816, -0.9805989861488342, 0.0544440858066082, -0.6075008556639239, -0.09553247256332043, -7.660472051945061, 9362.0, 30146.0, 35388.0, 9362.0, 8.390083312988281, 0.1325492262840271, 0.2551804482936859, 0.13904042541980743, -0.07656776160001755, -0.03727516904473305, 0.9942178130149841, -0.07786882668733597, -0.12023735046386719, 1.486083984375, 1.286865234375, 0.070281982421875, 1.49267578125
66881, -1.1389514207839966, -5.266100883483887, 16.29582405090332, 0.009020889177918434, 0.004809391684830189, -90.93287658691406, 0.25715938210487366, 0.13999180495738983, -2.802990674972534, -0.8196104168891907, -0.9806077480316162, 0.05445783585309982, -0.609397314948581, -0.0967249942728472, -7.6629571197502, 9362.0, 30146.0, 35388.0, 9362.0, 8.390083312988281, 0.11451795697212219, 0.2280830591917038, -0.2435661405324936, -0.07656776160001755, -0.03727516904473305, 0.9942178130149841, -0.07786882668733597, -0.12023735046386719, 1.486083984375, 1.505126953125, 0.205902099609375, 1.49267578125
66891, -1.1382482051849365, -5.268161296844482, 16.29450225830078, 0.009020889177918434, 0.004809391684830189, -90.93287658691406, 0.25715938210487366, 0.13999180495738983, -2.802990674972534, -0.819619357585907, -0.9806029796600342, 0.05444125086069107, -0.6094261889282789, -0.10167056551188125, -7.658512070968036, 9362.0, 30146.0, 35388.0, 9362.0, 8.390083312988281, -0.15031751990318298, 0.40782299637794495, -0.2833901047706604, -0.07702235877513885, -0.042187128216028214, 0.9948118925094604, -0.07786882668733597, -0.12023735046386719, 1.486083984375, 1.529296875, 0.2564849853515625, 1.49267578125
66901, -1.138396143913269, -5.269939422607422, 16.292036056518555, 0.009020889177918434, 0.004809391684830189, -90.93287658691406, 0.25715938210487366, 0.13999180495738983, -2.802990674972534, -0.8195345997810364, -0.9806151390075684, 0.0545588843524456, -0.5800389542633827, -0.05681728246852913, -7.698046750166654, 9362.0, 30146.0, 35388.0, 9362.0, 8.390083312988281, -0.02042475715279579, -0.008337078616023064, -0.2839236259460449, -0.07702235877513885, -0.042187128216028214, 0.9948118925094604, -0.07786882668733597, -0.12023735046386719, 1.486083984375, 1.447998046875, 0.1016693115234375, 1.49267578125
66911, -1.1377772092819214, -5.272700309753418, 16.29304313659668, 0.03216737136244774, 0.017409129068255424, -91.15742492675781, 0.3215341567993164, 0.1750020682811737, -2.8104100227355957, -0.8195255994796753, -0.9806052446365356, 0.05457896739244461, -0.5753758246518008, -0.054082421844839246, -7.700216027542478, 9362.0, 30146.0, 35388.0, 9362.0, 8.390083312988281, 0.1138993352651596, 0.52723228931427, 0.010786615312099457, -0.07581032067537308, -0.03817232325673103, 0.9961008429527283, -0.07786882668733597, -0.12023735046386719, 1.486083984375, 1.3271484375, 0.022308349609375, 1.49267578125
66941, -1.1379529237747192, -5.2731828689575195, 16.289875030517578, 0.03875942528247833, 0.020996779203414917, -91.2136459350586, 0.3376772105693817, 0.1837649792432785, -2.8120205402374268, -0.8196021318435669, -0.9806045889854431, 0.05444256588816643, -0.6117476670688904, -0.10758859711444302, -7.66675480980549, 9362.0, 30146.0, 35388.0, 9362.0, 8.390083312988281, -0.22163720428943634, -0.37344425916671753, -0.14750753343105316, -0.07689587771892548, -0.03917095437645912, 0.9961548447608948, -0.07786882668733597, -0.12023735046386719, 1.486083984375, 1.386474609375, 0.028656005859375, 1.491943359375
66951, -1.1385599374771118, -5.273713111877441, 16.290679931640625, 0.03875942528247833, 0.020996779203414917, -91.2136459350586, 0.3376772105693817, 0.1837649792432785, -2.8120205402374268, -0.8195316791534424, -0.9806005954742432, 0.0545736700296402, -0.5766418208381016, -0.05924910281680695, -7.703609898555424, 9362.0, 30146.0, 35388.0, 9362.0, 8.390083312988281, 0.0992174968123436, -0.47283217310905457, 0.17036594450473785, -0.07689587771892548, -0.03917095437645912, 0.9961548447608948, -0.07786882668733597, -0.12023735046386719, 1.486083984375, 1.50732421875, 0.2104644775390625, 1.491943359375
66961, -1.1386665105819702, -5.273039817810059, 16.292129516601562, 0.04925327003002167, 0.026706939563155174, -91.29804229736328, 0.36189138889312744, 0.19690197706222534, -2.8146371841430664, -0.8195673227310181, -0.9806138873100281, 0.05451514199376106, -0.5655677435161102, -0.07875175619346919, -7.718202691872417, 9362.0, 30146.0, 35388.0, 9362.0, 8.390083312988281, 0.04068426415324211, 0.040566619485616684, 0.14021411538124084, -0.07437413185834885, -0.0392330065369606, 0.9970694780349731, -0.07786882668733597, -0.12023735046386719, 1.486083984375, 1.50732421875, 0.2104644775390625, 1.491943359375
66981, -1.1376709938049316, -5.271811485290527, 16.291160583496094, 0.04925327003002167, 0.026706939563155174, -91.29804229736328, 0.36189138889312744, 0.19690197706222534, -2.8146371841430664, -0.8195353150367737, -0.9805945158004761, 0.0545668788254261, -0.5808640855219764, -0.059704705120509516, -7.706345176494529, 9362.0, 30146.0, 35388.0, 9362.0, 8.390083312988281, 0.1918489634990692, 0.10093928128480911, 0.3885417878627777, -0.07882583886384964, -0.037092629820108414, 0.9974238872528076, -0.07786882668733597, -0.12023735046386719, 1.486083984375, 1.4619140625, 0.1246185302734375, 1.491943359375
66991, -1.1372952461242676, -5.270185947418213, 16.28996467590332, 0.060473475605249405, 0.032811302691698074, -91.38252258300781, 0.3861173391342163, 0.21005384624004364, -2.817023992538452, -0.8195438981056213, -0.9806070923805237, 0.054565683007240295, -0.5751641872126474, -0.05371950249551105, -7.700694726866753, 9362.0, 30146.0, 35388.0, 9362.0, 8.390083312988281, 0.21291586756706238, 0.014643226750195026, -0.17143084108829498, -0.07698270678520203, -0.04036013409495354, 0.9956277012825012, -0.07786882668733597, -0.12023735046386719, 1.486083984375, 1.4619140625, 0.1246185302734375, 1.491943359375
67011, -1.1378823518753052, -5.270952224731445, 16.291759490966797, 0.06835731118917465, 0.03710000962018967, -91.43888092041016, 0.4022572934627533, 0.21881230175495148, -2.818671703338623, -0.8195437788963318, -0.9805970191955566, 0.05455420911312103, -0.578782054534886, -0.051117409751185505, -7.698033111251589, 9362.0, 30146.0, 35388.0, 9362.0, 8.390083312988281, -0.2536299228668213, -0.16369479894638062, 0.028166016563773155, -0.07352045923471451, -0.03553825989365578, 0.9949299097061157, -0.07786882668733597, -0.12023735046386719, 1.486083984375, 1.474365234375, 0.14654541015625, 1.491943359375
67021, -1.1389505863189697, -5.270229816436768, 16.29352569580078, 0.06835731118917465, 0.03710000962018967, -91.43888092041016, 0.4022572934627533, 0.21881230175495148, -2.818671703338623, -0.8195623159408569, -0.9806017875671387, 0.05455766245722771, -0.5813919616693854, -0.04845612844462721, -7.699878449341939, 9362.0, 30146.0, 35388.0, 9362.0, 8.390083312988281, 0.14232636988162994, 0.2432050257921219, 0.13574178516864777, -0.07559028267860413, -0.0388307198882103, 0.994979977607727, -0.07786882668733597, -0.12023735046386719, 1.486083984375, 1.537353515625, 0.27386474609375, 1.491943359375
67041, -1.139129638671875, -5.270501136779785, 16.294832229614258, 0.06835731118917465, 0.03710000962018967, -91.43888092041016, 0.4022572934627533, 0.21881230175495148, -2.818671703338623, -0.819611132144928, -0.980588436126709, 0.054456569254398346, -0.6151544634976105, -0.10051976336913526, -7.660045451235323, 9362.0, 30146.0, 35388.0, 9362.0, 8.390083312988281, 0.02898140624165535, 0.05213921517133713, 0.3254570960998535, -0.07408703118562698, -0.038906268775463104, 0.9949514865875244, -0.07786882668733597, -0.12023735046386719, 1.486083984375, 1.516845703125, 0.23004150390625, 1.493408203125
67051, -1.139026165008545, -5.272169589996338, 16.29693031311035, 0.06835731118917465, 0.03710000962018967, -91.43888092041016, 0.4022572934627533, 0.21881230175495148, -2.818671703338623, -0.8195505142211914, -0.9805960059165955, 0.05455472692847252, -0.5815007925535343, -0.05091506903303866, -7.700203326269236, 9362.0, 30146.0, 35388.0, 9362.0, 8.390083312988281, 0.1464930772781372, 0.507537841796875, 0.2928902208805084, -0.0746098980307579, -0.037410397082567215, 0.994590699672699, -0.07786882668733597, -0.12023735046386719, 1.486083984375, 1.41357421875, 0.0542449951171875, 1.493408203125
67061, -1.1384538412094116, -5.272281169891357, 16.300125122070312, 0.06835731118917465, 0.03710000962018967, -91.43888092041016, 0.4022572934627533, 0.21881230175495148, -2.818671703338623, -0.8196200728416443, -0.9805911183357239, 0.054452549666166306, -0.617876117954183, -0.10099074754234039, -7.664531718579369, 9362.0, 30146.0, 35388.0, 9362.0, 8.390083312988281, -0.03916679695248604, -0.12286791205406189, 0.14101731777191162, -0.07275538891553879, -0.039446741342544556, 0.9944825172424316, -0.07786882668733597, -0.12023735046386719, 1.486083984375, 1.470703125, 0.1399383544921875, 1.4912109375
67071, -1.1383179426193237, -5.2700629234313965, 16.30099105834961, 0.06835731118917465, 0.03710000962018967, -91.43888092041016, 0.4022572934627533, 0.21881230175495148, -2.818671703338623, -0.8195487260818481, -0.9805975556373596, 0.05456843227148056, -0.5830457867224802, -0.05042885441821454, -7.70229544036672, 9362.0, 30146.0, 35388.0, 9362.0, 8.390083312988281, 0.07019196450710297, -0.012432514689862728, 0.12316680699586868, -0.07340942323207855, -0.04046431928873062, 0.9966344237327576, -0.07786882668733597, -0.12023735046386719, 1.486083984375, 1.53369140625, 0.265960693359375, 1.4912109375
67081, -1.1379836797714233, -5.268529415130615, 16.30280876159668, 0.06835731118917465, 0.03710000962018967, -91.43888092041016, 0.4022572934627533, 0.21881230175495148, -2.818671703338623, -0.8196195363998413, -0.9805752038955688, 0.05445114150643349, -0.6229781927755024, -0.09838622497335336, -7.661685611217153, 9362.0, 30146.0, 35388.0, 9362.0, 8.390083312988281, 0.1779155731201172, -0.386709988117218, -0.014084112830460072, -0.0747683122754097, -0.038731709122657776, 0.9968742728233337, -0.07786882668733597, -0.12023735046386719, 1.486083984375, 1.497802734375, 0.19122314453125, 1.4912109375
67111, -1.1387423276901245, -5.267762184143066, 16.305932998657227, 0.1031172126531601, 0.056005511432886124, -91.66465759277344, 0.46675336360931396, 0.25383710861206055, -2.8258965015411377, -0.8196517825126648, -0.9806026816368103, 0.05440749228000641, -0.6083158215630916, -0.11210044092320004, -7.682943314610368, 9362.0, 30146.0, 35388.0, 9362.0, 8.390083312988281, 0.013551919721066952, -0.49488428235054016, -0.12873435020446777, -0.07559371739625931, -0.03769921511411667, 0.9970901608467102, -0.07786882668733597, -0.12023735046386719, 1.486083984375, 1.3623046875, 0.0167999267578125, 1.491943359375
67121, -1.1404216289520264, -5.270096778869629, 16.30590057373047, 0.1031172126531601, 0.056005511432886124, -91.66465759277344, 0.46675336360931396, 0.25383710861206055, -2.8258965015411377, -0.8195517063140869, -0.9805915355682373, 0.054577942937612534, -0.5759923597323687, -0.04577966387850552, -7.706685977373067, 9362.0, 30146.0, 35388.0, 9362.0, 8.390083312988281, -0.21570268273353577, 0.27819520235061646, 0.0019205996068194509, -0.07363681495189667, -0.038998186588287354, 0.9955390691757202, -0.07786882668733597, -0.12023735046386719, 1.486083984375, 1.3623046875, 0.0167999267578125, 1.491943359375
67141, -1.1399767398834229, -5.269458293914795, 16.308834075927734, 0.1031172126531601, 0.056005511432886124, -91.66465759277344, 0.46675336360931396, 0.25383710861206055, -2.8258965015411377, -0.8196261525154114, -0.980598509311676, 0.054459765553474426, -0.6122168734418522, -0.09823471862623023, -7.65965921496394, 9362.0, 30146.0, 35388.0, 9362.0, 8.390083312988281, -0.008150205947458744, -0.13761325180530548, 0.3733682632446289, -0.07396770268678665, -0.038256146013736725, 0.9960570335388184, -0.09494481980800629, 0.06792068481445312, 1.50146484375, 1.3681640625, 0.0185394287109375, 1.494873046875
67151, -1.1411008834838867, -5.268567085266113, 16.307537078857422, 0.1031172126531601, 0.056005511432886124, -91.66465759277344, 0.46675336360931396, 0.25383710861206055, -2.8258965015411377, -0.819617509841919, -0.9805894494056702, 0.05445896089076996, -0.6107273875997807, -0.09807268961193927, -7.666466858185601, 9362.0, 30146.0, 35388.0, 9362.0, 8.390083312988281, -0.1664782464504242, -0.06061471626162529, 0.30016788840293884, -0.07403521239757538, -0.03816678375005722, 0.9969684481620789, -0.09494481980800629, 0.06792068481445312, 1.50146484375, 1.465576171875, 0.130889892578125, 1.494873046875
67161, -1.1411017179489136, -5.267234802246094, 16.308570861816406, 0.1031172126531601, 0.056005511432886124, -91.66465759277344, 0.46675336360931396, 0.25383710861206055, -2.8258965015411377, -0.8195545077323914, -0.980603039264679, 0.054571960121393204, -0.5773168073896321, -0.04622020703936869, -7.700950492582669, 9362.0, 30146.0, 35388.0, 9362.0, 8.390083312988281, -0.03526834025979042, -0.0005527490866370499, 0.2638374865055084, -0.07491735368967056, -0.037704601883888245, 0.9950570464134216, -0.09494481980800629, 0.06792068481445312, 1.50146484375, 1.465576171875, 0.130889892578125, 1.494873046875
67181, -1.1406515836715698, -5.2694783210754395, 16.31159210205078, 0.1031172126531601, 0.056005511432886124, -91.66465759277344, 0.46675336360931396, 0.25383710861206055, -2.8258965015411377, -0.8196281790733337, -0.9806056022644043, 0.05445883050560951, -0.6072755976992636, -0.0988181539056825, -7.664038069594729, 9362.0, 30146.0, 35388.0, 9362.0, 8.390083312988281, 0.10911794006824493, 0.23819179832935333, 0.22768652439117432, -0.07601714879274368, -0.03924516960978508, 0.9957062602043152, -0.09494481980800629, 0.06792068481445312, 1.50146484375, 1.4970703125, 0.18975830078125, 1.494873046875
67191, -1.1408393383026123, -5.269793510437012, 16.314464569091797, 0.1031172126531601, 0.056005511432886124, -91.66465759277344, 0.46675336360931396, 0.25383710861206055, -2.8258965015411377, -0.8195601105690002, -0.9806214570999146, 0.0545743964612484, -0.5688977107999097, -0.047496643088408064, -7.708037555875566, 9362.0, 30146.0, 35388.0, 9362.0, 8.390083312988281, -0.10752952843904495, -0.13978925347328186, 0.186855286359787, -0.07700427621603012, -0.03715802729129791, 0.9957030415534973, -0.09494481980800629, 0.06792068481445312, 1.50146484375, 1.5029296875, 0.201446533203125, 1.494873046875
67201, -1.1420689821243286, -5.271464824676514, 16.313703536987305, 0.1031172126531601, 0.056005511432886124, -91.66465759277344, 0.46675336360931396, 0.25383710861206055, -2.8258965015411377, -0.8195661902427673, -0.9806190133094788, 0.054577529430389404, -0.5694867009238617, -0.05013539229398134, -7.700418885637775, 9362.0, 30146.0, 35388.0, 9362.0, 8.390083312988281, 0.03917762264609337, 0.4147181808948517, -0.25652408599853516, -0.07700427621603012, -0.03715802729129791, 0.9957030415534973, -0.09494481980800629, 0.06792068481445312, 1.50146484375, 1.34912109375, 0.015380859375, 1.494873046875
67211, -1.1427122354507446, -5.273967742919922, 16.313987731933594, 0.1031172126531601, 0.056005511432886124, -91.66465759277344, 0.46675336360931396, 0.25383710861206055, -2.8258965015411377, -0.8196446895599365, -0.9806219339370728, 0.054425135254859924, -0.5936741519747484, -0.1140965783141894, -7.676228310440398, 9362.0, 30146.0, 35388.0, 9362.0, 8.390083312988281, 0.06828928738832474, 0.2379848062992096, 0.22889529168605804, -0.07700427621603012, -0.03715802729129791, 0.9957030415534973, -0.09494481980800629, 0.06792068481445312, 1.50146484375, 1.553466796875, 0.309661865234375, 1.494873046875
67221, -1.142583966255188, -5.274539947509766, 16.314878463745117, 0.1031172126531601, 0.056005511432886124, -91.66465759277344, 0.46675336360931396, 0.25383710861206055, -2.8258965015411377, -0.8195872902870178, -0.9806314706802368, 0.05454760789871216, -0.5571883982352265, -0.05940196130606523, -7.72055745961971, 9362.0, 30146.0, 35388.0, 9362.0, 8.390083312988281, 0.1805020123720169, 0.01777283102273941, 0.10325510054826736, -0.0746002122759819, -0.039005931466817856, 0.9962502121925354, -0.09494481980800629, 0.06792068481445312, 1.50146484375, 1.4970703125, 0.18975830078125, 1.494873046875
67231, -1.1424471139907837, -5.273735523223877, 16.315536499023438, 0.1031172126531601, 0.056005511432886124, -91.66465759277344, 0.46675336360931396, 0.25383710861206055, -2.8258965015411377, -0.8196260333061218, -0.9806164503097534, 0.05446990579366684, -0.5979607847189885, -0.09633506250045798, -7.655964851861987, 9362.0, 30146.0, 35388.0, 9362.0, 8.390083312988281, 0.015869764611124992, 0.013242395594716072, -0.07188178598880768, -0.0770934447646141, -0.0376848466694355, 0.9949995279312134, -0.09983675926923752, -0.13815879821777344, 1.484619140625, 1.4970703125, 0.18975830078125, 1.494873046875
67241, -1.1417624950408936, -5.276613235473633, 16.31647300720215, 0.1031172126531601, 0.056005511432886124, -91.66465759277344, 0.46675336360931396, 0.25383710861206055, -2.8258965015411377, -0.8196302056312561, -0.9806114435195923, 0.054470766335725784, -0.6015719816167338, -0.10054906360039695, -7.661287781284523, 9362.0, 30146.0, 35388.0, 9362.0, 8.390083312988281, -0.10475248098373413, 0.020712073892354965, 0.39611899852752686, -0.0770934447646141, -0.0376848466694355, 0.9949995279312134, -0.09983675926923752, -0.13815879821777344, 1.484619140625, 1.308837890625, 0.0379486083984375, 1.494873046875
67251, -1.1424955129623413, -5.273534297943115, 16.31577491760254, 0.18812131881713867, 0.10223216563463211, -92.11782836914062, 0.595804750919342, 0.32402414083480835, -2.8390376567840576, -0.8196263909339905, -0.9806161522865295, 0.054461512714624405, -0.6058009332911409, -0.09710690890452156, -7.6664543653718535, 9362.0, 30146.0, 35388.0, 9362.0, 8.390083312988281, 0.003103818278759718, -0.30638155341148376, 0.020275026559829712, -0.07536301761865616, -0.039626941084861755, 0.9959200024604797, -0.09983675926923752, -0.13815879821777344, 1.484619140625, 1.43115234375, 0.0766143798828125, 1.494873046875
67261, -1.1440452337265015, -5.274374485015869, 16.319194793701172, 0.18812131881713867, 0.10223216563463211, -92.11782836914062, 0.595804750919342, 0.32402414083480835, -2.8390376567840576, -0.819656252861023, -0.9806289076805115, 0.05441443622112274, -0.5957197287489578, -0.1159897613587475, -7.683906546284685, 9362.0, 30146.0, 35388.0, 9362.0, 8.390083312988281, -0.16092176735401154, 0.13741905987262726, 0.45746952295303345, -0.07536301761865616, -0.039626941084861755, 0.9959200024604797, -0.09983675926923752, -0.13815879821777344, 1.484619140625, 1.490478515625, 0.1768646240234375, 1.494873046875
67271, -1.1446397304534912, -5.273757457733154, 16.3193416595459, 0.18812131881713867, 0.10223216563463211, -92.11782836914062, 0.595804750919342, 0.32402414083480835, -2.8390376567840576, -0.819591224193573, -0.9806239008903503, 0.054546549916267395, -0.5662799308393135, -0.061874715893651455, -7.724493345808758, 9362.0, 30146.0, 35388.0, 9362.0, 8.390083312988281, -0.16092176735401154, 0.13741905987262726, 0.45746952295303345, -0.07494236528873444, -0.03777225315570831, 0.9944180250167847, -0.09983675926923752, -0.13815879821777344, 1.484619140625, 1.4765625, 0.1505584716796875, 1.494873046875
67291, -1.1455750465393066, -5.274965286254883, 16.32465362548828, 0.21259920299053192, 0.11554455757141113, -92.23146057128906, 0.6280757188796997, 0.3415946662425995, -2.8424839973449707, -0.8195393681526184, -0.9806032776832581, 0.05459247902035713, -0.5763687175281224, -0.05506232647593379, -7.7023141274073135, 9362.0, 30146.0, 35388.0, 9362.0, 8.390083312988281, -0.1283763349056244, -0.1747235804796219, 0.2835846245288849, -0.07538361102342606, -0.03787332773208618, 0.9978698492050171, -0.09983675926923752, -0.13815879821777344, 1.484619140625, 1.51611328125, 0.2286224365234375, 1.494873046875
67301, -1.147226333618164, -5.275206565856934, 16.325700759887695, 0.21259920299053192, 0.11554455757141113, -92.23146057128906, 0.6280757188796997, 0.3415946662425995, -2.8424839973449707, -0.8195403814315796, -0.9806020259857178, 0.05460333079099655, -0.5814516545971865, -0.058065880292645033, -7.702755923591393, 9362.0, 30146.0, 35388.0, 9362.0, 8.390083312988281, -0.1415599137544632, 0.046595100313425064, 0.039923619478940964, -0.07538361102342606, -0.03787332773208618, 0.9978698492050171, -0.09983675926923752, -0.13815879821777344, 1.484619140625, 1.3623046875, 0.0167999267578125, 1.494873046875
67311, -1.1486175060272217, -5.275883674621582, 16.324520111083984, 0.21259920299053192, 0.11554455757141113, -92.23146057128906, 0.6280757188796997, 0.3415946662425995, -2.8424839973449707, -0.8195735216140747, -0.980613648891449, 0.05455603823065758, -0.5711307892964926, -0.061354065378196765, -7.719010381547613, 9362.0, 30146.0, 35388.0, 9362.0, 8.390083312988281, 0.17218104004859924, 0.21643950045108795, 0.02258477732539177, -0.07538361102342606, -0.03787332773208618, 0.9978698492050171, -0.09983675926923752, -0.13815879821777344, 1.484619140625, 1.475830078125, 0.1492767333984375, 1.494873046875
67321, -1.1487592458724976, -5.277220726013184, 16.325469970703125, 0.21259920299053192, 0.11554455757141113, -92.23146057128906, 0.6280757188796997, 0.3415946662425995, -2.8424839973449707, -0.8195416331291199, -0.980591356754303, 0.05458761751651764, -0.5815290113366893, -0.04629719242549868, -7.697899605678914, 9362.0, 30146.0, 35388.0, 9362.0, 8.390083312988281, -0.10433455556631088, 0.10320152342319489, 0.1240268424153328, -0.07538361102342606, -0.03787332773208618, 0.9978698492050171, -0.09983675926923752, -0.13815879821777344, 1.484619140625, 1.51025390625, 0.2164154052734375, 1.494873046875
67341, -1.151229977607727, -5.275454998016357, 16.325611114501953, 0.238367959856987, 0.12956032156944275, -92.34522247314453, 0.6603584885597229, 0.35919874906539917, -2.845771074295044, -0.819621741771698, -0.9805951714515686, 0.05446643382310867, -0.6233014624355825, -0.09475016451494866, -7.659810776898379, 9362.0, 30146.0, 35388.0, 9362.0, 8.390083312988281, -0.30623358488082886, -0.5953397750854492, -0.17460614442825317, -0.07341271638870239, -0.037510912865400314, 0.9973589777946472, -0.10000671446323395, -0.07543754577636719, 1.48974609375, 1.323486328125, 0.024688720703125, 1.48828125
67361, -1.154433250427246, -5.275755882263184, 16.323444366455078, 0.2517367899417877, 0.13683253526687622, -92.40214538574219, 0.6765191555023193, 0.36801961064338684, -2.847247838973999, -0.819554328918457, -0.9805954098701477, 0.054598987102508545, -0.5885136456003592, -0.04811308219652233, -7.702712836464248, 9362.0, 30146.0, 35388.0, 9362.0, 8.390083312988281, -0.3370188772678375, 0.3887481987476349, -0.08745626360177994, -0.07750974595546722, -0.04028180614113808, 0.9983317255973816, -0.10000671446323395, -0.07543754577636719, 1.48974609375, 1.48828125, 0.172576904296875, 1.494873046875
67371, -1.1570816040039062, -5.275573253631592, 16.321788787841797, 0.2517367899417877, 0.13683253526687622, -92.40214538574219, 0.6765191555023193, 0.36801961064338684, -2.847247838973999, -0.8195769190788269, -0.9806069731712341, 0.05454045906662941, -0.5829802072278082, -0.059021901470771354, -7.719557759167043, 9362.0, 30146.0, 35388.0, 9362.0, 8.390083312988281, -0.17076793313026428, 0.19492943584918976, -0.00825484935194254, -0.07750974595546722, -0.04028180614113808, 0.9983317255973816, -0.10000671446323395, -0.07543754577636719, 1.48974609375, 1.289794921875, 0.065032958984375, 1.494873046875
67391, -1.1560134887695312, -5.274536609649658, 16.32154655456543, 0.27944326400756836, 0.15190638601779938, -92.51609802246094, 0.7088202834129333, 0.385690301656723, -2.850114583969116, -0.819617509841919, -0.9805780053138733, 0.05447404831647873, -0.6215120015364607, -0.09686679025500666, -7.659266922346563, 9362.0, 30146.0, 35388.0, 9362.0, 8.390083312988281, 0.2238219827413559, 0.03752138465642929, 0.19532905519008636, -0.0778229609131813, -0.0418902151286602, 0.997664749622345, -0.10000671446323395, -0.07543754577636719, 1.48974609375, 1.5, 0.19561767578125, 1.494873046875
67401, -1.1553436517715454, -5.272890090942383, 16.319995880126953, 0.27944326400756836, 0.15190638601779938, -92.51609802246094, 0.7088202834129333, 0.385690301656723, -2.850114583969116, -0.8196173906326294, -0.9805859327316284, 0.05447453260421753, -0.617279270631803, -0.09370138330038458, -7.658567350343369, 9362.0, 30146.0, 35388.0, 9362.0, 8.390083312988281, 0.2238219827413559, 0.03752138465642929, 0.19532905519008636, -0.0739997923374176, -0.040640998631715775, 0.9928762912750244, -0.10000671446323395, -0.07543754577636719, 1.48974609375, 1.51025390625, 0.2164154052734375, 1.494873046875
67411, -1.154941201210022, -5.274858474731445, 16.318382263183594, 0.27944326400756836, 0.15190638601779938, -92.51609802246094, 0.7088202834129333, 0.385690301656723, -2.850114583969116, -0.8196157217025757, -0.9805909991264343, 0.054468657821416855, -0.6184083587894545, -0.09831667382059095, -7.6646782393254815, 9362.0, 30146.0, 35388.0, 9362.0, 8.390083312988281, 0.22141560912132263, 0.07734375447034836, -0.42617443203926086, -0.0739997923374176, -0.040640998631715775, 0.9928762912750244, -0.10000671446323395, -0.07543754577636719, 1.48974609375, 1.47509765625, 0.147857666015625, 1.494873046875
