timeTick, roll, pitch, yaw, stateX, stateY, stateZ, stateVX, stateVY, stateVZ, otX0, otY0, otZ0, otRoll0, otPitch0, otYaw0, left wing, pitch motor, yaw motor, right wing, voltage, roll rate, pitch rate, yaw rate, A_x, A_y, A_z, current, i_raw, v_raw, airflow_voltage, airflow_speed, pot_Pitch
51946, 6.557933330535889, 12.518291473388672, -62.07921600341797, 0, 0, 0, 0, 0, 0, -0.823652446269989, -0.99554842710495, 0.05431772395968437, -1.0363975900812445, -0.8433844248071409, 3.367288846430371, 0, 0, 0, 0, 0, 0, 0, 0, 0, 0, 0, 0, 0, 0, 0, 0, 0
51956, 6.560342311859131, 12.520076751708984, -62.091068267822266, 0.003889384213835001, -0.0026370619889348745, -49.73989486694336, 0.37910711765289307, -0.25704067945480347, -1.9208751916885376, -0.8236464262008667, -0.9955542683601379, 0.05430184304714203, -1.0388945541374095, -0.8425560726551566, 3.361307827169743, 9362.0, 30146.0, 35388.0, 9362.0, 0, 0.1567247062921524, -0.11417817324399948, -0.29945358633995056, -0.09403600543737411, -0.048614583909511566, 0.9937892556190491, 0, 0, 0, 1.496337890625, 0.1883087158203125, 0
51966, 6.560673236846924, 12.520635604858398, -62.091148376464844, 0.007582188583910465, -0.005140840075910091, -49.75912094116211, 0.35945653915405273, -0.24371108412742615, -1.9244964122772217, -0.8236506581306458, -0.9955481290817261, 0.05431506782770157, -1.0350391933437637, -0.8449101047354759, 3.3702603693097153, 9362.0, 30146.0, 35388.0, 9362.0, 0, -0.12576156854629517, -0.34542396664619446, -0.3092687726020813, -0.09416484087705612, -0.048990894109010696, 0.9940350651741028, 0, 0, 0, 1.53076171875, 0.2596435546875, 1.493408203125
51976, 6.559311389923096, 12.522212028503418, -62.08954620361328, 0.011078370735049248, -0.0075112273916602135, -49.778385162353516, 0.33977994322776794, -0.23036639392375946, -1.9280166625976562, -0.8236825466156006, -0.9955641031265259, 0.054261215031147, -1.02205776659505, -0.8712338072102739, 3.345936727818103, 9362.0, 30146.0, 35388.0, 9362.0, 0, -0.1700790524482727, 0.2937062084674835, 0.19448493421077728, -0.09513698518276215, -0.04933848977088928, 0.993800163269043, 0, 0, 0, 1.51611328125, 0.2286224365234375, 1.493408203125
51986, 6.558439254760742, 12.52264404296875, -62.088356018066406, 0.014377818442881107, -0.009748188778758049, -49.79768371582031, 0.32010921835899353, -0.2170265018939972, -1.931571364402771, -0.8236867189407349, -0.9955788254737854, 0.05425691977143288, -1.0155446841245797, -0.8634844056944644, 3.3554205567397215, 9362.0, 30146.0, 35388.0, 9362.0, 0, 0.2039145827293396, -0.23102502524852753, 0.07009828835725784, -0.09567424654960632, -0.05206136777997017, 0.9930376410484314, 0, 0, 0, 1.51904296875, 0.2346954345703125, 1.49267578125
51996, 6.559772968292236, 12.522200584411621, -62.08553695678711, 0.017480622977018356, -0.0118517791852355, -49.8170166015625, 0.3004513084888458, -0.20369192957878113, -1.9351855516433716, -0.8236492872238159, -0.9955548644065857, 0.054310716688632965, -1.0388534237410025, -0.8394635796910279, 3.3720349258039186, 9362.0, 30146.0, 35388.0, 9362.0, 0, -0.0039378018118441105, -0.08937142044305801, 0.0025033033452928066, -0.09561697393655777, -0.05170623958110809, 0.9943186640739441, 0, 0, 0, 1.4794921875, 0.155975341796875, 1.49267578125
52006, 6.560057163238525, 12.523160934448242, -62.08782196044922, 0.02038678340613842, -0.013821972534060478, -49.836387634277344, 0.28078004717826843, -0.19034777581691742, -1.9387344121932983, -0.823681116104126, -0.9955658912658691, 0.05425473302602768, -1.0209331119064016, -0.8631319589239581, 3.3438437955428206, 9362.0, 30146.0, 35388.0, 9362.0, 0, -0.0242169126868248, -0.13035623729228973, -0.10326265543699265, -0.0954296812415123, -0.04922175034880638, 0.9956132769584656, 0, 0, 0, 1.528564453125, 0.2548828125, 1.48828125
52016, 6.558826446533203, 12.523578643798828, -62.08774185180664, 0.023096147924661636, -0.01565868966281414, -49.85579299926758, 0.2610935568809509, -0.17699503898620605, -1.9422155618667603, -0.8236931562423706, -0.9955665469169617, 0.0542558915913105, -1.0234175410025879, -0.8660186695491348, 3.3509692122760515, 9362.0, 30146.0, 35388.0, 9362.0, 0, 0.2520969808101654, -0.03418664261698723, -0.6228030920028687, -0.09386121481657028, -0.05055931210517883, 0.9933749437332153, 0, 0, 0, 1.556396484375, 0.316192626953125, 1.48828125
52026, 6.560892105102539, 12.52363395690918, -62.0917854309082, 0.025608550757169724, -0.017361806705594063, -49.8752326965332, 0.24138706922531128, -0.1636282503604889, -1.9456062316894531, -0.8236575126647949, -0.9955505132675171, 0.05431467294692993, -1.0364526564372976, -0.8477155770316642, 3.3736133388344807, 9362.0, 30146.0, 35388.0, 9362.0, 0, 0.17403729259967804, 0.18165269494056702, 0.263552188873291, -0.09472506493330002, -0.0495094396173954, 0.9925822019577026, 0, 0, 0, 1.522705078125, 0.242462158203125, 1.493408203125
52036, 6.562644958496094, 12.522659301757812, -62.09589767456055, 0.02792416140437126, -0.018931427970528603, -49.89470672607422, 0.22173604369163513, -0.15029457211494446, -1.9492521286010742, -0.8236374855041504, -0.9955530762672424, 0.054300934076309204, -1.0429886393384058, -0.8430058252297954, 3.369676440003758, 9362.0, 30146.0, 35388.0, 9362.0, 0, -0.0994824543595314, -0.1737767904996872, -0.38585659861564636, -0.09457714110612869, -0.052288126200437546, 0.9939297437667847, 0, 0, 0, 1.56298828125, 0.3311767578125, 1.493408203125
52046, 6.562325954437256, 12.521539688110352, -62.09461212158203, 0.03004322573542595, -0.02036769688129425, -49.91421890258789, 0.20207785069942474, -0.13695767521858215, -1.952873706817627, -0.8236510157585144, -0.9955471754074097, 0.05431746318936348, -1.0423896101173729, -0.8401175677399806, 3.3705768740690387, 9362.0, 30146.0, 35388.0, 9362.0, 8.390083312988281, -0.09738382697105408, 0.255926251411438, 0.5501438975334167, -0.094655342400074, -0.05047858878970146, 0.9955265522003174, -0.08646190911531448, -0.01271820068359375, 1.494873046875, 1.52490234375, 0.247039794921875, 1.489013671875
52056, 6.56151008605957, 12.516990661621094, -62.09233093261719, 0.031965527683496475, -0.02167048305273056, -49.93376541137695, 0.18238219618797302, -0.12360002845525742, -1.9563254117965698, -0.8236905932426453, -0.9955763220787048, 0.05425421893596649, -1.020424167252178, -0.8704242512620226, 3.3546170920177873, 9362.0, 30146.0, 35388.0, 9362.0, 8.390083312988281, 0.03358149901032448, 0.27321988344192505, -0.1954885870218277, -0.09526504576206207, -0.051217760890722275, 0.9931517243385315, -0.08646190911531448, -0.01271820068359375, 1.494873046875, 1.546875, 0.2949676513671875, 1.489013671875
52066, 6.559174060821533, 12.517230987548828, -62.08950424194336, 0.03369094058871269, -0.0228397436439991, -49.953346252441406, 0.16269974410533905, -0.11025277525186539, -1.9598349332809448, -0.8236237168312073, -0.9955629110336304, 0.054371241480112076, -1.0286429904633188, -0.857776380451412, 3.3677829155298755, 9362.0, 30146.0, 35388.0, 9362.0, 8.390083312988281, 0.08885230869054794, -0.2525150179862976, 0.5146000385284424, -0.0966348648071289, -0.04963833466172218, 0.991675615310669, -0.08646190911531448, -0.01271820068359375, 1.494873046875, 1.470703125, 0.1399383544921875, 1.494873046875
52076, 6.559804439544678, 12.516867637634277, -62.088043212890625, 0.035219695419073105, -0.023875664919614792, -49.97296142578125, 0.14305059611797333, -0.09693238139152527, -1.963484764099121, -0.8236729502677917, -0.9955792427062988, 0.05429857596755028, -1.0089716316490382, -0.87990437563829, 3.351151756408576, 9362.0, 30146.0, 35388.0, 9362.0, 8.390083312988281, 0.09958963096141815, -0.15458250045776367, -0.1318514049053192, -0.09813160449266434, -0.048250146210193634, 0.9941722750663757, -0.08646190911531448, -0.01271820068359375, 1.494873046875, 1.5263671875, 0.2502899169921875, 1.494873046875
52086, 6.5597662925720215, 12.518881797790527, -62.088069915771484, 0.03655196726322174, -0.024778371676802635, -49.99261474609375, 0.12340335547924042, -0.0836096704006195, -1.9671289920806885, -0.8236282467842102, -0.9955556988716125, 0.05436272174119949, -1.0265125568410627, -0.8578469955525065, 3.362395366136439, 9362.0, 30146.0, 35388.0, 9362.0, 8.390083312988281, -0.08452297747135162, -0.506157636642456, 0.007201354950666428, -0.09612877666950226, -0.048516254872083664, 0.9951190948486328, -0.08646190911531448, -0.01271820068359375, 1.494873046875, 1.512451171875, 0.2209625244140625, 1.491943359375
52096, 6.560090065002441, 12.521732330322266, -62.088890075683594, 0.03768756985664368, -0.025547727942466736, -50.01230239868164, 0.10371693968772888, -0.0702618658542633, -1.9705888032913208, -0.8236317038536072, -0.9955660104751587, 0.054348718374967575, -1.0288171285190373, -0.8557370872911747, 3.3646998063743534, 9362.0, 30146.0, 35388.0, 9362.0, 8.390083312988281, 0.06756991893053055, 0.049394525587558746, -0.19300703704357147, -0.09625764191150665, -0.04948516935110092, 0.9938063025474548, -0.08646190911531448, -0.01271820068359375, 1.494873046875, 1.48974609375, 0.1755218505859375, 1.491943359375
52106, 6.561480522155762, 12.522504806518555, -62.092315673828125, 0.03862630948424339, -0.02618359960615635, -50.03202438354492, 0.08403144031763077, -0.0569123700261116, -1.9740597009658813, -0.8236724734306335, -0.9955868124961853, 0.05430423095822334, -1.0089544561014117, -0.872075002966767, 3.3451959397545625, 9362.0, 30146.0, 35388.0, 9362.0, 8.390083312988281, -0.1374308466911316, -0.27377843856811523, 0.049238309264183044, -0.09510931372642517, -0.04902094230055809, 0.9940722584724426, -0.08646190911531448, -0.01271820068359375, 1.494873046875, 1.544677734375, 0.2900543212890625, 1.494140625
52116, 6.560059070587158, 12.524396896362305, -62.09150314331055, 0.03936823830008507, -0.026685992255806923, -50.051780700683594, 0.06435485184192657, -0.04356515035033226, -1.977583885192871, -0.8236614465713501, -0.99558025598526, 0.05429620295763016, -1.014576499362393, -0.8781220654150843, 3.3480351638993904, 9362.0, 30146.0, 35388.0, 9362.0, 8.390083312988281, -0.03906727209687233, 0.3357473611831665, -0.07418570667505264, -0.09451804310083389, -0.04850003868341446, 0.9924848675727844, -0.08646190911531448, -0.01271820068359375, 1.494873046875, 1.5322265625, 0.2628021240234375, 1.494140625
52126, 6.560278415679932, 12.524683952331543, -62.090999603271484, 0.039913445711135864, -0.02705494500696659, -50.07157516479492, 0.04468657821416855, -0.03022574447095394, -1.9811620712280273, -0.8236309289932251, -0.9955635666847229, 0.054347965866327286, -1.0309729539685843, -0.8536051408080709, 3.3618612582939265, 9362.0, 30146.0, 35388.0, 9362.0, 8.390083312988281, 0.1786312460899353, -0.14712420105934143, 0.07719068974256516, -0.09484902769327164, -0.04978519678115845, 0.9948269128799438, -0.08646190911531448, -0.01271820068359375, 1.494873046875, 1.53955078125, 0.278778076171875, 1.49560546875
52136, 6.560627460479736, 12.52869701385498, -62.089996337890625, 0.040262021124362946, -0.02729051746428013, -50.09140396118164, 0.02502821758389473, -0.01688890904188156, -1.9847859144210815, -0.8236765265464783, -0.9955859780311584, 0.054295945912599564, -1.011623948205133, -0.8758176202602783, 3.3474125859334043, 9362.0, 30146.0, 35388.0, 9362.0, 8.390083312988281, 0.06024160236120224, -0.2675589323043823, 0.10273165255784988, -0.09529314935207367, -0.05066953971982002, 0.9936560988426208, -0.08646190911531448, -0.01271820068359375, 1.494873046875, 1.535888671875, 0.2707366943359375, 1.49560546875
52146, 6.559260845184326, 12.527440071105957, -62.08596420288086, 0.04041382297873497, -0.027392594143748283, -50.111270904541016, 0.0053317612037062645, -0.003526944201439619, -1.9882309436798096, -0.8236292004585266, -0.9955684542655945, 0.05435485392808914, -1.0321152762808157, -0.8607898570026293, 3.36830339578364, 9362.0, 30146.0, 35388.0, 9362.0, 8.370248794555664, -0.07788369804620743, -0.03199468180537224, 0.39628973603248596, -0.09639079868793488, -0.04909895360469818, 0.9932923316955566, -0.0921940729022026, 0.04104042053222656, 1.499267578125, 1.550537109375, 0.303131103515625, 1.48974609375
52156, 6.55841588973999, 12.527752876281738, -62.08183288574219, 0.040368806570768356, -0.02736113779246807, -50.13117218017578, -0.014336160384118557, 0.009817013517022133, -1.9918345212936401, -0.8236321210861206, -0.9955690503120422, 0.05435793846845627, -1.0269171524724285, -0.853862273508895, 3.3609848834169984, 9362.0, 30146.0, 35388.0, 9362.0, 8.370248794555664, 0.052165258675813675, -0.05170080438256264, 0.08106435835361481, -0.09596071392297745, -0.04864276573061943, 0.9952802062034607, -0.0921940729022026, 0.04104042053222656, 1.499267578125, 1.534423828125, 0.267578125, 1.48974609375
52166, 6.558711528778076, 12.526885986328125, -62.079532623291016, 0.04012703523039818, -0.027196193113923073, -50.15110778808594, -0.034019336104393005, 0.02317039668560028, -1.9953558444976807, -0.8236257433891296, -0.995570957660675, 0.05435989052057266, -1.0312659923423007, -0.8591243494517187, 3.365425260571148, 9362.0, 30146.0, 35388.0, 9362.0, 8.370248794555664, 0.17799505591392517, -0.12143875658512115, 0.1468939185142517, -0.09465485066175461, -0.04953990504145622, 0.9929360151290894, -0.0921940729022026, 0.04104042053222656, 1.499267578125, 1.5146484375, 0.225494384765625, 1.497802734375
52176, 6.559007167816162, 12.526458740234375, -62.07728958129883, 0.039688367396593094, -0.026897672563791275, -50.171077728271484, -0.05371496081352234, 0.036532916128635406, -1.9988148212432861, -0.823624312877655, -0.995568037033081, 0.05433620885014534, -1.0320278834360994, -0.8620136632808055, 3.3694451780694714, 9362.0, 30146.0, 35388.0, 9362.0, 8.370248794555664, -0.09088645130395889, 0.08272675424814224, 0.15211835503578186, -0.09575418382883072, -0.049115486443042755, 0.9955850839614868, -0.0921940729022026, 0.04104042053222656, 1.499267578125, 1.544677734375, 0.2900543212890625, 1.497802734375
52186, 6.559389114379883, 12.529912948608398, -62.076961517333984, 0.03905285522341728, -0.02646561525762081, -50.19108200073242, -0.07338806241750717, 0.049877602607011795, -2.002382755279541, -0.8236246109008789, -0.9955644011497498, 0.05436398833990097, -1.0257353110849046, -0.8577958339089378, 3.362764827344054, 9362.0, 30146.0, 35388.0, 9362.0, 8.370248794555664, 0.06516504287719727, -0.19423149526119232, -0.007742696907371283, -0.096981942653656, -0.04943741858005524, 0.9942831993103027, -0.0921940729022026, 0.04104042053222656, 1.499267578125, 1.487548828125, 0.1712188720703125, 1.491943359375
52196, 6.5592145919799805, 12.529780387878418, -62.0766487121582, 0.038220442831516266, -0.02590000629425049, -50.211124420166016, -0.09309463202953339, 0.06324391812086105, -2.0057919025421143, -0.8236563801765442, -0.9955770373344421, 0.054291982203722, -1.0117389464867999, -0.8815311538128867, 3.3460029879490776, 9362.0, 30146.0, 35388.0, 9362.0, 8.370248794555664, -0.013223214074969292, 0.5917643308639526, 0.33949825167655945, -0.09678948670625687, -0.05097690969705582, 0.9916866421699524, -0.0921940729022026, 0.04104042053222656, 1.499267578125, 1.50439453125, 0.2044219970703125, 1.491943359375
52206, 6.559143543243408, 12.525520324707031, -62.075645446777344, 0.037191130220890045, -0.02520083449780941, -50.231201171875, -0.11276817321777344, 0.07659025490283966, -2.009376049041748, -0.8236569762229919, -0.995583713054657, 0.05429345369338989, -1.0064602588609481, -0.8826396326406609, 3.345548465861732, 9362.0, 30146.0, 35388.0, 9362.0, 8.370248794555664, -0.11714036017656326, -0.0170363187789917, 0.3465374708175659, -0.09630102664232254, -0.05162212997674942, 0.9937892556190491, -0.0921940729022026, 0.04104042053222656, 1.499267578125, 1.51318359375, 0.2224273681640625, 1.4912109375
52216, 6.558821678161621, 12.52512264251709, -62.07344436645508, 0.03596525639295578, -0.024368317797780037, -50.251312255859375, -0.13240720331668854, 0.0899130254983902, -2.0131242275238037, -0.8236547112464905, -0.9955844283103943, 0.05427611991763115, -1.0073000538402093, -0.8814972052436474, 3.345271184720087, 9362.0, 30146.0, 35388.0, 9362.0, 8.370248794555664, 0.13225413858890533, 0.15829284489154816, 0.6739364266395569, -0.09634258598089218, -0.05025028437376022, 0.9939903616905212, -0.0921940729022026, 0.04104042053222656, 1.499267578125, 1.5263671875, 0.2502899169921875, 1.4912109375
52226, 6.559152126312256, 12.524613380432129, -62.07154846191406, 0.0345427468419075, -0.02340242825448513, -50.271461486816406, -0.15209539234638214, 0.10326410830020905, -2.0166213512420654, -0.8236595392227173, -0.9955885410308838, 0.054299935698509216, -1.0112501901211919, -0.8818307353282933, 3.35221882574238, 9362.0, 30146.0, 35388.0, 9362.0, 8.370248794555664, 0.31552544236183167, 0.07385645806789398, 0.06320924311876297, -0.09435197710990906, -0.0481041818857193, 0.9937942624092102, -0.0921940729022026, 0.04104042053222656, 1.499267578125, 1.508056640625, 0.211883544921875, 1.4912109375
52236, 6.5598602294921875, 12.525386810302734, -62.070762634277344, 0.03292349725961685, -0.022303128615021706, -50.29164505004883, -0.1717553287744522, 0.11659525334835052, -2.0202527046203613, -0.8236150145530701, -0.9955637454986572, 0.05434112250804901, -1.0314934735714592, -0.8608264124353866, 3.3688864247975094, 9362.0, 30146.0, 35388.0, 9362.0, 8.370248794555664, 0.03148622438311577, -0.18293187022209167, -0.07738203555345535, -0.09523060917854309, -0.049868885427713394, 0.9968120455741882, -0.0921940729022026, 0.04104042053222656, 1.499267578125, 1.5146484375, 0.225494384765625, 1.4912109375
52246, 6.559629440307617, 12.525827407836914, -62.0714111328125, 0.031107444316148758, -0.021070390939712524, -50.31186294555664, -0.19145546853542328, 0.12995204329490662, -2.0236928462982178, -0.8236634731292725, -0.9955835938453674, 0.054284244775772095, -1.0101817634650012, -0.8731757191984855, 3.3463570105078264, 9362.0, 30146.0, 35388.0, 9362.0, 8.390083312988281, 0.11919204890727997, -0.38912105560302734, -0.21944327652454376, -0.09664475917816162, -0.04971955716609955, 0.9943872690200806, -0.12960466742515564, -0.13815879821777344, 1.484619140625, 1.531494140625, 0.26129150390625, 1.4912109375
52256, 6.560268878936768, 12.526317596435547, -62.07353591918945, 0.02909422479569912, -0.019703976809978485, -50.332115173339844, -0.21118828654289246, 0.14333084225654602, -2.0269832611083984, -0.8236239552497864, -0.9955666661262512, 0.05434585362672806, -1.0275304939017702, -0.8537326081718959, 3.3658779547606303, 9362.0, 30146.0, 35388.0, 9362.0, 8.390083312988281, -0.30985715985298157, 0.09921342134475708, -0.24349580705165863, -0.09598279744386673, -0.05167994648218155, 0.9937458038330078, -0.12960466742515564, -0.13815879821777344, 1.484619140625, 1.5263671875, 0.2502899169921875, 1.4912109375
52266, 6.559957504272461, 12.523756980895996, -62.07528305053711, 0.026883995160460472, -0.018203984946012497, -50.35240173339844, -0.23085717856884003, 0.15666817128658295, -2.030578136444092, -0.8236275315284729, -0.9955692887306213, 0.05435633659362793, -1.027089500334376, -0.8526001716508347, 3.3608381271636247, 9362.0, 30146.0, 35388.0, 9362.0, 8.390083312988281, 0.08796952664852142, -0.4100802540779114, -0.41826674342155457, -0.09565030783414841, -0.05027424916625023, 0.9975112080574036, -0.12960466742515564, -0.13815879821777344, 1.484619140625, 1.51318359375, 0.2224273681640625, 1.490478515625
52276, 6.560759544372559, 12.525896072387695, -62.077510833740234, 0.024476932361721992, -0.016570519655942917, -50.37272644042969, -0.2505551874637604, 0.17002558708190918, -2.0340373516082764, -0.8236303925514221, -0.9955684542655945, 0.05434591695666313, -1.0203292616089235, -0.8614829097250265, 3.3649974282425767, 9362.0, 30146.0, 35388.0, 9362.0, 8.390083312988281, 0.08251327276229858, 0.4533189833164215, -0.09471721947193146, -0.09538403898477554, -0.0497911237180233, 0.9934675693511963, -0.12960466742515564, -0.13815879821777344, 1.484619140625, 1.456787109375, 0.115966796875, 1.490478515625
52286, 6.560599327087402, 12.52362060546875, -62.07714080810547, 0.021872738376259804, -0.014803383499383926, -50.39308166503906, -0.2702830731868744, 0.18340229988098145, -2.037339210510254, -0.8236562013626099, -0.9955745935440063, 0.05430946871638298, -1.020478634015823, -0.838879552842144, 3.362474806359251, 9362.0, 30146.0, 35388.0, 9362.0, 8.390083312988281, -0.032863110303878784, 0.319396048784256, -0.13863474130630493, -0.09774311631917953, -0.052225951105356216, 0.9931862950325012, -0.12960466742515564, -0.13815879821777344, 1.484619140625, 1.510986328125, 0.217864990234375, 1.493408203125
52296, 6.560124397277832, 12.52094841003418, -62.078948974609375, 0.01907157711684704, -0.012902683578431606, -50.41347122192383, -0.2899491786956787, 0.19673772156238556, -2.0409510135650635, -0.8236527442932129, -0.9955621361732483, 0.054303448647260666, -1.0254484300053262, -0.8384581137827638, 3.363230610825727, 9362.0, 30146.0, 35388.0, 9362.0, 8.390083312988281, -0.04207243770360947, -0.2969263792037964, -0.2938001751899719, -0.09425228834152222, -0.050298310816287994, 0.992658793926239, -0.12960466742515564, -0.13815879821777344, 1.484619140625, 1.491943359375, 0.179656982421875, 1.493408203125
52306, 6.5602545738220215, 12.520339965820312, -62.07950210571289, 0.01607377640902996, -0.01086865458637476, -50.43389892578125, -0.3096105456352234, 0.2100689709186554, -2.0445737838745117, -0.823647141456604, -0.9955746531486511, 0.05430753901600838, -1.027228610742556, -0.8381610112889746, 3.360677686286377, 9362.0, 30146.0, 35388.0, 9362.0, 8.390083312988281, -0.19621101021766663, 0.0734611377120018, -0.12192773818969727, -0.09450189769268036, -0.0483274944126606, 0.9923766255378723, -0.12960466742515564, -0.13815879821777344, 1.484619140625, 1.528564453125, 0.2548828125, 1.48974609375
52316, 6.559709548950195, 12.520153999328613, -62.078643798828125, 0.012879423797130585, -0.008701357990503311, -50.45436477661133, -0.3292599022388458, 0.2233906239271164, -2.0482401847839355, -0.8236774206161499, -0.9955780506134033, 0.05424448102712631, -1.0071303403976513, -0.8598291786942696, 3.3405299931450134, 9362.0, 30146.0, 35388.0, 9362.0, 8.390083312988281, -0.1023879125714302, 0.01047483179718256, 0.11158765852451324, -0.0952821895480156, -0.05125918239355087, 0.9932242035865784, -0.12960466742515564, -0.13815879821777344, 1.484619140625, 1.5322265625, 0.2628021240234375, 1.48974609375
52326, 6.559176921844482, 12.520065307617188, -62.07838439941406, 0.009488562121987343, -0.0064008357003331184, -50.4748649597168, -0.3489125967025757, 0.23671336472034454, -2.0518887042999268, -0.8236427307128906, -0.9955633282661438, 0.05427781492471695, -1.0264365662486585, -0.8409705689853695, 3.353144325291956, 9362.0, 30146.0, 35388.0, 9362.0, 8.390083312988281, 0.1757676899433136, -0.342648983001709, 0.19883014261722565, -0.09624883532524109, -0.052137475460767746, 0.9930084347724915, -0.12960466742515564, -0.13815879821777344, 1.484619140625, 1.529296875, 0.2564849853515625, 1.48974609375
52336, 6.559513568878174, 12.522427558898926, -62.076751708984375, 0.005901111289858818, -0.0039670430123806, -50.49540328979492, -0.3685777485370636, 0.2500452697277069, -2.055474042892456, -0.8236379027366638, -0.9955610036849976, 0.05428999662399292, -1.0292172946140326, -0.8404415939279772, 3.3571846546502804, 9362.0, 30146.0, 35388.0, 9362.0, 8.390083312988281, -0.09138701856136322, -0.12726928293704987, 0.004307364113628864, -0.09684699773788452, -0.05279867723584175, 0.9912227988243103, -0.12960466742515564, -0.13815879821777344, 1.484619140625, 1.53662109375, 0.27239990234375, 1.48974609375
52346, 6.560129642486572, 12.522481918334961, -62.07774353027344, 0.002117119962349534, -0.0014000025112181902, -50.51597595214844, -0.38822075724601746, 0.2633621096611023, -2.0591630935668945, -0.8236825466156006, -0.9955796599388123, 0.0542176179587841, -1.0098242214061104, -0.8619047885516977, 3.3440435208496035, 9362.0, 30146.0, 35388.0, 9362.0, 8.390083312988281, -0.00045011297333985567, -0.03699008375406265, -0.12148730456829071, -0.09515193849802017, -0.054050397127866745, 0.9943852424621582, -0.10620399564504623, -0.09335899353027344, 1.48828125, 1.53369140625, 0.265960693359375, 1.496337890625
52356, 6.559317588806152, 12.522359848022461, -62.07839584350586, -0.0018632884602993727, 0.0013002012856304646, -50.53658676147461, -0.4078606069087982, 0.27667897939682007, -2.062878370285034, -0.8236765265464783, -0.9955793023109436, 0.05424703657627106, -1.0101165158630554, -0.8713042818507688, 3.3421548902745406, 9362.0, 30146.0, 35388.0, 9362.0, 8.390083312988281, -0.024550842121243477, -0.14989542961120605, -0.07230626046657562, -0.09621596336364746, -0.05158796161413193, 0.9945394992828369, -0.10620399564504623, -0.09335899353027344, 1.48828125, 1.55859375, 0.3211212158203125, 1.496337890625
52366, 6.559438228607178, 12.523857116699219, -62.07741928100586, -0.006040363572537899, 0.0041337525472044945, -50.55723190307617, -0.427554190158844, 0.29003146290779114, -2.0663390159606934, -0.8236725926399231, -0.9955621957778931, 0.05423806980252266, -1.041356528265197, -0.8257453906379624, 3.3621274735965443, 9362.0, 30146.0, 35388.0, 9362.0, 8.390083312988281, 0.18697822093963623, -0.06982890516519547, 0.3213754892349243, -0.096974678337574, -0.050665076822042465, 0.993798553943634, -0.10620399564504623, -0.09335899353027344, 1.48828125, 1.4619140625, 0.1246185302734375, 1.493408203125
52376, 6.560121536254883, 12.523111343383789, -62.07490158081055, -0.0104143051430583, 0.007100789807736874, -50.577911376953125, -0.44723424315452576, 0.30337563157081604, -2.069859743118286, -0.8237084150314331, -0.9955664873123169, 0.054195232689380646, -1.0205973656219502, -0.850779127979564, 3.342475862318724, 9362.0, 30146.0, 35388.0, 9362.0, 8.390083312988281, 0.38064512610435486, 0.2634757161140442, 0.06270812451839447, -0.09699452668428421, -0.04937272518873215, 0.9929299354553223, -0.10620399564504623, -0.09335899353027344, 1.48828125, 1.53662109375, 0.27239990234375, 1.493408203125
52386, 6.560375690460205, 12.521854400634766, -62.072242736816406, -0.014984983950853348, 0.010201230645179749, -50.598628997802734, -0.4669022858142853, 0.3167116641998291, -2.0734481811523438, -0.8237293362617493, -0.9955847859382629, 0.05416722968220711, -1.0147372125780532, -0.846343657697247, 3.336834297916306, 9362.0, 30146.0, 35388.0, 9362.0, 8.390083312988281, -0.1225704550743103, -0.050040777772665024, 0.22481420636177063, -0.09568557143211365, -0.04928845912218094, 0.9951557517051697, -0.10620399564504623, -0.09335899353027344, 1.48828125, 1.534423828125, 0.267578125, 1.497802734375
52396, 6.559883117675781, 12.525188446044922, -62.07145309448242, -0.01975245401263237, 0.013435089960694313, -50.619380950927734, -0.486592561006546, 0.3300594687461853, -2.076934337615967, -0.8237279653549194, -0.9955659508705139, 0.054155465215444565, -1.0180483565303495, -0.8422705882841512, 3.3336030452225844, 9362.0, 30146.0, 35388.0, 9362.0, 8.390083312988281, 0.03564274683594704, -0.24472883343696594, 0.2750850021839142, -0.09645026922225952, -0.049204058945178986, 0.993803858757019, -0.10620399564504623, -0.09335899353027344, 1.48828125, 1.544677734375, 0.2900543212890625, 1.497802734375
52406, 6.5605082511901855, 12.523824691772461, -62.07011413574219, -0.024716846644878387, 0.01680242456495762, -50.640167236328125, -0.5062856674194336, 0.34340721368789673, -2.080404758453369, -0.8236815333366394, -0.9955548048019409, 0.05423436686396599, -1.030492913669135, -0.8135150314519137, 3.3566490255998542, 9362.0, 30146.0, 35388.0, 9362.0, 8.390083312988281, -0.07270810008049011, -0.04361628741025925, -0.14867106080055237, -0.09654881805181503, -0.047680508345365524, 0.9941074848175049, -0.10620399564504623, -0.09335899353027344, 1.48828125, 1.55126953125, 0.304718017578125, 1.494140625
52416, 6.560777187347412, 12.525984764099121, -62.07014846801758, -0.02987808734178543, 0.02030320093035698, -50.660987854003906, -0.5259630084037781, 0.35674747824668884, -2.0839617252349854, -0.8237183690071106, -0.9955748915672302, 0.054145462810993195, -1.013730741619366, -0.8376493802681182, 3.341385428940214, 9362.0, 30146.0, 35388.0, 9362.0, 8.390083312988281, -0.0891774371266365, -0.3447818160057068, -0.06929043680429459, -0.09588313102722168, -0.05107888579368591, 0.9939965605735779, -0.10620399564504623, -0.09335899353027344, 1.48828125, 1.443603515625, 0.0948486328125, 1.494140625
52426, 6.559841632843018, 12.529335021972656, -62.06939697265625, -0.03523613512516022, 0.02393738552927971, -50.681846618652344, -0.545646607875824, 0.3700895607471466, -2.087489128112793, -0.8236783146858215, -0.9955489039421082, 0.05422047898173332, -1.0312878037568074, -0.813711984754292, 3.352000411348834, 9362.0, 30146.0, 35388.0, 9362.0, 8.390083312988281, -0.11788730323314667, -0.40665408968925476, -0.09115546941757202, -0.0970461443066597, -0.04999951273202896, 0.9924542307853699, -0.10620399564504623, -0.09335899353027344, 1.48828125, 1.521240234375, 0.2393646240234375, 1.493408203125
52436, 6.560077667236328, 12.532185554504395, -62.07093048095703, -0.04079100117087364, 0.027704985812306404, -50.70273971557617, -0.565326452255249, 0.3834300935268402, -2.091046094894409, -0.8236817717552185, -0.9955538511276245, 0.05420570448040962, -1.0320873268938173, -0.8103736939865485, 3.3520161610684203, 9362.0, 30146.0, 35388.0, 9362.0, 8.390083312988281, -0.05546417459845543, -0.12445515394210815, -0.2588426470756531, -0.09510710090398788, -0.04835725203156471, 0.9930910468101501, -0.10620399564504623, -0.09335899353027344, 1.48828125, 1.54248046875, 0.28521728515625, 1.493408203125
52456, 6.561011791229248, 12.529391288757324, -62.0698127746582, -0.04079100117087364, 0.027704985812306404, -50.70273971557617, -0.565326452255249, 0.3834300935268402, -2.091046094894409, -0.8237234950065613, -0.9955627918243408, 0.05412396043539047, -1.0229259895372647, -0.8354724933490445, 3.334502062509082, 9362.0, 30146.0, 35388.0, 9362.0, 8.390083312988281, -0.106201171875, -0.2631262242794037, 0.1639360785484314, -0.09510710090398788, -0.04835725203156471, 0.9930910468101501, -0.07513955235481262, -0.06647872924804688, 1.490478515625, 1.50439453125, 0.2044219970703125, 1.493408203125
52516, 6.561318397521973, 12.530576705932617, -62.06797409057617, -0.08518309146165848, 0.05781346559524536, -50.849998474121094, -0.7030580639839172, 0.4768398404121399, -2.116208553314209, -0.8236753940582275, -0.9955353736877441, 0.05417747423052788, -1.039822200948901, -0.8085059063961069, 3.3457931539683683, 9362.0, 30146.0, 35388.0, 9362.0, 8.390083312988281, 0.10632602125406265, 0.1636144518852234, 0.015513126738369465, -0.09600008279085159, -0.048836253583431244, 0.9938124418258667, -0.07513955235481262, -0.06647872924804688, 1.490478515625, 1.5146484375, 0.225494384765625, 1.49560546875
52536, 6.560938835144043, 12.531305313110352, -62.06855010986328, -0.10716012120246887, 0.07271892577409744, -50.91364669799805, -0.7620639801025391, 0.516848623752594, -2.127120018005371, -0.8236896991729736, -0.9955462217330933, 0.054180677980184555, -1.0386959979372345, -0.8116844401944547, 3.3578582343892367, 9362.0, 30146.0, 35388.0, 9362.0, 8.390083312988281, -0.1452151983976364, -0.4818233251571655, 0.03736269846558571, -0.09600008279085159, -0.048836253583431244, 0.9938124418258667, -0.07513955235481262, -0.06647872924804688, 1.490478515625, 1.5439453125, 0.2884979248046875, 1.49560546875
52556, 6.559648513793945, 12.531224250793457, -62.068016052246094, -0.11487898230552673, 0.0779539942741394, -50.9349365234375, -0.7817081809043884, 0.5301656126976013, -2.1308679580688477, -0.8237117528915405, -0.9955573081970215, 0.054109472781419754, -1.0184235954168415, -0.8339322372827098, 3.334894088596474, 9362.0, 30146.0, 35388.0, 9362.0, 8.390083312988281, -0.30097267031669617, 0.47135892510414124, 0.2586522102355957, -0.09852474927902222, -0.0519544817507267, 0.991727888584137, -0.07707369327545166, -0.0037593841552734375, 1.49560546875, 1.531494140625, 0.26129150390625, 1.49560546875
52596, 6.560862064361572, 12.53290843963623, -62.070125579833984, -0.14771811664104462, 0.10022588074207306, -51.02047348022461, -0.8602948188781738, 0.5834604501724243, -2.145799398422241, -0.8236824870109558, -0.9955376982688904, 0.054161060601472855, -1.0305940100592097, -0.8159353769806899, 3.347669871149799, 9362.0, 30146.0, 35388.0, 9362.0, 8.390083312988281, 0.06214333698153496, 0.37067973613739014, -0.08342418074607849, -0.098096564412117, -0.04938650131225586, 0.9940217733383179, -0.07707369327545166, -0.0037593841552734375, 1.49560546875, 1.549072265625, 0.2998809814453125, 1.493408203125
52616, 6.560756683349609, 12.530391693115234, -62.072303771972656, -0.14771811664104462, 0.10022588074207306, -51.02047348022461, -0.8602948188781738, 0.5834604501724243, -2.145799398422241, -0.8236861824989319, -0.9955496191978455, 0.05415389686822891, -1.0378638678671797, -0.8119712810899387, 3.3459478758308, 9362.0, 30146.0, 35388.0, 9362.0, 8.390083312988281, 0.1739387810230255, -0.06719832867383957, -0.33965516090393066, -0.098096564412117, -0.04938650131225586, 0.9940217733383179, -0.07707369327545166, -0.0037593841552734375, 1.49560546875, 1.4736328125, 0.1452178955078125, 1.493408203125
52636, 6.560819149017334, 12.532205581665039, -62.070411682128906, -0.14771811664104462, 0.10022588074207306, -51.02047348022461, -0.8602948188781738, 0.5834604501724243, -2.145799398422241, -0.8236863613128662, -0.9955422282218933, 0.05415017530322075, -1.035229234272651, -0.8129437934809403, 3.3477031044627257, 9362.0, 30146.0, 35388.0, 9362.0, 8.390083312988281, -0.2615548074245453, -0.0027424071449786425, -0.07667642086744308, -0.098096564412117, -0.04938650131225586, 0.9940217733383179, -0.07707369327545166, -0.0037593841552734375, 1.49560546875, 1.565185546875, 0.336090087890625, 1.494140625
52696, 6.562644958496094, 12.529417991638184, -62.06881332397461, -0.24358487129211426, 0.16524390876293182, -51.236854553222656, -1.0570828914642334, 0.7169193029403687, -2.1816134452819824, -0.8236808180809021, -0.9955436587333679, 0.05414317548274994, -1.0350795515994287, -0.8127625481848781, 3.353920970327328, 9362.0, 30146.0, 35388.0, 9362.0, 8.390083312988281, -0.15503430366516113, -0.426828533411026, -0.17969581484794617, -0.09514270722866058, -0.049975018948316574, 0.9951488971710205, -0.09041108936071396, -0.030637741088867188, 1.493408203125, 1.491943359375, 0.179656982421875, 1.493408203125
52716, 6.56173038482666, 12.530434608459473, -62.068450927734375, -0.2651207447052002, 0.1798495352268219, -51.280555725097656, -1.096489667892456, 0.7436333894729614, -2.1885478496551514, -0.8237233757972717, -0.9955710768699646, 0.05407693237066269, -1.018771994306358, -0.8303158891783937, 3.3299723159279413, 9362.0, 30146.0, 35388.0, 9362.0, 8.390083312988281, 0.07272689044475555, 0.032884128391742706, 0.1420762985944748, -0.09514270722866058, -0.049975018948316574, 0.9951488971710205, -0.09041108936071396, -0.030637741088867188, 1.493408203125, 1.515380859375, 0.2270050048828125, 1.49267578125
52756, 6.564292907714844, 12.526995658874512, -62.06816482543945, -0.310554563999176, 0.2106621116399765, -51.368385314941406, -1.1752251386642456, 0.797014594078064, -2.202794313430786, -0.8236939907073975, -0.9955529570579529, 0.05412369966506958, -1.0345624156837714, -0.8169172588667379, 3.351035019483675, 9362.0, 30146.0, 35388.0, 9362.0, 8.390083312988281, 0.08353643119335175, 0.08417099714279175, -0.48519575595855713, -0.09480580687522888, -0.04909512400627136, 0.9953150749206543, -0.10770081728696823, -0.31735801696777344, 1.469970703125, 1.518310546875, 0.2331390380859375, 1.4912109375
52816, 6.564845561981201, 12.527791976928711, -62.063377380371094, -0.39763858914375305, 0.2697186768054962, -51.52347183227539, -1.3128918409347534, 0.8903082609176636, -2.2283713817596436, -0.8236978650093079, -0.9955640435218811, 0.05414201319217682, -1.0393031114562719, -0.8115971811218401, 3.351729098466297, 9362.0, 30146.0, 35388.0, 9362.0, 8.390083312988281, 0.13179823756217957, 0.15002508461475372, 0.09022659063339233, -0.09480632096529007, -0.05112961307168007, 0.9949583411216736, -0.10770081728696823, -0.31735801696777344, 1.469970703125, 1.490478515625, 0.1768646240234375, 1.490478515625
52876, 6.56254768371582, 12.524177551269531, -62.06285858154297, -0.47995874285697937, 0.32553938031196594, -51.65780258178711, -1.4310299158096313, 0.9703246355056763, -2.2496299743652344, -0.8237186074256897, -0.9955653548240662, 0.054079826921224594, -1.0215420332799001, -0.8309567534731173, 3.320953766421519, 9362.0, 30146.0, 35388.0, 9362.0, 8.390083312988281, -0.004540837369859219, -0.20321613550186157, 0.10691901296377182, -0.09428469091653824, -0.05073264241218567, 0.9937039017677307, -0.09371452033519745, -0.08439826965332031, 1.489013671875, 1.493408203125, 0.1825714111328125, 1.496337890625
52896, 6.562872886657715, 12.524994850158691, -62.062408447265625, -0.47995874285697937, 0.32553938031196594, -51.65780258178711, -1.4310299158096313, 0.9703246355056763, -2.2496299743652344, -0.8236874341964722, -0.9955458045005798, 0.05412402004003525, -1.0430623174381826, -0.8100551489236807, 3.350052506520944, 9362.0, 30146.0, 35388.0, 9362.0, 8.390083312988281, -0.11667902767658234, 0.029311910271644592, -0.07616676390171051, -0.09500549733638763, -0.05299077555537224, 0.9936723113059998, -0.09371452033519745, -0.08439826965332031, 1.489013671875, 1.470703125, 0.1399383544921875, 1.487548828125
52916, 6.5626091957092285, 12.524248123168945, -62.06163787841797, -0.5237754583358765, 0.3552491366863251, -51.7254524230957, -1.490078091621399, 1.0103235244750977, -2.260303020477295, -0.8236945867538452, -0.9955514669418335, 0.05412920564413071, -1.039788665834585, -0.81740433365988, 3.3514828103022403, 9362.0, 30146.0, 35388.0, 9362.0, 8.390083312988281, -0.022947141900658607, -0.3532148003578186, 0.037403952330350876, -0.09500549733638763, -0.05299077555537224, 0.9936723113059998, -0.09371452033519745, -0.08439826965332031, 1.489013671875, 1.516845703125, 0.23004150390625, 1.491943359375
52936, 6.561489105224609, 12.523579597473145, -62.061832427978516, -0.5539699792861938, 0.37572184205055237, -51.77073287963867, -1.5293694734573364, 1.0369434356689453, -2.2677810192108154, -0.8237298130989075, -0.9955632090568542, 0.0540626160800457, -1.02195824941458, -0.8350430353116849, 3.3252320513401528, 9362.0, 30146.0, 35388.0, 9362.0, 8.390083312988281, 0.14080582559108734, 0.00537126325070858, 0.18725144863128662, -0.09633108973503113, -0.04926256835460663, 0.9912580251693726, -0.09371452033519745, -0.08439826965332031, 1.489013671875, 1.53076171875, 0.2596435546875, 1.49560546875
52956, 6.558842658996582, 12.525029182434082, -62.05750274658203, -0.5539699792861938, 0.37572184205055237, -51.77073287963867, -1.5293694734573364, 1.0369434356689453, -2.2677810192108154, -0.8236936926841736, -0.995555579662323, 0.0541149340569973, -1.0383279137720034, -0.8122304337082937, 3.346861317135484, 9362.0, 30146.0, 35388.0, 9362.0, 8.390083312988281, -0.07950998097658157, 0.22615671157836914, -0.016416223719716072, -0.09609415382146835, -0.051577914506196976, 0.9932065010070801, -0.1062404215335846, -0.10231781005859375, 1.487548828125, 1.522705078125, 0.242462158203125, 1.49853515625
53016, 6.560515880584717, 12.531112670898438, -62.06093215942383, -0.6995774507522583, 0.4744434058666229, -51.97630310058594, -1.706392526626587, 1.1569128036499023, -2.300264835357666, -0.8236895799636841, -0.9955509305000305, 0.05412861332297325, -1.0431030401483083, -0.8076881367190651, 3.341142967964065, 9362.0, 30146.0, 35388.0, 9362.0, 8.390083312988281, 0.2349356710910797, -0.04461042210459709, -0.1099565327167511, -0.09652625024318695, -0.050341662019491196, 0.9940511584281921, -0.1062404215335846, -0.10231781005859375, 1.487548828125, 1.54833984375, 0.298126220703125, 1.4970703125
53036, 6.561400413513184, 12.528176307678223, -62.059757232666016, -0.6995774507522583, 0.4744434058666229, -51.97630310058594, -1.706392526626587, 1.1569128036499023, -2.300264835357666, -0.8237171173095703, -0.9955635070800781, 0.05406265705823898, -1.0220753546696866, -0.8304296649537264, 3.330726254469524, 9362.0, 30146.0, 35388.0, 9362.0, 8.390083312988281, 0.011774057522416115, 0.2649359107017517, 0.0953829437494278, -0.0947977751493454, -0.0506758987903595, 0.9925770163536072, -0.1062404215335846, -0.10231781005859375, 1.487548828125, 1.552734375, 0.3080596923828125, 1.494873046875
53076, 6.560721397399902, 12.525308609008789, -62.054954528808594, -0.7873573899269104, 0.53395676612854, -52.09176254272461, -1.8047330379486084, 1.2235655784606934, -2.318450927734375, -0.8236988186836243, -0.9955562353134155, 0.05411462485790253, -1.033845217960289, -0.8213272655242747, 3.3524978321993175, 9362.0, 30146.0, 35388.0, 9362.0, 8.390083312988281, -0.2490132451057434, 0.07310066372156143, 0.009271787479519844, -0.09513496607542038, -0.052289046347141266, 0.9935356974601746, -0.0789085254073143, -0.030637741088867188, 1.493408203125, 1.55419921875, 0.311279296875, 1.493408203125
53096, 6.560079097747803, 12.524962425231934, -62.05585861206055, -0.8423842787742615, 0.571263313293457, -52.16147994995117, -1.8637359142303467, 1.2635425329208374, -2.3293375968933105, -0.8236962556838989, -0.9955469369888306, 0.05410310998558998, -1.0455934029903453, -0.8175943822556917, 3.3457693434496205, 9362.0, 30146.0, 35388.0, 9362.0, 8.390083312988281, 0.0022353564854711294, -0.10737375169992447, -0.1190449595451355, -0.09588038176298141, -0.05279652401804924, 0.9940454363822937, -0.0789085254073143, -0.030637741088867188, 1.493408203125, 1.55859375, 0.3211212158203125, 1.494140625
53116, 6.5605268478393555, 12.524247169494629, -62.05364990234375, -0.8800523281097412, 0.596800684928894, -52.20813751220703, -1.903089165687561, 1.2902073860168457, -2.336496353149414, -0.8236982226371765, -0.9955498576164246, 0.054104022681713104, -1.0426224697299702, -0.8179796377173432, 3.347543022277279, 9362.0, 30146.0, 35388.0, 9362.0, 8.390083312988281, 0.1324460506439209, 0.06613145768642426, -0.028706060722470284, -0.09588038176298141, -0.05279652401804924, 0.9940454363822937, -0.0789085254073143, -0.030637741088867188, 1.493408203125, 1.53076171875, 0.2596435546875, 1.494140625
53156, 6.562045097351074, 12.519350051879883, -62.05423355102539, -0.9380295872688293, 0.6361061334609985, -52.27839660644531, -1.9620827436447144, 1.3301664590835571, -2.3474040031433105, -0.823732852935791, -0.9955735802650452, 0.05404878780245781, -1.022238235861461, -0.8408967230699034, 3.324767356789347, 9362.0, 30146.0, 35388.0, 9362.0, 8.390083312988281, -0.09613491594791412, 0.09503596276044846, 0.3589722216129303, -0.09738006442785263, -0.05070819333195686, 0.9920578002929688, -0.10783933103084564, -0.09335899353027344, 1.48828125, 1.46484375, 0.1295928955078125, 1.493408203125
53176, 6.561540603637695, 12.52042293548584, -62.05318069458008, -0.9380295872688293, 0.6361061334609985, -52.27839660644531, -1.9620827436447144, 1.3301664590835571, -2.3474040031433105, -0.823694109916687, -0.9955434203147888, 0.054111044853925705, -1.0442549238565528, -0.816909165756897, 3.346700442355804, 9362.0, 30146.0, 35388.0, 9362.0, 8.390083312988281, 0.20250171422958374, -0.1040431335568428, 0.010898121632635593, -0.09738006442785263, -0.05070819333195686, 0.9920578002929688, -0.10783933103084564, -0.09335899353027344, 1.48828125, 1.483154296875, 0.162841796875, 1.493408203125
53196, 6.5627288818359375, 12.5225248336792, -62.05220413208008, -1.0385915040969849, 0.7042785882949829, -52.39622116088867, -2.0603902339935303, 1.3967300653457642, -2.365614652633667, -0.823699951171875, -0.995550811290741, 0.05408237874507904, -1.041154855640902, -0.8152794922182522, 3.3493548715685564, 9362.0, 30146.0, 35388.0, 9362.0, 8.390083312988281, -0.05528584122657776, -0.4541613459587097, 0.10442124307155609, -0.0947643294930458, -0.051131390035152435, 0.994646430015564, -0.10783933103084564, -0.09335899353027344, 1.48828125, 1.458984375, 0.1195831298828125, 1.491943359375
53216, 6.561630725860596, 12.522194862365723, -62.04658126831055, -1.080193042755127, 0.7324798107147217, -52.443603515625, -2.099757194519043, 1.4233824014663696, -2.3727269172668457, -0.8237276673316956, -0.99556565284729, 0.054052069783210754, -1.018704678062384, -0.8341682574433946, 3.3285596883817195, 9362.0, 30146.0, 35388.0, 9362.0, 8.390083312988281, -0.05791683495044708, 0.17468534409999847, 0.3747177720069885, -0.0947643294930458, -0.051131390035152435, 0.994646430015564, -0.10783933103084564, -0.09335899353027344, 1.48828125, 1.462646484375, 0.125823974609375, 1.494140625
53256, 6.563408851623535, 12.51831340789795, -62.0444450378418, -1.144071102142334, 0.7757806777954102, -52.514949798583984, -2.1587841510772705, 1.4633433818817139, -2.3835132122039795, -0.8237015604972839, -0.9955571889877319, 0.054102085530757904, -1.0423400087856394, -0.8153514104492103, 3.3400160418191627, 9362.0, 30146.0, 35388.0, 9362.0, 8.390083312988281, 0.11586808413267136, 0.06201336532831192, 0.06287321448326111, -0.09682405740022659, -0.05029460787773132, 0.9937374591827393, -0.08643811196088791, 0.08584022521972656, 1.5029296875, 1.50732421875, 0.2104644775390625, 1.49560546875
53276, 6.565608501434326, 12.514888763427734, -62.043678283691406, -1.144071102142334, 0.7757806777954102, -52.514949798583984, -2.1587841510772705, 1.4633433818817139, -2.3835132122039795, -0.8237335681915283, -0.9955650568008423, 0.05404342710971832, -1.0257370031570532, -0.8361935490731014, 3.3315537377173787, 9362.0, 30146.0, 35388.0, 9362.0, 8.390083312988281, 0.0212234053760767, -0.3417273163795471, -0.322269469499588, -0.09561019390821457, -0.049131788313388824, 0.9944312572479248, -0.08643811196088791, 0.08584022521972656, 1.5029296875, 1.5439453125, 0.2884979248046875, 1.496337890625
53296, 6.566789150238037, 12.516439437866211, -62.04467010498047, -1.254470705986023, 0.8506128191947937, -52.63457107543945, -2.257244825363159, 1.5299609899520874, -2.4010701179504395, -0.8236898183822632, -0.9955541491508484, 0.05410073325037956, -1.0414449147785056, -0.8161958736821475, 3.341578666949532, 9362.0, 30146.0, 35388.0, 9362.0, 8.390083312988281, -0.030249588191509247, -0.16205240786075592, 0.08921433240175247, -0.09738798439502716, -0.05067047104239464, 0.9927811622619629, -0.08643811196088791, 0.08584022521972656, 1.5029296875, 1.5205078125, 0.237762451171875, 1.491943359375
53336, 6.570277690887451, 12.515427589416504, -62.04568099975586, -1.3463361263275146, 0.9128767251968384, -52.73089599609375, -2.3360304832458496, 1.583236575126648, -2.4151363372802734, -0.8237022757530212, -0.9955543875694275, 0.05407831817865372, -1.0443680520683225, -0.8141142714833904, 3.342125412797696, 9362.0, 30146.0, 35388.0, 9362.0, 8.390083312988281, 0.2064724713563919, -0.07809045165777206, -0.0681535005569458, -0.09685567766427994, -0.05054471641778946, 0.9936779737472534, -0.08643811196088791, 0.08584022521972656, 1.5029296875, 1.51904296875, 0.2346954345703125, 1.490478515625
53356, 6.569928169250488, 12.514829635620117, -62.042991638183594, -1.3697949647903442, 0.9287757277488708, -52.75506591796875, -2.3557422161102295, 1.5965640544891357, -2.4185950756073, -0.8237447738647461, -0.9955730438232422, 0.05404742807149887, -1.0268994407806393, -0.8400792025134649, 3.3299959318862618, 9362.0, 30146.0, 35388.0, 9362.0, 8.370248794555664, 0.014214567840099335, -0.48041510581970215, -0.06066909804940224, -0.09685567766427994, -0.05054471641778946, 0.9936779737472534, -0.07818590849637985, -0.13815879821777344, 1.484619140625, 1.481689453125, 0.1600799560546875, 1.491943359375
53396, 6.566111087799072, 12.517757415771484, -62.044124603271484, -1.4413527250289917, 0.9772711992263794, -52.82778549194336, -2.4147849082946777, 1.6364707946777344, -2.429398536682129, -0.8237032294273376, -0.9955511093139648, 0.054081324487924576, -1.0451994245531155, -0.8181150843555827, 3.348833752496045, 9362.0, 30146.0, 35388.0, 9362.0, 8.370248794555664, -0.18661196529865265, 0.4070960283279419, -0.022123733535408974, -0.09940306842327118, -0.0507013276219368, 0.9951740503311157, -0.07818590849637985, -0.13815879821777344, 1.484619140625, 1.505126953125, 0.205902099609375, 1.494873046875
53416, 6.564919948577881, 12.511816024780273, -62.041595458984375, -1.4413527250289917, 0.9772711992263794, -52.82778549194336, -2.4147849082946777, 1.6364707946777344, -2.429398536682129, -0.8237109780311584, -0.9955542683601379, 0.054088834673166275, -1.0418539710084307, -0.8289533582264141, 3.349787784822188, 9362.0, 30146.0, 35388.0, 9362.0, 8.370248794555664, 0.030521400272846222, 0.31761038303375244, -0.08202632516622543, -0.09787226468324661, -0.047780923545360565, 0.9923033118247986, -0.07818590849637985, -0.13815879821777344, 1.484619140625, 1.5087890625, 0.21337890625, 1.494873046875
53436, 6.5651116371154785, 12.514660835266113, -62.042381286621094, -1.5897834300994873, 1.0778554677963257, -52.97418975830078, -2.532902479171753, 1.7163417339324951, -2.4507410526275635, -0.8236987590789795, -0.9955571889877319, 0.054096270352602005, -1.0457478770024242, -0.8140180222795834, 3.3502586109048287, 9362.0, 30146.0, 35388.0, 9362.0, 8.370248794555664, -0.041004478931427, -0.4087101221084595, 0.17650319635868073, -0.09664352238178253, -0.04864997789263725, 0.9933903813362122, -0.07818590849637985, -0.13815879821777344, 1.484619140625, 1.528564453125, 0.2548828125, 1.494873046875
53476, 6.561695575714111, 12.516168594360352, -62.038726806640625, -1.6666547060012817, 1.129943609237671, -53.04787826538086, -2.5918333530426025, 1.7561932802200317, -2.4619688987731934, -0.8237403631210327, -0.9955714344978333, 0.054042451083660126, -1.020522058875404, -0.8390063927260201, 3.3334046520095737, 9362.0, 30146.0, 35388.0, 9362.0, 8.370248794555664, -0.19318005442619324, -0.12149477750062943, -0.14514721930027008, -0.09492465108633041, -0.04996820539236069, 0.993082582950592, -0.0933026522397995, -0.13815879821777344, 1.484619140625, 1.532958984375, 0.2644195556640625, 1.494873046875
53496, 6.56288480758667, 12.516458511352539, -62.035362243652344, -1.6666547060012817, 1.129943609237671, -53.04787826538086, -2.5918333530426025, 1.7561932802200317, -2.4619688987731934, -0.8237450122833252, -0.9955779314041138, 0.054041050374507904, -1.0300203018974778, -0.8464120990809931, 3.3352602946599736, 9362.0, 30146.0, 35388.0, 9362.0, 8.370248794555664, 0.09547832608222961, 0.10645801573991776, 0.1455252468585968, -0.09492465108633041, -0.04996820539236069, 0.993082582950592, -0.0933026522397995, -0.13815879821777344, 1.484619140625, 1.54248046875, 0.28521728515625, 1.48974609375
53516, 6.564361095428467, 12.515771865844727, -62.034507751464844, -1.6666547060012817, 1.129943609237671, -53.04787826538086, -2.5918333530426025, 1.7561932802200317, -2.4619688987731934, -0.8237414956092834, -0.9955708384513855, 0.054029740393161774, -1.0231598058619402, -0.8380486250079286, 3.329999990470779, 9362.0, 30146.0, 35388.0, 9362.0, 8.370248794555664, 0.029159843921661377, -0.17646050453186035, -0.06656432896852493, -0.09492465108633041, -0.04996820539236069, 0.993082582950592, -0.0933026522397995, -0.13815879821777344, 1.484619140625, 1.56298828125, 0.3311767578125, 1.493408203125
53536, 6.566083908081055, 12.519893646240234, -62.034915924072266, -1.8529026508331299, 1.2561370134353638, -53.221099853515625, -2.7295444011688232, 1.849334478378296, -2.487170696258545, -0.8237464427947998, -0.9955706000328064, 0.054034460335969925, -1.0241954274691674, -0.837277452643292, 3.3310791700008497, 9362.0, 30146.0, 35388.0, 9362.0, 8.370248794555664, 0.003061181865632534, -0.19888292253017426, -0.024705134332180023, -0.09735987335443497, -0.050905175507068634, 0.994384229183197, -0.0933026522397995, -0.13815879821777344, 1.484619140625, 1.515380859375, 0.2270050048828125, 1.493408203125
53596, 6.567631721496582, 12.52273178100586, -62.03187561035156, -1.9356755018234253, 1.3122165203094482, -53.29587173461914, -2.7886486053466797, 1.8893003463745117, -2.497678279876709, -0.8237435817718506, -0.9955708980560303, 0.05403852090239525, -1.0198015510802998, -0.8459211913138915, 3.3272861146458137, 9362.0, 30146.0, 35388.0, 9362.0, 8.390083312988281, -0.043174032121896744, 0.007852509617805481, 0.08749566972255707, -0.09860603511333466, -0.04991358891129494, 0.993697464466095, -0.07832106202840805, -0.2546367645263672, 1.47509765625, 1.518310546875, 0.2331390380859375, 1.4970703125
53616, 6.566479682922363, 12.525349617004395, -62.03038024902344, -2.0487964153289795, 1.3888535499572754, -53.39606475830078, -2.867372989654541, 1.9425288438796997, -2.512172222137451, -0.823712944984436, -0.9955542683601379, 0.05409670248627663, -1.0429019074385693, -0.816359881756739, 3.3436079931757665, 9362.0, 30146.0, 35388.0, 9362.0, 8.390083312988281, 0.1639023870229721, 0.02463524229824543, -0.143611341714859, -0.0966549813747406, -0.05039588361978531, 0.9934542775154114, -0.07832106202840805, -0.2546367645263672, 1.47509765625, 1.5263671875, 0.2502899169921875, 1.4970703125
53676, 6.564579963684082, 12.528883934020996, -62.032142639160156, -2.224381446838379, 1.5078012943267822, -53.54745101928711, -2.985480546951294, 2.0224063396453857, -2.5338826179504395, -0.8237527012825012, -0.9955744743347168, 0.054022591561079025, -1.0229415237347093, -0.8405824909213493, 3.3253628294836033, 9362.0, 30146.0, 35388.0, 9362.0, 8.390083312988281, -0.15618108212947845, 0.044150155037641525, 0.04383329302072525, -0.09754402190446854, -0.05128344148397446, 0.992117702960968, -0.07322395592927933, -0.09335899353027344, 1.48828125, 1.4970703125, 0.18975830078125, 1.49267578125
53716, 6.561267375946045, 12.526535034179688, -62.03221893310547, -2.376117467880249, 1.6105871200561523, -53.674591064453125, -3.083892822265625, 2.088988780975342, -2.5520071983337402, -0.8237538933753967, -0.9955677390098572, 0.05403503403067589, -1.0223628170546513, -0.8498166407345877, 3.329785357108635, 9362.0, 30146.0, 35388.0, 9362.0, 8.390083312988281, -0.26389002799987793, 0.1015193983912468, 0.31050339341163635, -0.09378424286842346, -0.051263611763715744, 0.9932596683502197, -0.07322395592927933, -0.09335899353027344, 1.48828125, 1.512451171875, 0.2209625244140625, 1.49267578125
53726, 6.559208869934082, 12.527399063110352, -62.032020568847656, -2.407054901123047, 1.6315436363220215, -53.700130462646484, -3.1035711765289307, 2.1023049354553223, -2.5556321144104004, -0.8237512707710266, -0.9955697059631348, 0.05403188616037369, -1.024565463561454, -0.8447014851931556, 3.3314451131452674, 9362.0, 30146.0, 35388.0, 9362.0, 8.390083312988281, 0.1827038824558258, -0.23988991975784302, 0.27237722277641296, -0.09794533997774124, -0.04903937876224518, 0.9901833534240723, -0.07322395592927933, -0.09335899353027344, 1.48828125, 1.45751953125, 0.117095947265625, 1.48974609375
53736, 6.559526443481445, 12.527624130249023, -62.031986236572266, -2.4381887912750244, 1.6526331901550293, -53.725704193115234, -3.1232059001922607, 2.115596055984497, -2.5594515800476074, -0.8237121105194092, -0.9955496191978455, 0.054087307304143906, -1.0411066264429776, -0.8194792192254852, 3.348066000522033, 9362.0, 30146.0, 35388.0, 9362.0, 8.390083312988281, 0.028010668233036995, 0.03845665231347084, -0.10713040828704834, -0.09665640443563461, -0.05058478191494942, 0.991881787776947, -0.07322395592927933, -0.09335899353027344, 1.48828125, 1.4912109375, 0.178253173828125, 1.48974609375
53756, 6.5596089363098145, 12.5267333984375, -62.03153610229492, -2.4695188999176025, 1.6738555431365967, -53.751319885253906, -3.1428258419036865, 2.12888240814209, -2.563328981399536, -0.8237504959106445, -0.9955680966377258, 0.05405319109559059, -1.0207745598728275, -0.8456001802776711, 3.328308766864323, 9362.0, 30146.0, 35388.0, 9362.0, 8.390083312988281, -0.04962732642889023, 0.15574035048484802, -0.013837314210832119, -0.09419484436511993, -0.049222011119127274, 0.9942952394485474, -0.0566881000995636, -0.021678924560546875, 1.494140625, 1.472900390625, 0.1439361572265625, 1.4912109375
53776, 6.559803485870361, 12.528594017028809, -62.032100677490234, -2.532768964767456, 1.7166996002197266, -53.80265808105469, -3.1821939945220947, 2.155538320541382, -2.5704898834228516, -0.8237224221229553, -0.9955496788024902, 0.054081279784440994, -1.0400340972210387, -0.8236463816215291, 3.3478765707920726, 9362.0, 30146.0, 35388.0, 9362.0, 8.390083312988281, -0.0857098400592804, -0.09075506776571274, 0.047615960240364075, -0.09569835662841797, -0.05173974484205246, 0.992496132850647, -0.0566881000995636, -0.021678924560546875, 1.494140625, 1.456787109375, 0.115966796875, 1.4912109375
53796, 6.559207916259766, 12.529097557067871, -62.03206253051758, -2.532768964767456, 1.7166996002197266, -53.80265808105469, -3.1821939945220947, 2.155538320541382, -2.5704898834228516, -0.823749303817749, -0.995570719242096, 0.054032474756240845, -1.0268338211232886, -0.845417015246511, 3.3342187591892554, 9362.0, 30146.0, 35388.0, 9362.0, 8.390083312988281, 0.1081031784415245, -0.2518428862094879, 0.070152647793293, -0.09569835662841797, -0.05173974484205246, 0.992496132850647, -0.0566881000995636, -0.021678924560546875, 1.494140625, 1.5322265625, 0.2628021240234375, 1.5
53816, 6.5582356452941895, 12.529573440551758, -62.0287971496582, -2.532768964767456, 1.7166996002197266, -53.80265808105469, -3.1821939945220947, 2.155538320541382, -2.5704898834228516, -0.823759138584137, -0.9955753684043884, 0.05402737110853195, -1.0220052885692514, -0.846471072046171, 3.3309699006954157, 9362.0, 30146.0, 35388.0, 9362.0, 8.390083312988281, 0.12043527513742447, 0.016876986250281334, 0.13628657162189484, -0.0950324535369873, -0.04831894859671593, 0.9921491742134094, -0.0566881000995636, -0.021678924560546875, 1.494140625, 1.5234375, 0.2439727783203125, 1.494873046875
53856, 6.564274787902832, 12.527995109558105, -62.03042984008789, -2.8271358013153076, 1.9160943031311035, -54.035465240478516, -3.3593251705169678, 2.275482654571533, -2.6028409004211426, -0.8237339854240417, -0.9955623745918274, 0.0540916733443737, -1.0394552363701197, -0.8200181409216896, 3.3466159644824813, 9362.0, 30146.0, 35388.0, 9362.0, 8.390083312988281, 0.33887505531311035, 0.00019064002844970673, 0.2684088945388794, -0.09563610702753067, -0.05135340988636017, 0.9945257306098938, -0.09096301347017288, -0.08439826965332031, 1.489013671875, 1.516845703125, 0.23004150390625, 1.494873046875
53876, 6.563440799713135, 12.528128623962402, -62.02745056152344, -2.8947150707244873, 1.9618698358535767, -54.08759689331055, -3.398616313934326, 2.302072763442993, -2.6104276180267334, -0.8237245678901672, -0.9955592155456543, 0.05409403145313263, -1.0296690368787478, -0.8235505468806821, 3.3428044221095488, 9362.0, 30146.0, 35388.0, 9362.0, 8.390083312988281, 0.18137161433696747, -0.23342496156692505, -0.06659713387489319, -0.09500747919082642, -0.04873525723814964, 0.9929808378219604, -0.09096301347017288, -0.08439826965332031, 1.489013671875, 1.469970703125, 0.1386566162109375, 1.494873046875
53896, 6.565093040466309, 12.529942512512207, -62.02957534790039, -2.9630813598632812, 2.0081779956817627, -54.13987731933594, -3.4380300045013428, 2.328742265701294, -2.6174356937408447, -0.8237136602401733, -0.9955568909645081, 0.05408288165926933, -1.034089815165854, -0.8193886115343219, 3.344292729284478, 9362.0, 30146.0, 35388.0, 9362.0, 8.390083312988281, 0.1571589708328247, -0.16581876575946808, -0.2536531090736389, -0.09709140658378601, -0.051035620272159576, 0.9941738247871399, -0.09096301347017288, -0.08439826965332031, 1.489013671875, 1.505859375, 0.2073974609375, 1.494873046875
