timeTick, roll, pitch, yaw, stateX, stateY, stateZ, stateVX, stateVY, stateVZ, otX0, otY0, otZ0, otRoll0, otPitch0, otYaw0, left wing, pitch motor, yaw motor, right wing, voltage, roll rate, pitch rate, yaw rate, A_x, A_y, A_z, current, i_raw, v_raw, airflow_voltage, airflow_speed, pot_Pitch
41641, 1.9448068141937256, -13.841605186462402, -0.19041231274604797, 0, 0, 0, 0, 0, 0, -0.8094094395637512, -0.9779387712478638, 0.0547097809612751, -0.5584164662970973, -0.7401079480460169, 4.3581861752949305, 0, 0, 0, 0, 0, 0, 0, 0, 0, 0, 0, 0, 0, 0, 0, 0, 0
41651, 1.9460208415985107, -13.8396635055542, -0.19173027575016022, -0.004476713482290506, 0.0006511429091915488, -38.4542121887207, -0.43602439761161804, 0.06342045217752457, -1.868459939956665, -0.809413731098175, -0.977942943572998, 0.05469229444861412, -0.5591006860775508, -0.7350002282058483, 4.35761952394552, 9362.0, 30146.0, 35388.0, 9362.0, 0, 0.18968643248081207, -0.3129158318042755, 0.08159376680850983, -0.09532240778207779, -0.0336848720908165, 0.9946485161781311, 0, 0, 0, 1.45751953125, 0.117095947265625, 0
41661, 1.94730544090271, -13.8411226272583, -0.18916252255439758, -0.008720478042960167, 0.0012684199027717113, -38.47291564941406, -0.4127283990383148, 0.060034338384866714, -1.8719661235809326, -0.8094155788421631, -0.9779430031776428, 0.054699867963790894, -0.559800932361269, -0.7329457662137031, 4.354271129492611, 9362.0, 30146.0, 35388.0, 9362.0, 0, 0.05820392817258835, 0.3312304615974426, 0.09679041057825089, -0.09667361527681351, -0.03254322707653046, 0.9965392351150513, 0, 0, 0, 1.433349609375, 0.0797576904296875, 1.494873046875
41671, 1.9465434551239014, -13.84191608428955, -0.18873253464698792, -0.012731092050671577, 0.0018517926800996065, -38.49165344238281, -0.3893943428993225, 0.05664120987057686, -1.87530517578125, -0.8094121813774109, -0.977956235408783, 0.054701436311006546, -0.5600994398874598, -0.7267035714992289, 4.359016259231917, 9362.0, 30146.0, 35388.0, 9362.0, 0, -0.18663589656352997, 0.007505911868065596, 0.14339081943035126, -0.09551192075014114, -0.032850489020347595, 0.9958887696266174, 0, 0, 0, 1.48828125, 0.172576904296875, 1.494873046875
41681, 1.9451380968093872, -13.842947006225586, -0.18714524805545807, -0.016508204862475395, 0.002401206875219941, -38.51042175292969, -0.36602815985679626, 0.053241826593875885, -1.8785237073898315, -0.8094103932380676, -0.97796231508255, 0.05470855534076691, -0.5510642893941349, -0.7377169591804602, 4.357780594061366, 9362.0, 30146.0, 35388.0, 9362.0, 0, -0.0441526435315609, -0.06613801419734955, -0.023187121376395226, -0.09657683968544006, -0.03367696702480316, 0.9932518005371094, 0, 0, 0, 1.518310546875, 0.2331390380859375, 1.491943359375
41691, 1.9459410905838013, -13.842841148376465, -0.18727993965148926, -0.020051904022693634, 0.0029166718013584614, -38.52922439575195, -0.34271177649497986, 0.04985186085104942, -1.881950855255127, -0.8093897104263306, -0.9779452681541443, 0.05472186207771301, -0.5559084664853415, -0.7428979736758663, 4.369375306565126, 9362.0, 30146.0, 35388.0, 9362.0, 0, 0.0971604734659195, 0.277386873960495, 0.016398325562477112, -0.09582855552434921, -0.032870691269636154, 0.9938856363296509, 0, 0, 0, 1.47509765625, 0.147857666015625, 1.491943359375
41701, 1.9455798864364624, -13.842283248901367, -0.18584288656711578, -0.02336256019771099, 0.003398271044716239, -38.54806137084961, -0.3194194734096527, 0.04646788910031319, -1.8854830265045166, -0.8093935251235962, -0.9779406785964966, 0.05474547669291496, -0.5564087884152963, -0.7484894568418099, 4.3682698557743596, 9362.0, 30146.0, 35388.0, 9362.0, 0, -0.1860731542110443, -0.10237286984920502, 0.26787862181663513, -0.09425600618124008, -0.03589857369661331, 0.9935406446456909, 0, 0, 0, 1.44873046875, 0.102813720703125, 1.490478515625
41711, 1.9458577632904053, -13.843006134033203, -0.18447968363761902, -0.026440199464559555, 0.0038460097275674343, -38.566932678222656, -0.2961083948612213, 0.04308043792843819, -1.888938307762146, -0.8093855977058411, -0.9779602289199829, 0.05473426729440689, -0.5630536907034767, -0.7417261167964853, 4.359239237054948, 9362.0, 30146.0, 35388.0, 9362.0, 0, 0.05390118435025215, 0.140055850148201, 0.038422081619501114, -0.09578883647918701, -0.033147845417261124, 0.9913604855537415, 0, 0, 0, 1.4677734375, 0.1347198486328125, 1.490478515625
41721, 1.9443602561950684, -13.842859268188477, -0.1844101846218109, -0.029284987598657608, 0.004259916953742504, -38.58584213256836, -0.27284932136535645, 0.039701562374830246, -1.8926013708114624, -0.809363842010498, -0.9779170155525208, 0.054768919944763184, -0.5646368884240252, -0.7273661219708742, 4.392196128855976, 9362.0, 30146.0, 35388.0, 9362.0, 0, 0.050308145582675934, -0.1148761510848999, -0.08652599900960922, -0.09622648358345032, -0.03170314431190491, 0.9948015213012695, 0, 0, 0, 1.489013671875, 0.174041748046875, 1.490478515625
41731, 1.9440956115722656, -13.841919898986816, -0.18485774099826813, -0.03189709037542343, 0.004640023224055767, -38.60478591918945, -0.24957142770290375, 0.03631975129246712, -1.8961931467056274, -0.8093968033790588, -0.9779488444328308, 0.0547330304980278, -0.5575838232401334, -0.7455126146417399, 4.370548169896432, 9362.0, 30146.0, 35388.0, 9362.0, 0, 0.04371218383312225, 0.1505570262670517, 0.28231868147850037, -0.09461287409067154, -0.034513700753450394, 0.9929121732711792, 0, 0, 0, 1.503662109375, 0.2029876708984375, 1.490478515625
41741, 1.943197250366211, -13.842973709106445, -0.18252569437026978, -0.03427623212337494, 0.0049862973392009735, -38.62376403808594, -0.22625692188739777, 0.032934922724962234, -1.899634838104248, -0.8093517422676086, -0.9779219031333923, 0.05479362607002258, -0.5643881663687725, -0.730711857305181, 4.388927500811016, 9362.0, 30146.0, 35388.0, 9362.0, 8.390083312988281, -0.13673801720142365, 0.08840806037187576, 0.30530381202697754, -0.09381408989429474, -0.03496462106704712, 0.991664707660675, -0.06154276803135872, -0.1291980743408203, 1.4853515625, 1.4736328125, 0.1452178955078125, 1.4912109375
41751, 1.9430277347564697, -13.845551490783691, -0.18160250782966614, -0.03642243146896362, 0.005298753269016743, -38.64277648925781, -0.20298315584659576, 0.029557202011346817, -1.9032360315322876, -0.8094034194946289, -0.9779432415962219, 0.05471708998084068, -0.5563580662972905, -0.7492444906093283, 4.365180081036734, 9362.0, 30146.0, 35388.0, 9362.0, 8.390083312988281, 0.13244707882404327, 0.26458436250686646, -0.03780152276158333, -0.09630128741264343, -0.033626433461904526, 0.9927435517311096, -0.06154276803135872, -0.1291980743408203, 1.4853515625, 1.49267578125, 0.1811065673828125, 1.4912109375
41761, 1.9433903694152832, -13.845139503479004, -0.1810438334941864, -0.03833601996302605, 0.005577463656663895, -38.661827087402344, -0.17973481118679047, 0.026185275986790657, -1.9069485664367676, -0.8093492984771729, -0.9779157638549805, 0.05478901043534279, -0.564905114172195, -0.7332597653819164, 4.388386660888055, 9362.0, 30146.0, 35388.0, 9362.0, 8.390083312988281, 0.25512057542800903, 0.3001900613307953, 0.30094608664512634, -0.09415104985237122, -0.03248784318566322, 0.9937822222709656, -0.06154276803135872, -0.1291980743408203, 1.4853515625, 1.43701171875, 0.085052490234375, 1.489013671875
41771, 1.9422614574432373, -13.84550952911377, -0.18027643859386444, -0.040016911923885345, 0.005822429899126291, -38.68091583251953, -0.15644320845603943, 0.022808218374848366, -1.9105033874511719, -0.809356689453125, -0.9779170751571655, 0.054786793887615204, -0.5679029038936159, -0.7338094154479791, 4.395476428277009, 9362.0, 30146.0, 35388.0, 9362.0, 8.390083312988281, 0.07102343440055847, 0.0772925317287445, 0.44496312737464905, -0.0940115749835968, -0.0328483022749424, 0.9945452213287354, -0.06154276803135872, -0.1291980743408203, 1.4853515625, 1.480224609375, 0.157379150390625, 1.489013671875
41781, 1.9407134056091309, -13.848210334777832, -0.17958134412765503, -0.041464779525995255, 0.006033607758581638, -38.70003890991211, -0.13312995433807373, 0.019427679479122162, -1.9139677286148071, -0.8093957304954529, -0.9779385924339294, 0.05473015457391739, -0.5614176177633302, -0.7446113237305099, 4.367327820838089, 9362.0, 30146.0, 35388.0, 9362.0, 8.390083312988281, 0.06518322974443436, 0.24179179966449738, -0.17024751007556915, -0.09767000377178192, -0.03352934494614601, 0.9954097867012024, -0.06154276803135872, -0.1291980743408203, 1.4853515625, 1.4765625, 0.1505584716796875, 1.493408203125
41791, 1.9413751363754272, -13.84610366821289, -0.17991146445274353, -0.04267936199903488, 0.006210969761013985, -38.71919631958008, -0.10978679358959198, 0.016045114025473595, -1.917313814163208, -0.8094072341918945, -0.9779527187347412, 0.05474669486284256, -0.5580641498502142, -0.7468338354524917, 4.367985935967506, 9362.0, 30146.0, 35388.0, 9362.0, 8.390083312988281, -0.0479925163090229, -0.3569847345352173, 0.02228091098368168, -0.09656678140163422, -0.03437993302941322, 0.9960514307022095, -0.06154276803135872, -0.1291980743408203, 1.4853515625, 1.518310546875, 0.2331390380859375, 1.493408203125
41801, 1.9399003982543945, -13.84519100189209, -0.18101784586906433, -0.04366045817732811, 0.00635451590642333, -38.73838424682617, -0.08643215894699097, 0.012663955800235271, -1.9206318855285645, -0.8093888759613037, -0.9779473543167114, 0.0547403022646904, -0.5594018006345101, -0.7474210828734442, 4.373951934421457, 9362.0, 30146.0, 35388.0, 9362.0, 8.390083312988281, 0.18488949537277222, 0.36563435196876526, -0.09675039350986481, -0.0946308895945549, -0.03586505725979805, 0.9970619678497314, -0.06154276803135872, -0.1291980743408203, 1.4853515625, 1.480224609375, 0.157379150390625, 1.4912109375
41811, 1.9415639638900757, -13.849164962768555, -0.18175506591796875, -0.044407881796360016, 0.0064642238430678844, -38.757606506347656, -0.06305262446403503, 0.009277199395000935, -1.9238336086273193, -0.8094106316566467, -0.9779478907585144, 0.05472360551357269, -0.5645778669986469, -0.7476179340961551, 4.361555356963469, 9362.0, 30146.0, 35388.0, 9362.0, 8.390083312988281, -0.10326565057039261, 0.1640419214963913, -0.02596764639019966, -0.09538837522268295, -0.03419782593846321, 0.9950093626976013, -0.06154276803135872, -0.1291980743408203, 1.4853515625, 1.487548828125, 0.1712188720703125, 1.4912109375
41821, 1.9414920806884766, -13.847536087036133, -0.18075630068778992, -0.044921647757291794, 0.00654009310528636, -38.77686309814453, -0.039701007306575775, 0.00589631125330925, -1.9271432161331177, -0.8093928098678589, -0.9779475331306458, 0.05473657697439194, -0.563113257702041, -0.7446266069141529, 4.3620305475955945, 9362.0, 30146.0, 35388.0, 9362.0, 8.390083312988281, -0.08694387227296829, 0.28804340958595276, 0.0036874227225780487, -0.09689445793628693, -0.033650465309619904, 0.9948673248291016, -0.06154276803135872, -0.1291980743408203, 1.4853515625, 1.5, 0.19561767578125, 1.48974609375
41831, 1.939787745475769, -13.848888397216797, -0.18154653906822205, -0.045202020555734634, 0.006582160480320454, -38.79615020751953, -0.016373610123991966, 0.0025175411719828844, -1.9305782318115234, -0.8093870282173157, -0.9779359698295593, 0.054739005863666534, -0.561291744827303, -0.7371191844399334, 4.3568837695745914, 9362.0, 30146.0, 35388.0, 9362.0, 8.390083312988281, 0.03604790195822716, -0.18467070162296295, -0.2715483009815216, -0.09540028870105743, -0.03257782757282257, 0.9921559691429138, -0.06154276803135872, -0.1291980743408203, 1.4853515625, 1.4560546875, 0.1147003173828125, 1.48974609375
41841, 1.9419355392456055, -13.852068901062012, -0.18071042001247406, -0.045249197632074356, 0.006590451579540968, -38.81547164916992, 0.006938353180885315, -0.0008595301187597215, -1.9340651035308838, -0.8093904852867126, -0.9779454469680786, 0.0547298938035965, -0.5643442978210371, -0.7499196165730098, 4.3591488191120575, 9362.0, 30146.0, 35388.0, 9362.0, 8.390083312988281, -0.09586737304925919, 0.02079608105123043, 0.1024002805352211, -0.0945468544960022, -0.03345255181193352, 0.9917021989822388, -0.09355691820383072, 0.03208160400390625, 1.49853515625, 1.47802734375, 0.1532745361328125, 1.491943359375
41851, 1.9414891004562378, -13.852310180664062, -0.18109096586704254, -0.0450635701417923, 0.0065650325268507, -38.83483123779297, 0.03018706478178501, -0.004224046133458614, -1.9378184080123901, -0.8093637228012085, -0.9779450297355652, 0.05479176342487335, -0.5553484973812237, -0.7630254483956378, 4.35535784545838, 9362.0, 30146.0, 35388.0, 9362.0, 8.390083312988281, -0.08617148548364639, -0.045002326369285583, -0.2257574498653412, -0.09522217512130737, -0.03586886078119278, 0.9946992993354797, -0.09355691820383072, 0.03208160400390625, 1.49853515625, 1.5234375, 0.2439727783203125, 1.491943359375
41861, 1.9412318468093872, -13.852713584899902, -0.1816566288471222, -0.04464517533779144, 0.006505914963781834, -38.85422897338867, 0.05349152907729149, -0.007599565666168928, -1.9413673877716064, -0.8093733787536621, -0.977958619594574, 0.05477543920278549, -0.5509704064567139, -0.7634273977577948, 4.3629511655252315, 9362.0, 30146.0, 35388.0, 9362.0, 8.390083312988281, 0.0484728179872036, 0.23499804735183716, 0.20921964943408966, -0.09534706175327301, -0.03422078862786293, 0.9937360286712646, -0.09355691820383072, 0.03208160400390625, 1.49853515625, 1.48095703125, 0.1587677001953125, 1.48681640625
41871, 1.9411786794662476, -13.853642463684082, -0.18219983577728271, -0.043993644416332245, 0.0064130318351089954, -38.873661041259766, 0.07681474834680557, -0.010977269150316715, -1.9448418617248535, -0.8093643188476562, -0.9779571890830994, 0.05477472022175789, -0.5496786371153739, -0.765631316973753, 4.352799336496299, 9362.0, 30146.0, 35388.0, 9362.0, 8.390083312988281, -0.0895024761557579, -0.12844431400299072, 0.0473429299890995, -0.09576112776994705, -0.032785363495349884, 0.9930593967437744, -0.09355691820383072, 0.03208160400390625, 1.49853515625, 1.461181640625, 0.1233062744140625, 1.48681640625
41881, 1.9407930374145508, -13.852476119995117, -0.18141527473926544, -0.0431089885532856, 0.006286389194428921, -38.89312744140625, 0.10011615604162216, -0.014351485297083855, -1.9484078884124756, -0.809368371963501, -0.9779508113861084, 0.05478955805301666, -0.5508102745792498, -0.7643461319351843, 4.3507591770687535, 9362.0, 30146.0, 35388.0, 9362.0, 8.390083312988281, -0.1049271821975708, -0.0023018743377178907, 0.19698050618171692, -0.09393919259309769, -0.03380537033081055, 0.9937102794647217, -0.09355691820383072, 0.03208160400390625, 1.49853515625, 1.5029296875, 0.201446533203125, 1.48681640625
41891, 1.940759301185608, -13.851059913635254, -0.1820814311504364, -0.04199125990271568, 0.006125996354967356, -38.912628173828125, 0.12342939525842667, -0.01772676780819893, -1.9519319534301758, -0.8093340396881104, -0.9779319167137146, 0.054829295724630356, -0.5588322084013688, -0.7386391904337017, 4.381355686697507, 9362.0, 30146.0, 35388.0, 9362.0, 8.390083312988281, 0.05387458950281143, -0.03673332929611206, -0.29884958267211914, -0.09423815459012985, -0.03459866717457771, 0.9920501708984375, -0.09355691820383072, 0.03208160400390625, 1.49853515625, 1.51171875, 0.21942138671875, 1.48681640625
41901, 1.9406172037124634, -13.851385116577148, -0.1828535795211792, -0.04064047336578369, 0.005931864492595196, -38.932167053222656, 0.14672836661338806, -0.021099865436553955, -1.9555060863494873, -0.8093662261962891, -0.9779509902000427, 0.054789528250694275, -0.5521425352339663, -0.763510157271071, 4.351998446812677, 9362.0, 30146.0, 35388.0, 9362.0, 8.390083312988281, -0.16140155494213104, -0.22109220921993256, -0.011874477379024029, -0.09464360028505325, -0.03446570038795471, 0.9929681420326233, -0.09355691820383072, 0.03208160400390625, 1.49853515625, 1.462646484375, 0.125823974609375, 1.494873046875
41911, 1.9410144090652466, -13.854512214660645, -0.1846904456615448, -0.03905680030584335, 0.005704014096409082, -38.95174026489258, 0.1700061559677124, -0.024470508098602295, -1.9591559171676636, -0.8093701601028442, -0.9779539108276367, 0.05477926507592201, -0.5508108822663531, -0.7654860144016311, 4.352791105088426, 9362.0, 30146.0, 35388.0, 9362.0, 8.390083312988281, 0.06862181425094604, 0.45228636264801025, -0.11817172914743423, -0.09446628391742706, -0.03337598219513893, 0.9957985281944275, -0.09355691820383072, 0.03208160400390625, 1.49853515625, 1.483154296875, 0.162841796875, 1.494873046875
41921, 1.9406604766845703, -13.853983879089355, -0.18547983467578888, -0.03724011406302452, 0.005442423280328512, -38.97134780883789, 0.19333070516586304, -0.02784842438995838, -1.962618112564087, -0.80937260389328, -0.9779554605484009, 0.05478193238377571, -0.552534150346463, -0.7626052194637793, 4.354440178292786, 9362.0, 30146.0, 35388.0, 9362.0, 8.390083312988281, -0.0005665543139912188, -0.18520335853099823, 0.12474562227725983, -0.09567956626415253, -0.03341047093272209, 0.9964219927787781, -0.09355691820383072, 0.03208160400390625, 1.49853515625, 1.505859375, 0.2073974609375, 1.48828125
41931, 1.9399219751358032, -13.853787422180176, -0.18627440929412842, -0.035189829766750336, 0.0051469989120960236, -38.990989685058594, 0.21672604978084564, -0.03123677521944046, -1.9658151865005493, -0.8093355894088745, -0.9779312610626221, 0.0548451729118824, -0.5498595956474572, -0.746229690405471, 4.38176479652254, 9362.0, 30146.0, 35388.0, 9362.0, 8.390083312988281, -0.21372567117214203, 0.322522908449173, -0.08918382227420807, -0.09463583678007126, -0.03516530990600586, 0.9931674599647522, -0.09355691820383072, 0.03208160400390625, 1.49853515625, 1.475830078125, 0.1492767333984375, 1.48828125
41941, 1.9407076835632324, -13.8549165725708, -0.18657708168029785, -0.032905906438827515, 0.004817737266421318, -39.01066589355469, 0.24005833268165588, -0.03461587056517601, -1.9692633152008057, -0.8093627691268921, -0.9779520630836487, 0.05478635057806969, -0.5556618351180114, -0.7640898058928656, 4.360760582392342, 9362.0, 30146.0, 35388.0, 9362.0, 8.390083312988281, -0.11793962866067886, 0.04769004136323929, -0.05581723526120186, -0.09494417905807495, -0.03404766321182251, 0.9926241636276245, -0.0779227614402771, -0.10231781005859375, 1.487548828125, 1.4443359375, 0.0959930419921875, 1.4853515625
41951, 1.9408270120620728, -13.854937553405762, -0.18790104985237122, -0.030388815328478813, 0.004454711452126503, -39.03037643432617, 0.2633598744869232, -0.03798948973417282, -1.972835898399353, -0.8093769550323486, -0.9779548048973083, 0.0547751821577549, -0.5495805958073987, -0.7638557513956812, 4.354557483755498, 9362.0, 30146.0, 35388.0, 9362.0, 8.390083312988281, 0.10702481120824814, 0.14819812774658203, -0.18771235644817352, -0.09611520916223526, -0.03158893808722496, 0.993748664855957, -0.0779227614402771, -0.10231781005859375, 1.487548828125, 1.462646484375, 0.125823974609375, 1.4853515625
41961, 1.9416416883468628, -13.857112884521484, -0.18742376565933228, -0.027638696134090424, 0.004057941492646933, -39.05012130737305, 0.28666388988494873, -0.04136503487825394, -1.976405382156372, -0.8093749284744263, -0.97795170545578, 0.05478416755795479, -0.549409912430217, -0.7625548019837254, 4.354383218201168, 9362.0, 30146.0, 35388.0, 9362.0, 8.390083312988281, 0.10968875139951706, 0.005978046916425228, -0.027467777952551842, -0.09450693428516388, -0.03389579802751541, 0.9953293204307556, -0.0779227614402771, -0.10231781005859375, 1.487548828125, 1.461181640625, 0.1233062744140625, 1.491943359375
41971, 1.9418336153030396, -13.855981826782227, -0.18807588517665863, -0.024655306711792946, 0.003627378959208727, -39.06990051269531, 0.3100137710571289, -0.04474726691842079, -1.97978937625885, -0.8093651533126831, -0.9779544472694397, 0.054780907928943634, -0.5509843124958324, -0.7671853731166891, 4.3545352570660505, 9362.0, 30146.0, 35388.0, 9362.0, 8.390083312988281, 0.1263829916715622, 0.06617427617311478, -0.044200245290994644, -0.09346820414066315, -0.03481576591730118, 0.9936292767524719, -0.0779227614402771, -0.10231781005859375, 1.487548828125, 1.46337890625, 0.1270751953125, 1.491943359375
41981, 1.940421462059021, -13.856172561645508, -0.18844947218894958, -0.02143842540681362, 0.0031629917211830616, -39.08971405029297, 0.3333625793457031, -0.048130474984645844, -1.9831926822662354, -0.8093666434288025, -0.9779528975486755, 0.054777566343545914, -0.5504784022300306, -0.7630429504413883, 4.351017064971742, 9362.0, 30146.0, 35388.0, 9362.0, 8.390083312988281, 0.07742467522621155, -0.0820334255695343, -0.15830719470977783, -0.09497763961553574, -0.0345551036298275, 0.9948896169662476, -0.0779227614402771, -0.10231781005859375, 1.487548828125, 1.494140625, 0.183990478515625, 1.48681640625
41991, 1.9407787322998047, -13.855154991149902, -0.1879792958498001, -0.017988121137022972, 0.0026647774502635, -39.109561920166016, 0.356698215007782, -0.0515124648809433, -1.9866406917572021, -0.809377133846283, -0.977949857711792, 0.05477277934551239, -0.5532645892401515, -0.7603210149402173, 4.350057672134762, 9362.0, 30146.0, 35388.0, 9362.0, 8.390083312988281, -0.13966374099254608, -0.36698484420776367, 0.03256506845355034, -0.09472958743572235, -0.03552940487861633, 0.9932815432548523, -0.0779227614402771, -0.10231781005859375, 1.487548828125, 1.45458984375, 0.11224365234375, 1.48681640625
42001, 1.9409736394882202, -13.852350234985352, -0.18793077766895294, -0.014304514974355698, 0.0021327626891434193, -39.12944412231445, 0.3800233006477356, -0.05489032343029976, -1.9901342391967773, -0.809365451335907, -0.9779433608055115, 0.054778292775154114, -0.5483846526682928, -0.7636322140702134, 4.351184350524302, 9362.0, 30146.0, 35388.0, 9362.0, 8.390083312988281, 0.05532356724143028, -0.2780139148235321, 0.01606416516005993, -0.09317043423652649, -0.03438354656100273, 0.9940410256385803, -0.0779227614402771, -0.10231781005859375, 1.487548828125, 1.5146484375, 0.225494384765625, 1.48681640625
42011, 1.9397377967834473, -13.852511405944824, -0.1896849125623703, -0.010387672111392021, 0.001566968159750104, -39.14936447143555, 0.40334540605545044, -0.05826857313513756, -1.9936312437057495, -0.8093606233596802, -0.9779545068740845, 0.05478104203939438, -0.5494091911168885, -0.7642015329741696, 4.3552840779009525, 9362.0, 30146.0, 35388.0, 9362.0, 8.390083312988281, 0.1446332335472107, 0.20889928936958313, -0.3730035126209259, -0.0951494351029396, -0.03456726670265198, 0.9963606595993042, -0.0779227614402771, -0.10231781005859375, 1.487548828125, 1.487548828125, 0.1712188720703125, 1.48681640625
42021, 1.9397445917129517, -13.853528022766113, -0.18795141577720642, -0.006237504072487354, 0.0009673713357187808, -39.16931915283203, 0.426688015460968, -0.061651453375816345, -1.9970252513885498, -0.8093674182891846, -0.9779530763626099, 0.05475786700844765, -0.5508853522606523, -0.7669822703522584, 4.354488566456681, 9362.0, 30146.0, 35388.0, 9362.0, 8.390083312988281, -0.08013790100812912, -0.08495857566595078, 0.152982696890831, -0.09594087302684784, -0.035182736814022064, 0.9960077404975891, -0.0779227614402771, -0.10231781005859375, 1.487548828125, 1.50732421875, 0.2104644775390625, 1.493408203125
42031, 1.9395861625671387, -13.853867530822754, -0.18797777593135834, -0.001853768713772297, 0.00033393228659406304, -39.18930435180664, 0.450059175491333, -0.06503567844629288, -2.000305414199829, -0.8093705177307129, -0.9779483079910278, 0.054764896631240845, -0.5518586921478769, -0.7648447195312826, 4.354543397368229, 9362.0, 30146.0, 35388.0, 9362.0, 8.390083312988281, -0.043342091143131256, 0.30708715319633484, 0.10749402642250061, -0.09638400375843048, -0.03515759855508804, 0.9959295988082886, -0.0779227614402771, -0.10231781005859375, 1.487548828125, 1.491943359375, 0.179656982421875, 1.493408203125
42041, 1.9405546188354492, -13.85485553741455, -0.18563206493854523, 0.002763729076832533, -0.0003333517233841121, -39.20932388305664, 0.4734404683113098, -0.0684211403131485, -2.003551721572876, -0.8093612194061279, -0.9779476523399353, 0.05476728826761246, -0.5539003299684698, -0.7655139729241682, 4.353596066363412, 9362.0, 30146.0, 35388.0, 9362.0, 8.390083312988281, -0.3175831437110901, -0.23073109984397888, -0.027070874348282814, -0.09877124428749084, -0.03616645559668541, 0.9941689968109131, -0.07220922410488129, 0.12168121337890625, 1.505859375, 1.48828125, 0.172576904296875, 1.494140625
42051, 1.9400607347488403, -13.851012229919434, -0.1863219141960144, 0.007614984177052975, -0.001034480519592762, -39.22937774658203, 0.4968106150627136, -0.07180368155241013, -2.0068464279174805, -0.8093606233596802, -0.977951169013977, 0.05478047952055931, -0.5490666772777116, -0.7586919550443554, 4.3512031743820705, 9362.0, 30146.0, 35388.0, 9362.0, 8.390083312988281, 0.2019818127155304, -0.16804371774196625, 0.035804640501737595, -0.09780775010585785, -0.033982377499341965, 0.9927123188972473, -0.07220922410488129, 0.12168121337890625, 1.505859375, 1.46484375, 0.1295928955078125, 1.494140625
42061, 1.9400991201400757, -13.852828025817871, -0.18665628135204315, 0.012699613347649574, -0.0017693894915282726, -39.24946594238281, 0.5201153755187988, -0.07517841458320618, -2.0104124546051025, -0.8093611598014832, -0.9779525399208069, 0.05476681515574455, -0.5515511407746067, -0.76419675673867, 4.354919265617685, 9362.0, 30146.0, 35388.0, 9362.0, 8.390083312988281, -0.11656157672405243, -0.21600432693958282, 0.04607295244932175, -0.09473732113838196, -0.03134061023592949, 0.9923569560050964, -0.07220922410488129, 0.12168121337890625, 1.505859375, 1.5263671875, 0.2502899169921875, 1.493408203125
42071, 1.9402216672897339, -13.853414535522461, -0.18479278683662415, 0.01801721751689911, -0.002538037020713091, -39.269588470458984, 0.543405294418335, -0.07855122536420822, -2.0140116214752197, -0.8094022870063782, -0.97796231508255, 0.05474942550063133, -0.5418287755771974, -0.7401086071052987, 4.3424808580106, 9362.0, 30146.0, 35388.0, 9362.0, 8.390083312988281, -0.04470471665263176, 0.059134624898433685, -0.008258877322077751, -0.09327469766139984, -0.03619188070297241, 0.9944801330566406, -0.07220922410488129, 0.12168121337890625, 1.505859375, 1.493408203125, 0.1825714111328125, 1.493408203125
42081, 1.9398549795150757, -13.849770545959473, -0.1847119927406311, 0.02356775477528572, -0.0033404165878891945, -39.28974533081055, 0.5667024254798889, -0.0819239392876625, -2.0175957679748535, -0.8093835711479187, -0.9779583811759949, 0.054742712527513504, -0.5494049829373931, -0.7392351852296315, 4.350123629895132, 9362.0, 30146.0, 35388.0, 9362.0, 8.390083312988281, 0.04540017992258072, -0.4137675166130066, 0.06640031188726425, -0.0946880504488945, -0.03311669081449509, 0.994570791721344, -0.07220922410488129, 0.12168121337890625, 1.505859375, 1.5087890625, 0.21337890625, 1.4853515625
42091, 1.9403847455978394, -13.848224639892578, -0.18375377357006073, 0.029351454228162766, -0.00417654775083065, -39.309940338134766, 0.5900376439094543, -0.0853021889925003, -2.0210275650024414, -0.8093835115432739, -0.9779554009437561, 0.05473637208342552, -0.5460030649593419, -0.74771977969624, 4.346801929525823, 9362.0, 30146.0, 35388.0, 9362.0, 8.390083312988281, -0.08756197243928909, -0.283319890499115, 0.23712706565856934, -0.09472838044166565, -0.03415375202894211, 0.9966965913772583, -0.07220922410488129, 0.12168121337890625, 1.505859375, 1.458251953125, 0.1184234619140625, 1.4853515625
42101, 1.941469669342041, -13.849714279174805, -0.18172727525234222, 0.035368677228689194, -0.005046486854553223, -39.33016586303711, 0.6134069561958313, -0.08868522197008133, -2.024296998977661, -0.80939120054245, -0.9779534935951233, 0.0547451414167881, -0.5478211114268559, -0.752428146522135, 4.3405717708405245, 9362.0, 30146.0, 35388.0, 9362.0, 8.390083312988281, 0.13463713228702545, 0.2178678661584854, 0.23497216403484344, -0.09433415532112122, -0.035014137625694275, 0.9955891370773315, -0.07220922410488129, 0.12168121337890625, 1.505859375, 1.516845703125, 0.23004150390625, 1.49560546875
42111, 1.941225290298462, -13.850486755371094, -0.18117614090442657, 0.041619542986154556, -0.005950253456830978, -39.350425720214844, 0.6367663741111755, -0.09206730127334595, -2.0275959968566895, -0.8094135522842407, -0.9779461026191711, 0.05470109358429909, -0.5505310192380488, -0.7257512065478693, 4.357722103083918, 9362.0, 30146.0, 35388.0, 9362.0, 8.390083312988281, -0.19082380831241608, 0.22886614501476288, 0.0453815832734108, -0.09566391259431839, -0.03190895915031433, 0.9955853223800659, -0.07220922410488129, 0.12168121337890625, 1.505859375, 1.465576171875, 0.130889892578125, 1.49560546875
42121, 1.9407832622528076, -13.853160858154297, -0.18028807640075684, 0.04810390621423721, -0.006887830328196287, -39.37071990966797, 0.6601065397262573, -0.095447838306427, -2.0309829711914062, -0.8094204664230347, -0.9779455065727234, 0.05469125881791115, -0.5599060804321218, -0.7275031022254836, 4.354531693863294, 9362.0, 30146.0, 35388.0, 9362.0, 8.390083312988281, 0.05498160049319267, 0.2748563885688782, -0.05081586912274361, -0.09690945595502853, -0.032399293035268784, 0.9961638450622559, -0.07220922410488129, 0.12168121337890625, 1.505859375, 1.415771484375, 0.0568695068359375, 1.493408203125
42131, 1.9418026208877563, -13.853405952453613, -0.1792410910129547, 0.05482190474867821, -0.007859242148697376, -39.39104461669922, 0.6834930181503296, -0.0988340750336647, -2.034188747406006, -0.8094185590744019, -0.9779478311538696, 0.0547025203704834, -0.5608787373517553, -0.7272243355563717, 4.353542359378719, 9362.0, 30146.0, 35388.0, 9362.0, 8.390083312988281, 0.20998986065387726, 0.2679506838321686, 0.1345088928937912, -0.09626989811658859, -0.03232019394636154, 0.9932278394699097, -0.07220922410488129, 0.12168121337890625, 1.505859375, 1.45751953125, 0.117095947265625, 1.493408203125
42141, 1.941420555114746, -13.854942321777344, -0.18019402027130127, 0.06177349388599396, -0.008864467963576317, -39.41140365600586, 0.7068253755569458, -0.10221070051193237, -2.037632942199707, -0.8094338178634644, -0.9779461622238159, 0.054687272757291794, -0.5517220396559264, -0.72865024507405, 4.349106234124072, 9362.0, 30146.0, 35388.0, 9362.0, 8.390083312988281, -0.004124783910810947, -0.05521758273243904, -0.026789534837007523, -0.09592227637767792, -0.03513647988438606, 0.9934381246566772, -0.09030205756425858, -0.2635974884033203, 1.474365234375, 1.509521484375, 0.2148895263671875, 1.494140625
42171, 1.9410536289215088, -13.85519027709961, -0.1834445297718048, 0.0763760656118393, -0.010976163670420647, -39.45222854614258, 0.7534449696540833, -0.10896047204732895, -2.0447185039520264, -0.8094257712364197, -0.9779365658760071, 0.054678238928318024, -0.5525238814844271, -0.7289790081534591, 4.3451954501804035, 9362.0, 30146.0, 35388.0, 9362.0, 8.390083312988281, 0.0804419219493866, 0.14695286750793457, -0.06546644866466522, -0.09490413963794708, -0.032676201313734055, 0.9943284392356873, -0.09030205756425858, -0.2635974884033203, 1.474365234375, 1.4443359375, 0.0959930419921875, 1.493408203125
42191, 1.9416073560714722, -13.85836410522461, -0.18171800673007965, 0.09191164374351501, -0.013222964480519295, -39.493194580078125, 0.8001206517219543, -0.11572068184614182, -2.0515878200531006, -0.8094455599784851, -0.9779494404792786, 0.05466562882065773, -0.5478103497390614, -0.729085975122814, 4.352689832447678, 9362.0, 30146.0, 35388.0, 9362.0, 8.390083312988281, 0.307640939950943, 0.22909565269947052, -0.3244037926197052, -0.09651274979114532, -0.03364934027194977, 0.9938601851463318, -0.09030205756425858, -0.2635974884033203, 1.474365234375, 1.508056640625, 0.211883544921875, 1.494873046875
42231, 1.9438188076019287, -13.858993530273438, -0.1869651973247528, 0.13483339548110962, -0.01943114399909973, -39.59621047973633, 0.9168004989624023, -0.13261891901493073, -2.068920612335205, -0.8094467520713806, -0.9779422879219055, 0.05465393513441086, -0.5570278830976655, -0.7206507493604875, 4.351353529261098, 9362.0, 30146.0, 35388.0, 9362.0, 8.390083312988281, -0.04724976047873497, -0.10246743261814117, 0.06101030483841896, -0.09665976464748383, -0.03386421501636505, 0.9950251579284668, -0.09030205756425858, -0.2635974884033203, 1.474365234375, 1.5087890625, 0.21337890625, 1.494873046875
42271, 1.9434183835983276, -13.858566284179688, -0.18697193264961243, 0.17337365448474884, -0.025006813928484917, -39.67924118041992, 1.0102460384368896, -0.1461731493473053, -2.0823707580566406, -0.8094432950019836, -0.9779320359230042, 0.05463987588882446, -0.5607495872822542, -0.7189302367400217, 4.338326659519462, 9362.0, 30146.0, 35388.0, 9362.0, 8.390083312988281, -0.12532125413417816, 0.09421372413635254, -0.20926088094711304, -0.09430757910013199, -0.034912362694740295, 0.9937201738357544, -0.09030205756425858, -0.2635974884033203, 1.474365234375, 1.4912109375, 0.178253173828125, 1.494873046875
42311, 1.9455007314682007, -13.860441207885742, -0.18433572351932526, 0.20473060011863708, -0.029544247314333916, -39.74187088012695, 1.08016836643219, -0.15631413459777832, -2.0931193828582764, -0.8094354271888733, -0.9779379367828369, 0.05466756224632263, -0.5586624981730149, -0.7109628806459796, 4.343759159209459, 9362.0, 30146.0, 35388.0, 9362.0, 8.390083312988281, 0.22771228849887848, -0.26603755354881287, -0.06639175862073898, -0.0984601154923439, -0.032949041575193405, 0.9968773722648621, -0.09030205756425858, -0.2635974884033203, 1.474365234375, 1.482421875, 0.161529541015625, 1.4912109375
42331, 1.9471869468688965, -13.859807968139648, -0.18338273465633392, 0.22680063545703888, -0.03273819386959076, -39.78380584716797, 1.1268726587295532, -0.16308587789535522, -2.0999436378479004, -0.8093907833099365, -0.9779046177864075, 0.054721519351005554, -0.5653632709676361, -0.6976925887537107, 4.367415556117942, 9362.0, 30146.0, 35388.0, 9362.0, 8.390083312988281, -0.07322477549314499, -0.1507454663515091, 0.1529725044965744, -0.0943312868475914, -0.0344613641500473, 0.9950514435768127, -0.09030205756425858, -0.2635974884033203, 1.474365234375, 1.500732421875, 0.1970977783203125, 1.4912109375
42411, 1.9447250366210938, -13.867701530456543, -0.17872372269630432, 0.337675005197525, -0.04878823086619377, -39.97419357299805, 1.3369685411453247, -0.19357246160507202, -2.130988121032715, -0.8094275593757629, -0.977933406829834, 0.0546482615172863, -0.5613838567455228, -0.7230027253510514, 4.343490110114415, 9362.0, 30146.0, 35388.0, 9362.0, 8.390083312988281, -0.026574287563562393, 0.10888374596834183, 0.05624114349484444, -0.09679004549980164, -0.03364894911646843, 0.9930866360664368, -0.09030205756425858, -0.2635974884033203, 1.474365234375, 1.481689453125, 0.1600799560546875, 1.49560546875
42431, 1.9453961849212646, -13.868269920349121, -0.1808442324399948, 0.35116147994995117, -0.05074087902903557, -39.995521545410156, 1.3603289127349854, -0.19695687294006348, -2.1344077587127686, -0.8094248175621033, -0.9779276251792908, 0.054658740758895874, -0.5585239544133462, -0.7166946379499848, 4.3514742683731304, 9362.0, 30146.0, 35388.0, 9362.0, 8.390083312988281, -0.0029062465764582157, 0.07942795753479004, -0.06921186298131943, -0.09586088359355927, -0.03374352306127548, 0.9944471120834351, -0.09030205756425858, -0.2635974884033203, 1.474365234375, 1.52490234375, 0.247039794921875, 1.491943359375
42451, 1.9439373016357422, -13.868186950683594, -0.18473374843597412, 0.3930230438709259, -0.05680196359753609, -40.05970764160156, 1.4305219650268555, -0.20712877810001373, -2.1442549228668213, -0.8094308972358704, -0.9779349565505981, 0.05464008077979088, -0.5580380380088993, -0.7197152182279183, 4.346885573435876, 9362.0, 30146.0, 35388.0, 9362.0, 8.390083312988281, -0.031226374208927155, 0.003647460602223873, -0.09691926836967468, -0.09500407427549362, -0.03543981909751892, 0.9942219853401184, -0.09030205756425858, -0.2635974884033203, 1.474365234375, 1.48095703125, 0.1587677001953125, 1.493408203125
42491, 1.9424256086349487, -13.872014045715332, -0.18480068445205688, 0.4521123170852661, -0.06535781174898148, -40.145751953125, 1.5239254236221313, -0.22066108882427216, -2.1581871509552, -0.8094249963760376, -0.977941632270813, 0.05462316796183586, -0.5612838679322425, -0.7170007474227305, 4.343238663656822, 9362.0, 30146.0, 35388.0, 9362.0, 8.390083312988281, 0.0434442013502121, 0.17489099502563477, -0.037935394793748856, -0.09665480256080627, -0.03246159479022026, 0.9952405095100403, -0.09030205756425858, -0.2635974884033203, 1.474365234375, 1.478759765625, 0.1546478271484375, 1.490478515625
42511, 1.9441592693328857, -13.876687049865723, -0.18285508453845978, 0.4521123170852661, -0.06535781174898148, -40.145751953125, 1.5239254236221313, -0.22066108882427216, -2.1581871509552, -0.8094345927238464, -0.9779350757598877, 0.05463119223713875, -0.5558927396805639, -0.7219152295838569, 4.346169842756879, 9362.0, 30146.0, 35388.0, 9362.0, 8.390083312988281, 0.043512098491191864, -0.16736894845962524, -0.15956491231918335, -0.097776398062706, -0.033478617668151855, 0.9935981631278992, -0.09030205756425858, -0.2635974884033203, 1.474365234375, 1.447265625, 0.1004791259765625, 1.493408203125
42531, 1.9461325407028198, -13.878178596496582, -0.18144792318344116, 0.4521123170852661, -0.06535781174898148, -40.145751953125, 1.5239254236221313, -0.22066108882427216, -2.1581871509552, -0.809388279914856, -0.9779095649719238, 0.054682742804288864, -0.5670107496449647, -0.6955327817591126, 4.371997175876912, 9362.0, 30146.0, 35388.0, 9362.0, 8.390083312988281, -0.020777489989995956, 0.031039047986268997, 0.03398890420794487, -0.097776398062706, -0.033478617668151855, 0.9935981631278992, -0.09030205756425858, -0.2635974884033203, 1.474365234375, 1.509521484375, 0.2148895263671875, 1.493408203125
42631, 1.9460269212722778, -13.87647533416748, -0.17957328259944916, 0.6699764728546143, -0.09690430760383606, -40.4292106628418, 1.8278107643127441, -0.26467564702033997, -2.2028119564056396, -0.8094338178634644, -0.977938711643219, 0.054616644978523254, -0.5598717432057447, -0.725465952167184, 4.347749488230581, 9362.0, 30146.0, 35388.0, 9362.0, 8.390083312988281, 0.17330899834632874, 0.03583469241857529, -0.08887740969657898, -0.09667521715164185, -0.03560886159539223, 0.9941447973251343, -0.08181263506412506, -0.04855918884277344, 1.491943359375, 1.464111328125, 0.1283111572265625, 1.49267578125
42671, 1.9475935697555542, -13.881196975708008, -0.17874085903167725, 0.744957447052002, -0.10776202380657196, -40.517601013183594, 1.9212161302566528, -0.278208464384079, -2.2169365882873535, -0.8094291687011719, -0.9779409766197205, 0.05461680144071579, -0.56114613411286, -0.7205730560577592, 4.343864912431177, 9362.0, 30146.0, 35388.0, 9362.0, 8.390083312988281, 0.1872950792312622, 0.4385104179382324, 0.4070218801498413, -0.09815119206905365, -0.03406650945544243, 0.9949542284011841, -0.08181263506412506, -0.04855918884277344, 1.491943359375, 1.51611328125, 0.2286224365234375, 1.49267578125
42691, 1.9485937356948853, -13.882551193237305, -0.17892436683177948, 0.8036447167396545, -0.1162606030702591, -40.58427047729492, 1.9912798404693604, -0.28836333751678467, -2.2275497913360596, -0.8094502091407776, -0.9779294729232788, 0.054619476199150085, -0.5585796111198502, -0.7275486565348785, 4.347820827340418, 9362.0, 30146.0, 35388.0, 9362.0, 8.390083312988281, 0.061031192541122437, 0.07958674430847168, -0.10056646913290024, -0.0943484753370285, -0.033213041722774506, 0.9937146902084351, -0.08181263506412506, -0.04855918884277344, 1.491943359375, 1.52783203125, 0.253387451171875, 1.49267578125
42701, 1.9481182098388672, -13.880671501159668, -0.1804460883140564, 0.8036447167396545, -0.1162606030702591, -40.58427047729492, 1.9912798404693604, -0.28836333751678467, -2.2275497913360596, -0.8094412088394165, -0.9779344797134399, 0.054622579365968704, -0.5564510620860971, -0.7297909054817922, 4.345218586168007, 9362.0, 30146.0, 35388.0, 9362.0, 8.390083312988281, -0.01859907992184162, -0.3804389238357544, -0.12045608460903168, -0.09638702124357224, -0.033441077917814255, 0.9941882491111755, -0.08181263506412506, -0.04855918884277344, 1.491943359375, 1.47509765625, 0.147857666015625, 1.493408203125
42711, 1.9476327896118164, -13.87962532043457, -0.18215923011302948, 0.8036447167396545, -0.1162606030702591, -40.58427047729492, 1.9912798404693604, -0.28836333751678467, -2.2275497913360596, -0.8094406723976135, -0.9779384732246399, 0.05461316183209419, -0.5616714408525237, -0.722091646364845, 4.344825194492445, 9362.0, 30146.0, 35388.0, 9362.0, 8.390083312988281, -0.11889508366584778, 0.301175594329834, -0.07300998270511627, -0.09638702124357224, -0.033441077917814255, 0.9941882491111755, -0.08181263506412506, -0.04855918884277344, 1.491943359375, 1.489013671875, 0.174041748046875, 1.493408203125
42731, 1.9481632709503174, -13.883689880371094, -0.18202707171440125, 0.8036447167396545, -0.1162606030702591, -40.58427047729492, 1.9912798404693604, -0.28836333751678467, -2.2275497913360596, -0.8094372749328613, -0.9779244661331177, 0.054621048271656036, -0.5527729161839359, -0.7216805262608545, 4.346923413864374, 9362.0, 30146.0, 35388.0, 9362.0, 8.390083312988281, 0.1634811908006668, 0.33743229508399963, -0.09832677990198135, -0.09638702124357224, -0.033441077917814255, 0.9941882491111755, -0.08181263506412506, -0.04855918884277344, 1.491943359375, 1.44873046875, 0.102813720703125, 1.493408203125
42771, 1.9486334323883057, -13.883445739746094, -0.18766944110393524, 0.9273262023925781, -0.13417203724384308, -40.71855926513672, 2.1314501762390137, -0.30868831276893616, -2.2487287521362305, -0.8094358444213867, -0.9779278039932251, 0.05461899936199188, -0.5600205516741745, -0.7216626524678418, 4.345218385417256, 9362.0, 30146.0, 35388.0, 9362.0, 8.390083312988281, 0.1101723462343216, 0.005627912934869528, -0.20086908340454102, -0.09662653505802155, -0.03221289440989494, 0.9942477941513062, -0.08181263506412506, -0.04855918884277344, 1.491943359375, 1.484619140625, 0.1656646728515625, 1.494873046875
42791, 1.949341893196106, -13.88556957244873, -0.18517901003360748, 0.9273262023925781, -0.13417203724384308, -40.71855926513672, 2.1314501762390137, -0.30868831276893616, -2.2487287521362305, -0.809413731098175, -0.9779293537139893, 0.054628849029541016, -0.5616372051630758, -0.7267855281399989, 4.339441003306458, 9362.0, 30146.0, 35388.0, 9362.0, 8.390083312988281, -0.211608424782753, 0.2627860903739929, 0.4365203380584717, -0.09489671140909195, -0.031814418733119965, 0.9923945069313049, -0.08181263506412506, -0.04855918884277344, 1.491943359375, 1.458251953125, 0.1184234619140625, 1.494873046875
42831, 1.9474836587905884, -13.884969711303711, -0.17909863591194153, 1.082257866859436, -0.15661166608333588, -40.876808166503906, 2.295142889022827, -0.3324383497238159, -2.2728896141052246, -0.8094378709793091, -0.9779321551322937, 0.054612524807453156, -0.5617116766992607, -0.7251270306710182, 4.350726570127532, 9362.0, 30146.0, 35388.0, 9362.0, 8.390083312988281, -0.11887704581022263, -0.21304544806480408, 0.13021348416805267, -0.09417726844549179, -0.03414203226566315, 0.99294513463974, -0.08181263506412506, -0.04855918884277344, 1.491943359375, 1.447998046875, 0.1016693115234375, 1.494873046875
42871, 1.9479008913040161, -13.894071578979492, -0.1760701686143875, 1.1999365091323853, -0.17365697026252747, -40.99089431762695, 2.411961317062378, -0.3493604063987732, -2.2906529903411865, -0.8094480037689209, -0.9779335260391235, 0.05462193489074707, -0.555430891724989, -0.7247296346947678, 4.34004981904116, 9362.0, 30146.0, 35388.0, 9362.0, 8.390083312988281, 0.1269320845603943, 0.12799397110939026, -0.4732837975025177, -0.09525590389966965, -0.03560418263077736, 0.9930766224861145, -0.09912662953138351, -0.05751800537109375, 1.4912109375, 1.48095703125, 0.1587677001953125, 1.48974609375
42951, 1.9467107057571411, -13.893506050109863, -0.17516261339187622, 1.374503493309021, -0.1989416778087616, -41.152099609375, 2.575690507888794, -0.37306296825408936, -2.315164804458618, -0.809435248374939, -0.9779249429702759, 0.05463777855038643, -0.5618656538491026, -0.7180119809787016, 4.339118281524275, 9362.0, 30146.0, 35388.0, 9362.0, 8.390083312988281, 0.061246056109666824, -0.3571144640445709, -0.20597760379314423, -0.09732577949762344, -0.03264881670475006, 0.9945142865180969, -0.09912662953138351, -0.05751800537109375, 1.4912109375, 1.4853515625, 0.1669921875, 1.494140625
42991, 1.9467709064483643, -13.893648147583008, -0.17629994451999664, 1.4794039726257324, -0.21413521468639374, -41.2449836730957, 2.6693167686462402, -0.3866133689880371, -2.3289172649383545, -0.8094362020492554, -0.9779249429702759, 0.05463419109582901, -0.559571249258947, -0.7249331749622172, 4.339265525978654, 9362.0, 30146.0, 35388.0, 9362.0, 8.390083312988281, -0.11483849585056305, -0.12707197666168213, -0.17908872663974762, -0.09814739972352982, -0.03600975126028061, 0.9928417205810547, -0.09912662953138351, -0.05751800537109375, 1.4912109375, 1.478759765625, 0.1546478271484375, 1.49267578125
43051, 1.947794795036316, -13.895217895507812, -0.17660832405090332, 1.6437749862670898, -0.23794172704219818, -41.385345458984375, 2.80971622467041, -0.4069337546825409, -2.3496968746185303, -0.8094283938407898, -0.9779309034347534, 0.0546414777636528, -0.562121250518876, -0.7213764737410315, 4.345513225155223, 9362.0, 30146.0, 35388.0, 9362.0, 8.390083312988281, -0.0225210040807724, -0.2472747564315796, 0.25833022594451904, -0.09475674480199814, -0.03628719225525856, 0.9955115914344788, -0.09912662953138351, -0.05751800537109375, 1.4912109375, 1.480224609375, 0.157379150390625, 1.49267578125
43111, 1.951084852218628, -13.895452499389648, -0.17782260477542877, 1.846191167831421, -0.26725754141807556, -41.550662994384766, 2.973585367202759, -0.43066832423210144, -2.373688220977783, -0.8094350099563599, -0.977944016456604, 0.05464194715023041, -0.5605477130717325, -0.7256353708768586, 4.342541197908458, 9362.0, 30146.0, 35388.0, 9362.0, 8.390083312988281, -0.019114788621664047, -0.15411336719989777, 0.16165533661842346, -0.09495577216148376, -0.03480026498436928, 0.9927206039428711, -0.09912662953138351, -0.05751800537109375, 1.4912109375, 1.46630859375, 0.132171630859375, 1.48974609375
43131, 1.9506385326385498, -13.895188331604004, -0.1760370284318924, 1.9061301946640015, -0.2759386897087097, -41.598209381103516, 3.020329713821411, -0.4374467432498932, -2.380862236022949, -0.8094455599784851, -0.977938175201416, 0.054646577686071396, -0.5546646111586966, -0.7208917887385553, 4.344117822984866, 9362.0, 30146.0, 35388.0, 9362.0, 8.390083312988281, 0.07240519672632217, -0.2042103409767151, -0.056559111922979355, -0.09757641702890396, -0.034620508551597595, 0.991655707359314, -0.09912662953138351, -0.05751800537109375, 1.4912109375, 1.47509765625, 0.147857666015625, 1.493408203125
43151, 1.9517264366149902, -13.893595695495605, -0.17470213770866394, 1.9061301946640015, -0.2759386897087097, -41.598209381103516, 3.020329713821411, -0.4374467432498932, -2.380862236022949, -0.8094369769096375, -0.9779243469238281, 0.0546448789536953, -0.5595549300558826, -0.7244817321757466, 4.344336693675249, 9362.0, 30146.0, 35388.0, 9362.0, 8.390083312988281, 0.18752528727054596, 0.18657618761062622, -0.008245567791163921, -0.09681951999664307, -0.03264873847365379, 0.9955450892448425, -0.09912662953138351, -0.05751800537109375, 1.4912109375, 1.458251953125, 0.1184234619140625, 1.493408203125
43171, 1.9509873390197754, -13.893301963806152, -0.17173577845096588, 2.028813600540161, -0.29370757937431335, -41.693729400634766, 3.1139066219329834, -0.45101073384284973, -2.394826889038086, -0.809440016746521, -0.9779276847839355, 0.05464795231819153, -0.55967632659674, -0.7213187762727671, 4.347074088758421, 9362.0, 30146.0, 35388.0, 9362.0, 8.390083312988281, -0.1858069747686386, 0.029123345389962196, 0.06465638428926468, -0.09612075239419937, -0.03330400586128235, 0.9955551028251648, -0.09912662953138351, -0.05751800537109375, 1.4912109375, 1.49853515625, 0.1927032470703125, 1.489013671875
43191, 1.9515115022659302, -13.893735885620117, -0.16882464289665222, 2.091560125350952, -0.3027957081794739, -41.74169158935547, 3.1607327461242676, -0.45779749751091003, -2.4016411304473877, -0.8094421625137329, -0.977941632270813, 0.05464959517121315, -0.56146793498585, -0.7192124405705158, 4.340842152499236, 9362.0, 30146.0, 35388.0, 9362.0, 8.390083312988281, 0.22167664766311646, 0.5199137926101685, 0.2746777832508087, -0.09536559879779816, -0.0331466905772686, 0.9926572442054749, -0.09912662953138351, -0.05751800537109375, 1.4912109375, 1.462646484375, 0.125823974609375, 1.489013671875
43211, 1.9516545534133911, -13.89387035369873, -0.16979430615901947, 2.1552422046661377, -0.31201934814453125, -41.789794921875, 3.2074835300445557, -0.4645702540874481, -2.4087562561035156, -0.8094391822814941, -0.9779269695281982, 0.05462689697742462, -0.5577282815780228, -0.7244938526839633, 4.343306819043411, 9362.0, 30146.0, 35388.0, 9362.0, 8.390083312988281, -0.049001310020685196, 0.15849263966083527, -0.07021535187959671, -0.09564577788114548, -0.033547401428222656, 0.9949746131896973, -0.09912662953138351, -0.05751800537109375, 1.4912109375, 1.5029296875, 0.201446533203125, 1.489013671875
43231, 1.9521586894989014, -13.894754409790039, -0.1680956333875656, 2.1552422046661377, -0.31201934814453125, -41.789794921875, 3.2074835300445557, -0.4645702540874481, -2.4087562561035156, -0.8094499707221985, -0.9779221415519714, 0.05465000122785568, -0.5542682697132169, -0.7286306010390717, 4.346124871672416, 9362.0, 30146.0, 35388.0, 9362.0, 8.390083312988281, -0.11944322288036346, -0.08705184608697891, -0.09887924045324326, -0.09582529217004776, -0.03519627824425697, 0.9963608980178833, -0.09912662953138351, -0.05751800537109375, 1.4912109375, 1.4326171875, 0.0786895751953125, 1.489013671875
43251, 1.9535212516784668, -13.89592170715332, -0.1681085079908371, 2.285414457321167, -0.33087360858917236, -41.88642120361328, 3.3011491298675537, -0.47814637422561646, -2.4223320484161377, -0.8094377517700195, -0.9779348373413086, 0.054639071226119995, -0.5649615670127441, -0.7237051671002916, 4.344363131989194, 9362.0, 30146.0, 35388.0, 9362.0, 8.390083312988281, -0.0667075589299202, 0.07706458121538162, -0.004569235257804394, -0.09582529217004776, -0.03519627824425697, 0.9963608980178833, -0.0641629621386528, -0.04855918884277344, 1.491943359375, 1.515380859375, 0.2270050048828125, 1.489013671875
43271, 1.9519975185394287, -13.897588729858398, -0.16785076260566711, 2.285414457321167, -0.33087360858917236, -41.88642120361328, 3.3011491298675537, -0.47814637422561646, -2.4223320484161377, -0.8094387054443359, -0.9779242277145386, 0.05464097112417221, -0.5574729209302646, -0.7268101039064163, 4.345154191051961, 9362.0, 30146.0, 35388.0, 9362.0, 8.390083312988281, -0.09253580123186111, 0.04651499539613724, 0.11249135434627533, -0.09412292391061783, -0.032667335122823715, 0.9966771006584167, -0.0641629621386528, -0.04855918884277344, 1.491943359375, 1.4912109375, 0.178253173828125, 1.49267578125
43351, 1.947946310043335, -13.901978492736816, -0.1729305237531662, 2.627239227294922, -0.38038504123687744, -42.13036346435547, 3.535273313522339, -0.5120558738708496, -2.4567689895629883, -0.8094390630722046, -0.9779376983642578, 0.05464031174778938, -0.5577924585428968, -0.7246473990848301, 4.342608434929984, 9362.0, 30146.0, 35388.0, 9362.0, 8.390083312988281, -0.0889018177986145, -0.01590353064239025, -0.2748045325279236, -0.09382651746273041, -0.03519657626748085, 0.9937347769737244, -0.0641629621386528, -0.04855918884277344, 1.491943359375, 1.4560546875, 0.1147003173828125, 1.48974609375
43391, 1.9513275623321533, -13.906893730163574, -0.17599289119243622, 2.7343509197235107, -0.39589911699295044, -42.2042236328125, 3.605522394180298, -0.5222225189208984, -2.4671270847320557, -0.8094257712364197, -0.9779260754585266, 0.054630305618047714, -0.5641082302352084, -0.7292733359808778, 4.339296074599993, 9362.0, 30146.0, 35388.0, 9362.0, 8.390083312988281, 0.1967303603887558, 0.0779452994465828, -0.1527688056230545, -0.0951666384935379, -0.03553841635584831, 0.9931699633598328, -0.0641629621386528, -0.04855918884277344, 1.491943359375, 1.465576171875, 0.130889892578125, 1.494140625
43441, 1.9530316591262817, -13.910557746887207, -0.17896167933940887, 2.954897165298462, -0.42784321308135986, -42.352874755859375, 3.746102809906006, -0.5426015853881836, -2.487732410430908, -0.8094351291656494, -0.9779406189918518, 0.05461590737104416, -0.5591546238660519, -0.7287693352488702, 4.3418582017845795, 9362.0, 30146.0, 35388.0, 9362.0, 8.390083312988281, -0.04549897834658623, 0.11883503943681717, 0.2570483386516571, -0.09372713416814804, -0.03193359822034836, 0.9961634874343872, -0.09475618600845337, 0.05000114440917969, 1.5, 1.3974609375, 0.03759765625, 1.497802734375
43471, 1.9519044160842896, -13.914143562316895, -0.1769331991672516, 3.0302884578704834, -0.438763290643692, -42.4026985168457, 3.7930092811584473, -0.5494043231010437, -2.4944467544555664, -0.8094364404678345, -0.977931797504425, 0.05463946610689163, -0.5579245420077237, -0.719480002894727, 4.344117806806442, 9362.0, 30146.0, 35388.0, 9362.0, 8.390083312988281, -0.1488395631313324, 0.2739134430885315, 0.16077129542827606, -0.0943901464343071, -0.030455952510237694, 0.9936870336532593, -0.09475618600845337, 0.05000114440917969, 1.5, 1.483154296875, 0.162841796875, 1.491943359375
43491, 1.9530357122421265, -13.911340713500977, -0.17595936357975006, 3.0302884578704834, -0.438763290643692, -42.4026985168457, 3.7930092811584473, -0.5494043231010437, -2.4944467544555664, -0.8094432950019836, -0.9779276847839355, 0.054617032408714294, -0.5546860773255391, -0.7241657297995516, 4.349550108249565, 9362.0, 30146.0, 35388.0, 9362.0, 8.390083312988281, 0.01060810498893261, -0.01386613491922617, 0.3335320055484772, -0.09541173279285431, -0.032532401382923126, 0.9945743680000305, -0.09475618600845337, 0.05000114440917969, 1.5, 1.450927734375, 0.1063690185546875, 1.491943359375
43531, 1.951022982597351, -13.91558837890625, -0.17357967793941498, 3.2228667736053467, -0.46665796637535095, -42.52785873413086, 3.910174608230591, -0.5663862824440002, -2.511733293533325, -0.8094412684440613, -0.9779332280158997, 0.054634228348731995, -0.5573489707225326, -0.7235522331588697, 4.3496894629107405, 9362.0, 30146.0, 35388.0, 9362.0, 8.390083312988281, 0.026441309601068497, 0.3376626670360565, 0.08775299042463303, -0.09783762693405151, -0.03564499318599701, 0.994504451751709, -0.09475618600845337, 0.05000114440917969, 1.5, 1.420166015625, 0.0621337890625, 1.4912109375
43551, 1.949863076210022, -13.92114543914795, -0.17354559898376465, 3.341228485107422, -0.4838026165962219, -42.60335922241211, 3.980581283569336, -0.5765839219093323, -2.5216524600982666, -0.8094364404678345, -0.9779294729232788, 0.05465341731905937, -0.5593134245431417, -0.7178448884575914, 4.339763212051102, 9362.0, 30146.0, 35388.0, 9362.0, 8.390083312988281, 0.13260582089424133, 0.20453186333179474, -0.12658526003360748, -0.09542300552129745, -0.03242434561252594, 0.9949515461921692, -0.09475618600845337, 0.05000114440917969, 1.5, 1.427490234375, 0.0716400146484375, 1.4970703125
43591, 1.9505535364151, -13.92451000213623, -0.18003828823566437, 3.502328395843506, -0.5071374177932739, -42.704498291015625, 4.0744709968566895, -0.5901642441749573, -2.5350494384765625, -0.8094368577003479, -0.9779192805290222, 0.05464959144592285, -0.5650690724449465, -0.7193039630068938, 4.352315092896287, 9362.0, 30146.0, 35388.0, 9362.0, 8.390083312988281, 0.07583850622177124, 0.16773009300231934, -0.13252179324626923, -0.09630076587200165, -0.03280283138155937, 0.9925661683082581, -0.09475618600845337, 0.05000114440917969, 1.5, 1.467041015625, 0.1334686279296875, 1.493408203125
43601, 1.950539231300354, -13.924469947814941, -0.18084846436977386, 3.584287643432617, -0.5190086364746094, -42.75526809692383, 4.121419906616211, -0.5969558358192444, -2.5417888164520264, -0.8094301223754883, -0.9779183268547058, 0.05463938042521477, -0.5609231712444529, -0.7244655762425509, 4.342334441072673, 9362.0, 30146.0, 35388.0, 9362.0, 8.390083312988281, 0.007907994091510773, 0.22912368178367615, 0.06258574873209, -0.09755165129899979, -0.03583713620901108, 0.9929916858673096, -0.09475618600845337, 0.05000114440917969, 1.5, 1.46923828125, 0.137359619140625, 1.49267578125
43611, 1.9503620862960815, -13.923041343688965, -0.18247151374816895, 3.6256189346313477, -0.5249951481819153, -42.780704498291016, 4.144826889038086, -0.6003438234329224, -2.5454349517822266, -0.8094329237937927, -0.9779232740402222, 0.054640550166368484, -0.5582434550014315, -0.7281509727970672, 4.344045955411669, 9362.0, 30146.0, 35388.0, 9362.0, 8.390083312988281, 0.014805325306952, -0.06986794620752335, 0.004647967405617237, -0.09581571072340012, -0.03557047247886658, 0.9939240217208862, -0.09475618600845337, 0.05000114440917969, 1.5, 1.483154296875, 0.162841796875, 1.49267578125
43621, 1.9514784812927246, -13.924336433410645, -0.18222911655902863, 3.667184352874756, -0.5310155153274536, -42.806175231933594, 4.168252468109131, -0.6037352085113525, -2.5490055084228516, -0.8094430565834045, -0.9779226779937744, 0.05464448407292366, -0.5599403687344415, -0.7213443749488135, 4.337595448384592, 9362.0, 30146.0, 35388.0, 9362.0, 8.390083312988281, 0.23077842593193054, 0.19183002412319183, -0.21083399653434753, -0.09583669900894165, -0.03432872146368027, 0.9931825995445251, -0.09475618600845337, 0.05000114440917969, 1.5, 1.47216796875, 0.142547607421875, 1.493408203125
43631, 1.9519836902618408, -13.926305770874023, -0.1829633116722107, 3.667184352874756, -0.5310155153274536, -42.806175231933594, 4.168252468109131, -0.6037352085113525, -2.5490055084228516, -0.8094342947006226, -0.9779247045516968, 0.0546414740383625, -0.559381951767462, -0.7259904514923221, 4.342068078965215, 9362.0, 30146.0, 35388.0, 9362.0, 8.390083312988281, -0.12648160755634308, -0.001217447454109788, -0.1923750638961792, -0.0962444618344307, -0.034254290163517, 0.9930424690246582, -0.09475618600845337, 0.05000114440917969, 1.5, 1.447998046875, 0.1016693115234375, 1.493408203125
43641, 1.951024055480957, -13.924999237060547, -0.18281452357769012, 3.7510180473327637, -0.5431581139564514, -42.85722732543945, 4.215107440948486, -0.6105204224586487, -2.5561211109161377, -0.8094383478164673, -0.9779201745986938, 0.05463290214538574, -0.5656638343689765, -0.725903099587498, 4.336521889129001, 9362.0, 30146.0, 35388.0, 9362.0, 8.390083312988281, -0.06389301270246506, -0.27262648940086365, -0.0682678073644638, -0.09697414934635162, -0.032766878604888916, 0.9953732490539551, -0.06509166955947876, -0.05751800537109375, 1.4912109375, 1.4736328125, 0.1452178955078125, 1.49560546875
43651, 1.9519646167755127, -13.923249244689941, -0.18344159424304962, 3.7932863235473633, -0.5492802858352661, -42.88280487060547, 4.238548278808594, -0.6139160394668579, -2.559645414352417, -0.8094397783279419, -0.9779297113418579, 0.05464579537510872, -0.5610357529520484, -0.7287621065655117, 4.34461940329204, 9362.0, 30146.0, 35388.0, 9362.0, 8.390083312988281, 0.07253800332546234, -0.30862629413604736, -0.05542464181780815, -0.09478725492954254, -0.033180251717567444, 0.9956924915313721, -0.06509166955947876, -0.05751800537109375, 1.4912109375, 1.453857421875, 0.1110687255859375, 1.49560546875
43661, 1.9516775608062744, -13.923513412475586, -0.18562328815460205, 3.835789203643799, -0.5554364323616028, -42.908416748046875, 4.262033462524414, -0.6173171997070312, -2.5629775524139404, -0.809435248374939, -0.9779263734817505, 0.05463865026831627, -0.5655446481559243, -0.7256410316737174, 4.337996220097244, 9362.0, 30146.0, 35388.0, 9362.0, 8.390083312988281, 0.19534771144390106, 0.0802839919924736, -0.24146531522274017, -0.09469473361968994, -0.03487861156463623, 0.9934881925582886, -0.06509166955947876, -0.05751800537109375, 1.4912109375, 1.4501953125, 0.1050872802734375, 1.493408203125
