timeTick, roll, pitch, yaw, stateX, stateY, stateZ, stateVX, stateVY, stateVZ, otX0, otY0, otZ0, otRoll0, otPitch0, otYaw0, left wing, pitch motor, yaw motor, right wing, voltage, roll rate, pitch rate, yaw rate, A_x, A_y, A_z, current, i_raw, v_raw, airflow_voltage, airflow_speed, pot_Pitch
50300, -5.0157270431518555, 3.1926429271698, 5.257723808288574, 0, 0, 0, 0, 0, 0, -0.8359018564224243, -0.9620700478553772, 0.05482912436127663, 0.2845348448105537, -0.31262468550878, 1.2144056260399811, 0, 0, 0, 0, 0, 0, 0, 0, 0, 0, 0, 0, 0, 0, 0, 0, 0
50310, -5.0154194831848145, 3.1941401958465576, 5.258695125579834, 0.0007940640207380056, -0.0010290381032973528, -31.745397567749023, 0.07630909234285355, -0.09889019280672073, -1.2979252338409424, -0.8359114527702332, -0.9620574712753296, 0.05483309552073479, 0.2835339409078882, -0.31858131574230697, 1.2149405436483476, 9362.0, 30146.0, 35388.0, 9362.0, 0, 0.0708576962351799, 0.2176729291677475, -0.1470104455947876, -0.08830896764993668, -0.01934453845024109, 0.9946739673614502, 0, 0, 0, 1.412841796875, 0.0534515380859375, 0
50320, -5.015174388885498, 3.1933302879333496, 5.257287979125977, 0.001526250154711306, -0.00197791145183146, -31.758380889892578, 0.07012833654880524, -0.09088434278964996, -1.298882007598877, -0.8359104990959167, -0.9620615243911743, 0.05482641980051994, 0.2816781804986629, -0.31005450997466255, 1.2131153387766602, 9362.0, 30146.0, 35388.0, 9362.0, 0, -0.027297651395201683, 0.29633158445358276, 0.12652356922626495, -0.08665082603693008, -0.018346678465604782, 0.9946547150611877, 0, 0, 0, 1.474365234375, 0.14654541015625, 1.493408203125
50330, -5.0146565437316895, 3.192493200302124, 5.25750732421875, 0.0021966779604554176, -0.002846780465915799, -31.77137565612793, 0.06395719945430756, -0.08288948237895966, -1.2999681234359741, -0.8359204530715942, -0.9620632529258728, 0.054799046367406845, 0.28269538513295756, -0.32063395261297956, 1.211765375197323, 9362.0, 30146.0, 35388.0, 9362.0, 0, -0.014283980242908001, 0.0745883509516716, -0.16699916124343872, -0.08973854780197144, -0.02147657983005047, 0.9967561960220337, 0, 0, 0, 1.470703125, 0.1399383544921875, 1.493408203125
50340, -5.0157470703125, 3.192408561706543, 5.25632905960083, 0.0028053366113454103, -0.0036356202326714993, -31.784379959106445, 0.05777469277381897, -0.07487834990024567, -1.300849199295044, -0.8360093832015991, -0.9621724486351013, 0.05497545376420021, 0.2296048597511995, -0.37976569490774637, 1.2222931075359162, 9362.0, 30146.0, 35388.0, 9362.0, 0, 0.0959535464644432, 0.3155703842639923, 0.1361440122127533, -0.08633971959352493, -0.0203708503395319, 0.9953508973121643, 0, 0, 0, 1.423095703125, 0.06591796875, 1.48974609375
50350, -5.015129566192627, 3.1909797191619873, 5.2563700675964355, 0.0033521857112646103, -0.00434435810893774, -31.797393798828125, 0.05159509554505348, -0.06686919182538986, -1.3017767667770386, -0.8360018730163574, -0.9621642827987671, 0.054981645196676254, 0.22910346791733358, -0.37336687752028297, 1.2238100566080705, 9362.0, 30146.0, 35388.0, 9362.0, 0, 0.1721249520778656, -0.03976146876811981, -0.0028103403747081757, -0.08567328751087189, -0.01789979264140129, 0.9970628023147583, 0, 0, 0, 1.464111328125, 0.1283111572265625, 1.48974609375
50360, -5.014646530151367, 3.190524101257324, 5.256752014160156, 0.0038372226990759373, -0.004972971044480801, -31.810415267944336, 0.045412253588438034, -0.05885348469018936, -1.3026143312454224, -0.8360354900360107, -0.9621776938438416, 0.05500440299510956, 0.2238521617097392, -0.39184045277477253, 1.2304189828577101, 9362.0, 30146.0, 35388.0, 9362.0, 0, 0.2334488481283188, 0.046278491616249084, 0.08731773495674133, -0.0874704122543335, -0.018402786925435066, 0.9955627918243408, 0, 0, 0, 1.480224609375, 0.157379150390625, 1.490478515625
50370, -5.012637138366699, 3.1883442401885986, 5.257192611694336, 0.0042604668997228146, -0.005521472543478012, -31.82344627380371, 0.03923650458455086, -0.05084680765867233, -1.3035513162612915, -0.8360715508460999, -0.9622676968574524, 0.05507027730345726, 0.18251115203910007, -0.4258335773398869, 1.2439569495977851, 9362.0, 30146.0, 35388.0, 9362.0, 0, 0.07757853716611862, 0.04407230392098427, -0.06738928705453873, -0.08914261311292648, -0.02002192661166191, 0.99630206823349, 0, 0, 0, 1.47509765625, 0.147857666015625, 1.490478515625
50380, -5.011677265167236, 3.189357042312622, 5.256906032562256, 0.004621962551027536, -0.005989908706396818, -31.83648681640625, 0.033062711358070374, -0.04284040629863739, -1.304455041885376, -0.8359355926513672, -0.9620600342750549, 0.054815951734781265, 0.2824740071690538, -0.3037104413596978, 1.2150842955393484, 9362.0, 30146.0, 35388.0, 9362.0, 0, 0.006990624591708183, 0.14736245572566986, 0.0029347045347094536, -0.08691135048866272, -0.02045615203678608, 0.9972890019416809, 0, 0, 0, 1.3974609375, 0.03759765625, 1.487548828125
50390, -5.011857986450195, 3.1887800693511963, 5.257636547088623, 0.0049216775223612785, -0.0063782441429793835, -31.84953498840332, 0.0268801748752594, -0.03482671082019806, -1.30524742603302, -0.8359176516532898, -0.9620497226715088, 0.05482044443488121, 0.284285987453278, -0.3141187211142551, 1.2163095564094717, 9362.0, 30146.0, 35388.0, 9362.0, 0, -0.09710294008255005, -0.24360959231853485, -0.26488831639289856, -0.08558031916618347, -0.0234276931732893, 0.9964016675949097, 0, 0, 0, 1.437744140625, 0.086029052734375, 1.487548828125
50400, -5.011997699737549, 3.1886701583862305, 5.256278991699219, 0.005159597843885422, -0.0066864751279354095, -31.862592697143555, 0.020704064518213272, -0.02681933343410492, -1.3061230182647705, -0.8359177112579346, -0.9620614051818848, 0.054821643978357315, 0.2836799138633605, -0.3180134344452199, 1.208756922215194, 9362.0, 30146.0, 35388.0, 9362.0, 8.17190170288086, -0.12538863718509674, -0.16127140820026398, 0.4113575220108032, -0.08683060854673386, -0.020464694127440453, 0.9966563582420349, -0.10240558534860611, 0.10376167297363281, 1.50439453125, 1.47216796875, 0.142547607421875, 1.487548828125
50410, -5.012706279754639, 3.1891207695007324, 5.257542133331299, 0.005335748661309481, -0.006914617493748665, -31.87565803527832, 0.014525932259857655, -0.018809232860803604, -1.30696702003479, -0.8358944058418274, -0.9620564579963684, 0.054819781333208084, 0.2834317972358181, -0.3111890724091211, 1.2090832903937618, 9362.0, 30146.0, 35388.0, 9362.0, 8.17190170288086, -0.19442088901996613, -0.44744181632995605, -0.21224287152290344, -0.08654096722602844, -0.019295334815979004, 0.9953677654266357, -0.10240558534860611, 0.10376167297363281, 1.50439453125, 1.447998046875, 0.1016693115234375, 1.487548828125
50420, -5.013622760772705, 3.1920557022094727, 5.256195068359375, 0.005450145341455936, -0.007062695454806089, -31.88873291015625, 0.00835360586643219, -0.010806219652295113, -1.3079127073287964, -0.835905134677887, -0.9620662331581116, 0.054833415895700455, 0.2850972687476417, -0.3066076868583423, 1.2087390312091508, 9362.0, 30146.0, 35388.0, 9362.0, 8.17190170288086, -0.3003288209438324, 0.2738853394985199, 0.22337833046913147, -0.08556406944990158, -0.018097618594765663, 0.9953504204750061, -0.10240558534860611, 0.10376167297363281, 1.50439453125, 1.4853515625, 0.1669921875, 1.490478515625
50430, -5.014665603637695, 3.1896488666534424, 5.258255958557129, 0.005502795334905386, -0.007130738813430071, -31.901817321777344, 0.0021760882809758186, -0.0028026907239109278, -1.3088626861572266, -0.8359207510948181, -0.9620603322982788, 0.05482560396194458, 0.2835197799850198, -0.3154905529210623, 1.2102646135886517, 9362.0, 30146.0, 35388.0, 9362.0, 8.17190170288086, -0.005493289325386286, -0.007432275917381048, -0.1667475551366806, -0.08597517013549805, -0.019812870770692825, 0.9953145980834961, -0.10240558534860611, 0.10376167297363281, 1.50439453125, 1.481689453125, 0.1600799560546875, 1.490478515625
50440, -5.013489246368408, 3.1897990703582764, 5.258060455322266, 0.00549371587112546, -0.007118772715330124, -31.9149112701416, -0.003991988021880388, 0.005195947363972664, -1.3098984956741333, -0.8358994722366333, -0.9620608687400818, 0.054822273552417755, 0.2815685888304418, -0.31590586975784163, 1.2220093962677254, 9362.0, 30146.0, 35388.0, 9362.0, 8.17190170288086, 0.1128191277384758, 0.22819530963897705, 0.03392559662461281, -0.08804725855588913, -0.019693709909915924, 0.9958688020706177, -0.10240558534860611, 0.10376167297363281, 1.50439453125, 1.48388671875, 0.1642303466796875, 1.4912109375
50450, -5.012737274169922, 3.1877989768981934, 5.2577080726623535, 0.0054229130037128925, -0.007026775740087032, -31.928014755249023, -0.010168568231165409, 0.013203526847064495, -1.310801386833191, -0.8359243869781494, -0.9620562195777893, 0.05484183505177498, 0.2826479594553329, -0.30458666194994066, 1.219041538183947, 9362.0, 30146.0, 35388.0, 9362.0, 8.17190170288086, 0.031231092289090157, 0.3966720402240753, 0.25077709555625916, -0.08551604300737381, -0.019650790840387344, 0.9975203275680542, -0.10240558534860611, 0.10376167297363281, 1.50439453125, 1.469970703125, 0.1386566162109375, 1.4912109375
50460, -5.012845993041992, 3.1850943565368652, 5.257497787475586, 0.005290334578603506, -0.006854671984910965, -31.94112777709961, -0.016347121447324753, 0.021217280998826027, -1.3116176128387451, -0.8359279036521912, -0.9620487689971924, 0.054842375218868256, 0.2844071044947264, -0.3102175450654272, 1.2156273079042226, 9362.0, 30146.0, 35388.0, 9362.0, 8.17190170288086, 0.06168776750564575, -0.09151028841733932, 0.16748066246509552, -0.08681023865938187, -0.018507374450564384, 0.9963866472244263, -0.10240558534860611, 0.10376167297363281, 1.50439453125, 1.48095703125, 0.1587677001953125, 1.49560546875
50470, -5.012747287750244, 3.1840579509735107, 5.2587432861328125, 0.00509599456563592, -0.006602428387850523, -31.954248428344727, -0.022521108388900757, 0.029231296852231026, -1.3124362230300903, -0.8359102010726929, -0.9620522260665894, 0.054827723652124405, 0.2823667612925327, -0.31432490452519346, 1.2079990530167262, 9362.0, 30146.0, 35388.0, 9362.0, 8.17190170288086, 0.031243642792105675, -0.24819837510585785, 0.13511840999126434, -0.08671218156814575, -0.02007380686700344, 0.9949021935462952, -0.10240558534860611, 0.10376167297363281, 1.50439453125, 1.48974609375, 0.1755218505859375, 1.49560546875
50480, -5.012210369110107, 3.185687303543091, 5.2596611976623535, 0.004839991685003042, -0.006270135752856731, -31.967378616333008, -0.02867954783141613, 0.03722720965743065, -1.3134737014770508, -0.8359240889549255, -0.9620494842529297, 0.05482158064842224, 0.2840184254265882, -0.31627864600912403, 1.2114853629760944, 9362.0, 30146.0, 35388.0, 9362.0, 8.17190170288086, -0.025355402380228043, 0.16748984158039093, 0.215452179312706, -0.085847869515419, -0.01957905851304531, 0.9942297339439392, -0.10240558534860611, 0.10376167297363281, 1.50439453125, 1.4736328125, 0.1452178955078125, 1.489013671875
50490, -5.011577129364014, 3.18554949760437, 5.260643005371094, 0.00452239578589797, -0.005857896991074085, -31.980518341064453, -0.03483976796269417, 0.04522047936916351, -1.3145272731781006, -0.8359273076057434, -0.962059497833252, 0.05479355901479721, 0.2845851782305737, -0.29780981134075546, 1.2031784084045822, 9362.0, 30146.0, 35388.0, 9362.0, 8.17190170288086, 0.23141178488731384, 0.34522077441215515, 0.25748178362846375, -0.08651012182235718, -0.019653379917144775, 0.994433581829071, -0.10240558534860611, 0.10376167297363281, 1.50439453125, 1.49267578125, 0.1811065673828125, 1.489013671875
50500, -5.011754989624023, 3.1826093196868896, 5.261867523193359, 0.0041432068683207035, -0.005365741904824972, -31.993669509887695, -0.04099820554256439, 0.05321037396788597, -1.3156074285507202, -0.8359338045120239, -0.96205735206604, 0.05480266362428665, 0.28870975022483686, -0.2978956081482522, 1.2083956640272389, 9362.0, 30146.0, 35388.0, 9362.0, 8.17190170288086, 0.05572494864463806, -0.11546636372804642, 0.1038990244269371, -0.08633680641651154, -0.020677579566836357, 0.9958876371383667, -0.10307712852954865, -0.09335899353027344, 1.48828125, 1.462646484375, 0.125823974609375, 1.4853515625
50510, -5.012253761291504, 3.1852030754089355, 5.262222766876221, 0.0037024158518761396, -0.004793630447238684, -32.006832122802734, -0.04716002941131592, 0.06121186539530754, -1.3165555000305176, -0.8359281420707703, -0.9620584845542908, 0.054802656173706055, 0.290936510997863, -0.29683560511426776, 1.205810308154953, 9362.0, 30146.0, 35388.0, 9362.0, 8.17190170288086, -0.11373382806777954, -0.02320968173444271, 0.188346728682518, -0.08689244091510773, -0.021234340965747833, 0.9960855841636658, -0.10307712852954865, -0.09335899353027344, 1.48828125, 1.45166015625, 0.107452392578125, 1.4853515625
50520, -5.0119218826293945, 3.185115337371826, 5.263330459594727, 0.0031999710481613874, -0.004141485318541527, -32.02000045776367, -0.053329091519117355, 0.06921704858541489, -1.3174629211425781, -0.8359230756759644, -0.9620550870895386, 0.054809991270303726, 0.28105606755218304, -0.3013091270245809, 1.2085422195665987, 9362.0, 30146.0, 35388.0, 9362.0, 8.17190170288086, -0.11660530418157578, 0.022329356521368027, -0.14731667935848236, -0.08784928172826767, -0.0201922208070755, 0.9969227313995361, -0.10307712852954865, -0.09335899353027344, 1.48828125, 1.455322265625, 0.1134796142578125, 1.490478515625
50530, -5.011812210083008, 3.1841025352478027, 5.262861728668213, 0.0026358328759670258, -0.003409287892282009, -32.033180236816406, -0.05949848145246506, 0.07722248136997223, -1.3183616399765015, -0.8359441757202148, -0.9620472192764282, 0.05480599403381348, 0.2863530033421811, -0.30820025006704554, 1.2055652322724697, 9362.0, 30146.0, 35388.0, 9362.0, 8.17190170288086, -0.2388988733291626, 0.2126733362674713, 0.17566394805908203, -0.08715758472681046, -0.020269032567739487, 0.9965177178382874, -0.10307712852954865, -0.09335899353027344, 1.48828125, 1.480224609375, 0.157379150390625, 1.490478515625
50540, -5.012044906616211, 3.1832268238067627, 5.263444423675537, 0.0020099927205592394, -0.0025970139540731907, -32.04636764526367, -0.06566965579986572, 0.08523225039243698, -1.3192061185836792, -0.835938036441803, -0.9620431065559387, 0.05480949953198433, 0.2860640247348446, -0.28687712486677697, 1.2092097506623014, 9362.0, 30146.0, 35388.0, 9362.0, 8.17190170288086, 0.09298673272132874, 0.15073266625404358, 0.07016157358884811, -0.08543701469898224, -0.019229503348469734, 0.9948130249977112, -0.10307712852954865, -0.09335899353027344, 1.48828125, 1.49560546875, 0.1868743896484375, 1.48974609375
50550, -5.011094093322754, 3.1832242012023926, 5.263700485229492, 0.0013225015718489885, -0.0017047100700438023, -32.059566497802734, -0.07182861119508743, 0.0932285264134407, -1.3202202320098877, -0.8359450697898865, -0.9620407819747925, 0.054787054657936096, 0.2863165594159263, -0.3042356282661274, 1.2025161685224162, 9362.0, 30146.0, 35388.0, 9362.0, 8.17190170288086, 0.0773395299911499, -0.038974322378635406, 0.12114512175321579, -0.08608347177505493, -0.020645949989557266, 0.9954613447189331, -0.10307712852954865, -0.09335899353027344, 1.48828125, 1.469970703125, 0.1386566162109375, 1.48974609375
50560, -5.0104289054870605, 3.182506561279297, 5.2643656730651855, 0.0005734166479669511, -0.0007324455073103309, -32.07277297973633, -0.07798847556114197, 0.10122435539960861, -1.321219563484192, -0.8359339237213135, -0.9620682597160339, 0.054814662784338, 0.28943633982541683, -0.29546453769174263, 1.2091445830578864, 9362.0, 30146.0, 35388.0, 9362.0, 8.17190170288086, 0.08826347440481186, 0.4063569903373718, 0.24811160564422607, -0.08538248389959335, -0.020389331504702568, 0.9948825836181641, -0.10307712852954865, -0.09335899353027344, 1.48828125, 1.40478515625, 0.0446624755859375, 1.490478515625
50570, -5.010590553283691, 3.1788408756256104, 5.265591621398926, -0.00023725599749013782, 0.0003197659971192479, -32.08599090576172, -0.08414629101753235, 0.10921783745288849, -1.3222335577011108, -0.8359601497650146, -0.9620461463928223, 0.05480359122157097, 0.285771678662156, -0.29707121208642207, 1.214962059624868, 9362.0, 30146.0, 35388.0, 9362.0, 8.17190170288086, 0.08526153862476349, 0.07023289054632187, -0.05686432123184204, -0.08557416498661041, -0.020917804911732674, 0.9957690834999084, -0.10307712852954865, -0.09335899353027344, 1.48828125, 1.475830078125, 0.1492767333984375, 1.490478515625
50580, -5.009705066680908, 3.1765053272247314, 5.265659809112549, -0.0011094920337200165, 0.0014519355027005076, -32.09921646118164, -0.09030095487833023, 0.11721599847078323, -1.3231992721557617, -0.8359460830688477, -0.9620471596717834, 0.05480317026376724, 0.2876430750243144, -0.2995949572433574, 1.2069752665166267, 9362.0, 30146.0, 35388.0, 9362.0, 8.17190170288086, 0.2239203155040741, -0.020426826551556587, -0.09184441715478897, -0.08521884679794312, -0.021035727113485336, 0.9961921572685242, -0.10307712852954865, -0.09335899353027344, 1.48828125, 1.503662109375, 0.2029876708984375, 1.49560546875
50590, -5.009342193603516, 3.175806760787964, 5.265478610992432, -0.0020432693418115377, 0.0026641003787517548, -32.11245346069336, -0.09645452350378036, 0.1252170354127884, -1.3241171836853027, -0.8359276056289673, -0.9620576500892639, 0.054804280400276184, 0.29175379814936475, -0.3013376467324349, 1.2082016615769742, 9362.0, 30146.0, 35388.0, 9362.0, 8.17190170288086, 0.13799306750297546, 0.18765679001808167, -0.20253323018550873, -0.08502412587404251, -0.021386975422501564, 0.9965531826019287, -0.10307712852954865, -0.09335899353027344, 1.48828125, 1.390869140625, 0.0319671630859375, 1.49560546875
50600, -5.008861541748047, 3.176146984100342, 5.264811992645264, -0.003038591705262661, 0.003956293687224388, -32.12569808959961, -0.10260989516973495, 0.13322174549102783, -1.3249855041503906, -0.8359273672103882, -0.9620569944381714, 0.054784562438726425, 0.28263423327801035, -0.3029243243113342, 1.2091104269779531, 9362.0, 30146.0, 35388.0, 9362.0, 8.17190170288086, -0.0945390835404396, -0.14308372139930725, -0.1273491382598877, -0.08566197007894516, -0.02167748659849167, 0.996532142162323, -0.09455400705337524, 0.0052013397216796875, 1.496337890625, 1.497802734375, 0.19122314453125, 1.48974609375
50610, -5.009519100189209, 3.176673412322998, 5.264371871948242, -0.004095461685210466, 0.005328519269824028, -32.138954162597656, -0.10876403003931046, 0.14122344553470612, -1.3258802890777588, -0.8359339833259583, -0.9620624780654907, 0.05480226129293442, 0.28824630904089454, -0.3000500978600087, 1.2133771065089067, 9362.0, 30146.0, 35388.0, 9362.0, 8.17190170288086, 0.1523442268371582, 0.3778611719608307, 0.2738720178604126, -0.08577863872051239, -0.018787754699587822, 0.9962846636772156, -0.09455400705337524, 0.0052013397216796875, 1.496337890625, 1.46337890625, 0.1270751953125, 1.48974609375
50620, -5.007911682128906, 3.1727519035339355, 5.265532970428467, -0.0052138809114694595, 0.006780771538615227, -32.152217864990234, -0.11492004990577698, 0.14922690391540527, -1.3267639875411987, -0.8359629511833191, -0.9620506167411804, 0.0547492578625679, 0.28055815759756525, -0.28891915828597803, 1.2167241946083847, 9362.0, 30146.0, 35388.0, 9362.0, 8.17190170288086, -0.11650917679071426, -0.44544318318367004, -0.07742930948734283, -0.0863608717918396, -0.016825836151838303, 0.9949937462806702, -0.09455400705337524, 0.0052013397216796875, 1.496337890625, 1.43408203125, 0.080810546875, 1.4912109375
50630, -5.008357524871826, 3.1747050285339355, 5.265817165374756, -0.006393801420927048, 0.008313014172017574, -32.165489196777344, -0.12106405943632126, 0.15722158551216125, -1.327728271484375, -0.8359515070915222, -0.9620553255081177, 0.05473809316754341, 0.27389380914198946, -0.2904672020356145, 1.2192954668843192, 9362.0, 30146.0, 35388.0, 9362.0, 8.17190170288086, -0.09672588855028152, 0.041748855262994766, -0.006569843739271164, -0.08705546706914902, -0.019207235425710678, 0.9943331480026245, -0.09455400705337524, 0.0052013397216796875, 1.496337890625, 1.487548828125, 0.1712188720703125, 1.4912109375
50640, -5.009028434753418, 3.173738718032837, 5.265693664550781, -0.0076351473107934, 0.00992516428232193, -32.17877197265625, -0.12720510363578796, 0.16520848870277405, -1.3287931680679321, -0.8359418511390686, -0.9620524644851685, 0.054735880345106125, 0.27875275006641687, -0.28402110867511965, 1.2204155830433454, 9362.0, 30146.0, 35388.0, 9362.0, 8.17190170288086, -0.1890474259853363, -0.2407994121313095, 0.2934431731700897, -0.08670192211866379, -0.022341715171933174, 0.9958090782165527, -0.09455400705337524, 0.0052013397216796875, 1.496337890625, 1.453125, 0.1099090576171875, 1.493408203125
50650, -5.009541034698486, 3.1747429370880127, 5.266819000244141, -0.00893791951239109, 0.011617220938205719, -32.19206619262695, -0.1333494782447815, 0.17320269346237183, -1.329783320426941, -0.8359436392784119, -0.962043285369873, 0.05472994223237038, 0.2754892930359152, -0.2907749825791086, 1.213739039218249, 9362.0, 30146.0, 35388.0, 9362.0, 8.17190170288086, -0.15450787544250488, 0.3194425404071808, -0.0797126293182373, -0.08749143034219742, -0.021171173080801964, 0.9963729977607727, -0.09455400705337524, 0.0052013397216796875, 1.496337890625, 1.42822265625, 0.0726470947265625, 1.493408203125
50660, -5.010136604309082, 3.1719727516174316, 5.267776012420654, -0.010302183218300343, 0.013389271683990955, -32.20536804199219, -0.1395033895969391, 0.18120735883712769, -1.3306536674499512, -0.8359560966491699, -0.9620513916015625, 0.05471804738044739, 0.27333759188513046, -0.29164803581571164, 1.2112608307118193, 9362.0, 30146.0, 35388.0, 9362.0, 8.17190170288086, 0.09251277893781662, -0.04333113133907318, -0.11642184108495712, -0.08886836469173431, -0.01917419396340847, 0.9951913952827454, -0.09455400705337524, 0.0052013397216796875, 1.496337890625, 1.440673828125, 0.090423583984375, 1.491943359375
50670, -5.010333061218262, 3.1724886894226074, 5.268702507019043, -0.011727930046617985, 0.015241332352161407, -32.21868133544922, -0.14564606547355652, 0.1892046183347702, -1.3316301107406616, -0.8360758423805237, -0.9621788859367371, 0.054914429783821106, 0.20932438782895943, -0.37069357450516804, 1.222066398632396, 9362.0, 30146.0, 35388.0, 9362.0, 8.17190170288086, -0.22321449220180511, -0.25138258934020996, -0.021534767001867294, -0.0874578058719635, -0.019287018105387688, 0.9963023662567139, -0.09455400705337524, 0.0052013397216796875, 1.496337890625, 1.464111328125, 0.1283111572265625, 1.491943359375
50680, -5.011401653289795, 3.173957347869873, 5.268347263336182, -0.013215136714279652, 0.0171734020113945, -32.23200225830078, -0.15179522335529327, 0.19720956683158875, -1.3325176239013672, -0.8360393047332764, -0.9621331691741943, 0.054864414036273956, 0.2285880425365314, -0.3439442058466966, 1.2145120336260415, 9362.0, 30146.0, 35388.0, 9362.0, 8.17190170288086, 0.017041455954313278, 0.09030086547136307, -0.03552475944161415, -0.08834131062030792, -0.020597267895936966, 0.9945231080055237, -0.09455400705337524, 0.0052013397216796875, 1.496337890625, 1.4794921875, 0.155975341796875, 1.487548828125
50690, -5.01108980178833, 3.1748201847076416, 5.267994403839111, -0.01476380880922079, 0.01918547973036766, -32.245330810546875, -0.1579390913248062, 0.2052057832479477, -1.333530306816101, -0.8360282778739929, -0.9621393084526062, 0.05486292764544487, 0.22966849390351515, -0.33648087931914006, 1.2246952950777228, 9362.0, 30146.0, 35388.0, 9362.0, 8.17190170288086, -0.07349090278148651, 0.1909845769405365, 0.35434842109680176, -0.08789507299661636, -0.020668864250183105, 0.9953926801681519, -0.09455400705337524, 0.0052013397216796875, 1.496337890625, 1.469970703125, 0.1386566162109375, 1.487548828125
50700, -5.011291980743408, 3.173765182495117, 5.269515037536621, -0.016373924911022186, 0.02127751335501671, -32.258670806884766, -0.16408438980579376, 0.21320094168186188, -1.3345472812652588, -0.8360307216644287, -0.9621236324310303, 0.0548752136528492, 0.22905739124284946, -0.3377712731715121, 1.2279575120039237, 9362.0, 30146.0, 35388.0, 9362.0, 8.17190170288086, -0.02328253723680973, -0.04330306127667427, 0.025655366480350494, -0.08800224214792252, -0.018912849947810173, 0.9971819519996643, -0.09539404511451721, 0.04104042053222656, 1.499267578125, 1.434814453125, 0.081787109375, 1.487548828125
50710, -5.0114946365356445, 3.1744301319122314, 5.268052101135254, -0.018045535311102867, 0.02344956435263157, -32.27202224731445, -0.1702374368906021, 0.22120942175388336, -1.3354088068008423, -0.8360364437103271, -0.9621210694313049, 0.05486726015806198, 0.23653091909619606, -0.3377063392067612, 1.221080325376292, 9362.0, 30146.0, 35388.0, 9362.0, 8.17190170288086, -0.12554970383644104, -0.007339734584093094, 0.06335011124610901, -0.08828211575746536, -0.019979039207100868, 0.9971713423728943, -0.09539404511451721, 0.04104042053222656, 1.499267578125, 1.421630859375, 0.0640716552734375, 1.487548828125
50720, -5.0113911628723145, 3.1744542121887207, 5.269488334655762, -0.01977870799601078, 0.0257017370313406, -32.28538131713867, -0.1763973832130432, 0.22922512888908386, -1.3361836671829224, -0.8360196352005005, -0.9621194005012512, 0.05488171800971031, 0.22948981370820778, -0.3379463104332956, 1.229578653731908, 9362.0, 30146.0, 35388.0, 9362.0, 8.17190170288086, -0.13968166708946228, 0.17766067385673523, 0.1272125542163849, -0.08766339719295502, -0.0215044803917408, 0.9956421852111816, -0.09539404511451721, 0.04104042053222656, 1.499267578125, 1.434814453125, 0.081787109375, 1.487548828125
50730, -5.011526584625244, 3.172729253768921, 5.269845008850098, -0.021573446691036224, 0.028034020215272903, -32.29874801635742, -0.18255040049552917, 0.23723146319389343, -1.3370699882507324, -0.8360176682472229, -0.9621149301528931, 0.05489218235015869, 0.23340126277513315, -0.3354960868805392, 1.2292627385965826, 9362.0, 30146.0, 35388.0, 9362.0, 8.17190170288086, -0.07682670652866364, 0.027133548632264137, 0.01299425307661295, -0.08604630082845688, -0.01987106166779995, 0.9952889680862427, -0.09539404511451721, 0.04104042053222656, 1.499267578125, 1.489013671875, 0.174041748046875, 1.487548828125
50740, -5.011600017547607, 3.173203468322754, 5.269205570220947, -0.02342967502772808, 0.030446333810687065, -32.3121223449707, -0.1886949986219406, 0.24523143470287323, -1.3380407094955444, -0.8360313773155212, -0.9621225595474243, 0.05485792085528374, 0.22943280621286838, -0.3346124118017997, 1.2223495436646015, 9362.0, 30146.0, 35388.0, 9362.0, 8.17190170288086, -0.011168904602527618, -0.23045606911182404, -0.143870547413826, -0.08581998944282532, -0.022315656766295433, 0.9965416193008423, -0.09539404511451721, 0.04104042053222656, 1.499267578125, 1.450927734375, 0.1063690185546875, 1.490478515625
50750, -5.011017322540283, 3.1741645336151123, 5.268054962158203, -0.025347376242280006, 0.032938677817583084, -32.32550811767578, -0.1948450356721878, 0.2532377541065216, -1.3389359712600708, -0.8360444903373718, -0.9621094465255737, 0.05482680723071098, 0.22748339217076233, -0.33164221297261065, 1.2128867230717342, 9362.0, 30146.0, 35388.0, 9362.0, 8.17190170288086, -0.0018536747666075826, 0.10861026495695114, -0.22213274240493774, -0.08530613780021667, -0.021957600489258766, 0.996116042137146, -0.09539404511451721, 0.04104042053222656, 1.499267578125, 1.459716796875, 0.120849609375, 1.490478515625
50760, -5.010552883148193, 3.1732311248779297, 5.266707897186279, -0.027326593175530434, 0.03551109507679939, -32.33890151977539, -0.20099830627441406, 0.2612455189228058, -1.3398021459579468, -0.8360278606414795, -0.9621186256408691, 0.05484379827976227, 0.2205311464532484, -0.3234332436644536, 1.2033933124734661, 9362.0, 30146.0, 35388.0, 9362.0, 8.17190170288086, 0.13449282944202423, 0.14223343133926392, -0.054607830941677094, -0.08742011338472366, -0.020356444641947746, 0.99576735496521, -0.09539404511451721, 0.04104042053222656, 1.499267578125, 1.458251953125, 0.1184234619140625, 1.493408203125
50810, -5.0120463371276855, 3.169858932495117, 5.273205757141113, -0.038144830614328384, 0.0495733805000782, -32.406009674072266, -0.23171864449977875, 0.30123910307884216, -1.3446677923202515, -0.8360492587089539, -0.9621167778968811, 0.05480156093835831, 0.2259388149542014, -0.3297708591713615, 1.2087375607743507, 9362.0, 30146.0, 35388.0, 9362.0, 8.17190170288086, -0.11086232960224152, 0.006083761341869831, -0.044601649045944214, -0.08801107108592987, -0.02105540782213211, 0.9936355352401733, -0.0972820594906807, -0.030637741088867188, 1.493408203125, 1.458251953125, 0.1184234619140625, 1.491943359375
50850, -5.012842655181885, 3.1684203147888184, 5.273078918457031, -0.045372169464826584, 0.05896991863846779, -32.44640350341797, -0.2501015067100525, 0.325194776058197, -1.348205327987671, -0.836040735244751, -0.9621127843856812, 0.054820604622364044, 0.22837203064985465, -0.32733127581843746, 1.2025525114287685, 9362.0, 30146.0, 35388.0, 9362.0, 8.17190170288086, 0.07983481138944626, -0.11827292293310165, -0.1148843765258789, -0.08698650449514389, -0.01900664158165455, 0.9963709115982056, -0.0972820594906807, -0.030637741088867188, 1.493408203125, 1.4912109375, 0.178253173828125, 1.48828125
50890, -5.01255989074707, 3.1723999977111816, 5.273950576782227, -0.05586807429790497, 0.07261884957551956, -32.500396728515625, -0.2746778130531311, 0.3572259247303009, -1.351804256439209, -0.8360470533370972, -0.9621081948280334, 0.05483172461390495, 0.2249912133365524, -0.32827577531884344, 1.200717532707939, 9362.0, 30146.0, 35388.0, 9362.0, 8.17190170288086, 0.08101071417331696, 0.22293519973754883, 0.009916327893733978, -0.08805976808071136, -0.020629053935408592, 0.9943608641624451, -0.0972820594906807, -0.030637741088867188, 1.493408203125, 1.468505859375, 0.13604736328125, 1.48974609375
50930, -5.009683609008789, 3.1695752143859863, 5.275620460510254, -0.07036933302879333, 0.09147941321134567, -32.568111419677734, -0.30536139011383057, 0.3971792161464691, -1.3571189641952515, -0.8360402584075928, -0.962116003036499, 0.0548078827559948, 0.22021399082200507, -0.3242735430065693, 1.2074078371661798, 9362.0, 30146.0, 35388.0, 9362.0, 8.17190170288086, 0.0684676542878151, -0.012679888866841793, 0.1262560933828354, -0.08689185976982117, -0.02057710289955139, 0.9975801706314087, -0.0972820594906807, -0.030637741088867188, 1.493408203125, 1.469970703125, 0.1386566162109375, 1.49267578125
50950, -5.010295391082764, 3.169607400894165, 5.27646017074585, -0.07345369458198547, 0.09549124538898468, -32.581687927246094, -0.3115108907222748, 0.4051879048347473, -1.3579416275024414, -0.8360345363616943, -0.9621188640594482, 0.0548103004693985, 0.21958638271331535, -0.3248118240500446, 1.2064582721591772, 9362.0, 30146.0, 35388.0, 9362.0, 8.17190170288086, 0.037297897040843964, 0.028616422787308693, 0.0809955894947052, -0.08797816932201385, -0.021688135340809822, 0.9988372921943665, -0.0972820594906807, -0.030637741088867188, 1.493408203125, 1.48095703125, 0.1587677001953125, 1.49267578125
51070, -5.005492687225342, 3.170687675476074, 5.2747111320495605, -0.11526063084602356, 0.14987711608409882, -32.745269775390625, -0.38524389266967773, 0.5012093782424927, -1.3686480522155762, -0.83607017993927, -0.9621211886405945, 0.05484529957175255, 0.23167854607073674, -0.3107066470594759, 1.215934523013911, 9362.0, 30146.0, 35388.0, 9362.0, 8.17190170288086, 0.09880011528730392, -0.12272735685110092, -0.12894947826862335, -0.08655563741922379, -0.019715143367648125, 0.9946457743644714, -0.09876156598329544, 0.03208160400390625, 1.49853515625, 1.4765625, 0.1505584716796875, 1.4970703125
51090, -5.005396366119385, 3.1702933311462402, 5.27420711517334, -0.11526063084602356, 0.14987711608409882, -32.745269775390625, -0.38524389266967773, 0.5012093782424927, -1.3686480522155762, -0.8360369801521301, -0.9620975852012634, 0.05483456328511238, 0.22729554319254047, -0.31719266843614946, 1.20463048504982, 9362.0, 30146.0, 35388.0, 9362.0, 8.17190170288086, 0.06730615347623825, 0.12313517183065414, 0.11714719235897064, -0.08682683855295181, -0.018942002207040787, 0.9970329999923706, -0.09876156598329544, 0.03208160400390625, 1.49853515625, 1.47216796875, 0.142547607421875, 1.48828125
51130, -5.006569862365723, 3.1694719791412354, 5.275528430938721, -0.14373263716697693, 0.18692022562026978, -32.841304779052734, -0.4282689094543457, 0.5572003126144409, -1.3747271299362183, -0.836028516292572, -0.9620994329452515, 0.054829616099596024, 0.2235511669310762, -0.3198092922715148, 1.2090270601084356, 9362.0, 30146.0, 35388.0, 9362.0, 8.17190170288086, 0.07420680671930313, 0.25096046924591064, 0.009535965509712696, -0.08644688129425049, -0.021776117384433746, 0.9959547519683838, -0.09876156598329544, 0.03208160400390625, 1.49853515625, 1.47802734375, 0.1532745361328125, 1.4912109375
51150, -5.0073113441467285, 3.1685638427734375, 5.276130199432373, -0.14373263716697693, 0.18692022562026978, -32.841304779052734, -0.4282689094543457, 0.5572003126144409, -1.3747271299362183, -0.8360485434532166, -0.9620991945266724, 0.054854460060596466, 0.2220753481902833, -0.3069007156864245, 1.2181586430926963, 9362.0, 30146.0, 35388.0, 9362.0, 8.17190170288086, 0.0020976755768060684, 0.010846802033483982, 0.32657137513160706, -0.08846817165613174, -0.019996514543890953, 0.9957582950592041, -0.09876156598329544, 0.03208160400390625, 1.49853515625, 1.469970703125, 0.1386566162109375, 1.4912109375
51190, -5.007966041564941, 3.164999485015869, 5.279072284698486, -0.14373263716697693, 0.18692022562026978, -32.841304779052734, -0.4282689094543457, 0.5572003126144409, -1.3747271299362183, -0.8360375165939331, -0.9620919823646545, 0.054826587438583374, 0.22493466288768027, -0.3239295747526114, 1.2097163818988241, 9362.0, 30146.0, 35388.0, 9362.0, 8.17190170288086, 0.11000000685453415, -0.09874865412712097, -0.0167564507573843, -0.08914131671190262, -0.021595548838377, 0.9951757192611694, -0.09876156598329544, 0.03208160400390625, 1.49853515625, 1.440673828125, 0.090423583984375, 1.493408203125
51250, -5.007151126861572, 3.162539005279541, 5.278753280639648, -0.19455577433109283, 0.2530486285686493, -32.99310302734375, -0.49576419591903687, 0.6451407074928284, -1.3852428197860718, -0.8360329866409302, -0.9621076583862305, 0.054810717701911926, 0.22240637745265907, -0.31959521803130997, 1.209167195425555, 9362.0, 30146.0, 35388.0, 9362.0, 8.17190170288086, 0.1786506325006485, 0.005303359590470791, 0.14146451652050018, -0.08842248469591141, -0.02009350247681141, 0.993959367275238, -0.1031862124800682, -0.0037593841552734375, 1.49560546875, 1.447998046875, 0.1016693115234375, 1.487548828125
51310, -5.007749080657959, 3.1662633419036865, 5.284435272216797, -0.23076044023036957, 0.30016639828681946, -33.090309143066406, -0.5386618375778198, 0.7010790705680847, -1.3921688795089722, -0.8360470533370972, -0.9621158838272095, 0.05481775850057602, 0.22813124445469615, -0.3288685073935653, 1.20683381307005, 9362.0, 30146.0, 35388.0, 9362.0, 8.17190170288086, -0.15207529067993164, -0.07339201867580414, -0.16294392943382263, -0.08696107566356659, -0.02059864066541195, 0.9968014359474182, -0.11710565537214279, -0.030637741088867188, 1.493408203125, 1.48388671875, 0.1642303466796875, 1.49267578125
51350, -5.010012149810791, 3.167309522628784, 5.287988185882568, -0.24719665944576263, 0.32155880331993103, -33.13211441040039, -0.5570823550224304, 0.7250776290893555, -1.3948971033096313, -0.8360287547111511, -0.9621134996414185, 0.05481131747364998, 0.22725034877116457, -0.3192569360265054, 1.2084355148837087, 9362.0, 30146.0, 35388.0, 9362.0, 8.17190170288086, -0.03496789187192917, 0.3471316695213318, 0.06206843629479408, -0.08434083312749863, -0.0205394234508276, 0.9961361289024353, -0.11710565537214279, -0.030637741088867188, 1.493408203125, 1.43701171875, 0.085052490234375, 1.48974609375
51450, -5.005268096923828, 3.166362762451172, 5.286107063293457, -0.30597320199012756, 0.3980654180049896, -33.27207946777344, -0.6184343695640564, 0.8050541281700134, -1.4042571783065796, -0.8360315561294556, -0.9621031880378723, 0.05482630431652069, 0.2216347894240575, -0.3278906985343042, 1.2062280276047277, 9362.0, 30146.0, 35388.0, 9362.0, 8.17190170288086, -0.19407813251018524, 0.006212964653968811, 0.014542846009135246, -0.08971745520830154, -0.019300824031233788, 0.996232271194458, -0.1022888571023941, -0.09335899353027344, 1.48828125, 1.43994140625, 0.089324951171875, 1.426025390625
51470, -5.006149768829346, 3.1614229679107666, 5.287325382232666, -0.3248025178909302, 0.422576904296875, -33.314247131347656, -0.6368594765663147, 0.8290523886680603, -1.4068105220794678, -0.8360695242881775, -0.9620959758758545, 0.05479355528950691, 0.2242304640684157, -0.31695328173699977, 1.210969968083066, 9362.0, 30146.0, 35388.0, 9362.0, 8.17190170288086, 0.17492835223674774, 0.04295370355248451, 0.07168695330619812, -0.08591997623443604, -0.021131614223122597, 0.9943655729293823, -0.1022888571023941, -0.09335899353027344, 1.48828125, 1.41796875, 0.05950927734375, 1.426025390625
51550, -5.006433486938477, 3.1599769592285156, 5.286239147186279, -0.37088364362716675, 0.48256805539131165, -33.4129638671875, -0.6797540783882141, 0.8849983811378479, -1.4134550094604492, -0.8360525369644165, -0.9621070027351379, 0.05479465052485466, 0.22478902227495148, -0.3141492841190825, 1.2093838123381009, 9362.0, 30146.0, 35388.0, 9362.0, 8.17190170288086, 0.0669320672750473, 0.23312842845916748, 0.0667514055967331, -0.09009193629026413, -0.02152886986732483, 0.9945736527442932, -0.10022975504398346, -0.030637741088867188, 1.493408203125, 1.482421875, 0.161529541015625, 1.493408203125
51590, -5.005328178405762, 3.152261734008789, 5.286507606506348, -0.40563663840293884, 0.527816891670227, -33.48375701904297, -0.7103497982025146, 0.9249467253684998, -1.4183627367019653, -0.8360560536384583, -0.9621084332466125, 0.05480055510997772, 0.22519206336575234, -0.3153958446008289, 1.2190513702111292, 9362.0, 30146.0, 35388.0, 9362.0, 8.17190170288086, 0.1818985790014267, -0.24865688383579254, -0.20497383177280426, -0.08769334852695465, -0.01894468069076538, 0.9949288368225098, -0.10022975504398346, -0.030637741088867188, 1.493408203125, 1.439208984375, 0.0882415771484375, 1.493408203125
51610, -5.00457763671875, 3.1529252529144287, 5.285667896270752, -0.40563663840293884, 0.527816891670227, -33.48375701904297, -0.7103497982025146, 0.9249467253684998, -1.4183627367019653, -0.8360384702682495, -0.9620981216430664, 0.05480465292930603, 0.22489519776510888, -0.33176460341414327, 1.210300369600073, 9362.0, 30146.0, 35388.0, 9362.0, 8.17190170288086, 0.030413465574383736, -0.1048760712146759, 0.1173550933599472, -0.08769334852695465, -0.01894468069076538, 0.9949288368225098, -0.09795960038900375, -0.2546367645263672, 1.47509765625, 1.46337890625, 0.1270751953125, 1.493408203125
51690, -5.003119468688965, 3.149710178375244, 5.2846760749816895, -0.47972649335861206, 0.6243042945861816, -33.626094818115234, -0.7714493274688721, 1.004807472229004, -1.428246021270752, -0.836033046245575, -0.9621026515960693, 0.05481328070163727, 0.21782329116442478, -0.32871489876202986, 1.2093406480739228, 9362.0, 30146.0, 35388.0, 9362.0, 8.17190170288086, -0.18064063787460327, -0.021140331402420998, 0.22195301949977875, -0.08823174983263016, -0.019824974238872528, 0.9950702786445618, -0.09795960038900375, -0.2546367645263672, 1.47509765625, 1.4443359375, 0.0959930419921875, 1.493408203125
51710, -5.004238605499268, 3.1452083587646484, 5.286725997924805, -0.47972649335861206, 0.6243042945861816, -33.626094818115234, -0.7714493274688721, 1.004807472229004, -1.428246021270752, -0.8360439538955688, -0.9620989561080933, 0.05480467155575752, 0.22373230171525368, -0.3305581899332708, 1.209731351921545, 9362.0, 30146.0, 35388.0, 9362.0, 8.17190170288086, -0.07015860825777054, 0.13705530762672424, -0.15107092261314392, -0.08823174983263016, -0.019824974238872528, 0.9950702786445618, -0.08066634833812714, 0.023120880126953125, 1.497802734375, 1.47216796875, 0.142547607421875, 1.493408203125
51770, -5.004436016082764, 3.145681619644165, 5.282890319824219, -0.5352234244346619, 0.6965988874435425, -33.72629928588867, -0.8141754269599915, 1.0607669353485107, -1.4345202445983887, -0.8360399007797241, -0.9620891213417053, 0.054805606603622437, 0.2282706875922163, -0.33141498052319207, 1.2006807909371822, 9362.0, 30146.0, 35388.0, 9362.0, 8.17190170288086, -0.1108378991484642, -0.046944715082645416, 0.002592815551906824, -0.08560972660779953, -0.019983181729912758, 0.9957955479621887, -0.08066634833812714, 0.023120880126953125, 1.497802734375, 1.46044921875, 0.12200927734375, 1.49267578125
51790, -5.003444194793701, 3.1459946632385254, 5.281863212585449, -0.5599235892295837, 0.728782057762146, -33.76936721801758, -0.8324868083000183, 1.0847586393356323, -1.437132716178894, -0.8360637426376343, -0.9620956182479858, 0.054802678525447845, 0.22129246560600566, -0.31306400314886673, 1.2091841580448444, 9362.0, 30146.0, 35388.0, 9362.0, 8.17190170288086, 0.224574476480484, 0.077020563185215, -0.014334640465676785, -0.08632528781890869, -0.021694911643862724, 0.9947983622550964, -0.08066634833812714, 0.023120880126953125, 1.497802734375, 1.44873046875, 0.102813720703125, 1.49267578125
51810, -5.0021138191223145, 3.1457290649414062, 5.281958103179932, -0.5599235892295837, 0.728782057762146, -33.76936721801758, -0.8324868083000183, 1.0847586393356323, -1.437132716178894, -0.8360538482666016, -0.9621021747589111, 0.05477846413850784, 0.2225100900418943, -0.33263398125515664, 1.2070381381837394, 9362.0, 30146.0, 35388.0, 9362.0, 8.17190170288086, 0.11087720096111298, -0.21848724782466888, 0.05460376292467117, -0.08845106512308121, -0.02158488519489765, 0.9976621270179749, -0.08066634833812714, 0.023120880126953125, 1.497802734375, 1.493408203125, 0.1825714111328125, 1.49267578125
51870, -4.997751235961914, 3.1440811157226562, 5.278783798217773, -0.6284753084182739, 0.8181195855140686, -33.8846321105957, -0.8812844753265381, 1.148645043373108, -1.4447624683380127, -0.8360586762428284, -0.9620985984802246, 0.0548102892935276, 0.22052955795644702, -0.32543191386619696, 1.2042228909270016, 9362.0, 30146.0, 35388.0, 9362.0, 8.17190170288086, 0.16516870260238647, 0.2143910825252533, -0.029824549332261086, -0.08513373881578445, -0.02244282141327858, 0.9938611388206482, -0.08066634833812714, 0.023120880126953125, 1.497802734375, 1.462646484375, 0.125823974609375, 1.489013671875
51890, -4.997979164123535, 3.144500732421875, 5.280533790588379, -0.646222710609436, 0.8412519097328186, -33.913551330566406, -0.8934674263000488, 1.1645950078964233, -1.4468319416046143, -0.8360335826873779, -0.9620890021324158, 0.05481412634253502, 0.22078405025577302, -0.3215042229091978, 1.2091350666362726, 9362.0, 30146.0, 35388.0, 9362.0, 8.17190170288086, -0.0853249654173851, -0.2502278983592987, -0.5427015423774719, -0.08913153409957886, -0.020003056153655052, 0.9928421974182129, -0.08066634833812714, 0.023120880126953125, 1.497802734375, 1.430419921875, 0.0756378173828125, 1.490478515625
51910, -4.997745513916016, 3.1463983058929443, 5.278125286102295, -0.646222710609436, 0.8412519097328186, -33.913551330566406, -0.8934674263000488, 1.1645950078964233, -1.4468319416046143, -0.8360596299171448, -0.9620877504348755, 0.05482766777276993, 0.2277289203646949, -0.3137636324855748, 1.2106216164218662, 9362.0, 30146.0, 35388.0, 9362.0, 8.17190170288086, 0.09882290661334991, 0.11636875569820404, 0.17112727463245392, -0.08913153409957886, -0.020003056153655052, 0.9928421974182129, -0.10858243703842163, -0.19191741943359375, 1.480224609375, 1.462646484375, 0.125823974609375, 1.490478515625
52010, -5.000168323516846, 3.147735357284546, 5.286201000213623, -0.7481909394264221, 0.9741820693016052, -34.073333740234375, -0.9605112075805664, 1.252319574356079, -1.4583104848861694, -0.8360503315925598, -0.9620956182479858, 0.05480136722326279, 0.22778285578771545, -0.33473505328746, 1.20944354394877, 9362.0, 30146.0, 35388.0, 9362.0, 8.17190170288086, -0.03549559786915779, -0.2688049077987671, -0.20288167893886566, -0.08670161664485931, -0.020329799503087997, 0.9993551969528198, -0.10858243703842163, -0.19191741943359375, 1.480224609375, 1.424560546875, 0.0678253173828125, 1.493408203125
52070, -5.001821517944336, 3.1446926593780518, 5.283664226531982, -0.8169252872467041, 1.0638046264648438, -34.17559814453125, -1.003282904624939, 1.3082690238952637, -1.4642434120178223, -0.8360489010810852, -0.9620955586433411, 0.05480245128273964, 0.22308320893215539, -0.32856705817638954, 1.2062723681506367, 9362.0, 30146.0, 35388.0, 9362.0, 8.17190170288086, 0.1207893118262291, 0.3976786434650421, 0.2095743864774704, -0.08774469047784805, -0.022403711453080177, 0.9938864707946777, -0.10858243703842163, -0.19191741943359375, 1.480224609375, 1.44287109375, 0.0936279296875, 1.494140625
52110, -4.997873783111572, 3.147770404815674, 5.2802348136901855, -0.847297728061676, 1.1034115552902222, -34.21957778930664, -1.0215442180633545, 1.3321940898895264, -1.467541217803955, -0.8360586166381836, -0.962088942527771, 0.05481501296162605, 0.22268174718245723, -0.32373315316348794, 1.2085197954480573, 9362.0, 30146.0, 35388.0, 9362.0, 8.17190170288086, -0.09119777381420135, -0.3201330900192261, 0.123715840280056, -0.08724450320005417, -0.022792045027017593, 0.9929801225662231, -0.11413609236478806, -0.31735801696777344, 1.469970703125, 1.45751953125, 0.117095947265625, 1.487548828125
52130, -4.998776912689209, 3.1496262550354004, 5.282650947570801, -0.847297728061676, 1.1034115552902222, -34.21957778930664, -1.0215442180633545, 1.3321940898895264, -1.467541217803955, -0.836030125617981, -0.962104320526123, 0.05480106920003891, 0.226761307262971, -0.33037339696227264, 1.2132772101155263, 9362.0, 30146.0, 35388.0, 9362.0, 8.17190170288086, 0.010827471502125263, -0.3520556390285492, 0.03632383421063423, -0.08730559796094894, -0.018385935574769974, 0.996660590171814, -0.11413609236478806, -0.31735801696777344, 1.469970703125, 1.4384765625, 0.0871429443359375, 1.491943359375
52170, -4.9980950355529785, 3.150754928588867, 5.284943103790283, -0.9203005433082581, 1.1986196041107178, -34.322547912597656, -1.0642848014831543, 1.3880589008331299, -1.4742839336395264, -0.8360467553138733, -0.9621034264564514, 0.05480639636516571, 0.22301968137981176, -0.3234711820273901, 1.2079132015169867, 9362.0, 30146.0, 35388.0, 9362.0, 8.17190170288086, 0.14993631839752197, -0.0504547655582428, 0.14933538436889648, -0.08827687054872513, -0.019505666568875313, 0.9964047074317932, -0.11413609236478806, -0.31735801696777344, 1.469970703125, 1.46923828125, 0.137359619140625, 1.49267578125
52250, -4.99939489364624, 3.145892381668091, 5.2885613441467285, -0.9742788076400757, 1.269020915031433, -34.39636993408203, -1.0948423147201538, 1.4279887676239014, -1.47866952419281, -0.8360493779182434, -0.9620872139930725, 0.05478668212890625, 0.22352559755824283, -0.3252585620157049, 1.2029811134101656, 9362.0, 30146.0, 35388.0, 9362.0, 8.17190170288086, 0.2583211064338684, 0.18698538839817047, 0.01577477715909481, -0.0874667763710022, -0.01939707063138485, 0.9976086616516113, -0.1006510928273201, -0.05751800537109375, 1.4912109375, 1.468505859375, 0.13604736328125, 1.49560546875
52270, -4.999533176422119, 3.14286470413208, 5.288773536682129, -1.0297843217849731, 1.3414188623428345, -34.47040939331055, -1.1253825426101685, 1.467941164970398, -1.4829490184783936, -0.8360543251037598, -0.9621065855026245, 0.05483146756887436, 0.22965009071173337, -0.3128115137156442, 1.2137888478535332, 9362.0, 30146.0, 35388.0, 9362.0, 8.17190170288086, 0.06671158224344254, 0.1062193512916565, -0.07068172842264175, -0.08913464099168777, -0.02202092669904232, 0.9954271912574768, -0.1006510928273201, -0.05751800537109375, 1.4912109375, 1.4619140625, 0.1246185302734375, 1.49560546875
52280, -4.9991583824157715, 3.1429853439331055, 5.28667688369751, -1.0297843217849731, 1.3414188623428345, -34.47040939331055, -1.1253825426101685, 1.467941164970398, -1.4829490184783936, -0.8360553979873657, -0.9620999097824097, 0.05479547381401062, 0.2274718998488202, -0.3284305711857769, 1.2044053584595757, 9362.0, 30146.0, 35388.0, 9362.0, 8.17190170288086, 0.11252397298812866, 0.04179301857948303, 0.2719552516937256, -0.08659618347883224, -0.019431782886385918, 0.99464350938797, -0.1006510928273201, -0.05751800537109375, 1.4912109375, 1.4677734375, 0.1347198486328125, 1.493408203125
52290, -4.9999775886535645, 3.141537666320801, 5.286685943603516, -1.0524139404296875, 1.3709373474121094, -34.50008773803711, -1.1375720500946045, 1.4839048385620117, -1.4848885536193848, -0.8360543251037598, -0.9620972275733948, 0.054815202951431274, 0.22539597929360622, -0.3303003469564203, 1.2047758371251163, 9362.0, 30146.0, 35388.0, 9362.0, 8.17190170288086, 0.18623290956020355, 0.5754238963127136, 0.1350061446428299, -0.0880754292011261, -0.01841117814183235, 0.9956570863723755, -0.1006510928273201, -0.05751800537109375, 1.4912109375, 1.48095703125, 0.1587677001953125, 1.493408203125
52310, -4.998074531555176, 3.139615774154663, 5.286461353302002, -1.0752872228622437, 1.4007751941680908, -34.52980422973633, -1.1497516632080078, 1.499873399734497, -1.4868000745773315, -0.8360537886619568, -0.9620983004570007, 0.054798007011413574, 0.22415576560728825, -0.32899756526524015, 1.2051847801001292, 9362.0, 30146.0, 35388.0, 9362.0, 8.17190170288086, 0.07470767945051193, -0.19676558673381805, -0.13465964794158936, -0.08869452774524689, -0.020297594368457794, 0.9958368539810181, -0.1178288608789444, -0.20087814331054688, 1.4794921875, 1.458984375, 0.1195831298828125, 1.493408203125
52330, -4.997189044952393, 3.138955593109131, 5.288232803344727, -1.098404049873352, 1.4309322834014893, -34.5595588684082, -1.1619329452514648, 1.5158343315124512, -1.4887114763259888, -0.8360353708267212, -0.9620988368988037, 0.054812368005514145, 0.22664017888492072, -0.3277509751644345, 1.2117889268023567, 9362.0, 30146.0, 35388.0, 9362.0, 8.17190170288086, 0.0975867211818695, -0.3970845639705658, 0.08875245600938797, -0.08817730098962784, -0.02065945975482464, 0.9956904053688049, -0.1178288608789444, -0.20087814331054688, 1.4794921875, 1.43408203125, 0.080810546875, 1.489013671875
52350, -4.997236251831055, 3.1431548595428467, 5.288209915161133, -1.1217644214630127, 1.4614086151123047, -34.589351654052734, -1.1741193532943726, 1.5317984819412231, -1.4905513525009155, -0.8360623121261597, -0.9621022939682007, 0.05480705574154854, 0.22712425647425188, -0.3157650146051765, 1.2111069644444965, 9362.0, 30146.0, 35388.0, 9362.0, 8.17190170288086, 0.017324484884738922, 0.09614203870296478, 0.3401937782764435, -0.08709993958473206, -0.02115110494196415, 0.9959596991539001, -0.1178288608789444, -0.20087814331054688, 1.4794921875, 1.433349609375, 0.0797576904296875, 1.4912109375
52370, -4.996733665466309, 3.141801357269287, 5.290829658508301, -1.1453688144683838, 1.492204189300537, -34.61918258666992, -1.1863188743591309, 1.5477707386016846, -1.492307186126709, -0.8360427021980286, -0.9620976448059082, 0.05479416251182556, 0.21760370987894948, -0.3302932212052667, 1.2089991707159988, 9362.0, 30146.0, 35388.0, 9362.0, 8.17190170288086, 0.01685359887778759, -0.19209454953670502, 0.30346062779426575, -0.08589797466993332, -0.020599326118826866, 0.9949446320533752, -0.1178288608789444, -0.20087814331054688, 1.4794921875, 1.47802734375, 0.1532745361328125, 1.4912109375
52390, -4.995595932006836, 3.138279676437378, 5.292744159698486, -1.1453688144683838, 1.492204189300537, -34.61918258666992, -1.1863188743591309, 1.5477707386016846, -1.492307186126709, -0.8360377550125122, -0.9620936512947083, 0.05482207238674164, 0.21946856133928877, -0.32429763018012636, 1.2102077962509696, 9362.0, 30146.0, 35388.0, 9362.0, 8.17190170288086, 0.027839185670018196, -0.17146658897399902, -0.0630515068769455, -0.08723707497119904, -0.020006999373435974, 0.9953779578208923, -0.1178288608789444, -0.20087814331054688, 1.4794921875, 1.51025390625, 0.2164154052734375, 1.49267578125
52410, -4.996253490447998, 3.1383063793182373, 5.293341159820557, -1.1453688144683838, 1.492204189300537, -34.61918258666992, -1.1863188743591309, 1.5477707386016846, -1.492307186126709, -0.8360569477081299, -0.9620979428291321, 0.05479956418275833, 0.21802884381287868, -0.3312689135248945, 1.2067521257883416, 9362.0, 30146.0, 35388.0, 9362.0, 8.17190170288086, -0.003809521906077862, -0.30198055505752563, -0.10601519793272018, -0.08753420412540436, -0.021984117105603218, 0.9968565106391907, -0.10135751217603683, -0.10231781005859375, 1.487548828125, 1.4443359375, 0.0959930419921875, 1.494873046875
52430, -4.99690055847168, 3.142319917678833, 5.295938014984131, -1.1453688144683838, 1.492204189300537, -34.61918258666992, -1.1863188743591309, 1.5477707386016846, -1.492307186126709, -0.8360360860824585, -0.9620946049690247, 0.0548243373632431, 0.21503774934005118, -0.3280849468445126, 1.2067977996645616, 9362.0, 30146.0, 35388.0, 9362.0, 8.17190170288086, -0.03798637539148331, -0.4097847640514374, 0.3070230782032013, -0.08852991461753845, -0.020957596600055695, 0.9969951510429382, -0.10135751217603683, -0.10231781005859375, 1.487548828125, 1.41064453125, 0.0509490966796875, 1.496337890625
52470, -4.994572639465332, 3.1465139389038086, 5.298593997955322, -1.2670475244522095, 1.6509709358215332, -34.76887893676758, -1.2473065853118896, 1.6276041269302368, -1.501184105873108, -0.8360568881034851, -0.9620949029922485, 0.0548129640519619, 0.22722392826511892, -0.3253841540227427, 1.2127390237360074, 9362.0, 30146.0, 35388.0, 9362.0, 8.17190170288086, 0.01355399563908577, -0.10043302178382874, 0.17478768527507782, -0.08802266418933868, -0.021482054144144058, 0.9970030784606934, -0.10135751217603683, -0.10231781005859375, 1.487548828125, 1.46337890625, 0.1270751953125, 1.48828125
52490, -4.994166374206543, 3.147514820098877, 5.300333023071289, -1.2795511484146118, 1.6672868728637695, -34.78389358520508, -1.2534198760986328, 1.6355905532836914, -1.501975417137146, -0.8360412120819092, -0.9620993137359619, 0.05480615049600601, 0.22388376025090614, -0.32841752437360583, 1.2061696245723892, 9362.0, 30146.0, 35388.0, 9362.0, 8.17190170288086, 0.14574681222438812, -0.008623997680842876, 0.005098429042845964, -0.08703066408634186, -0.022385017946362495, 0.9945900440216064, -0.10135751217603683, -0.10231781005859375, 1.487548828125, 1.475830078125, 0.1492767333984375, 1.4853515625
52510, -4.993928909301758, 3.147092342376709, 5.301332473754883, -1.2795511484146118, 1.6672868728637695, -34.78389358520508, -1.2534198760986328, 1.6355905532836914, -1.501975417137146, -0.836034893989563, -0.9621055126190186, 0.05481201410293579, 0.2287334336763397, -0.3297728740630532, 1.2032803178708948, 9362.0, 30146.0, 35388.0, 9362.0, 8.17190170288086, 0.3147261142730713, 0.04107777029275894, -0.09871277213096619, -0.08872613310813904, -0.022137124091386795, 0.998236894607544, -0.10328013449907303, -0.19191741943359375, 1.480224609375, 1.464111328125, 0.1283111572265625, 1.49267578125
52530, -4.991525173187256, 3.14778733253479, 5.301545143127441, -1.2795511484146118, 1.6672868728637695, -34.78389358520508, -1.2534198760986328, 1.6355905532836914, -1.501975417137146, -0.836050808429718, -0.9621062874794006, 0.054800089448690414, 0.22962759985348077, -0.3264448045648294, 1.2011108810517632, 9362.0, 30146.0, 35388.0, 9362.0, 8.17190170288086, -0.004130745772272348, -0.26400649547576904, 0.06606096774339676, -0.0864419937133789, -0.019992368295788765, 0.9948979020118713, -0.10328013449907303, -0.19191741943359375, 1.480224609375, 1.412841796875, 0.0534515380859375, 1.491943359375
52550, -4.992096900939941, 3.1514697074890137, 5.303277492523193, -1.2795511484146118, 1.6672868728637695, -34.78389358520508, -1.2534198760986328, 1.6355905532836914, -1.501975417137146, -0.8360430002212524, -0.9621061682701111, 0.054827772080898285, 0.22206107715916523, -0.33000034140562207, 1.2103774801048677, 9362.0, 30146.0, 35388.0, 9362.0, 8.17190170288086, -0.1259128451347351, -0.2306615561246872, -0.5567016005516052, -0.0860021635890007, -0.018586749210953712, 0.9964897036552429, -0.10328013449907303, -0.19191741943359375, 1.480224609375, 1.447998046875, 0.1016693115234375, 1.48828125
52570, -4.992376327514648, 3.1510837078094482, 5.300164222717285, -1.3948324918746948, 1.8177193403244019, -34.9194450378418, -1.3084050416946411, 1.707350492477417, -1.5101341009140015, -0.836061418056488, -0.9621002078056335, 0.05482735112309456, 0.22395555725602295, -0.3259759925298056, 1.20498337449474, 9362.0, 30146.0, 35388.0, 9362.0, 8.17190170288086, 0.003075094660744071, 0.09661299735307693, -0.1769741326570511, -0.08804197609424591, -0.01945188082754612, 0.9970973134040833, -0.10328013449907303, -0.19191741943359375, 1.480224609375, 1.469970703125, 0.1386566162109375, 1.48828125
52580, -4.9926252365112305, 3.1518640518188477, 5.298676013946533, -1.4079471826553345, 1.834832787513733, -34.93455123901367, -1.3145219087600708, 1.7153280973434448, -1.5109813213348389, -0.8360609412193298, -0.9621053338050842, 0.05483555793762207, 0.22132791808617602, -0.31522921412536675, 1.2136839208755934, 9362.0, 30146.0, 35388.0, 9362.0, 8.17190170288086, -0.026571519672870636, 0.02303723245859146, -0.08812954276800156, -0.087408646941185, -0.019186049699783325, 0.9963191747665405, -0.10328013449907303, -0.19191741943359375, 1.480224609375, 1.435546875, 0.0829315185546875, 1.487548828125
52650, -4.997984886169434, 3.156507968902588, 5.294341087341309, -1.4610172510147095, 1.9040838479995728, -34.99506378173828, -1.3389801979064941, 1.7472114562988281, -1.5147678852081299, -0.8360570669174194, -0.9620922803878784, 0.05483931675553322, 0.2170593702620818, -0.3251947853793524, 1.2090744963127775, 9362.0, 30146.0, 35388.0, 9362.0, 8.17190170288086, -0.16892752051353455, 0.047961730509996414, 0.03759273886680603, -0.08828111737966537, -0.021076027303934097, 0.997190535068512, -0.09032885730266571, 0.08584022521972656, 1.5029296875, 1.4677734375, 0.1347198486328125, 1.49267578125
52670, -5.0010552406311035, 3.1547181606292725, 5.295476913452148, -1.5287307500839233, 1.9924414157867432, -35.070919036865234, -1.3695787191390991, 1.7871114015579224, -1.5193122625350952, -0.836054265499115, -0.9620838165283203, 0.054836455732584, 0.21775433032687733, -0.33032941238030844, 1.2049603724316282, 9362.0, 30146.0, 35388.0, 9362.0, 8.17190170288086, -0.005273689981549978, -0.2919193506240845, 0.1680646687746048, -0.08728758245706558, -0.02125735767185688, 0.9948949217796326, -0.09032885730266571, 0.08584022521972656, 1.5029296875, 1.44140625, 0.0914459228515625, 1.490478515625
52690, -5.002857685089111, 3.155839204788208, 5.29756498336792, -1.5562446117401123, 2.0283432006835938, -35.10132598876953, -1.3818105459213257, 1.8030712604522705, -1.5213115215301514, -0.8360563516616821, -0.9620940685272217, 0.05483586713671684, 0.22262574374021515, -0.3323758371006136, 1.2024378953760448, 9362.0, 30146.0, 35388.0, 9362.0, 8.17190170288086, -0.055603161454200745, 0.26431527733802795, -0.03533180058002472, -0.08820240199565887, -0.022331347689032555, 0.9975940585136414, -0.09032885730266571, 0.08584022521972656, 1.5029296875, 1.5029296875, 0.201446533203125, 1.48681640625
52770, -4.994787693023682, 3.1492745876312256, 5.302186965942383, -1.668749451637268, 2.175147533416748, -35.22329330444336, -1.4307725429534912, 1.8669954538345337, -1.5281646251678467, -0.8360539078712463, -0.9621056914329529, 0.05482019856572151, 0.22526276201714515, -0.33330233615862426, 1.2049848568318877, 9362.0, 30146.0, 35388.0, 9362.0, 8.17190170288086, 0.21016880869865417, -0.1780393123626709, 0.23125584423542023, -0.087722048163414, -0.022542782127857208, 0.9937906861305237, -0.09180747717618942, -0.05751800537109375, 1.4912109375, 1.471435546875, 0.14129638671875, 1.494140625
