timeTick, roll, pitch, yaw, stateX, stateY, stateZ, stateVX, stateVY, stateVZ, otX0, otY0, otZ0, otRoll0, otPitch0, otYaw0, left wing, pitch motor, yaw motor, right wing, voltage, roll rate, pitch rate, yaw rate, A_x, A_y, A_z, current, i_raw, v_raw, airflow_voltage, airflow_speed, pot_Pitch
40704, 6.342597961425781, -6.569758415222168, 3.5461645126342773, 0, 0, 0, 0, 0, 0, -0.8179000020027161, -0.9687341451644897, 0.05448438599705696, -0.9052796641402253, -0.4942059390014606, 1.7474059481445534, 0, 0, 0, 0, 0, 0, 0, 0, 0, 0, 0, 0, 0, 0, 0, 0, 0
40714, 6.341053485870361, -6.566219806671143, 3.54484486579895, -0.0017691119574010372, 0.0015168546233326197, -29.663436889648438, -0.17104129493236542, 0.14665183424949646, -1.5008138418197632, -0.8178971409797668, -0.9687278866767883, 0.05449957773089409, -0.8990052000129573, -0.49705283592138017, 1.7431456306382693, 9362.0, 30146.0, 35388.0, 9362.0, 0, -0.16175886988639832, 0.019922230392694473, -0.06218670308589935, -0.08888416737318039, -0.042271532118320465, 0.9947078824043274, 0, 0, 0, 0, 0, 0
40724, 6.340620994567871, -6.566459655761719, 3.5445122718811035, -0.0034208751749247313, 0.0029330579563975334, -29.67845344543457, -0.1593114584684372, 0.13658857345581055, -1.5026627779006958, -0.817902684211731, -0.9687362909317017, 0.05448399856686592, -0.9020318085083534, -0.4961133324831053, 1.7415867274901797, 9362.0, 30146.0, 35388.0, 9362.0, 0, -0.06262237578630447, 0.16366738080978394, 0.072719506919384, -0.09023626148700714, -0.04190139099955559, 0.9956423044204712, 0, 0, 0, 1.44140625, 0.0914459228515625, 0
40734, 6.339432239532471, -6.567427158355713, 3.545647382736206, -0.004955323878675699, 0.004248597659170628, -29.69348907470703, -0.1475783735513687, 0.1265193372964859, -1.5044333934783936, -0.8179032206535339, -0.9687235951423645, 0.05449528619647026, -0.8972438650019213, -0.4956315462162024, 1.749056373132073, 9362.0, 30146.0, 35388.0, 9362.0, 0, 0.19979001581668854, -0.13294073939323425, -0.06241758167743683, -0.08982802927494049, -0.042562127113342285, 0.995118260383606, 0, 0, 0, 1.452392578125, 0.10870361328125, 1.500732421875
40744, 6.340365409851074, -6.567867279052734, 3.5458731651306152, -0.006372377276420593, 0.005463394336402416, -29.708541870117188, -0.1358320415019989, 0.11644019186496735, -1.5060997009277344, -0.8179014921188354, -0.9687359929084778, 0.054489023983478546, -0.895420747011835, -0.49911989504099097, 1.748846525537184, 9362.0, 30146.0, 35388.0, 9362.0, 0, -0.0037454161792993546, -0.0905684307217598, -0.2717854082584381, -0.08851580321788788, -0.04380316659808159, 0.9953482747077942, 0, 0, 0, 1.4970703125, 0.18975830078125, 1.500732421875
40754, 6.3403167724609375, -6.567704677581787, 3.543919324874878, -0.007671967148780823, 0.006577418185770512, -29.72361183166504, -0.12408586591482162, 0.1063646748661995, -1.5077803134918213, -0.8179083466529846, -0.9687301516532898, 0.05449499934911728, -0.8982661748254328, -0.4989774684063093, 1.750423166727047, 9362.0, 30146.0, 35388.0, 9362.0, 0, -0.14143118262290955, -0.26442646980285645, -0.0979093611240387, -0.08896695077419281, -0.043809711933135986, 0.9941267371177673, 0, 0, 0, 1.415771484375, 0.0568695068359375, 1.4912109375
40764, 6.340019226074219, -6.566650867462158, 3.5439767837524414, -0.008854109793901443, 0.00759069574996829, -29.738698959350586, -0.1123429536819458, 0.09629043936729431, -1.5094919204711914, -0.8178974390029907, -0.9687214493751526, 0.0544922761619091, -0.9029684803144011, -0.49143761289232657, 1.7356198477070082, 9362.0, 30146.0, 35388.0, 9362.0, 0, 0.03191886469721794, -0.17641499638557434, -0.02268788404762745, -0.08665323257446289, -0.04544553533196449, 0.9945521354675293, 0, 0, 0, 1.4765625, 0.1505584716796875, 1.4912109375
40774, 6.340188503265381, -6.566718101501465, 3.5451040267944336, -0.009918871335685253, 0.008503267541527748, -29.753803253173828, -0.10060925781726837, 0.08622397482395172, -1.5112768411636353, -0.8179033398628235, -0.9687393307685852, 0.0544925220310688, -0.8972777140485979, -0.4965815677055332, 1.746125082396155, 9362.0, 30146.0, 35388.0, 9362.0, 0, -0.20941698551177979, -0.004728475119918585, 0.00894161406904459, -0.08782122284173965, -0.04409806802868843, 0.994002103805542, 0, 0, 0, 1.4736328125, 0.1452178955078125, 1.494873046875
40784, 6.339244842529297, -6.566051483154297, 3.54555082321167, -0.010866306722164154, 0.009315178729593754, -29.768924713134766, -0.08887755870819092, 0.07615846395492554, -1.513064980506897, -0.8178949952125549, -0.9687280058860779, 0.05449006333947182, -0.899895850269191, -0.4916073672522998, 1.7416233172003448, 9362.0, 30146.0, 35388.0, 9362.0, 0, 0.09102314710617065, -0.01366437878459692, 0.34992337226867676, -0.08927012234926224, -0.04283851385116577, 0.9960509538650513, 0, 0, 0, 1.469970703125, 0.1386566162109375, 1.494873046875
40794, 6.340052127838135, -6.567347526550293, 3.5469701290130615, -0.011696445755660534, 0.010026453994214535, -29.78406524658203, -0.0771501436829567, 0.06609666347503662, -1.5148897171020508, -0.8179076910018921, -0.9687379598617554, 0.05448620021343231, -0.8989978433460898, -0.49732005494368536, 1.7438060058998281, 9362.0, 30146.0, 35388.0, 9362.0, 0, 0.056501030921936035, 0.09383758902549744, -0.14213764667510986, -0.08900483697652817, -0.044341105967760086, 0.9978400468826294, 0, 0, 0, 1.481689453125, 0.1600799560546875, 1.493408203125
40804, 6.340368747711182, -6.568015098571777, 3.5458390712738037, -0.01240923348814249, 0.01063704863190651, -29.799222946166992, -0.06540729105472565, 0.05602249875664711, -1.5165798664093018, -0.8179022669792175, -0.96873939037323, 0.054491110146045685, -0.8991998394618413, -0.5004937650863042, 1.7479237980905689, 9362.0, 30146.0, 35388.0, 9362.0, 8.17190170288086, 0.016408506780862808, 0.22685620188713074, -0.04365720599889755, -0.08839999884366989, -0.04637676849961281, 0.9980868697166443, -0.0658327117562294, -0.12023735046386719, 1.486083984375, 1.47509765625, 0.147857666015625, 1.493408203125
40814, 6.340578079223633, -6.568836688995361, 3.544861316680908, -0.013004451058804989, 0.0111467856913805, -29.814395904541016, -0.05363643914461136, 0.045924704521894455, -1.5180573463439941, -0.8178956508636475, -0.9687310457229614, 0.05449482053518295, -0.9084656959510551, -0.5051285745828125, 1.7484551484940505, 9362.0, 30146.0, 35388.0, 9362.0, 8.17190170288086, 0.18613751232624054, -0.24772760272026062, -0.1645544171333313, -0.08729642629623413, -0.04648926109075546, 0.9938470125198364, -0.0658327117562294, -0.12023735046386719, 1.486083984375, 1.4208984375, 0.063079833984375, 1.48974609375
40824, 6.340384006500244, -6.568005561828613, 3.5425827503204346, -0.013481919653713703, 0.011555510573089123, -29.8295841217041, -0.04185746982693672, 0.03582004830241203, -1.5194761753082275, -0.8179003596305847, -0.9687371850013733, 0.054484572261571884, -0.8993018926545402, -0.49617689948215116, 1.748681965932246, 9362.0, 30146.0, 35388.0, 9362.0, 8.17190170288086, 0.015113916248083115, -0.023286672309041023, 0.10710278898477554, -0.0870627835392952, -0.045550789684057236, 0.9941114783287048, -0.0658327117562294, -0.12023735046386719, 1.486083984375, 1.450927734375, 0.1063690185546875, 1.48974609375
40834, 6.339707374572754, -6.569643020629883, 3.5427803993225098, -0.013841798529028893, 0.011863363906741142, -29.84478759765625, -0.03011874109506607, 0.025750121101737022, -1.5212340354919434, -0.8178958296775818, -0.9687303900718689, 0.05450332537293434, -0.8985712806921236, -0.49863056688826646, 1.7479825340615447, 9362.0, 30146.0, 35388.0, 9362.0, 8.17190170288086, -0.06826934963464737, 0.2970821261405945, 0.031420011073350906, -0.08784422278404236, -0.0451602078974247, 0.996872067451477, -0.0658327117562294, -0.12023735046386719, 1.486083984375, 1.453857421875, 0.1110687255859375, 1.49853515625
40844, 6.340089321136475, -6.57128381729126, 3.541658401489258, -0.014084389433264732, 0.012070594355463982, -29.860010147094727, -0.01839946210384369, 0.01569589599967003, -1.5231395959854126, -0.8178979158401489, -0.9687220454216003, 0.054491329938173294, -0.9039498083537899, -0.5029622431731298, 1.744142281325444, 9362.0, 30146.0, 35388.0, 9362.0, 8.17190170288086, -0.06879116594791412, 0.3884555697441101, 0.11109911650419235, -0.08886309713125229, -0.04255353659391403, 0.99501633644104, -0.0658327117562294, -0.12023735046386719, 1.486083984375, 1.471435546875, 0.14129638671875, 1.49853515625
40854, 6.340127944946289, -6.575378894805908, 3.5418574810028076, -0.014209586195647717, 0.012177128344774246, -29.8752498626709, -0.006640163250267506, 0.005610582884401083, -1.5247375965118408, -0.817896842956543, -0.9687387347221375, 0.05449339374899864, -0.9023652776560939, -0.49614561906392396, 1.7490350676454394, 9362.0, 30146.0, 35388.0, 9362.0, 8.17190170288086, 0.2054840326309204, 0.10972921550273895, -0.18498241901397705, -0.08989746123552322, -0.04484526813030243, 0.9931265711784363, -0.0658327117562294, -0.12023735046386719, 1.486083984375, 1.437744140625, 0.086029052734375, 1.49560546875
40864, 6.3410868644714355, -6.577915191650391, 3.540207624435425, -0.01421720813959837, 0.012182831764221191, -29.890504837036133, 0.0051156883127987385, -0.004469882231205702, -1.526387333869934, -0.8178974390029907, -0.9687312841415405, 0.05451112240552902, -0.9025609359572189, -0.49921898173556656, 1.7432964412254928, 9362.0, 30146.0, 35388.0, 9362.0, 8.17190170288086, 0.014786802232265472, -0.08933960646390915, -0.23892730474472046, -0.09049481898546219, -0.04528864845633507, 0.9939549565315247, -0.0658327117562294, -0.12023735046386719, 1.486083984375, 1.452392578125, 0.10870361328125, 1.49560546875
40874, 6.340636730194092, -6.579084396362305, 3.5376248359680176, -0.014107365161180496, 0.01208784244954586, -29.905778884887695, 0.016852589324116707, -0.014528406783938408, -1.5282471179962158, -0.8179635405540466, -0.9687708020210266, 0.054474975913763046, -0.8975400211584211, -0.4955949539004507, 1.727679986028165, 9362.0, 30146.0, 35388.0, 9362.0, 8.17190170288086, 0.14444340765476227, -0.0988461971282959, 0.15520673990249634, -0.08903232961893082, -0.043904900550842285, 0.9951427578926086, -0.0658327117562294, -0.12023735046386719, 1.486083984375, 1.434814453125, 0.081787109375, 1.493408203125
40884, 6.341897964477539, -6.57943868637085, 3.538656711578369, -0.01388008426874876, 0.011892217211425304, -29.921070098876953, 0.0286032035946846, -0.02459716796875, -1.5300273895263672, -0.8179572224617004, -0.9687474370002747, 0.05444630607962608, -0.8856383370875568, -0.48149665349708926, 1.7295288260415547, 9362.0, 30146.0, 35388.0, 9362.0, 8.17190170288086, 0.065787173807621, -0.4122972786426544, -0.20977140963077545, -0.08907997608184814, -0.04532817006111145, 0.9943981766700745, -0.0658327117562294, -0.12023735046386719, 1.486083984375, 1.4970703125, 0.18975830078125, 1.493408203125
40894, 6.34334659576416, -6.577355861663818, 3.5371944904327393, -0.013535261154174805, 0.01159588247537613, -29.936378479003906, 0.040361467748880386, -0.03466959670186043, -1.531761884689331, -0.8179401755332947, -0.9687334895133972, 0.05445592850446701, -0.8904120084234064, -0.481039087605609, 1.727616368389312, 9362.0, 30146.0, 35388.0, 9362.0, 8.17190170288086, -0.06527425348758698, -0.19410522282123566, 0.08361376821994781, -0.08873073756694794, -0.04665178433060646, 0.9921522736549377, -0.0658327117562294, -0.12023735046386719, 1.486083984375, 1.478759765625, 0.1546478271484375, 1.496337890625
40904, 6.343489646911621, -6.576272487640381, 3.538011074066162, -0.013072865083813667, 0.01119882520288229, -29.951704025268555, 0.05211751535534859, -0.04474208503961563, -1.5335190296173096, -0.8179380297660828, -0.9687222838401794, 0.05442177504301071, -0.8978749344366275, -0.4815491358295958, 1.7378059208833139, 9362.0, 30146.0, 35388.0, 9362.0, 8.17190170288086, 0.2252257764339447, 0.28925785422325134, 0.06432186812162399, -0.08837364614009857, -0.04653256759047508, 0.9940716624259949, -0.084322489798069, -0.030637741088867188, 1.493408203125, 1.5029296875, 0.201446533203125, 1.496337890625
40914, 6.345195770263672, -6.577526092529297, 3.5399367809295654, -0.012493038550019264, 0.010701124556362629, -29.96704864501953, 0.06384791433811188, -0.05479782819747925, -1.5354599952697754, -0.8179447054862976, -0.9687278270721436, 0.05442602187395096, -0.8966424909004028, -0.48329527411488016, 1.7298207590703925, 9362.0, 30146.0, 35388.0, 9362.0, 8.17190170288086, -0.1541958451271057, 0.27312687039375305, 0.2311454564332962, -0.09036533534526825, -0.04609052464365959, 0.9943854212760925, -0.084322489798069, -0.030637741088867188, 1.493408203125, 1.49267578125, 0.1811065673828125, 1.48681640625
40924, 6.345353603363037, -6.578359127044678, 3.542597770690918, -0.011795899830758572, 0.010102851316332817, -29.982412338256836, 0.07557998597621918, -0.06485635042190552, -1.5373742580413818, -0.8179333806037903, -0.968734085559845, 0.054432932287454605, -0.9011452876411159, -0.48377335707587577, 1.7349260127900425, 9362.0, 30146.0, 35388.0, 9362.0, 8.17190170288086, 0.16000697016716003, -0.3558177351951599, -0.2675608694553375, -0.09057414531707764, -0.04492052271962166, 0.9921002984046936, -0.084322489798069, -0.030637741088867188, 1.493408203125, 1.47509765625, 0.147857666015625, 1.48681640625
40934, 6.346118450164795, -6.57706880569458, 3.541712760925293, -0.010981312952935696, 0.009403882548213005, -29.99779510498047, 0.08733787387609482, -0.07493681460618973, -1.5391004085540771, -0.8179669380187988, -0.9687286019325256, 0.05440881848335266, -0.9047989380904004, -0.47523770231507, 1.7344014113857256, 9362.0, 30146.0, 35388.0, 9362.0, 8.17190170288086, -0.02559850923717022, -0.47536787390708923, -0.13896435499191284, -0.08944293111562729, -0.04480462893843651, 0.9930840730667114, -0.084322489798069, -0.030637741088867188, 1.493408203125, 1.452392578125, 0.10870361328125, 1.4912109375
40944, 6.3460211753845215, -6.574467182159424, 3.5407068729400635, -0.010049293749034405, 0.008604245260357857, -30.01319694519043, 0.09906578063964844, -0.08499087393283844, -1.5410823822021484, -0.817975640296936, -0.9687113761901855, 0.05438430607318878, -0.917017638225711, -0.45561160573382153, 1.7299776272409848, 9362.0, 30146.0, 35388.0, 9362.0, 8.17190170288086, -0.19524723291397095, 0.2822754681110382, 0.19461040198802948, -0.09002408385276794, -0.044463783502578735, 0.9954245686531067, -0.084322489798069, -0.030637741088867188, 1.493408203125, 1.423828125, 0.066802978515625, 1.4912109375
40954, 6.345252990722656, -6.576455593109131, 3.5429348945617676, -0.008999966084957123, 0.007704023737460375, -30.02861785888672, 0.11079976707696915, -0.09505357593297958, -1.542995810508728, -0.8179680109024048, -0.9687108993530273, 0.05436082184314728, -0.9244010565876322, -0.4577309610761233, 1.7168250319369536, 9362.0, 30146.0, 35388.0, 9362.0, 8.17190170288086, -0.11503865569829941, 0.07181136310100555, -0.009264379739761353, -0.0895499587059021, -0.04281645640730858, 0.9953227639198303, -0.084322489798069, -0.030637741088867188, 1.493408203125, 1.459716796875, 0.120849609375, 1.49560546875
40964, 6.3455681800842285, -6.578613758087158, 3.5443708896636963, -0.007833202369511127, 0.006703071296215057, -30.044055938720703, 0.12255337834358215, -0.10513637959957123, -1.544715166091919, -0.8179661631584167, -0.9686957001686096, 0.0543498620390892, -0.9179436114071893, -0.4544401732471215, 1.7183672048599195, 9362.0, 30146.0, 35388.0, 9362.0, 8.17190170288086, 0.1950630098581314, -0.14286918938159943, -0.33991438150405884, -0.0907214879989624, -0.04479549452662468, 0.9968419075012207, -0.084322489798069, -0.030637741088867188, 1.493408203125, 1.4853515625, 0.1669921875, 1.49560546875
40974, 6.346362590789795, -6.578282356262207, 3.542390823364258, -0.006548872217535973, 0.005601291079074144, -30.059511184692383, 0.13431286811828613, -0.11521937698125839, -1.5464155673980713, -0.81796795129776, -0.9686989188194275, 0.0543791763484478, -0.9147361267505367, -0.4556284177382395, 1.7239414427491146, 9362.0, 30146.0, 35388.0, 9362.0, 8.17190170288086, 0.030034944415092468, -0.21017210185527802, -0.004340852610766888, -0.08964108675718307, -0.04440758749842644, 0.9954310059547424, -0.084322489798069, -0.030637741088867188, 1.493408203125, 1.46630859375, 0.132171630859375, 1.496337890625
40984, 6.34734582901001, -6.576189041137695, 3.5431969165802, -0.005146834068000317, 0.004398600663989782, -30.074983596801758, 0.146094411611557, -0.12531912326812744, -1.54796302318573, -0.8179691433906555, -0.9687137007713318, 0.054378800094127655, -0.9124757889760364, -0.4543625521253034, 1.7265198850739996, 9362.0, 30146.0, 35388.0, 9362.0, 8.17190170288086, 0.009149395860731602, -0.47245168685913086, -0.20485569536685944, -0.0901125818490982, -0.04380123317241669, 0.995388388633728, -0.084322489798069, -0.030637741088867188, 1.493408203125, 1.400390625, 0.04034423828125, 1.496337890625
40994, 6.346718788146973, -6.5718584060668945, 3.5415968894958496, -0.003627066034823656, 0.0030949735082685947, -30.090471267700195, 0.15785937011241913, -0.13540615141391754, -1.5496429204940796, -0.8179610967636108, -0.9686976075172424, 0.054365333169698715, -0.9124097114404172, -0.45652249788210497, 1.7161773411025094, 9362.0, 30146.0, 35388.0, 9362.0, 8.17190170288086, -0.08965247869491577, 0.13783036172389984, 0.2648516595363617, -0.09007365256547928, -0.04458870366215706, 0.9960896372795105, -0.084322489798069, -0.030637741088867188, 1.493408203125, 1.47509765625, 0.147857666015625, 1.496337890625
41004, 6.346817493438721, -6.571739196777344, 3.543926477432251, -0.001989675685763359, 0.0016904771327972412, -30.105976104736328, 0.16961857676506042, -0.14549347758293152, -1.5513404607772827, -0.8179687261581421, -0.968706488609314, 0.05436616763472557, -0.9135086742689578, -0.4646674773195514, 1.7248868576381684, 9362.0, 30146.0, 35388.0, 9362.0, 8.17190170288086, 0.2708084285259247, 0.15887871384620667, -0.015203163027763367, -0.08773605525493622, -0.043404560536146164, 0.995341420173645, -0.07898057252168655, -0.08439826965332031, 1.489013671875, 1.455322265625, 0.1134796142578125, 1.496337890625
41014, 6.348453044891357, -6.5726494789123535, 3.544403076171875, -0.00023469608277082443, 0.00018507824279367924, -30.121498107910156, 0.18137772381305695, -0.15558582544326782, -1.552979588508606, -0.8179672956466675, -0.9687097668647766, 0.054388001561164856, -0.9135760840602686, -0.4626927085026864, 1.7200968332434763, 9362.0, 30146.0, 35388.0, 9362.0, 8.17190170288086, -0.0018682661466300488, 0.08725099265575409, 0.06542964279651642, -0.08954469114542007, -0.044266100972890854, 0.9944728016853333, -0.07898057252168655, -0.08439826965332031, 1.489013671875, 1.4208984375, 0.063079833984375, 1.493408203125
41024, 6.348674297332764, -6.5731072425842285, 3.545062303543091, 0.0016378305153921247, -0.0014212034875527024, -30.13703727722168, 0.19312763214111328, -0.16567037999629974, -1.5546945333480835, -0.8179637789726257, -0.968706488609314, 0.05437557026743889, -0.9210796677112464, -0.45853403105982693, 1.7290776389667806, 9362.0, 30146.0, 35388.0, 9362.0, 8.17190170288086, 0.1678181290626526, 0.04789339378476143, -0.08915391564369202, -0.08652391284704208, -0.04277773201465607, 0.9947283267974854, -0.07898057252168655, -0.08439826965332031, 1.489013671875, 1.42822265625, 0.0726470947265625, 1.493408203125
41034, 6.349156856536865, -6.57341194152832, 3.5441110134124756, 0.0036278488114476204, -0.0031283297576010227, -30.1525936126709, 0.2048761248588562, -0.17575471103191376, -1.5564353466033936, -0.8179702162742615, -0.9687061309814453, 0.05436169356107712, -0.9141759301045761, -0.45663455371285977, 1.724929108543266, 9362.0, 30146.0, 35388.0, 9362.0, 8.17190170288086, 0.015977958217263222, -0.3537246882915497, -0.049423862248659134, -0.08804873377084732, -0.04476900398731232, 0.9957054853439331, -0.07898057252168655, -0.08439826965332031, 1.489013671875, 1.475830078125, 0.1492767333984375, 1.49560546875
41044, 6.34891414642334, -6.5714311599731445, 3.544783353805542, 0.005735325627028942, -0.00493627367541194, -30.168167114257812, 0.21661901473999023, -0.18583427369594574, -1.5582276582717896, -0.8179624080657959, -0.9687058329582214, 0.05437931418418884, -0.9159423760748038, -0.4600746922305632, 1.7319259051128828, 9362.0, 30146.0, 35388.0, 9362.0, 8.17190170288086, 0.22557561099529266, 0.2200876772403717, -0.12111833691596985, -0.08936025947332382, -0.044661760330200195, 0.9944177865982056, -0.07898057252168655, -0.08439826965332031, 1.489013671875, 1.44873046875, 0.102813720703125, 1.49560546875
41054, 6.349641799926758, -6.5728349685668945, 3.5444488525390625, 0.007960314862430096, -0.006845087744295597, -30.183757781982422, 0.22837895154953003, -0.1959284245967865, -1.55988609790802, -0.8179659247398376, -0.9687052965164185, 0.05437126383185387, -0.9179915202226155, -0.45769805699868016, 1.7249711726525223, 9362.0, 30146.0, 35388.0, 9362.0, 8.17190170288086, -0.20255146920681, 0.06408952921628952, 0.023761043325066566, -0.08821099996566772, -0.04425434395670891, 0.992962121963501, -0.07898057252168655, -0.08439826965332031, 1.489013671875, 1.440673828125, 0.090423583984375, 1.491943359375
41064, 6.349024772644043, -6.571699619293213, 3.5435822010040283, 0.010302814655005932, -0.008854780346155167, -30.199365615844727, 0.24012096226215363, -0.20601004362106323, -1.5616627931594849, -0.8179569840431213, -0.9687002897262573, 0.05437757074832916, -0.9175578795403821, -0.45255244914699233, 1.7258257010827884, 9362.0, 30146.0, 35388.0, 9362.0, 8.17190170288086, 0.13403211534023285, -0.21055282652378082, -0.11631377041339874, -0.09128694236278534, -0.04488126561045647, 0.9963155388832092, -0.07898057252168655, -0.08439826965332031, 1.489013671875, 1.46044921875, 0.12200927734375, 1.491943359375
41074, 6.349733352661133, -6.5710859298706055, 3.5422163009643555, 0.01276266947388649, -0.010965228080749512, -30.21499252319336, 0.25184983015060425, -0.2160797119140625, -1.5635663270950317, -0.8179639577865601, -0.9687069654464722, 0.0543801486492157, -0.9175006912680372, -0.45754958181791494, 1.7243072546675455, 9362.0, 30146.0, 35388.0, 9362.0, 8.17190170288086, 0.08019383251667023, 0.10922473669052124, -0.15508000552654266, -0.0919790267944336, -0.04454861953854561, 0.9937089681625366, -0.07898057252168655, -0.08439826965332031, 1.489013671875, 1.47802734375, 0.1532745361328125, 1.494873046875
41084, 6.349693775177002, -6.57276725769043, 3.5417160987854004, 0.015339944511651993, -0.013176491484045982, -30.230636596679688, 0.26360514760017395, -0.2261732518672943, -1.5652352571487427, -0.8179699182510376, -0.9687064290046692, 0.054369211196899414, -0.920318551716794, -0.4576214970534238, 1.7238250929823695, 9362.0, 30146.0, 35388.0, 9362.0, 8.17190170288086, 0.10534556210041046, -0.1073756217956543, -0.35604220628738403, -0.08894217014312744, -0.04357825219631195, 0.9940945506095886, -0.07898057252168655, -0.08439826965332031, 1.489013671875, 1.4970703125, 0.18975830078125, 1.494873046875
41094, 6.34932279586792, -6.572865962982178, 3.5395262241363525, 0.018034687265753746, -0.015488628298044205, -30.24629783630371, 0.2753430902957916, -0.23625431954860687, -1.5670366287231445, -0.8179684281349182, -0.9687097668647766, 0.054375577718019485, -0.916483680934752, -0.4582413638046319, 1.7283717196988346, 9362.0, 30146.0, 35388.0, 9362.0, 8.17190170288086, 0.020071011036634445, 0.08383873850107193, -0.143185093998909, -0.08876843005418777, -0.04378074035048485, 0.9955896139144897, -0.07898057252168655, -0.08439826965332031, 1.489013671875, 1.459716796875, 0.120849609375, 1.49853515625
41104, 6.349483966827393, -6.575517177581787, 3.5384702682495117, 0.020846787840127945, -0.017901545390486717, -30.261978149414062, 0.2870766818523407, -0.24632962048053741, -1.5688954591751099, -0.8179717063903809, -0.9686967730522156, 0.054371871054172516, -0.92113027353644, -0.46085458112452216, 1.7248630751198286, 9362.0, 30146.0, 35388.0, 9362.0, 8.17190170288086, -0.1038161888718605, 0.06630023568868637, -0.3058985769748688, -0.08895452320575714, -0.04356531426310539, 0.9959062337875366, -0.08352915197610855, -0.09335899353027344, 1.48828125, 1.486083984375, 0.16845703125, 1.49853515625
41114, 6.348714828491211, -6.576906681060791, 3.536245107650757, 0.023776326328516006, -0.020415302366018295, -30.27767562866211, 0.29883065819740295, -0.25642216205596924, -1.5705853700637817, -0.8179653286933899, -0.9687013030052185, 0.05436565726995468, -0.9193054836178493, -0.45865992289333235, 1.7255434093566655, 9362.0, 30146.0, 35388.0, 9362.0, 8.17190170288086, -0.06369451433420181, -0.013873713091015816, 0.0033352680038660765, -0.08976388722658157, -0.04385830834507942, 0.9951598048210144, -0.08352915197610855, -0.09335899353027344, 1.48828125, 1.482421875, 0.161529541015625, 1.49560546875
41124, 6.3487372398376465, -6.57792329788208, 3.535740613937378, 0.026823434978723526, -0.02302999421954155, -30.29339027404785, 0.3105907738208771, -0.2665168344974518, -1.5722599029541016, -0.8179619908332825, -0.9686999917030334, 0.05436396971344948, -0.9211307201259499, -0.4599146660894746, 1.7290248028252553, 9362.0, 30146.0, 35388.0, 9362.0, 8.17190170288086, 0.052065640687942505, 0.1989402174949646, 0.3459199368953705, -0.08882630616426468, -0.043550603091716766, 0.99363112449646, -0.08352915197610855, -0.09335899353027344, 1.48828125, 1.464111328125, 0.1283111572265625, 1.49560546875
41134, 6.349011421203613, -6.578993797302246, 3.537477970123291, 0.029988130554556847, -0.025745607912540436, -30.30912208557129, 0.32234829664230347, -0.2766060531139374, -1.5739728212356567, -0.8179645538330078, -0.9687030911445618, 0.05435810983181, -0.9183747721314384, -0.46141423850505703, 1.72286586470721, 9362.0, 30146.0, 35388.0, 9362.0, 8.17190170288086, -0.2039039134979248, 0.05006022751331329, -0.12762752175331116, -0.08998381346464157, -0.04502858221530914, 0.9915463328361511, -0.08352915197610855, -0.09335899353027344, 1.48828125, 1.4033203125, 0.043182373046875, 1.49267578125
41144, 6.347658157348633, -6.579473972320557, 3.5353126525878906, 0.03327035903930664, -0.028562070801854134, -30.324871063232422, 0.3340977728366852, -0.2866863012313843, -1.575769066810608, -0.817965030670166, -0.968691349029541, 0.0543622188270092, -0.918032858694627, -0.4598456302363445, 1.7282681419595325, 9362.0, 30146.0, 35388.0, 9362.0, 8.17190170288086, 0.22196391224861145, 0.11416161805391312, 0.039173759520053864, -0.08785570412874222, -0.045547861605882645, 0.9921134114265442, -0.08352915197610855, -0.09335899353027344, 1.48828125, 1.412109375, 0.0526123046875, 1.49267578125
41154, 6.349109649658203, -6.580702304840088, 3.535407304763794, 0.03666994720697403, -0.031479209661483765, -30.340639114379883, 0.34581929445266724, -0.29674211144447327, -1.5778061151504517, -0.8179553151130676, -0.9687001705169678, 0.05438365414738655, -0.9164964521395396, -0.45954040119846695, 1.7254624924645126, 9362.0, 30146.0, 35388.0, 9362.0, 8.17190170288086, -0.030627049505710602, 0.5002308487892151, 0.06772387027740479, -0.08891940861940384, -0.0463622510433197, 0.9924991130828857, -0.08352915197610855, -0.09335899353027344, 1.48828125, 1.4765625, 0.1505584716796875, 1.49267578125
41164, 6.348514556884766, -6.584149360656738, 3.5349061489105225, 0.040186744183301926, -0.034496892243623734, -30.356428146362305, 0.3575403094291687, -0.30679458379745483, -1.5798524618148804, -0.8179536461830139, -0.9686947464942932, 0.05436026677489281, -0.9149106290995889, -0.45865858948178584, 1.7293173396172699, 9362.0, 30146.0, 35388.0, 9362.0, 8.17190170288086, 0.016614867374300957, 0.11303334683179855, -0.13173110783100128, -0.09111496061086655, -0.04653229936957359, 0.9950984716415405, -0.08352915197610855, -0.09335899353027344, 1.48828125, 1.496337890625, 0.1883087158203125, 1.49267578125
41174, 6.348862648010254, -6.58410120010376, 3.5335285663604736, 0.0438208170235157, -0.037615157663822174, -30.372236251831055, 0.36927399039268494, -0.31685855984687805, -1.5818133354187012, -0.8179528713226318, -0.9687091708183289, 0.05434764176607132, -0.9220157439289942, -0.4597101678430988, 1.7172502815420216, 9362.0, 30146.0, 35388.0, 9362.0, 8.17190170288086, 0.08276073634624481, -0.013368180021643639, -0.4172306954860687, -0.08972363919019699, -0.045419640839099884, 0.9924852848052979, -0.08352915197610855, -0.09335899353027344, 1.48828125, 1.4443359375, 0.0959930419921875, 1.4970703125
41184, 6.348674297332764, -6.584359645843506, 3.53163480758667, 0.04757234454154968, -0.040834132581949234, -30.388063430786133, 0.3810310363769531, -0.3269367516040802, -1.583627700805664, -0.8179749846458435, -0.9686955213546753, 0.054350122809410095, -0.9138104084837693, -0.4649318846641677, 1.724865321377609, 9362.0, 30146.0, 35388.0, 9362.0, 8.17190170288086, 0.05062943324446678, 0.21459539234638214, 0.013052692636847496, -0.08812931925058365, -0.043683409690856934, 0.9934974312782288, -0.08352915197610855, -0.09335899353027344, 1.48828125, 1.469970703125, 0.1386566162109375, 1.4970703125
41194, 6.349838733673096, -6.585705280303955, 3.5311992168426514, 0.05144138261675835, -0.044153843075037, -30.40390968322754, 0.3927761912345886, -0.3370058536529541, -1.5855374336242676, -0.8179537057876587, -0.9686961770057678, 0.054373860359191895, -0.9186351098618829, -0.46194582407511575, 1.7277268277971547, 9362.0, 30146.0, 35388.0, 9362.0, 8.17190170288086, 0.08998087793588638, -0.41046786308288574, -0.08028877526521683, -0.08977825939655304, -0.04446711391210556, 0.9971575736999512, -0.08352915197610855, -0.09335899353027344, 1.48828125, 1.469970703125, 0.1386566162109375, 1.496337890625
41214, 6.351387977600098, -6.586022853851318, 3.5306808948516846, 0.05542788282036781, -0.047574255615472794, -30.419775009155273, 0.4045238494873047, -0.3470767140388489, -1.587429404258728, -0.8179686069488525, -0.9687018990516663, 0.05435875803232193, -0.9178710472312729, -0.46013159774713586, 1.7259175123571704, 9362.0, 30146.0, 35388.0, 9362.0, 8.17190170288086, -0.11056796461343765, -0.4664725065231323, -0.10284120589494705, -0.08820547163486481, -0.04539187625050545, 0.9937370419502258, -0.07660030573606491, 0.06792068481445312, 1.50146484375, 1.477294921875, 0.1519775390625, 1.49560546875
41234, 6.349763870239258, -6.582812309265137, 3.530649423599243, 0.06375402212142944, -0.05471784248948097, -30.451555252075195, 0.428085595369339, -0.3672797977924347, -1.590671181678772, -0.8179609179496765, -0.968708872795105, 0.05435677990317345, -0.9105393420108868, -0.46261982216697106, 1.7230313116386626, 9362.0, 30146.0, 35388.0, 9362.0, 8.17190170288086, -0.025596387684345245, -0.12054222822189331, -0.10278386622667313, -0.0882805734872818, -0.04469476267695427, 0.994860827922821, -0.07660030573606491, 0.06792068481445312, 1.50146484375, 1.4794921875, 0.155975341796875, 1.493408203125
41244, 6.349020957946777, -6.581198692321777, 3.530719757080078, 0.07255098223686218, -0.06226515769958496, -30.4834041595459, 0.45161768794059753, -0.38745877146720886, -1.5941709280014038, -0.8179713487625122, -0.9686951041221619, 0.05433833599090576, -0.914517217867658, -0.46225292814753516, 1.7244674447379618, 9362.0, 30146.0, 35388.0, 9362.0, 8.17190170288086, 0.23083442449569702, -0.11531536281108856, 0.02176937460899353, -0.08917108178138733, -0.04560215026140213, 0.9947651028633118, -0.07660030573606491, 0.06792068481445312, 1.50146484375, 1.4794921875, 0.155975341796875, 1.493408203125
41324, 6.351192474365234, -6.57750129699707, 3.534872531890869, 0.11244407296180725, -0.09649024903774261, -30.611494064331055, 0.5456839799880981, -0.46815189719200134, -1.6082313060760498, -0.8179729580879211, -0.9686984419822693, 0.05435606464743614, -0.915924999991942, -0.45582049654277057, 1.7178727451186846, 9362.0, 30146.0, 35388.0, 9362.0, 8.17190170288086, -4.2116564145544544e-05, 0.019719941541552544, 0.12103942036628723, -0.09142427146434784, -0.041569385677576065, 0.9941881895065308, -0.06959787756204605, -0.10231781005859375, 1.487548828125, 1.475830078125, 0.1492767333984375, 1.496337890625
41334, 6.352608680725098, -6.577334403991699, 3.5351333618164062, 0.11244407296180725, -0.09649024903774261, -30.611494064331055, 0.5456839799880981, -0.46815189719200134, -1.6082313060760498, -0.8179662823677063, -0.9686948657035828, 0.05434530973434448, -0.919426342931997, -0.46010063303705806, 1.7262453505938768, 9362.0, 30146.0, 35388.0, 9362.0, 8.17190170288086, 0.05811507999897003, -0.13238133490085602, 0.13324972987174988, -0.09077714383602142, -0.04299397021532059, 0.9949266314506531, -0.06959787756204605, -0.10231781005859375, 1.487548828125, 1.475830078125, 0.1492767333984375, 1.496337890625
41344, 6.352798938751221, -6.577615261077881, 3.536341667175293, 0.1235927939414978, -0.10605504363775253, -30.643693923950195, 0.5691902041435242, -0.4883294105529785, -1.611742615699768, -0.8179596662521362, -0.9686986207962036, 0.0543413981795311, -0.9192202720855456, -0.4609892888890954, 1.7236385679605108, 9362.0, 30146.0, 35388.0, 9362.0, 8.17190170288086, -0.13169656693935394, -0.17737409472465515, -0.21937309205532074, -0.0879550650715828, -0.0467982292175293, 0.9953514933586121, -0.06959787756204605, -0.10231781005859375, 1.487548828125, 1.405517578125, 0.0454254150390625, 1.496337890625
41354, 6.352177619934082, -6.577470779418945, 3.534764528274536, 0.1235927939414978, -0.10605504363775253, -30.643693923950195, 0.5691902041435242, -0.4883294105529785, -1.611742615699768, -0.8179677128791809, -0.9686971306800842, 0.05435141548514366, -0.9163085164791899, -0.45993036270311904, 1.729489642657214, 9362.0, 30146.0, 35388.0, 9362.0, 8.17190170288086, 0.19407576322555542, -0.4025152623653412, -0.1583578735589981, -0.08933936804533005, -0.04365664720535278, 0.995749294757843, -0.06959787756204605, -0.10231781005859375, 1.487548828125, 1.4326171875, 0.0786895751953125, 1.493408203125
41364, 6.353333950042725, -6.57452392578125, 3.531797170639038, 0.1235927939414978, -0.10605504363775253, -30.643693923950195, 0.5691902041435242, -0.4883294105529785, -1.611742615699768, -0.8179671764373779, -0.9687027335166931, 0.0543462373316288, -0.9151850747592929, -0.45862858577945076, 1.7187192493239982, 9362.0, 30146.0, 35388.0, 9362.0, 8.17190170288086, -0.21393732726573944, -0.20541080832481384, 0.34579652547836304, -0.08954478800296783, -0.04381145164370537, 0.996971070766449, -0.06959787756204605, -0.10231781005859375, 1.487548828125, 1.4326171875, 0.0786895751953125, 1.493408203125
41374, 6.353311061859131, -6.5731306076049805, 3.5321128368377686, 0.1411975473165512, -0.1211591437458992, -30.69212532043457, 0.6044638156890869, -0.5186154246330261, -1.61690092086792, -0.8179705739021301, -0.968695878982544, 0.054343853145837784, -0.9174249498115303, -0.4611875908986178, 1.73225097421508, 9362.0, 30146.0, 35388.0, 9362.0, 8.17190170288086, -0.0885416567325592, 0.2570628523826599, 0.41329026222229004, -0.0878976583480835, -0.0445781834423542, 0.9972217679023743, -0.06959787756204605, -0.10231781005859375, 1.487548828125, 1.412109375, 0.0526123046875, 1.493408203125
41384, 6.354757785797119, -6.574092388153076, 3.5336201190948486, 0.14730103313922882, -0.12639585137367249, -30.708301544189453, 0.6162323355674744, -0.5287266969680786, -1.6184887886047363, -0.8179583549499512, -0.9686926007270813, 0.054345887154340744, -0.9178188703935919, -0.4630792370468839, 1.7250438753859578, 9362.0, 30146.0, 35388.0, 9362.0, 8.17190170288086, -0.21753616631031036, -0.04824667051434517, -0.03466678038239479, -0.08805271983146667, -0.04532530903816223, 0.9946972131729126, -0.06959787756204605, -0.10231781005859375, 1.487548828125, 1.428955078125, 0.073577880859375, 1.493408203125
41394, 6.353592872619629, -6.573544502258301, 3.5327088832855225, 0.14730103313922882, -0.12639585137367249, -30.708301544189453, 0.6162323355674744, -0.5287266969680786, -1.6184887886047363, -0.8179571032524109, -0.9686976671218872, 0.054346032440662384, -0.9197539356417062, -0.46443116518020133, 1.72220006822024, 9362.0, 30146.0, 35388.0, 9362.0, 8.17190170288086, 0.06806880980730057, 0.25698351860046387, -0.3574084937572479, -0.09015157073736191, -0.04468892887234688, 0.9964807629585266, -0.06959787756204605, -0.10231781005859375, 1.487548828125, 1.494873046875, 0.185455322265625, 1.4970703125
41414, 6.354052543640137, -6.575540065765381, 3.5279884338378906, 0.1663174033164978, -0.1427125781774521, -30.756929397583008, 0.6515184044837952, -0.5590502619743347, -1.6233776807785034, -0.8179561495780945, -0.9686961770057678, 0.05434058979153633, -0.9185727996879831, -0.4591504950224987, 1.7195459649054636, 9362.0, 30146.0, 35388.0, 9362.0, 8.17190170288086, -0.09233015030622482, -0.13575540482997894, 0.029985303059220314, -0.08791660517454147, -0.045971017330884933, 0.99629807472229, -0.06959787756204605, -0.10231781005859375, 1.487548828125, 1.456787109375, 0.115966796875, 1.4970703125
41424, 6.353233814239502, -6.57538366317749, 3.527782678604126, 0.17289142310619354, -0.14835363626480103, -30.773170471191406, 0.6632851958274841, -0.5691606402397156, -1.624990701675415, -0.8179622292518616, -0.9686976075172424, 0.05433836579322815, -0.915397649946405, -0.46027287393656025, 1.7223563496664236, 9362.0, 30146.0, 35388.0, 9362.0, 8.17190170288086, -0.1108187586069107, -0.08095591515302658, 0.12015487998723984, -0.0882309302687645, -0.046525757759809494, 0.9960170388221741, -0.06959787756204605, -0.10231781005859375, 1.487548828125, 1.433349609375, 0.0797576904296875, 1.4970703125
41434, 6.353270530700684, -6.574387550354004, 3.5285520553588867, 0.17289142310619354, -0.14835363626480103, -30.773170471191406, 0.6632851958274841, -0.5691606402397156, -1.624990701675415, -0.8179563283920288, -0.9687037467956543, 0.0543380081653595, -0.9101068282981198, -0.4643341427822065, 1.730077486729356, 9362.0, 30146.0, 35388.0, 9362.0, 8.17190170288086, 0.10824888199567795, 0.11522950232028961, -0.2221592217683792, -0.08653071522712708, -0.04616964980959892, 0.9937222003936768, -0.06959787756204605, -0.10231781005859375, 1.487548828125, 1.450927734375, 0.1063690185546875, 1.4970703125
41444, 6.354235649108887, -6.575526714324951, 3.5271570682525635, 0.17289142310619354, -0.14835363626480103, -30.773170471191406, 0.6632851958274841, -0.5691606402397156, -1.624990701675415, -0.8179605007171631, -0.9687018990516663, 0.05435529723763466, -0.9141350428639947, -0.462495669725854, 1.725789807437443, 9362.0, 30146.0, 35388.0, 9362.0, 8.17190170288086, 0.2743850350379944, 0.0024379706010222435, 0.3703082799911499, -0.08753421157598495, -0.046406716108322144, 0.9944069385528564, -0.06959787756204605, -0.10231781005859375, 1.487548828125, 1.47216796875, 0.142547607421875, 1.4970703125
41454, 6.355818748474121, -6.576088905334473, 3.529484748840332, 0.1933194249868393, -0.1658833622932434, -30.821992874145508, 0.6985606551170349, -0.5994709730148315, -1.6300104856491089, -0.817957878112793, -0.9687108397483826, 0.054364386945962906, -0.9123241951534559, -0.4629859511294683, 1.7241168832182754, 9362.0, 30146.0, 35388.0, 9362.0, 8.17190170288086, 0.08555060625076294, -0.21984520554542542, -0.05597439035773277, -0.08753421157598495, -0.046406716108322144, 0.9944069385528564, -0.06959787756204605, -0.10231781005859375, 1.487548828125, 1.47216796875, 0.142547607421875, 1.4970703125
41484, 6.358067035675049, -6.573619842529297, 3.5270094871520996, 0.1933194249868393, -0.1658833622932434, -30.821992874145508, 0.6985606551170349, -0.5994709730148315, -1.6300104856491089, -0.817963719367981, -0.9687018394470215, 0.054351989179849625, -0.9194998576392838, -0.4626221769513279, 1.7180256002490977, 9362.0, 30146.0, 35388.0, 9362.0, 8.17190170288086, 0.10759440064430237, 0.16474153101444244, -0.08651719242334366, -0.09054035693407059, -0.04339926689863205, 0.9945039749145508, -0.06959787756204605, -0.10231781005859375, 1.487548828125, 1.4091796875, 0.04937744140625, 1.4912109375
41494, 6.358382225036621, -6.574203014373779, 3.5261478424072266, 0.22220221161842346, -0.19067040085792542, -30.887331008911133, 0.7455834746360779, -0.6398937702178955, -1.6367865800857544, -0.8179618120193481, -0.9687063694000244, 0.05435178056359291, -0.9109462952839852, -0.45785857790289697, 1.7253520854535132, 9362.0, 30146.0, 35388.0, 9362.0, 8.17190170288086, 0.3059435784816742, -0.39889681339263916, 0.05079871788620949, -0.08760882169008255, -0.04554732143878937, 0.9943962693214417, -0.06959787756204605, -0.10231781005859375, 1.487548828125, 1.4091796875, 0.04937744140625, 1.4912109375
41514, 6.359684467315674, -6.573224067687988, 3.5268115997314453, 0.22971676290035248, -0.1971198320388794, -30.90370750427246, 0.7573254704475403, -0.649993360042572, -1.6385760307312012, -0.817966878414154, -0.9686967134475708, 0.05433855578303337, -0.9168807204812952, -0.4634713166529423, 1.7248195570005818, 9362.0, 30146.0, 35388.0, 9362.0, 8.17190170288086, 0.14951440691947937, 0.212489053606987, 0.21719729900360107, -0.09160370379686356, -0.04351204261183739, 0.996719241142273, -0.06959787756204605, -0.10231781005859375, 1.487548828125, 1.440673828125, 0.090423583984375, 1.493408203125
41534, 6.3602681159973145, -6.576144695281982, 3.530216932296753, 0.24509811401367188, -0.21032170951366425, -30.93651580810547, 0.7808083891868591, -0.6701959371566772, -1.6421525478363037, -0.8179694414138794, -0.9687086939811707, 0.05435261130332947, -0.91927133807398, -0.45864504174929266, 1.7268789821411759, 9362.0, 30146.0, 35388.0, 9362.0, 8.17190170288086, -0.2975385785102844, -0.17192137241363525, 0.2066677361726761, -0.08712703734636307, -0.045963287353515625, 0.9955732822418213, -0.06959787756204605, -0.10231781005859375, 1.487548828125, 1.500732421875, 0.1970977783203125, 1.493408203125
41544, 6.359917640686035, -6.576751232147217, 3.5315001010894775, 0.2609495520591736, -0.2239280492067337, -30.969390869140625, 0.8043414950370789, -0.6904380321502686, -1.645362377166748, -0.8179712891578674, -0.9687156677246094, 0.054334938526153564, -0.9149012830958428, -0.4645275487370384, 1.7279420927896945, 9362.0, 30146.0, 35388.0, 9362.0, 8.17190170288086, 0.12848134338855743, -0.12092307209968567, -0.202212393283844, -0.08729037642478943, -0.044680651277303696, 0.9946090579032898, -0.06959787756204605, -0.10231781005859375, 1.487548828125, 1.500732421875, 0.1970977783203125, 1.493408203125
41594, 6.359956741333008, -6.566808223724365, 3.5262739658355713, 0.2940640449523926, -0.2523546516895294, -31.035341262817383, 0.8513821363449097, -0.7308999300003052, -1.652031421661377, -0.8179692029953003, -0.9687010645866394, 0.054358623921871185, -0.914524352027599, -0.45907176960190554, 1.7218313659424629, 9362.0, 30146.0, 35388.0, 9362.0, 8.17190170288086, -0.062473416328430176, -0.18173688650131226, 0.11701317876577377, -0.09061961621046066, -0.042254142463207245, 0.9939185976982117, -0.06959787756204605, -0.10231781005859375, 1.487548828125, 1.452392578125, 0.10870361328125, 1.4912109375
41614, 6.358762741088867, -6.565668106079102, 3.529670238494873, 0.320133775472641, -0.27473655343055725, -31.084980010986328, 0.8865875601768494, -0.7612183094024658, -1.6573114395141602, -0.8179607391357422, -0.9687026739120483, 0.054360195994377136, -0.9198295885585266, -0.4591648815258793, 1.7225514527368748, 9362.0, 30146.0, 35388.0, 9362.0, 8.17190170288086, -0.11499433219432831, -0.08684826642274857, 0.024121850728988647, -0.08930062502622604, -0.044396694749593735, 0.9946153163909912, -0.09723389148712158, -0.05751800537109375, 1.4912109375, 1.452392578125, 0.10870361328125, 1.4912109375
41624, 6.358069896697998, -6.565450668334961, 3.530965805053711, 0.3290582299232483, -0.2823992073535919, -31.1015625, 0.8983030319213867, -0.7713096141815186, -1.6592069864273071, -0.8179735541343689, -0.9687110781669617, 0.054344892501831055, -0.9170792005042839, -0.45903706503531794, 1.728543844590292, 9362.0, 30146.0, 35388.0, 9362.0, 8.17190170288086, -0.016535677015781403, 0.20796211063861847, -0.2533912658691406, -0.08995936810970306, -0.04433074966073036, 0.993405282497406, -0.09723389148712158, -0.05751800537109375, 1.4912109375, 1.452392578125, 0.10870361328125, 1.4912109375
41634, 6.3580780029296875, -6.56798791885376, 3.529780387878418, 0.3380998969078064, -0.2901628017425537, -31.1181640625, 0.9100320339202881, -0.781409740447998, -1.6609985828399658, -0.8179697394371033, -0.9686927795410156, 0.05435092747211456, -0.9092075557888157, -0.46124588230540553, 1.7240381034999184, 9362.0, 30146.0, 35388.0, 9362.0, 8.17190170288086, 0.10348553210496902, -0.10357096046209335, 0.13273830711841583, -0.08834605664014816, -0.043444398790597916, 0.9954437017440796, -0.09723389148712158, -0.05751800537109375, 1.4912109375, 1.452392578125, 0.10870361328125, 1.4912109375
41644, 6.358694076538086, -6.566946506500244, 3.5301167964935303, 0.3472588360309601, -0.298027366399765, -31.134782791137695, 0.9217532873153687, -0.791502833366394, -1.6628496646881104, -0.817963719367981, -0.968691885471344, 0.05435607582330704, -0.9152536114916244, -0.45910082416918385, 1.7275970134571665, 9362.0, 30146.0, 35388.0, 9362.0, 8.17190170288086, 0.07299312949180603, -0.017739735543727875, -0.2817145884037018, -0.08856722712516785, -0.04442119225859642, 0.9936395883560181, -0.09723389148712158, -0.05751800537109375, 1.4912109375, 1.452392578125, 0.10870361328125, 1.4912109375
41654, 6.358739852905273, -6.566706657409668, 3.527632236480713, 0.35653507709503174, -0.3059929311275482, -31.15142059326172, 0.9334943890571594, -0.8016088008880615, -1.6645734310150146, -0.8179706335067749, -0.9687031507492065, 0.05434243381023407, -0.9151317264195074, -0.4621110999264033, 1.728002696736888, 9362.0, 30146.0, 35388.0, 9362.0, 8.17190170288086, 0.08962911367416382, 0.12570437788963318, 0.27441877126693726, -0.08856722712516785, -0.04442119225859642, 0.9936395883560181, -0.09723389148712158, -0.05751800537109375, 1.4912109375, 1.452392578125, 0.10870361328125, 1.4912109375
41694, 6.361285209655762, -6.573054790496826, 3.529209613800049, 0.36592862010002136, -0.31405946612358093, -31.168075561523438, 0.9452143907546997, -0.8117002844810486, -1.6664519309997559, -0.8179572224617004, -0.9686984419822693, 0.05434860289096832, -0.9175832059447087, -0.4689140284433222, 1.7361024171705264, 9362.0, 30146.0, 35388.0, 9362.0, 8.17190170288086, -0.0865008607506752, -0.036499593406915665, -0.22214746475219727, -0.09009863436222076, -0.04546129330992699, 0.9943414330482483, -0.09723389148712158, -0.05751800537109375, 1.4912109375, 1.40478515625, 0.0446624755859375, 1.494140625
41714, 6.361560344696045, -6.576016902923584, 3.5272560119628906, 0.4146575927734375, -0.3559083640575409, -31.251611709594727, 1.0039585828781128, -0.8622623085975647, -1.6749187707901, -0.8179647326469421, -0.9686964750289917, 0.0543549545109272, -0.9160216028286655, -0.4690083350660643, 1.7251340544213516, 9362.0, 30146.0, 35388.0, 9362.0, 8.17190170288086, 0.08594996482133865, -0.03910939022898674, 0.1173207238316536, -0.09014207124710083, -0.04471419006586075, 0.9960303902626038, -0.09723389148712158, -0.05751800537109375, 1.4912109375, 1.469970703125, 0.1386566162109375, 1.494140625
41724, 6.363032817840576, -6.576323986053467, 3.528036117553711, 0.4146575927734375, -0.3559083640575409, -31.251611709594727, 1.0039585828781128, -0.8622623085975647, -1.6749187707901, -0.8179612755775452, -0.9686950445175171, 0.05435969680547714, -0.9115680261668982, -0.4643610274379739, 1.7272125050967746, 9362.0, 30146.0, 35388.0, 9362.0, 8.17190170288086, 0.013991396874189377, -0.13810178637504578, -0.3857014775276184, -0.08864454180002213, -0.044501762837171555, 0.9955688118934631, -0.09723389148712158, -0.05751800537109375, 1.4912109375, 1.469970703125, 0.1386566162109375, 1.494140625
41764, 6.361456394195557, -6.579256534576416, 3.524454116821289, 0.4557558298110962, -0.3912074863910675, -31.318750381469727, 1.0509870052337646, -0.9027245044708252, -1.6817129850387573, -0.8179540038108826, -0.9686926007270813, 0.05435563623905182, -0.9109230106435697, -0.4635392341431839, 1.7210051561380115, 9362.0, 30146.0, 35388.0, 9362.0, 8.17190170288086, -0.0155490068718791, 8.381363295484334e-05, -0.1625099927186966, -0.09127163887023926, -0.04426011070609093, 0.9933561086654663, -0.09723389148712158, -0.05751800537109375, 1.4912109375, 1.449462890625, 0.103973388671875, 1.494140625
41784, 6.362997055053711, -6.581955432891846, 3.5251200199127197, 0.4878142774105072, -0.4187440872192383, -31.369281768798828, 1.086228847503662, -0.9330314993858337, -1.6871815919876099, -0.817957878112793, -0.9687008261680603, 0.0543571412563324, -0.9139756461655099, -0.45909048533303576, 1.7260271875437723, 9362.0, 30146.0, 35388.0, 9362.0, 8.17190170288086, 0.1428506225347519, -0.3145790994167328, -0.22194592654705048, -0.08849374949932098, -0.043924592435359955, 0.9952147006988525, -0.09723389148712158, -0.05751800537109375, 1.4912109375, 1.449462890625, 0.103973388671875, 1.494140625
41794, 6.363726615905762, -6.58071231842041, 3.523238182067871, 0.4878142774105072, -0.4187440872192383, -31.369281768798828, 1.086228847503662, -0.9330314993858337, -1.6871815919876099, -0.8179589509963989, -0.968691349029541, 0.05435126647353172, -0.9206355259382527, -0.45498741205915394, 1.7234718338611537, 9362.0, 30146.0, 35388.0, 9362.0, 8.17190170288086, 0.0076836454682052135, -0.24820727109909058, -0.12183720618486404, -0.09040747582912445, -0.04400741308927536, 0.9941833019256592, -0.09723389148712158, -0.05751800537109375, 1.4912109375, 1.449462890625, 0.103973388671875, 1.493408203125
41814, 6.363783836364746, -6.581661224365234, 3.520185708999634, 0.5209304094314575, -0.4471901059150696, -31.419973373413086, 1.1215087175369263, -0.9633685350418091, -1.6924128532409668, -0.8179686665534973, -0.968710720539093, 0.05436607077717781, -0.916122022734267, -0.4566601916650086, 1.7241076842916911, 9362.0, 30146.0, 35388.0, 9362.0, 8.17190170288086, 0.216607004404068, -0.3500566780567169, 0.027573326602578163, -0.09040747582912445, -0.04400741308927536, 0.9941833019256592, -0.07338670641183853, -0.030637741088867188, 1.493408203125, 1.449462890625, 0.103973388671875, 1.493408203125
41844, 6.366983413696289, -6.581570148468018, 3.5208091735839844, 0.5209304094314575, -0.4471901059150696, -31.419973373413086, 1.1215087175369263, -0.9633685350418091, -1.6924128532409668, -0.8179652094841003, -0.968695878982544, 0.054345667362213135, -0.9135116853156908, -0.4655500398593233, 1.7246987218965049, 9362.0, 30146.0, 35388.0, 9362.0, 8.17190170288086, 0.1704135686159134, 0.3792651891708374, 0.13108934462070465, -0.08820193260908127, -0.045227982103824615, 0.9954150319099426, -0.07338670641183853, -0.030637741088867188, 1.493408203125, 1.412841796875, 0.0534515380859375, 1.493408203125
41854, 6.368658542633057, -6.583651542663574, 3.522876501083374, 0.5667299628257751, -0.48653286695480347, -31.48781967163086, 1.1684843301773071, -1.0037826299667358, -1.6998629570007324, -0.8179625868797302, -0.9686951637268066, 0.05435694381594658, -0.9182819812572329, -0.46175514224694325, 1.727978708887447, 9362.0, 30146.0, 35388.0, 9362.0, 8.17190170288086, -0.16831745207309723, -0.30185553431510925, -0.1841680407524109, -0.08985091000795364, -0.045517440885305405, 0.9966986179351807, -0.07338670641183853, -0.030637741088867188, 1.493408203125, 1.412841796875, 0.0534515380859375, 1.493408203125
41864, 6.3665642738342285, -6.580367565155029, 3.5219340324401855, 0.5667299628257751, -0.48653286695480347, -31.48781967163086, 1.1684843301773071, -1.0037826299667358, -1.6998629570007324, -0.8179682493209839, -0.9686965942382812, 0.054369498044252396, -0.9185836211939861, -0.46530676494020895, 1.7220362968980838, 9362.0, 30146.0, 35388.0, 9362.0, 8.17190170288086, -0.1786462515592575, 0.06408379971981049, -0.3615128993988037, -0.08907272666692734, -0.043757759034633636, 0.996163547039032, -0.07338670641183853, -0.030637741088867188, 1.493408203125, 1.395263671875, 0.035675048828125, 1.493408203125
41874, 6.365021705627441, -6.580585479736328, 3.520665407180786, 0.5903350710868835, -0.5068110823631287, -31.5218505859375, 1.1920356750488281, -1.0240463018417358, -1.7031445503234863, -0.8179553151130676, -0.968699038028717, 0.05436388775706291, -0.9171693027237178, -0.4656569700306079, 1.7220854416655456, 9362.0, 30146.0, 35388.0, 9362.0, 8.17190170288086, -0.23175881803035736, -0.38353994488716125, 0.4180923402309418, -0.09066630899906158, -0.043528974056243896, 0.9943297505378723, -0.07338670641183853, -0.030637741088867188, 1.493408203125, 1.395263671875, 0.035675048828125, 1.493408203125
41884, 6.364212989807129, -6.577641010284424, 3.522618532180786, 0.5903350710868835, -0.5068110823631287, -31.5218505859375, 1.1920356750488281, -1.0240463018417358, -1.7031445503234863, -0.8179590702056885, -0.9686945080757141, 0.05435792729258537, -0.920812611445808, -0.4573049524874193, 1.7237878128180644, 9362.0, 30146.0, 35388.0, 9362.0, 8.17190170288086, -0.16070234775543213, -0.40130484104156494, -0.052890483289957047, -0.08920449018478394, -0.044584523886442184, 0.9964080452919006, -0.07338670641183853, -0.030637741088867188, 1.493408203125, 1.41796875, 0.05950927734375, 1.493408203125
41894, 6.362955093383789, -6.575146675109863, 3.521479606628418, 0.5903350710868835, -0.5068110823631287, -31.5218505859375, 1.1920356750488281, -1.0240463018417358, -1.7031445503234863, -0.8179598450660706, -0.9687047600746155, 0.05436674505472183, -0.9136208237664019, -0.45907315925379066, 1.7268637546450505, 9362.0, 30146.0, 35388.0, 9362.0, 8.17190170288086, -0.019456684589385986, -0.40508806705474854, -0.18366077542304993, -0.08679202198982239, -0.04673159494996071, 0.9941163659095764, -0.07338670641183853, -0.030637741088867188, 1.493408203125, 1.483154296875, 0.162841796875, 1.4970703125
41914, 6.3623247146606445, -6.5738701820373535, 3.517605781555176, 0.5903350710868835, -0.5068110823631287, -31.5218505859375, 1.1920356750488281, -1.0240463018417358, -1.7031445503234863, -0.8179590702056885, -0.9687036871910095, 0.054350122809410095, -0.9118729613673492, -0.4664288702472845, 1.728838884622314, 9362.0, 30146.0, 35388.0, 9362.0, 8.17190170288086, -0.12634965777397156, 0.07356629520654678, 0.30962511897087097, -0.08842471241950989, -0.04349857568740845, 0.9961208701133728, -0.07338670641183853, -0.030637741088867188, 1.493408203125, 1.4150390625, 0.05596923828125, 1.4970703125
41924, 6.36212158203125, -6.574558258056641, 3.5195417404174805, 0.6514071822166443, -0.5592787265777588, -31.60721778869629, 1.2508084774017334, -1.0746302604675293, -1.7118093967437744, -0.8179566860198975, -0.9687031507492065, 0.054371271282434464, -0.9123841180962772, -0.4601230034359105, 1.717723037728615, 9362.0, 30146.0, 35388.0, 9362.0, 8.17190170288086, 0.01701764389872551, -0.005030658096075058, -0.06045404076576233, -0.08945561945438385, -0.04448277875781059, 0.9917929172515869, -0.07338670641183853, -0.030637741088867188, 1.493408203125, 1.4150390625, 0.05596923828125, 1.4970703125
41934, 6.362472057342529, -6.573784351348877, 3.5189576148986816, 0.6514071822166443, -0.5592787265777588, -31.60721778869629, 1.2508084774017334, -1.0746302604675293, -1.7118093967437744, -0.8179581761360168, -0.96870356798172, 0.05435939133167267, -0.9089559869461074, -0.456033846833634, 1.7205402949468565, 9362.0, 30146.0, 35388.0, 9362.0, 8.17190170288086, 0.12447141110897064, 0.11956869810819626, -0.08268673717975616, -0.08945561945438385, -0.04448277875781059, 0.9917929172515869, -0.07338670641183853, -0.030637741088867188, 1.493408203125, 1.4150390625, 0.05596923828125, 1.4970703125
41954, 6.361662864685059, -6.576866626739502, 3.514399528503418, 0.6894597411155701, -0.5919724702835083, -31.658653259277344, 1.2859944105148315, -1.1049208641052246, -1.717502474784851, -0.8179576992988586, -0.968697190284729, 0.05436565354466438, -0.9122878745556194, -0.45470044703847634, 1.719317539143518, 9362.0, 30146.0, 35388.0, 9362.0, 8.17190170288086, 0.11043327301740646, 0.19847221672534943, -0.25767648220062256, -0.08887325972318649, -0.04441794008016586, 0.9934057593345642, -0.07338670641183853, -0.030637741088867188, 1.493408203125, 1.4150390625, 0.05596923828125, 1.4970703125
41964, 6.362412452697754, -6.578718185424805, 3.513396739959717, 0.6894597411155701, -0.5919724702835083, -31.658653259277344, 1.2859944105148315, -1.1049208641052246, -1.717502474784851, -0.8179562091827393, -0.9686954617500305, 0.054363008588552475, -0.9170082438981128, -0.4631449881926528, 1.720041626419038, 9362.0, 30146.0, 35388.0, 9362.0, 8.17190170288086, -0.21941396594047546, 0.02150661125779152, 0.05211275443434715, -0.08887325972318649, -0.04441794008016586, 0.9934057593345642, -0.07338670641183853, -0.030637741088867188, 1.493408203125, 1.4150390625, 0.05596923828125, 1.4970703125
41984, 6.360953330993652, -6.582542896270752, 3.511462926864624, 0.728568434715271, -0.6255753040313721, -31.710254669189453, 1.3212668895721436, -1.135277509689331, -1.7225852012634277, -0.817951500415802, -0.9687036275863647, 0.05435524880886078, -0.9122013597945756, -0.46098389749818125, 1.7270132871717487, 9362.0, 30146.0, 35388.0, 9362.0, 8.17190170288086, -0.01352253183722496, 0.1488083302974701, -0.07596443593502045, -0.08710721880197525, -0.046424295753240585, 0.999289333820343, -0.07338670641183853, -0.030637741088867188, 1.493408203125, 1.4150390625, 0.05596923828125, 1.4970703125
41994, 6.359771251678467, -6.583603382110596, 3.510793924331665, 0.728568434715271, -0.6255753040313721, -31.710254669189453, 1.3212668895721436, -1.135277509689331, -1.7225852012634277, -0.8179597854614258, -0.9686935544013977, 0.054368916898965836, -0.9196971594367371, -0.46171144390163477, 1.724556860505152, 9362.0, 30146.0, 35388.0, 9362.0, 8.17190170288086, -0.22056926786899567, -0.07362288981676102, -0.16419470310211182, -0.08710721880197525, -0.046424295753240585, 0.999289333820343, -0.07338670641183853, -0.030637741088867188, 1.493408203125, 1.4150390625, 0.05596923828125, 1.491943359375
42064, 6.361420154571533, -6.580032825469971, 3.510357618331909, 0.7552297115325928, -0.6484837532043457, -31.744735717773438, 1.344841718673706, -1.155551791191101, -1.7255990505218506, -0.817957878112793, -0.9686874747276306, 0.05437362939119339, -0.915624538046386, -0.4667108820310091, 1.7227932849236223, 9362.0, 30146.0, 35388.0, 9362.0, 8.17190170288086, 0.10614247620105743, 0.22662264108657837, 0.184602752327919, -0.08920557051897049, -0.04409494251012802, 0.9960856437683105, -0.07338670641183853, -0.030637741088867188, 1.493408203125, 1.475830078125, 0.1492767333984375, 1.49560546875
42084, 6.362620830535889, -6.578290939331055, 3.512281656265259, 0.8665803670883179, -0.7441623210906982, -31.883344650268555, 1.4389586448669434, -1.2364503145217896, -1.739287257194519, -0.8179610967636108, -0.9687064290046692, 0.05435727536678314, -0.9174358476794653, -0.4600012356127081, 1.7243057005044036, 9362.0, 30146.0, 35388.0, 9362.0, 8.17190170288086, 0.1146441102027893, -0.050051841884851456, 0.24292714893817902, -0.09286049008369446, -0.04586997628211975, 0.9958370327949524, -0.07338670641183853, -0.030637741088867188, 1.493408203125, 1.475830078125, 0.1492767333984375, 1.49560546875
42094, 6.364441871643066, -6.577169418334961, 3.512539863586426, 0.8665803670883179, -0.7441623210906982, -31.883344650268555, 1.4389586448669434, -1.2364503145217896, -1.739287257194519, -0.8179583549499512, -0.9687049388885498, 0.05434936285018921, -0.9225709691613314, -0.46653006241717776, 1.7305276507004888, 9362.0, 30146.0, 35388.0, 9362.0, 8.17190170288086, 0.1146441102027893, -0.050051841884851456, 0.24292714893817902, -0.09286049008369446, -0.04586997628211975, 0.9958370327949524, -0.07338670641183853, -0.030637741088867188, 1.493408203125, 1.475830078125, 0.1492767333984375, 1.49560546875
