timeTick, roll, pitch, yaw, stateX, stateY, stateZ, stateVX, stateVY, stateVZ, otX0, otY0, otZ0, otRoll0, otPitch0, otYaw0, left wing, pitch motor, yaw motor, right wing, voltage, roll rate, pitch rate, yaw rate, A_x, A_y, A_z, current, i_raw, v_raw, airflow_voltage, airflow_speed, pot_Pitch
399304, 0.4993855655193329, -2.082148790359497, 0.7010005712509155, 0, 0, 0, 0, 0, 0, -0.00037059548776596785, 0.11163681745529175, 0.24065153300762177, -1.7448111867023992, 1.2234547201146029, -13.150263019600544, 0, 0, 0, 0, 0, 0, 0, 0, 0, 0, 0, 0, 0, 0, 0, 0, 0
399314, 0.49955567717552185, -2.0814337730407715, 0.7005606293678284, 75.76139068603516, -17.800228118896484, -8.3575439453125, 6.377334117889404, -1.4368230104446411, -0.5008198618888855, -0.0004404514329507947, 0.1116468757390976, 0.2406046986579895, -1.7408305972533573, 1.2277919604876217, -13.071858978325999, 9362.0, 35388.0, 35388.0, 9362.0, 8.251240730285645, 0.06013837084174156, 0.12702952325344086, 0.07891645282506943, -0.002688000909984112, -0.06702367961406708, 0.9982172846794128, -0.12314409762620926, -0.09335899353027344, 1.48828125, 0, 0, 0
399324, 0.49857378005981445, -2.080871820449829, 0.701880156993866, 75.82518005371094, -17.814599990844727, -8.362552642822266, 6.380903244018555, -1.4376333951950073, -0.5010069012641907, -0.0004269107012078166, 0.11165826767683029, 0.24061839282512665, -1.77372387107492, 1.2108180136716271, -13.081527500597176, 9362.0, 35388.0, 35388.0, 9362.0, 8.251240730285645, -0.07159176468849182, 0.18926836550235748, 0.3472588360309601, -0.0020065291319042444, -0.06666629761457443, 0.9988265037536621, -0.12000668048858643, -0.15607833862304688, 1.483154296875, 1.323486328125, 0.024688720703125, 1.62744140625
399334, 0.49860185384750366, -2.0807766914367676, 0.70355623960495, 75.88900756835938, -17.8289794921875, -8.36756420135498, 6.384469985961914, -1.4384435415267944, -0.501246452331543, -0.00042405223939567804, 0.11165325343608856, 0.24063345789909363, -1.7578230693322248, 1.2716228298247358, -13.083549829690423, 9362.0, 35388.0, 35388.0, 9362.0, 8.251240730285645, -0.2209189534187317, -0.21229489147663116, -0.05722593143582344, -0.0022121926303952932, -0.0678018182516098, 0.9991260170936584, -0.11673464626073837, -0.07543754577636719, 1.48974609375, 1.333740234375, 0.0189361572265625, 1.626708984375
399344, 0.498065322637558, -2.079052209854126, 0.7040114402770996, 75.95287322998047, -17.843368530273438, -8.372577667236328, 6.388041019439697, -1.4392529726028442, -0.5013664960861206, -0.00040488888043910265, 0.11166567355394363, 0.24064943194389343, -1.7367479548717715, 1.2512854114233107, -13.101572414835397, 9362.0, 35388.0, 35388.0, 9362.0, 8.251240730285645, -0.14593052864074707, -0.4391748309135437, 0.2899804711341858, -0.002937734592705965, -0.06569583714008331, 0.9987127184867859, -0.11401969939470291, -0.05751800537109375, 1.4912109375, 1.329345703125, 0.02105712890625, 1.62890625
399354, 0.4973098933696747, -2.0778942108154297, 0.7043592929840088, 76.01676940917969, -17.857765197753906, -8.377592086791992, 6.391607761383057, -1.4400618076324463, -0.501548707485199, -0.0003993823193013668, 0.11163513362407684, 0.24059605598449707, -1.7825431939783647, 1.315978627346567, -13.142173719522066, 9362.0, 35388.0, 35388.0, 9362.0, 8.251240730285645, -0.10370844602584839, -0.0025378945283591747, -0.004461186937987804, -0.0016539208590984344, -0.06924523413181305, 1.001055121421814, -0.11310046911239624, -0.10231781005859375, 1.487548828125, 1.329345703125, 0.02105712890625, 1.62890625
399364, 0.49772369861602783, -2.0794413089752197, 0.7057257294654846, 76.08070373535156, -17.872169494628906, -8.382607460021973, 6.395178318023682, -1.4408711194992065, -0.5015578269958496, -0.00042422383558005095, 0.11166763305664062, 0.2406339943408966, -1.7653248765536556, 1.2535399702432244, -13.101419631198262, 9362.0, 35388.0, 35388.0, 9362.0, 8.251240730285645, 0.056808579713106155, 0.4468558430671692, 0.15321998298168182, -0.0014671640237793326, -0.06988624483346939, 0.9964990019798279, -0.11482398211956024, -0.12023735046386719, 1.486083984375, 1.3330078125, 0.0191650390625, 1.626708984375
399374, 0.4975607395172119, -2.081376791000366, 0.7073935270309448, 76.1446762084961, -17.886581420898438, -8.38762378692627, 6.398741722106934, -1.4416778087615967, -0.5017447471618652, -0.00041037239134311676, 0.11163774132728577, 0.24055178463459015, -1.791412630476158, 1.3212325578646755, -13.121083069856404, 9362.0, 35388.0, 35388.0, 9362.0, 8.251240730285645, 0.016026142984628677, -0.11270985752344131, 0.03189847245812416, -0.0018495579715818167, -0.06751121580600739, 0.9966487288475037, -0.11549142748117447, -0.1291980743408203, 1.4853515625, 1.335205078125, 0.018280029296875, 1.62890625
399384, 0.4977371394634247, -2.0811209678649902, 0.7081069350242615, 76.20867919921875, -17.901002883911133, -8.392642974853516, 6.402298450469971, -1.4424830675125122, -0.5021705627441406, -0.00043228885624557734, 0.1116461381316185, 0.24058769643306732, -1.766276054479193, 1.3056115632934961, -13.081076121291307, 9362.0, 35388.0, 35388.0, 9362.0, 8.251240730285645, 0.14361149072647095, 0.2706330120563507, 0.233932763338089, -0.00032211130019277334, -0.0673348605632782, 0.9999162554740906, -0.1167188435792923, -0.1291980743408203, 1.4853515625, 1.3330078125, 0.0191650390625, 1.62451171875
399394, 0.4980846345424652, -2.080853223800659, 0.7072193026542664, 76.27272033691406, -17.91543197631836, -8.397665977478027, 6.405862331390381, -1.4432889223098755, -0.5024809837341309, -0.0004497008631005883, 0.11164716631174088, 0.24053740501403809, -1.8450972145900006, 1.325502921768873, -13.075549506804673, 9362.0, 35388.0, 35388.0, 9362.0, 8.251240730285645, 0.11318861693143845, -0.35084035992622375, -0.12648582458496094, -0.001807085471227765, -0.0675072968006134, 1.0000938177108765, -0.11600282043218613, -0.12023735046386719, 1.486083984375, 1.345458984375, 0.0156707763671875, 1.628173828125
399404, 0.49909716844558716, -2.0807666778564453, 0.707489013671875, 76.33679962158203, -17.929868698120117, -8.402690887451172, 6.4094367027282715, -1.4440973997116089, -0.5024930834770203, -0.0004388262750580907, 0.11163655668497086, 0.2405916154384613, -1.7700650792024797, 1.2998733529410629, -13.082330649981875, 9362.0, 35388.0, 35388.0, 9362.0, 8.251240730285645, -0.05843440815806389, 0.034972433000802994, 0.1822684407234192, -0.0010312553495168686, -0.06809254735708237, 1.0003886222839355, -0.11747349798679352, -0.08439826965332031, 1.489013671875, 1.33154296875, 0.0198516845703125, 1.62744140625
399414, 0.4995231330394745, -2.0823240280151367, 0.7077624797821045, 76.40090942382812, -17.944313049316406, -8.407715797424316, 6.413011074066162, -1.44490647315979, -0.502524197101593, -0.0004344022599980235, 0.11163442581892014, 0.24055731296539307, -1.7677674083221782, 1.315606150405415, -13.073522815346251, 9362.0, 35388.0, 35388.0, 9362.0, 8.251240730285645, 0.2224355787038803, 0.43733298778533936, -0.0004913723096251488, -0.0017521531553938985, -0.06801760941743851, 0.9975823760032654, -0.11753584444522858, -0.08439826965332031, 1.489013671875, 1.341064453125, 0.01654052734375, 1.6259765625
399424, 0.4996618330478668, -2.085637092590332, 0.7092605233192444, 76.46505737304688, -17.95876693725586, -8.412741661071777, 6.416579246520996, -1.4457162618637085, -0.502697765827179, -0.00039884401485323906, 0.11163114756345749, 0.2405732423067093, -1.7491554607593185, 1.2570592921945831, -13.126685049069845, 9362.0, 35388.0, 35388.0, 9362.0, 8.251240730285645, 0.18801970779895782, 0.204795241355896, 0.11442660540342331, -0.0018064993200823665, -0.06974022090435028, 0.9980661273002625, -0.11940400302410126, -0.15607833862304688, 1.483154296875, 1.34033203125, 0.0166168212890625, 1.628173828125
399434, 0.5007577538490295, -2.0871493816375732, 0.7102439999580383, 76.52924346923828, -17.973228454589844, -8.417770385742188, 6.420145511627197, -1.4465253353118896, -0.5029933452606201, -0.0004123677499592304, 0.11163783073425293, 0.24058839678764343, -1.759514376632949, 1.326978922840965, -13.124307493701776, 9362.0, 35388.0, 35388.0, 9362.0, 8.251240730285645, -0.06508105248212814, 0.05116744711995125, -0.12655891478061676, -0.00332663650624454, -0.06776151806116104, 0.9988136887550354, -0.11667236685752869, -0.10231781005859375, 1.487548828125, 1.36962890625, 0.01910400390625, 1.6318359375
399444, 0.49900853633880615, -2.0887556076049805, 0.7097386717796326, 76.59346008300781, -17.98769760131836, -8.422801971435547, 6.423718452453613, -1.4473347663879395, -0.5032632946968079, -0.00041747745126485825, 0.11165766417980194, 0.2405564785003662, -1.8086776094503716, 1.340136627409862, -13.09425850977588, 9362.0, 35388.0, 35388.0, 9362.0, 8.251240730285645, 0.062332652509212494, 0.1671949177980423, -0.10492248833179474, -0.0013838291633874178, -0.06811206042766571, 1.0020004510879517, -0.11961579322814941, -0.11127853393554688, 1.48681640625, 1.286865234375, 0.070281982421875, 1.62744140625
399454, 0.49950388073921204, -2.0896005630493164, 0.7103152275085449, 76.65771484375, -18.002174377441406, -8.427834510803223, 6.427302360534668, -1.4481481313705444, -0.5033000111579895, -0.00043541728518903255, 0.11164765059947968, 0.24057434499263763, -1.7605404600063301, 1.2999859958301272, -13.070348016387749, 9362.0, 35388.0, 35388.0, 9362.0, 8.251240730285645, 0.004320188425481319, 0.25741463899612427, 0.11321554332971573, -0.0016251977067440748, -0.0680956095457077, 1.0001287460327148, -0.11738993972539902, -0.10231781005859375, 1.487548828125, 1.273681640625, 0.0975494384765625, 1.6318359375
399464, 0.499724417924881, -2.0887694358825684, 0.7090012431144714, 76.72200775146484, -18.016660690307617, -8.432867050170898, 6.430893898010254, -1.448959231376648, -0.5032219290733337, -0.0004401138285174966, 0.11166118085384369, 0.2405477911233902, -1.8160577339573092, 1.3552272799680338, -13.081827038348193, 9362.0, 35388.0, 35388.0, 9362.0, 8.251240730285645, 0.25451329350471497, 0.22724540531635284, -0.09133532643318176, -0.0018202001228928566, -0.06794840097427368, 1.0001667737960815, -0.11769838631153107, -0.12023735046386719, 1.486083984375, 1.276611328125, 0.0910186767578125, 1.631103515625
399474, 0.5004191398620605, -2.090488910675049, 0.7088547348976135, 76.78633117675781, -18.03115463256836, -8.437899589538574, 6.434481143951416, -1.449770450592041, -0.5032687187194824, -0.0004379925085231662, 0.11165715008974075, 0.24051164090633392, -1.819049276445988, 1.3185103079433986, -13.072395116632752, 9362.0, 35388.0, 35388.0, 9362.0, 8.251240730285645, 0.20512568950653076, 0.24700696766376495, -0.24327531456947327, -0.0010066272225230932, -0.0680139809846878, 0.9992980360984802, -0.11882057785987854, -0.10231781005859375, 1.487548828125, 1.3447265625, 0.0158538818359375, 1.626708984375
399484, 0.5008208751678467, -2.0902609825134277, 0.7080102562904358, 76.85069274902344, -18.045656204223633, -8.442933082580566, 6.438066482543945, -1.4505815505981445, -0.5033684372901917, -0.0004093191819265485, 0.11166136711835861, 0.24063648283481598, -1.734595997220053, 1.2589474764954218, -13.080195315459228, 9362.0, 35388.0, 35388.0, 9362.0, 8.251240730285645, 0.23906110227108002, 0.2687924802303314, -0.04999350383877754, -0.000657725497148931, -0.06742008030414581, 0.9979730248451233, -0.11830075830221176, -0.14711761474609375, 1.48388671875, 1.3974609375, 0.03759765625, 1.629638671875
399494, 0.5011802315711975, -2.091369152069092, 0.7077717781066895, 76.91509246826172, -18.060165405273438, -8.447967529296875, 6.441648960113525, -1.451392650604248, -0.5035907030105591, -0.000423170393332839, 0.11165222525596619, 0.24059604108333588, -1.8159445158501069, 1.2911206804483868, -13.0851117409109, 9362.0, 35388.0, 35388.0, 9362.0, 8.251240730285645, 0.11583314836025238, 0.16802413761615753, -0.11505942046642303, -0.0019895422738045454, -0.0666264072060585, 0.9995717406272888, -0.11962395161390305, -0.13815879821777344, 1.484619140625, 1.434814453125, 0.081787109375, 1.632568359375
399504, 0.5014280080795288, -2.0922086238861084, 0.7063764929771423, 76.97953033447266, -18.074684143066406, -8.453003883361816, 6.4452338218688965, -1.4522050619125366, -0.5037578344345093, -0.00038899038918316364, 0.1116434782743454, 0.24060729146003723, -1.7854304895388478, 1.279666631768606, -13.107343551229546, 9362.0, 35388.0, 35388.0, 9362.0, 8.251240730285645, -0.21971595287322998, 0.29092156887054443, -0.005230843089520931, -0.0027225343510508537, -0.0706237182021141, 0.9990981221199036, -0.11565545201301575, -0.10231781005859375, 1.487548828125, 1.4501953125, 0.1050872802734375, 1.6318359375
399514, 0.5008073449134827, -2.091489553451538, 0.706358790397644, 77.04399871826172, -18.089210510253906, -8.45804214477539, 6.448822975158691, -1.4530187845230103, -0.5038630366325378, -0.000434915185905993, 0.1116519346833229, 0.24056866765022278, -1.7801896195000992, 1.3018163259001483, -13.071077356818197, 9362.0, 35388.0, 35388.0, 9362.0, 8.251240730285645, 0.20640681684017181, 0.10451631247997284, -0.04289674386382103, -4.2898162178062194e-07, -0.06915012747049332, 0.9964706301689148, -0.11574741452932358, -0.06647872924804688, 1.490478515625, 1.453125, 0.1099090576171875, 1.628173828125
399524, 0.5015771985054016, -2.0919976234436035, 0.7062082290649414, 77.10850524902344, -18.103744506835938, -8.463082313537598, 6.452406883239746, -1.4538311958312988, -0.5041406750679016, -0.00041792565025389194, 0.11166810989379883, 0.2406109869480133, -1.789256982929823, 1.2710756131337746, -13.086375561333407, 9362.0, 35388.0, 35388.0, 9362.0, 8.251240730285645, 0.10814612358808517, 0.08383987843990326, 0.19227297604084015, -0.0008923662826418877, -0.0686274841427803, 0.9969556331634521, -0.11706305295228958, -0.08439826965332031, 1.489013671875, 1.450927734375, 0.1063690185546875, 1.632568359375
399534, 0.5002108216285706, -2.0925960540771484, 0.7060367465019226, 77.17304992675781, -18.1182861328125, -8.46812629699707, 6.455982208251953, -1.4546411037445068, -0.504613995552063, -0.00043557723984122276, 0.11165203154087067, 0.2406025528907776, -1.7695792313014322, 1.2554208812101706, -13.077574658162144, 9362.0, 35388.0, 35388.0, 9362.0, 8.251240730285645, -0.21840018033981323, 0.09574111551046371, 0.2680600583553314, -0.00035163905704393983, -0.06472879648208618, 0.9981613159179688, -0.11280694603919983, -0.09335899353027344, 1.48828125, 1.4501953125, 0.1050872802734375, 1.632568359375
399544, 0.5006641745567322, -2.091777801513672, 0.70862877368927, 77.23762512207031, -18.132837295532227, -8.473174095153809, 6.45956563949585, -1.4554537534713745, -0.5049153566360474, -0.00041052699089050293, 0.1116638332605362, 0.24061176180839539, -1.7639053030046485, 1.2601824629148268, -13.071796834039901, 9362.0, 35388.0, 35388.0, 9362.0, 8.251240730285645, -0.02439362183213234, -0.07488314062356949, 0.04785126447677612, -0.0026079483795911074, -0.06635332107543945, 1.0008132457733154, -0.11348232626914978, -0.15607833862304688, 1.483154296875, 1.453125, 0.1099090576171875, 1.62451171875
399554, 0.5005981922149658, -2.0934066772460938, 0.7096371650695801, 77.30223846435547, -18.147396087646484, -8.47822380065918, 6.4631547927856445, -1.4562653303146362, -0.505063533782959, -0.00042164057958871126, 0.11164240539073944, 0.24057836830615997, -1.8058166105779563, 1.260975056330551, -13.112028517857123, 9362.0, 35388.0, 35388.0, 9362.0, 8.251240730285645, 0.07383237034082413, 0.1787056028842926, -0.0056878807954490185, -0.0011730642290785909, -0.06462801992893219, 1.000395655632019, -0.11155010759830475, -0.11127853393554688, 1.48681640625, 1.294189453125, 0.0578155517578125, 1.6259765625
399564, 0.5012847185134888, -2.094557523727417, 0.7096219062805176, 77.36688995361328, -18.161962509155273, -8.48327350616455, 6.466751575469971, -1.457079291343689, -0.5049724578857422, -0.00042557972483336926, 0.11164767295122147, 0.24057403206825256, -1.7507328756341975, 1.3090251210141162, -13.077520465054995, 9362.0, 35388.0, 35388.0, 9362.0, 8.251240730285645, 0.05373280495405197, 0.2595570385456085, 0.0427539236843586, 7.555079355370253e-05, -0.0671180859208107, 0.997832715511322, -0.11355870217084885, -0.11127853393554688, 1.48681640625, 1.27734375, 0.0894012451171875, 1.6318359375
399574, 0.5014809370040894, -2.095750093460083, 0.7096346020698547, 77.43157196044922, -18.176536560058594, -8.488324165344238, 6.47034215927124, -1.4578914642333984, -0.505128026008606, -0.00043124821968376637, 0.11165237426757812, 0.24059255421161652, -1.7749837646749373, 1.264004666462455, -13.08637355987814, 9362.0, 35388.0, 35388.0, 9362.0, 8.251240730285645, -0.013477018103003502, 0.26478874683380127, -0.05906126648187637, -0.0010241353884339333, -0.0693187341094017, 0.9993371963500977, -0.11768951267004013, -0.1739978790283203, 1.481689453125, 1.276611328125, 0.0910186767578125, 1.6259765625
399584, 0.5002996921539307, -2.0947494506835938, 0.7106619477272034, 77.49629211425781, -18.191120147705078, -8.493376731872559, 6.473933696746826, -1.4587042331695557, -0.5053085088729858, -0.00042402627877891064, 0.11165784299373627, 0.2405710071325302, -1.8091643458320774, 1.3096675726946216, -13.085018677728394, 9362.0, 35388.0, 35388.0, 9362.0, 8.251240730285645, -0.023727471008896828, -0.21254467964172363, -0.21917824447155, -0.0006748677114956081, -0.0678904801607132, 1.0000159740447998, -0.11358795315027237, -0.1291980743408203, 1.4853515625, 1.2744140625, 0.0959014892578125, 1.631103515625
399604, 0.5018308758735657, -2.097179889678955, 0.7092019319534302, 77.56105041503906, -18.205711364746094, -8.498430252075195, 6.4775309562683105, -1.4595181941986084, -0.505386233329773, -0.00040372752118855715, 0.11163649708032608, 0.24061569571495056, -1.7542973611221082, 1.2862840351234581, -13.12851622833287, 9362.0, 35388.0, 35388.0, 9362.0, 8.251240730285645, -0.2022143304347992, -0.04143513739109039, -0.12244386970996857, -0.001614342094399035, -0.06801196187734604, 0.9989357590675354, -0.11502515524625778, -0.09335899353027344, 1.48828125, 1.275146484375, 0.09429931640625, 1.631103515625
399624, 0.5025268197059631, -2.0974020957946777, 0.7087807655334473, 77.56105041503906, -18.205711364746094, -8.498430252075195, 6.4775309562683105, -1.4595181941986084, -0.505386233329773, -0.0004137979121878743, 0.11166272312402725, 0.2406657487154007, -1.7925327055742386, 1.2610723211573998, -13.079466037595513, 9362.0, 35388.0, 35388.0, 9362.0, 8.251240730285645, -0.09527605026960373, -0.2413983941078186, 0.07732690125703812, -0.001614342094399035, -0.06801196187734604, 0.9989357590675354, -0.12144801020622253, -0.11127853393554688, 1.48681640625, 1.275146484375, 0.09429931640625, 1.631103515625
399674, 0.4999445378780365, -2.0962891578674316, 0.7113648653030396, 78.08040618896484, -18.32273292541504, -8.538897514343262, 6.506301403045654, -1.4660218954086304, -0.5063655972480774, -0.00042139936704188585, 0.11166610568761826, 0.2406204789876938, -1.7929577740582472, 1.2881270470499544, -13.077408888368339, 9362.0, 35388.0, 35388.0, 9362.0, 8.251240730285645, -0.06522013992071152, -0.27877938747406006, 0.3726902902126312, -0.003136996179819107, -0.06905923038721085, 0.9989590644836426, -0.12113160640001297, -0.1650371551513672, 1.482421875, 1.275146484375, 0.09429931640625, 1.631103515625
399724, 0.5009232759475708, -2.0997462272644043, 0.7102887034416199, 78.40616607666016, -18.396135330200195, -8.564240455627441, 6.524272918701172, -1.4700777530670166, -0.5074439644813538, -0.000378079479560256, 0.11165307462215424, 0.24064099788665771, -1.759492080353376, 1.2941776708751718, -13.124518991551763, 9362.0, 35388.0, 35388.0, 9362.0, 8.251240730285645, -0.1099248006939888, 0.22600461542606354, 0.09412908554077148, -0.00028333449154160917, -0.06795130670070648, 0.9983943104743958, -0.11930424720048904, -0.1291980743408203, 1.4853515625, 1.271484375, 0.1027679443359375, 1.631103515625
399744, 0.5001667737960815, -2.0980734825134277, 0.7126181125640869, 78.53672790527344, -18.425554275512695, -8.574392318725586, 6.531472682952881, -1.4717024564743042, -0.5078014135360718, -0.00041672412771731615, 0.11166337132453918, 0.24060526490211487, -1.7911925577755876, 1.306460584304034, -13.081209160963628, 9362.0, 35388.0, 35388.0, 9362.0, 8.251240730285645, -0.042712822556495667, -0.5112264752388, -0.2698065936565399, -0.001908904523588717, -0.06764697283506393, 0.9978615045547485, -0.11930424720048904, -0.1291980743408203, 1.4853515625, 1.271484375, 0.1027679443359375, 1.631103515625
399774, 0.5011639595031738, -2.0982232093811035, 0.7076694369316101, 78.73283386230469, -18.469741821289062, -8.58963394165039, 6.542275428771973, -1.4741371870040894, -0.5081171989440918, -0.0004157458897680044, 0.11164044588804245, 0.24059541523456573, -1.803249166064188, 1.346253099533044, -13.113639027151422, 9362.0, 35388.0, 35388.0, 9362.0, 8.251240730285645, -0.10590898245573044, -0.17537716031074524, -0.04011203348636627, -0.0017273464472964406, -0.06947171688079834, 0.9991973042488098, -0.12489858269691467, -0.09335899353027344, 1.48828125, 1.271484375, 0.1027679443359375, 1.631103515625
399794, 0.500861644744873, -2.098174571990967, 0.7114179134368896, 78.73283386230469, -18.469741821289062, -8.58963394165039, 6.542275428771973, -1.4741371870040894, -0.5081171989440918, -0.0004306406481191516, 0.11167119443416595, 0.24062637984752655, -1.8017152325498753, 1.2969554190983388, -13.092792409816846, 9362.0, 35388.0, 35388.0, 9362.0, 8.251240730285645, 0.012443100102245808, -0.1499878615140915, 0.23191247880458832, -0.0032807381357997656, -0.06937138736248016, 0.9990142583847046, -0.12489858269691467, -0.09335899353027344, 1.48828125, 1.271484375, 0.1027679443359375, 1.631103515625
399804, 0.5012257099151611, -2.096442699432373, 0.7106112241744995, 78.73283386230469, -18.469741821289062, -8.58963394165039, 6.542275428771973, -1.4741371870040894, -0.5081171989440918, -0.0004098996287211776, 0.11166586726903915, 0.24065706133842468, -1.7780237423586511, 1.2787818801724313, -13.080746626186693, 9362.0, 35388.0, 35388.0, 9362.0, 8.251240730285645, 0.012443100102245808, -0.1499878615140915, 0.23191247880458832, -0.002310007344931364, -0.06689417362213135, 0.9996402859687805, -0.12489858269691467, -0.09335899353027344, 1.48828125, 1.271484375, 0.1027679443359375, 1.631103515625
399814, 0.5009729266166687, -2.0968194007873535, 0.7099301815032959, 78.73283386230469, -18.469741821289062, -8.58963394165039, 6.542275428771973, -1.4741371870040894, -0.5081171989440918, -0.0004070051945745945, 0.11163462698459625, 0.2405972182750702, -1.7857075459117002, 1.2704747381480388, -13.135170380345073, 9362.0, 35388.0, 35388.0, 9362.0, 8.251240730285645, -0.244502991437912, -0.0779045820236206, -0.20977608859539032, -0.002310007344931364, -0.06689417362213135, 0.9996402859687805, -0.12489858269691467, -0.09335899353027344, 1.48828125, 1.271484375, 0.1027679443359375, 1.631103515625
399824, 0.5011087656021118, -2.0978057384490967, 0.7110307216644287, 79.06039428710938, -18.543550491333008, -8.615056037902832, 6.560271739959717, -1.4782005548477173, -0.5087250471115112, -0.0004154699854552746, 0.1116691306233406, 0.24066239595413208, -1.7668874577026619, 1.2361665170496678, -13.079928475000218, 9362.0, 35388.0, 35388.0, 9362.0, 8.251240730285645, -0.022716917097568512, -0.15183216333389282, -0.10491723567247391, -0.00029815707239322364, -0.06820875406265259, 0.9988539814949036, -0.12489858269691467, -0.09335899353027344, 1.48828125, 1.271484375, 0.1027679443359375, 1.631103515625
399864, 0.5014346837997437, -2.100438356399536, 0.7139129042625427, 79.32308959960938, -18.60274314880371, -8.635415077209473, 6.574662208557129, -1.4814517498016357, -0.5092397928237915, -0.00042218377348035574, 0.11166396737098694, 0.24059240520000458, -1.7773500549517287, 1.2968458823433764, -13.081211408803274, 9362.0, 35388.0, 35388.0, 9362.0, 8.251240730285645, 0.1553400754928589, 0.30728161334991455, 0.2738420069217682, -0.0014295843429863453, -0.0697610154747963, 1.0008422136306763, -0.11547210067510605, -0.11127853393554688, 1.48681640625, 1.271484375, 0.1027679443359375, 1.631103515625
399894, 0.5019181370735168, -2.100987195968628, 0.7113081812858582, 79.45465850830078, -18.632387161254883, -8.645600318908691, 6.581872940063477, -1.4830788373947144, -0.5093369483947754, -0.00044105760753154755, 0.11166281253099442, 0.24057653546333313, -1.7872312336353842, 1.3091863423988457, -13.063458286595425, 9362.0, 35388.0, 35388.0, 9362.0, 8.251240730285645, -0.009867476299405098, -0.10421550273895264, 0.15480878949165344, -0.0008898015366867185, -0.0693325474858284, 0.9997310638427734, -0.11508611589670181, -0.14711761474609375, 1.48388671875, 1.275146484375, 0.09429931640625, 1.631103515625
399914, 0.5022061467170715, -2.1019372940063477, 0.7098152041435242, 79.65227508544922, -18.676916122436523, -8.660888671875, 6.592679500579834, -1.4855211973190308, -0.5098669528961182, -0.0004004986258223653, 0.1116458848118782, 0.24064484238624573, -1.737143501675369, 1.2855549415531016, -13.128988854272329, 9362.0, 35388.0, 35388.0, 9362.0, 8.251240730285645, 0.016435105353593826, 0.006228159181773663, 0.029846083372831345, -0.001244926592335105, -0.06788895279169083, 0.9984722137451172, -0.17958715558052063, -0.08439826965332031, 1.489013671875, 1.275146484375, 0.09429931640625, 1.631103515625
399934, 0.4999115467071533, -2.1044154167175293, 0.711174726486206, 79.65227508544922, -18.676916122436523, -8.660888671875, 6.592679500579834, -1.4855211973190308, -0.5098669528961182, -0.0004375824937596917, 0.11166804283857346, 0.24065439403057098, -1.7741089741331333, 1.2799385203291251, -13.095004701104285, 9362.0, 35388.0, 35388.0, 9362.0, 8.251240730285645, -0.14038382470607758, 0.1387157291173935, 0.1025807186961174, -0.0033579219598323107, -0.06724946200847626, 1.000813603401184, -0.17958715558052063, -0.08439826965332031, 1.489013671875, 1.275146484375, 0.09429931640625, 1.631103515625
399984, 0.5018991827964783, -2.102778911590576, 0.7114174365997314, 79.65227508544922, -18.676916122436523, -8.660888671875, 6.592679500579834, -1.4855211973190308, -0.5098669528961182, -0.0004330507945269346, 0.11166723072528839, 0.24065864086151123, -1.783892133789803, 1.2860771164785092, -13.074681206104794, 9362.0, 35388.0, 35388.0, 9362.0, 8.251240730285645, 0.1340591013431549, 0.1489071547985077, 0.14390775561332703, -0.0033574802801012993, -0.06670055538415909, 0.9975139498710632, -0.12687256932258606, -0.10231781005859375, 1.487548828125, 1.275146484375, 0.09429931640625, 1.631103515625
399994, 0.5025890469551086, -2.1042375564575195, 0.7134650945663452, 80.18084716796875, -18.796018600463867, -8.701728820800781, 6.6215291023254395, -1.492017149925232, -0.511618435382843, -0.0004355303244665265, 0.11165681481361389, 0.2406046986579895, -1.7919966344178735, 1.308725841775157, -13.075749594419369, 9362.0, 35388.0, 35388.0, 9362.0, 8.251240730285645, 0.12593849003314972, 0.05656905472278595, 0.31663626432418823, -0.0017858347855508327, -0.06749460846185684, 0.99839848279953, -0.12687256932258606, -0.10231781005859375, 1.487548828125, 1.275146484375, 0.09429931640625, 1.631103515625
400004, 0.5035382509231567, -2.1025171279907227, 0.713875949382782, 80.18084716796875, -18.796018600463867, -8.701728820800781, 6.6215291023254395, -1.492017149925232, -0.511618435382843, -0.0004171474138274789, 0.11166872829198837, 0.24066554009914398, -1.7788844222963718, 1.2919613042911067, -13.093422416458512, 9362.0, 35388.0, 35388.0, 9362.0, 8.251240730285645, 0.12593849003314972, 0.05656905472278595, 0.31663626432418823, -0.000904179411008954, -0.06639545410871506, 0.9984965920448303, -0.12687256932258606, -0.10231781005859375, 1.487548828125, 1.275146484375, 0.09429931640625, 1.631103515625
400034, 0.5033989548683167, -2.106217622756958, 0.7191700339317322, 80.44599914550781, -18.855764389038086, -8.722208023071289, 6.635948181152344, -1.4952765703201294, -0.5124924778938293, -0.0004207718884572387, 0.11165160685777664, 0.2406143993139267, -1.7586971279363848, 1.3319600863125913, -13.133830768659555, 9362.0, 35388.0, 35388.0, 9362.0, 8.251240730285645, 0.057184167206287384, 0.15407666563987732, 0.07462942600250244, -0.00039347560959868133, -0.06685319542884827, 0.9985510110855103, -0.12178904563188553, -0.09335899353027344, 1.48828125, 1.275146484375, 0.09429931640625, 1.631103515625
400044, 0.5048381686210632, -2.1083686351776123, 0.7190988659858704, 80.44599914550781, -18.855764389038086, -8.722208023071289, 6.635948181152344, -1.4952765703201294, -0.5124924778938293, -0.000415331800468266, 0.11166966706514359, 0.2406388372182846, -1.8113459798895506, 1.311112154578268, -13.081800101389147, 9362.0, 35388.0, 35388.0, 9362.0, 8.251240730285645, -0.010063571855425835, 0.38553059101104736, 0.2764527201652527, -0.001631090766750276, -0.06827232986688614, 0.9992443919181824, -0.12178904563188553, -0.09335899353027344, 1.48828125, 1.275146484375, 0.09429931640625, 1.631103515625
400104, 0.5076501369476318, -2.1184256076812744, 0.7243078351020813, 80.9113998413086, -18.960634231567383, -8.758135795593262, 6.661262512207031, -1.5009987354278564, -0.514175534248352, -0.00045614130795001984, 0.1116657555103302, 0.2405901998281479, -1.8079711597803763, 1.3365094489360843, -13.062180970787391, 9362.0, 35388.0, 35388.0, 9362.0, 8.251240730285645, 0.11544042080640793, 0.12536785006523132, -0.20572714507579803, -0.0002327438269276172, -0.06801050156354904, 1.0015389919281006, -0.1172182559967041, -0.08439826965332031, 1.489013671875, 1.275146484375, 0.09429931640625, 1.631103515625
400174, 0.5081125497817993, -2.121396064758301, 0.7292065620422363, 81.31172180175781, -19.05084228515625, -8.789000511169434, 6.683064937591553, -1.505928874015808, -0.515137791633606, -0.00043282483238726854, 0.11167524755001068, 0.2406587302684784, -1.7605529349750089, 1.266691328449582, -13.084520492579266, 9362.0, 35388.0, 35388.0, 9362.0, 8.251240730285645, -0.11189819127321243, 0.2810865342617035, -0.0757533609867096, -0.0023296221625059843, -0.06660888344049454, 1.0003864765167236, -0.10940022766590118, -0.1291980743408203, 1.4853515625, 1.275146484375, 0.09429931640625, 1.631103515625
400204, 0.5081319808959961, -2.121631622314453, 0.7279892563819885, 81.57933807373047, -19.11114501953125, -8.809617042541504, 6.697621822357178, -1.5092190504074097, -0.515662670135498, -0.0004197009839117527, 0.11165279895067215, 0.24062681198120117, -1.7802909285119695, 1.3036681792705451, -13.10840966262586, 9362.0, 35388.0, 35388.0, 9362.0, 8.251240730285645, -0.011256877332925797, -0.049515850841999054, -0.34268641471862793, -0.0013926384272053838, -0.06702756136655807, 1.0001047849655151, -0.10831504315137863, -0.12023735046386719, 1.486083984375, 1.275146484375, 0.09429931640625, 1.631103515625
400214, 0.5068743228912354, -2.121335506439209, 0.726633608341217, 81.57933807373047, -19.11114501953125, -8.809617042541504, 6.697621822357178, -1.5092190504074097, -0.515662670135498, -0.0004340872401371598, 0.11165040731430054, 0.24065358936786652, -1.8203377214878358, 1.281501075299957, -13.080293097514975, 9362.0, 35388.0, 35388.0, 9362.0, 8.251240730285645, -0.022290898486971855, 0.34361475706100464, 0.03996187075972557, 0.0001322937896475196, -0.06952972710132599, 0.9988478422164917, -0.10831504315137863, -0.12023735046386719, 1.486083984375, 1.275146484375, 0.09429931640625, 1.631103515625
400314, 0.5110586285591125, -2.1252551078796387, 0.734247088432312, 82.31828308105469, -19.27765655517578, -8.866448402404785, 6.737710952758789, -1.518280029296875, -0.5174698233604431, -0.0004036870086565614, 0.11164569854736328, 0.24066601693630219, -1.7608525900374425, 1.2179312233370752, -13.13357645537282, 9362.0, 35388.0, 35388.0, 9362.0, 8.251240730285645, 0.2545963525772095, 0.3146548569202423, 0.12167037278413773, -0.001991129945963621, -0.0682554617524147, 1.0014692544937134, -0.10727795958518982, -0.05751800537109375, 1.4912109375, 1.275146484375, 0.09429931640625, 1.631103515625
400324, 0.5098520517349243, -2.128058910369873, 0.7355998754501343, 82.31828308105469, -19.27765655517578, -8.866448402404785, 6.737710952758789, -1.518280029296875, -0.5174698233604431, -0.00042726704850792885, 0.11166652292013168, 0.24067889153957367, -1.7771732455363793, 1.2768817821949483, -13.102522997997484, 9362.0, 35388.0, 35388.0, 9362.0, 8.251240730285645, -0.10423649102449417, 0.09490330517292023, 0.1889638900756836, -0.001991129945963621, -0.0682554617524147, 1.0014692544937134, -0.10727795958518982, -0.05751800537109375, 1.4912109375, 1.275146484375, 0.09429931640625, 1.631103515625
400334, 0.5100340247154236, -2.1257357597351074, 0.7350646257400513, 82.31828308105469, -19.27765655517578, -8.866448402404785, 6.737710952758789, -1.518280029296875, -0.5174698233604431, -0.00043302716221660376, 0.11165349185466766, 0.24068085849285126, -1.7735899806679951, 1.2502584402870696, -13.084759074601958, 9362.0, 35388.0, 35388.0, 9362.0, 8.251240730285645, -0.10423649102449417, 0.09490330517292023, 0.1889638900756836, 0.0004456107271835208, -0.07007919251918793, 0.9983315467834473, -0.10727795958518982, -0.05751800537109375, 1.4912109375, 1.275146484375, 0.09429931640625, 1.631103515625
400344, 0.5104230642318726, -2.1243512630462646, 0.734808623790741, 82.31828308105469, -19.27765655517578, -8.866448402404785, 6.737710952758789, -1.518280029296875, -0.5174698233604431, -0.00041829398833215237, 0.11164514720439911, 0.24064260721206665, -1.8052736313081357, 1.3370737497904202, -13.115357816845263, 9362.0, 35388.0, 35388.0, 9362.0, 8.251240730285645, 0.018857508897781372, -0.07084742188453674, 0.2618057131767273, -0.0017038285732269287, -0.06866966187953949, 0.9988352656364441, -0.10727795958518982, -0.05751800537109375, 1.4912109375, 1.275146484375, 0.09429931640625, 1.631103515625
400364, 0.5096696615219116, -2.1265761852264404, 0.7336982488632202, 82.31828308105469, -19.27765655517578, -8.866448402404785, 6.737710952758789, -1.518280029296875, -0.5174698233604431, -0.0004349641967564821, 0.11165986210107803, 0.24067385494709015, -1.7895273912407683, 1.2473021649319946, -13.070224880646089, 9362.0, 35388.0, 35388.0, 9362.0, 8.251240730285645, 0.10414642095565796, 0.1996113359928131, -0.1648314893245697, -0.001708510215394199, -0.0671285018324852, 0.9978268146514893, -0.10740546882152557, -0.06647872924804688, 1.490478515625, 1.275146484375, 0.09429931640625, 1.631103515625
400454, 0.5128424167633057, -2.127096176147461, 0.7353454232215881, 83.26513671875, -19.491025924682617, -8.939070701599121, 6.788724899291992, -1.529856562614441, -0.5205788016319275, -0.0004059921484440565, 0.11164093762636185, 0.24070343375205994, -1.7757406054172789, 1.2327556945489562, -13.127781552773154, 9362.0, 35388.0, 35388.0, 9362.0, 8.251240730285645, -0.01803092285990715, -0.35661500692367554, -0.0505489781498909, -0.0010202295379713178, -0.06767231971025467, 1.0002533197402954, -0.10863944888114929, -0.06647872924804688, 1.490478515625, 1.275146484375, 0.09429931640625, 1.631103515625
400464, 0.5138022899627686, -2.1250505447387695, 0.7333567142486572, 83.33304595947266, -19.506328582763672, -8.944276809692383, 6.792375564575195, -1.530686855316162, -0.5206615924835205, -0.00042071263305842876, 0.11163586378097534, 0.24061782658100128, -1.7968435149754365, 1.3144165819727505, -13.116648491500479, 9362.0, 35388.0, 35388.0, 9362.0, 8.251240730285645, -0.021753588691353798, 0.12718166410923004, -0.046440489590168, -0.0010202295379713178, -0.06767231971025467, 1.0002533197402954, -0.10863944888114929, -0.06647872924804688, 1.490478515625, 1.275146484375, 0.09429931640625, 1.631103515625
400494, 0.5172740817070007, -2.128408193588257, 0.7329176664352417, 83.33304595947266, -19.506328582763672, -8.944276809692383, 6.792375564575195, -1.530686855316162, -0.5206615924835205, -0.00042855890933424234, 0.11166391521692276, 0.24066162109375, -1.7569060934840073, 1.2784201019152022, -13.086988675012218, 9362.0, 35388.0, 35388.0, 9362.0, 8.251240730285645, -0.0530426912009716, 0.05713491141796112, 0.11234435439109802, -0.001765517983585596, -0.06824974715709686, 0.9990959167480469, -0.11518840491771698, -0.12023735046386719, 1.486083984375, 1.275146484375, 0.09429931640625, 1.631103515625
400514, 0.5155163407325745, -2.12892746925354, 0.7324070930480957, 83.6731185913086, -19.582965850830078, -8.97032356262207, 6.810627460479736, -1.5348585844039917, -0.521232545375824, -0.00042736297473311424, 0.11165906488895416, 0.24063658714294434, -1.7801338105230895, 1.3125558194462883, -13.082218513591503, 9362.0, 35388.0, 35388.0, 9362.0, 8.251240730285645, 0.1346195787191391, 0.08686286211013794, -0.1311940997838974, -0.001419803244061768, -0.06622485816478729, 1.00011146068573, -0.11518840491771698, -0.12023735046386719, 1.486083984375, 1.275146484375, 0.09429931640625, 1.631103515625
400524, 0.5161113739013672, -2.1299519538879395, 0.7325052618980408, 83.6731185913086, -19.582965850830078, -8.97032356262207, 6.810627460479736, -1.5348585844039917, -0.521232545375824, -0.000419452553614974, 0.11162762343883514, 0.24064144492149353, -1.790092149530588, 1.3165729589915998, -13.119206268829986, 9362.0, 35388.0, 35388.0, 9362.0, 8.251240730285645, 0.1346195787191391, 0.08686286211013794, -0.1311940997838974, -0.0011858640937134624, -0.06783687323331833, 0.9992362856864929, -0.11518840491771698, -0.12023735046386719, 1.486083984375, 1.275146484375, 0.09429931640625, 1.631103515625
400534, 0.5166018605232239, -2.13269305229187, 0.7322577834129333, 83.6731185913086, -19.582965850830078, -8.97032356262207, 6.810627460479736, -1.5348585844039917, -0.521232545375824, -0.0004444913938641548, 0.11164665967226028, 0.24065259099006653, -1.7622252535987604, 1.2916147059740126, -13.082325364640406, 9362.0, 35388.0, 35388.0, 9362.0, 8.251240730285645, -0.07035603374242783, 0.1969061642885208, -0.11781542748212814, -0.0011858640937134624, -0.06783687323331833, 0.9992362856864929, -0.11518840491771698, -0.12023735046386719, 1.486083984375, 1.275146484375, 0.09429931640625, 1.631103515625
400584, 0.515805184841156, -2.136185646057129, 0.7325510382652283, 84.01410675048828, -19.659812927246094, -8.996399879455566, 6.828908920288086, -1.5390434265136719, -0.5218126177787781, -0.00042383268009871244, 0.11166416108608246, 0.24070365726947784, -1.7737251882964569, 1.2735797006539826, -13.074112334260942, 9362.0, 35388.0, 35388.0, 9362.0, 8.251240730285645, 0.044450920075178146, 0.13440382480621338, -0.038120999932289124, -0.0008176533156074584, -0.06728190183639526, 1.0005675554275513, -0.10577324777841568, -0.10231781005859375, 1.487548828125, 1.275146484375, 0.09429931640625, 1.631103515625
400604, 0.5160928964614868, -2.1368048191070557, 0.733020544052124, 84.01410675048828, -19.659812927246094, -8.996399879455566, 6.828908920288086, -1.5390434265136719, -0.5218126177787781, -0.0004059575730934739, 0.1116548478603363, 0.24066749215126038, -1.759593891298649, 1.2420879084319552, -13.100105353200254, 9362.0, 35388.0, 35388.0, 9362.0, 8.251240730285645, -0.006802043411880732, 0.06264161318540573, -0.07640672475099564, -0.0004410383990034461, -0.06849303096532822, 0.9979550838470459, -0.12992893159389496, -0.7474346160888672, 1.434814453125, 1.275146484375, 0.09429931640625, 1.631103515625
400634, 0.5162783265113831, -2.137443780899048, 0.7291408777236938, 84.49302673339844, -19.767749786376953, -9.032978057861328, 6.85455322265625, -1.544887661933899, -0.5232332944869995, -0.0004226231249049306, 0.11167079955339432, 0.2406807839870453, -1.8110984053119505, 1.2185814859025754, -13.088881766766887, 9362.0, 35388.0, 35388.0, 9362.0, 8.251240730285645, 0.015245864167809486, -0.38665151596069336, 0.022392241284251213, -0.00307010137476027, -0.06703057885169983, 1.0009678602218628, -0.12721341848373413, -0.06647872924804688, 1.490478515625, 1.275146484375, 0.09429931640625, 1.631103515625
400644, 0.5166042447090149, -2.1373417377471924, 0.731040894985199, 84.56159210205078, -19.783203125, -9.03821086883545, 6.858227252960205, -1.5457258224487305, -0.5232976675033569, -0.00042961607687175274, 0.11167078465223312, 0.2406988888978958, -1.78724458667998, 1.2555172037320403, -13.09824382052374, 9362.0, 35388.0, 35388.0, 9362.0, 8.251240730285645, -7.734236714895815e-05, 0.016591615974903107, 0.006751303095370531, -0.0006432350492104888, -0.06856430321931839, 1.0007338523864746, -0.12721341848373413, -0.06647872924804688, 1.490478515625, 1.275146484375, 0.09429931640625, 1.631103515625
400704, 0.5158909559249878, -2.137573719024658, 0.734671413898468, 84.83621215820312, -19.8450984954834, -9.059148788452148, 6.872900485992432, -1.5490728616714478, -0.5237667560577393, -0.00042198365554213524, 0.11166629195213318, 0.24066691100597382, -1.7654534138770577, 1.273777072985581, -13.086401605116166, 9362.0, 35388.0, 35388.0, 9362.0, 8.251240730285645, 0.09262636303901672, 0.07492475211620331, 0.2621346414089203, -0.000270800112048164, -0.07115286588668823, 0.9991673231124878, -0.11982417106628418, -0.09335899353027344, 1.48828125, 1.275146484375, 0.09429931640625, 1.631103515625
400714, 0.5164518356323242, -2.1389095783233643, 0.735457718372345, 84.83621215820312, -19.8450984954834, -9.059148788452148, 6.872900485992432, -1.5490728616714478, -0.5237667560577393, -0.0004072670126333833, 0.11166024208068848, 0.24069717526435852, -1.7677511374792303, 1.225877964982402, -13.078188711988474, 9362.0, 35388.0, 35388.0, 9362.0, 8.251240730285645, 0.10790591686964035, 0.1847716122865677, -0.19470158219337463, -0.0011705768993124366, -0.06715916842222214, 0.9962117075920105, -0.11982417106628418, -0.09335899353027344, 1.48828125, 1.275146484375, 0.09429931640625, 1.631103515625
400724, 0.5169907808303833, -2.139688730239868, 0.7326743006706238, 84.83621215820312, -19.8450984954834, -9.059148788452148, 6.872900485992432, -1.5490728616714478, -0.5237667560577393, -0.0004175227368250489, 0.11167003959417343, 0.24071069061756134, -1.7526619068157896, 1.2238372060384677, -13.087818003069831, 9362.0, 35388.0, 35388.0, 9362.0, 8.251240730285645, 0.18311011791229248, 0.24553535878658295, -0.06056978553533554, -0.001518472097814083, -0.06783820688724518, 0.9989320039749146, -0.11982417106628418, -0.09335899353027344, 1.48828125, 1.275146484375, 0.09429931640625, 1.631103515625
400734, 0.5164452195167542, -2.1419992446899414, 0.7338152527809143, 84.83621215820312, -19.8450984954834, -9.059148788452148, 6.872900485992432, -1.5490728616714478, -0.5237667560577393, -0.0004175744252279401, 0.1116713136434555, 0.24072284996509552, -1.7682007569907066, 1.2582863927535186, -13.080626254776131, 9362.0, 35388.0, 35388.0, 9362.0, 8.251240730285645, 0.09152855724096298, -0.10278811305761337, 0.26896440982818604, -0.001518472097814083, -0.06783820688724518, 0.9989320039749146, -0.11809413880109787, -0.1291980743408203, 1.4853515625, 1.275146484375, 0.09429931640625, 1.631103515625
400804, 0.5154085755348206, -2.139270782470703, 0.7345516085624695, 85.52532958984375, -20.000423431396484, -9.111624717712402, 6.909557819366455, -1.557429552078247, -0.5259131789207458, -0.0004086405970156193, 0.11165264993906021, 0.24063144624233246, -1.8152116268793392, 1.3349543070960692, -13.105332070269805, 9362.0, 35388.0, 35388.0, 9362.0, 8.251240730285645, -0.1739291250705719, 0.21532148122787476, -0.04773669317364693, -0.0015424145385622978, -0.06739095598459244, 0.9965193271636963, -0.10567308962345123, -0.12023735046386719, 1.486083984375, 1.275146484375, 0.09429931640625, 1.631103515625
400824, 0.5139681100845337, -2.1406517028808594, 0.7373600602149963, 85.802001953125, -20.062788009643555, -9.132683753967285, 6.924200534820557, -1.56077241897583, -0.5271024107933044, -0.0004000647459179163, 0.11165039986371994, 0.24062848091125488, -1.786912254182084, 1.2990527862603471, -13.115420377869283, 9362.0, 35388.0, 35388.0, 9362.0, 8.251240730285645, 0.14972209930419922, -0.1251891404390335, -0.17957979440689087, -0.002805911237373948, -0.06469381600618362, 0.9964734315872192, -0.10788194090127945, -0.10231781005859375, 1.487548828125, 1.275146484375, 0.09429931640625, 1.631103515625
400834, 0.5151657462120056, -2.1421196460723877, 0.7387456297874451, 85.802001953125, -20.062788009643555, -9.132683753967285, 6.924200534820557, -1.56077241897583, -0.5271024107933044, -0.0004173505585640669, 0.11168589442968369, 0.2406468689441681, -1.810222526061013, 1.2941335343961953, -13.069159533593215, 9362.0, 35388.0, 35388.0, 9362.0, 8.251240730285645, -0.05530696362257004, 0.09379322081804276, -0.002610689029097557, -0.0006534273270517588, -0.06715700775384903, 0.9965113401412964, -0.11289739608764648, -0.12023735046386719, 1.486083984375, 1.275146484375, 0.09429931640625, 1.631103515625
400854, 0.5143885016441345, -2.142568588256836, 0.7390163540840149, 86.00989532470703, -20.109647750854492, -9.148512840270996, 6.935198783874512, -1.5632667541503906, -0.5281071662902832, -0.0004137579817324877, 0.11167420446872711, 0.24068589508533478, -1.7531092297047859, 1.2247372363571856, -13.080143027795012, 9362.0, 35388.0, 35388.0, 9362.0, 8.251240730285645, -0.03258972987532616, -0.1612488329410553, -0.10237405449151993, -0.0006972543196752667, -0.06831188499927521, 0.9977304339408875, -0.11116335541009903, -0.1291980743408203, 1.4853515625, 1.275146484375, 0.09429931640625, 1.631103515625
400864, 0.5138768553733826, -2.140589714050293, 0.7393552660942078, 86.00989532470703, -20.109647750854492, -9.148512840270996, 6.935198783874512, -1.5632667541503906, -0.5281071662902832, -0.00042811071034520864, 0.11166925728321075, 0.2406299114227295, -1.8146610012649946, 1.3008915001676087, -13.083694467652045, 9362.0, 35388.0, 35388.0, 9362.0, 8.251240730285645, 0.029017893597483635, -0.342085599899292, 0.042324334383010864, -0.001756643527187407, -0.0690997913479805, 0.9965833425521851, -0.11116335541009903, -0.1291980743408203, 1.4853515625, 1.275146484375, 0.09429931640625, 1.631103515625
400894, 0.5142501592636108, -2.143740653991699, 0.7425898909568787, 86.28759765625, -20.172245025634766, -9.169657707214355, 6.949871063232422, -1.5665907859802246, -0.5292422771453857, -0.0004388245288282633, 0.11166927218437195, 0.24066071212291718, -1.7790442373807296, 1.3066955291508577, -13.067153701146717, 9362.0, 35388.0, 35388.0, 9362.0, 8.251240730285645, -0.191622793674469, 0.2852628827095032, 0.35944846272468567, -0.000807377859018743, -0.06780771166086197, 0.9978196024894714, -0.11556931585073471, -0.11127853393554688, 1.48681640625, 1.275146484375, 0.09429931640625, 1.631103515625
400904, 0.5143159627914429, -2.1449737548828125, 0.7433409094810486, 86.28759765625, -20.172245025634766, -9.169657707214355, 6.949871063232422, -1.5665907859802246, -0.5292422771453857, -0.0004130863817408681, 0.11165428906679153, 0.24066567420959473, -1.7369491142528686, 1.2522801313480159, -13.11646087026131, 9362.0, 35388.0, 35388.0, 9362.0, 8.251240730285645, -0.025505831465125084, 0.43445634841918945, -0.03557870537042618, -0.002002011053264141, -0.0684184804558754, 0.9991164803504944, -0.11556931585073471, -0.11127853393554688, 1.48681640625, 1.275146484375, 0.09429931640625, 1.631103515625
400944, 0.5155676603317261, -2.1513144969940186, 0.7464386820793152, 86.63555145263672, -20.25067901611328, -9.196145057678223, 6.968273162841797, -1.5707511901855469, -0.5300518870353699, -0.0004211138002574444, 0.11165139824151993, 0.24062037467956543, -1.8060430425059684, 1.3409627622084201, -13.124892790559718, 9362.0, 35388.0, 35388.0, 9362.0, 8.251240730285645, -0.03627008944749832, -0.056739442050457, 0.3042941093444824, -0.00038196021341718733, -0.06745574623346329, 0.9981014132499695, -0.11175210028886795, -0.06647872924804688, 1.490478515625, 1.275146484375, 0.09429931640625, 1.631103515625
400954, 0.5166645050048828, -2.1496477127075195, 0.7484254837036133, 86.63555145263672, -20.25067901611328, -9.196145057678223, 6.968273162841797, -1.5707511901855469, -0.5300518870353699, -0.00041980575770139694, 0.11167066544294357, 0.24066497385501862, -1.7743283945305193, 1.2917181188767017, -13.076312871097121, 9362.0, 35388.0, 35388.0, 9362.0, 8.251240730285645, 0.1636977344751358, -0.2916659712791443, 0.043638844043016434, -0.0006474477122537792, -0.06738318502902985, 0.9989072680473328, -0.11175210028886795, -0.06647872924804688, 1.490478515625, 1.275146484375, 0.09429931640625, 1.631103515625
400974, 0.5167647004127502, -2.148625612258911, 0.7469654083251953, 86.84477233886719, -20.29783821105957, -9.212055206298828, 6.979336261749268, -1.5732537508010864, -0.5306718945503235, -0.00041403109207749367, 0.11167971044778824, 0.2406705617904663, -1.7586193454753862, 1.2587581421313985, -13.086624055006052, 9362.0, 35388.0, 35388.0, 9362.0, 8.251240730285645, -0.1409020572900772, 0.1823328286409378, 0.09233248978853226, -0.0006474477122537792, -0.06738318502902985, 0.9989072680473328, -0.11604584753513336, -0.10231781005859375, 1.487548828125, 1.275146484375, 0.09429931640625, 1.631103515625
401004, 0.5176339149475098, -2.151479959487915, 0.747303307056427, 86.98442840576172, -20.329320907592773, -9.222675323486328, 6.986692905426025, -1.5749218463897705, -0.531383752822876, -0.0004380142781883478, 0.11165724694728851, 0.24063333868980408, -1.7843032906393828, 1.2753387184098983, -13.041303997588212, 9362.0, 35388.0, 35388.0, 9362.0, 8.251240730285645, 0.0017232791287824512, 0.26645392179489136, -0.04187329113483429, -0.00012252808664925396, -0.07002366334199905, 1.0007942914962769, -0.11589543521404266, -0.15607833862304688, 1.483154296875, 1.275146484375, 0.09429931640625, 1.631103515625
401024, 0.5179519653320312, -2.1517250537872314, 0.7452396154403687, 86.98442840576172, -20.329320907592773, -9.222675323486328, 6.986692905426025, -1.5749218463897705, -0.531383752822876, -0.00042808486614376307, 0.11166594922542572, 0.2406432330608368, -1.7813596725344987, 1.3062111257807487, -13.07668497427157, 9362.0, 35388.0, 35388.0, 9362.0, 8.251240730285645, 0.00825441163033247, 0.27523136138916016, 0.1836676448583603, -0.0015619922196492553, -0.06702118366956711, 0.9985011219978333, -0.11589543521404266, -0.15607833862304688, 1.483154296875, 1.275146484375, 0.09429931640625, 1.631103515625
401064, 0.5188027024269104, -2.153660535812378, 0.7474308013916016, 87.47440338134766, -20.439769744873047, -9.259909629821777, 7.012543678283691, -1.5807819366455078, -0.5323970317840576, -0.00043443404138088226, 0.11166100949048996, 0.24067014455795288, -1.77823347231252, 1.2819662063600958, -13.090738628403686, 9362.0, 35388.0, 35388.0, 9362.0, 8.251240730285645, -0.26143255829811096, -0.19404397904872894, 0.01777922920882702, -0.0004322503518778831, -0.06783298403024673, 0.9985296726226807, -0.1177939921617508, -0.07543754577636719, 1.48974609375, 1.275146484375, 0.09429931640625, 1.631103515625
401084, 0.5174670815467834, -2.1571102142333984, 0.7499265670776367, 87.47440338134766, -20.439769744873047, -9.259909629821777, 7.012543678283691, -1.5807819366455078, -0.5323970317840576, -0.0004327247152104974, 0.11167982965707779, 0.24065324664115906, -1.8083048325134792, 1.3462540828645615, -13.08111472846967, 9362.0, 35388.0, 35388.0, 9362.0, 8.251240730285645, -0.029170993715524673, 0.4874546527862549, 0.23595091700553894, -3.716665742103942e-05, -0.06860042363405228, 0.9992989897727966, -0.11796295642852783, -0.10231781005859375, 1.487548828125, 1.275146484375, 0.09429931640625, 1.631103515625
401124, 0.5199423432350159, -2.1571226119995117, 0.7486190795898438, 87.89582061767578, -20.534767150878906, -9.291888236999512, 7.034728050231934, -1.5858036279678345, -0.5336645841598511, -0.00044057134073227644, 0.11165648698806763, 0.2406388819217682, -1.7874099854925642, 1.2997765759282913, -13.068926866351822, 9362.0, 35388.0, 35388.0, 9362.0, 8.251240730285645, 0.2302142232656479, 0.644428551197052, -0.1009698361158371, -0.0011740295449271798, -0.06991390138864517, 0.9979953169822693, -0.1136174201965332, -0.08439826965332031, 1.489013671875, 1.275146484375, 0.09429931640625, 1.631103515625
401134, 0.519520103931427, -2.1603755950927734, 0.7490717768669128, 87.9661865234375, -20.550628662109375, -9.297225952148438, 7.038423538208008, -1.5866438150405884, -0.5339253544807434, -0.00043149758130311966, 0.11167263984680176, 0.2406756728887558, -1.7703235577633523, 1.2640216024168751, -13.080649879597154, 9362.0, 35388.0, 35388.0, 9362.0, 8.251240730285645, -0.07165095955133438, 0.21583828330039978, -0.04811267927289009, -0.003315132576972246, -0.06819489598274231, 0.9982516765594482, -0.1136174201965332, -0.08439826965332031, 1.489013671875, 1.275146484375, 0.09429931640625, 1.631103515625
401164, 0.5209411382675171, -2.159668445587158, 0.7472361922264099, 88.1775131225586, -20.5982666015625, -9.31325626373291, 7.049527645111084, -1.5891636610031128, -0.5346987247467041, -0.00042894924990832806, 0.11167939752340317, 0.24069903790950775, -1.7632454787628549, 1.2584842524045428, -13.07098760731525, 9362.0, 35388.0, 35388.0, 9362.0, 8.251240730285645, -0.10258784145116806, -0.23794692754745483, -0.023426011204719543, -0.0015434261877089739, -0.06776246428489685, 1.0000146627426147, -0.11281061172485352, -0.13815879821777344, 1.484619140625, 1.275146484375, 0.09429931640625, 1.631103515625
401184, 0.5202919840812683, -2.1566829681396484, 0.7490794658660889, 88.1775131225586, -20.5982666015625, -9.31325626373291, 7.049527645111084, -1.5891636610031128, -0.5346987247467041, -0.00042958324775099754, 0.11166428029537201, 0.24065369367599487, -1.7675084795649936, 1.2737436870715158, -13.08504567898966, 9362.0, 35388.0, 35388.0, 9362.0, 8.251240730285645, 0.03559020906686783, -0.08013013005256653, 0.2132081687450409, -0.0005756196333095431, -0.06790951639413834, 0.9968054890632629, -0.11281061172485352, -0.13815879821777344, 1.484619140625, 1.275146484375, 0.09429931640625, 1.631103515625
401214, 0.5214948058128357, -2.1611156463623047, 0.7534055113792419, 88.53752136230469, -20.679424285888672, -9.340546607971191, 7.068405628204346, -1.5934569835662842, -0.5356586575508118, -0.0004227173049002886, 0.11167912930250168, 0.2407292127609253, -1.7677654750511058, 1.2820564267727264, -13.081806614001312, 9362.0, 35388.0, 35388.0, 9362.0, 8.251240730285645, -0.06710579991340637, 0.3867608606815338, 0.12119880318641663, -0.003641526447609067, -0.06790607422590256, 0.9997581243515015, -0.11281061172485352, -0.13815879821777344, 1.484619140625, 1.275146484375, 0.09429931640625, 1.631103515625
401224, 0.5210755467414856, -2.1625683307647705, 0.7560939192771912, 88.53752136230469, -20.679424285888672, -9.340546607971191, 7.068405628204346, -1.5934569835662842, -0.5356586575508118, -0.00042182847391813993, 0.11167025566101074, 0.24071617424488068, -1.7494125138775052, 1.249407115563372, -13.091548194125775, 9362.0, 35388.0, 35388.0, 9362.0, 8.251240730285645, 0.10642854124307632, -0.20167790353298187, -0.0529906302690506, -0.0011659330921247602, -0.0694902092218399, 1.0007678270339966, -0.11281061172485352, -0.13815879821777344, 1.484619140625, 1.275146484375, 0.09429931640625, 1.631103515625
401324, 0.5228302478790283, -2.165445566177368, 0.7538201808929443, 89.31729125976562, -20.855215072631836, -9.399580001831055, 7.109204292297363, -1.6027257442474365, -0.5379940271377563, -0.0004530547885224223, 0.11165531724691391, 0.2406519502401352, -1.8043475210318425, 1.3708352442079672, -13.068313289515762, 9362.0, 35388.0, 35388.0, 9362.0, 8.251240730285645, -0.05085550621151924, 0.14881521463394165, 0.015452574007213116, -0.0009975183056667447, -0.06666097044944763, 0.9967291951179504, -0.11046714335680008, -0.13815879821777344, 1.484619140625, 1.275146484375, 0.09429931640625, 1.631103515625
401374, 0.5223327875137329, -2.164130449295044, 0.7522571682929993, 89.67321014404297, -20.935457229614258, -9.426512718200684, 7.127749919891357, -1.6069447994232178, -0.5391666889190674, -0.0003998239990323782, 0.11165158450603485, 0.24069683253765106, -1.768910426470124, 1.2528915264978195, -13.119157700110696, 9362.0, 35388.0, 35388.0, 9362.0, 8.251240730285645, 0.13077551126480103, 0.10935641080141068, 0.027210207656025887, -0.0011730020632967353, -0.06772463023662567, 1.0009610652923584, -0.11655979603528976, -0.15607833862304688, 1.483154296875, 1.275146484375, 0.09429931640625, 1.631103515625
401384, 0.5244956612586975, -2.1652584075927734, 0.7510952353477478, 89.7445068359375, -20.95153045654297, -9.431904792785645, 7.131462574005127, -1.6077899932861328, -0.53928542137146, -0.00043167464900761843, 0.11165353655815125, 0.24070227146148682, -1.768913066647452, 1.289602721095065, -13.079348760908639, 9362.0, 35388.0, 35388.0, 9362.0, 8.251240730285645, 0.19454839825630188, -0.2008054107427597, -0.11142603307962418, -0.000642655068077147, -0.06834542751312256, 0.9995690584182739, -0.11655979603528976, -0.15607833862304688, 1.483154296875, 1.275146484375, 0.09429931640625, 1.631103515625
401424, 0.5240980982780457, -2.164607286453247, 0.7492167949676514, 90.03006744384766, -21.015911102294922, -9.453486442565918, 7.146313190460205, -1.611178994178772, -0.5399404764175415, -0.0009447787306271493, 0.11115376651287079, 0.24179702997207642, 0.02145956317098451, -1.0875538859032758, -12.495580147017707, 9362.0, 35388.0, 35388.0, 9362.0, 8.251240730285645, -0.07232318818569183, -0.23764587938785553, -0.03204108402132988, -0.0017165985191240907, -0.06813844293355942, 0.999068558216095, -0.11493221670389175, -0.12023735046386719, 1.486083984375, 1.275146484375, 0.09429931640625, 1.631103515625
401444, 0.525310218334198, -2.167595624923706, 0.7506605386734009, 90.03006744384766, -21.015911102294922, -9.453486442565918, 7.146313190460205, -1.611178994178772, -0.5399404764175415, -0.00043564976658672094, 0.11167856305837631, 0.24069082736968994, -1.7607475539336928, 1.3374865015397859, -13.069390051657479, 9362.0, 35388.0, 35388.0, 9362.0, 8.251240730285645, -0.14206036925315857, -0.11753454804420471, 0.003732713870704174, -0.002416368806734681, -0.06765235960483551, 0.9998850226402283, -0.11493221670389175, -0.12023735046386719, 1.486083984375, 1.275146484375, 0.09429931640625, 1.631103515625
401454, 0.5254098176956177, -2.1680893898010254, 0.7513590455055237, 90.03006744384766, -21.015911102294922, -9.453486442565918, 7.146313190460205, -1.611178994178772, -0.5399404764175415, -0.0004529696889221668, 0.11165662854909897, 0.24062857031822205, -1.8392113066024036, 1.3732759629594682, -13.059661599493937, 9362.0, 35388.0, 35388.0, 9362.0, 8.251240730285645, 0.18858212232589722, 0.5399715304374695, 0.12397788465023041, -0.0022707348689436913, -0.06840784847736359, 0.997934877872467, -0.11493221670389175, -0.12023735046386719, 1.486083984375, 1.275146484375, 0.09429931640625, 1.631103515625
401484, 0.5264227390289307, -2.1675703525543213, 0.7539624571800232, 90.45951843261719, -21.112733840942383, -9.485916137695312, 7.168605327606201, -1.616271734237671, -0.5411573052406311, -0.0004309882642701268, 0.11165793240070343, 0.24066996574401855, -1.7590249071832125, 1.323926849134665, -13.075852114345432, 9362.0, 35388.0, 35388.0, 9362.0, 8.251240730285645, -0.18838557600975037, 0.1265188753604889, 0.15864220261573792, -0.0014504404971376061, -0.06703727692365646, 0.9976654052734375, -0.11409465223550797, -0.1739978790283203, 1.481689453125, 1.275146484375, 0.09429931640625, 1.631103515625
401514, 0.5248478651046753, -2.1681597232818604, 0.7511814832687378, 90.60295867919922, -21.145076751708984, -9.496745109558105, 7.176036834716797, -1.6179728507995605, -0.5416932702064514, -0.000420168973505497, 0.11168593168258667, 0.24068495631217957, -1.786629743451658, 1.2771092116352065, -13.074164240273541, 9362.0, 35388.0, 35388.0, 9362.0, 8.251240730285645, 0.008676956407725811, -0.38637208938598633, -0.27763131260871887, -0.0014504404971376061, -0.06703727692365646, 0.9976654052734375, -0.11740919202566147, -0.11127853393554688, 1.48681640625, 1.275146484375, 0.09429931640625, 1.631103515625
