timeTick, roll, pitch, yaw, stateX, stateY, stateZ, stateVX, stateVY, stateVZ, otX0, otY0, otZ0, otRoll0, otPitch0, otYaw0, left wing, pitch motor, yaw motor, right wing, voltage, roll rate, pitch rate, yaw rate, A_x, A_y, A_z, current, i_raw, v_raw, airflow_voltage, airflow_speed, pot_Pitch
144982, -0.016999471932649612, -0.153216153383255, 0.06337786465883255, 0, 0, 0, 0, 0, 0, -0.011004294268786907, 0.1163037121295929, 0.24020135402679443, -1.4186260416399177, -0.6149336814968649, -3.9571111573941455, 0, 0, 0, 0, 0, 0, 0, 0, 0, 0, 0, 0, 0, 0, 0, 0, 0
144992, -0.01714884303510189, -0.15406347811222076, 0.0020093077328056097, 0.2840045094490051, 0.06652917712926865, -0.8628899455070496, 0.1008974090218544, 0.0217596385627985, -0.20952166616916656, -0.010989476926624775, 0.11633897572755814, 0.24032364785671234, -1.2802337450500487, -0.8341247745426301, -3.967437131121048, 9362.0, 30146.0, 35388.0, 9362.0, 8.033059120178223, 0.5445501804351807, -0.17907854914665222, 16.93836212158203, 0, 0, 0, 0, 0, 0, 0, 0, 0
145002, -0.018110457807779312, -0.15166789293289185, 0.09438737481832504, 0.285014808177948, 0.06674692034721375, -0.8649877309799194, 0.10115991532802582, 0.021789290010929108, -0.2100362777709961, -0.010983075015246868, 0.11630778014659882, 0.24023151397705078, -1.3711092272844305, -0.7034524868117558, -3.9879283960650413, 9362.0, 30146.0, 35388.0, 9362.0, 8.05289363861084, -1.4262070655822754, -0.059096161276102066, -4.854794502258301, -0.004129848908632994, -0.06553685665130615, 1.0035779476165771, -0.07969950884580612, -0.10231781005859375, 1.487548828125, 1.259033203125, 0.135589599609375, 1.4794921875
145012, -0.02081751450896263, -0.15328772366046906, 0.04489973187446594, 0.2860276997089386, 0.06696496903896332, -0.86708664894104, 0.10142038017511368, 0.021820612251758575, -0.2097465842962265, -0.011022764258086681, 0.11623408645391464, 0.23988908529281616, -2.052374109634334, 0.214406878693012, -3.8468483746169984, 9362.0, 30146.0, 35388.0, 9362.0, 8.05289363861084, -0.6707513928413391, -0.18441274762153625, 2.413789987564087, -0.011286619119346142, -0.0786241888999939, 0.993938148021698, -0.08611305803060532, -0.07543754577636719, 1.48974609375, 1.300048828125, 0.0489654541015625, 1.4853515625
145022, -0.02106046862900257, -0.15283304452896118, 0.048852551728487015, 0.28704318404197693, 0.06718335300683975, -0.8691911101341248, 0.10167906433343887, 0.02185596153140068, -0.2111493945121765, -0.01100032590329647, 0.11630327254533768, 0.24022887647151947, -1.3742675302910479, -0.7185079835961403, -3.969965805490686, 9362.0, 30146.0, 35388.0, 9362.0, 8.033059120178223, 1.1108213663101196, 0.6588578820228577, -6.631463527679443, 0.006969837937504053, -0.06693383306264877, 0.9895802140235901, -0.08515189588069916, -0.09335899353027344, 1.48828125, 1.316162109375, 0.030517578125, 1.478759765625
145032, -0.016307715326547623, -0.1565568745136261, 0.06892763078212738, 0.2880612909793854, 0.06740209460258484, -0.871300458908081, 0.10194189846515656, 0.02189246378839016, -0.21071770787239075, -0.010995901189744473, 0.11631722003221512, 0.2402457892894745, -1.3708025502572019, -0.6671585897430532, -3.9716439618405945, 9362.0, 30146.0, 35388.0, 9362.0, 8.033059120178223, 0.727747917175293, -0.12735620141029358, -6.697531700134277, -0.004122908227145672, -0.08268503844738007, 1.009137749671936, -0.08199341595172882, -0.05751800537109375, 1.4912109375, 1.31103515625, 0.0355682373046875, 1.481689453125
145042, -0.017236055806279182, -0.15453596413135529, 0.007434459403157234, 0.28908205032348633, 0.0676211565732956, -0.8734112977981567, 0.10220801830291748, 0.02192021906375885, -0.2114509791135788, -0.01099909096956253, 0.11632281541824341, 0.2402443140745163, -1.3395912292004273, -0.7267415860121105, -3.9510803409800688, 9362.0, 30146.0, 35388.0, 9362.0, 8.05289363861084, 0.3264448642730713, 0.1973159909248352, 16.171405792236328, -0.007944095879793167, -0.08041590452194214, 0.9848032593727112, -0.08613384515047073, -0.09335899353027344, 1.48828125, 1.3095703125, 0.037139892578125, 1.4794921875
145052, -0.01862066052854061, -0.15570063889026642, 0.0984063446521759, 0.2901054620742798, 0.06784050911664963, -0.8755276799201965, 0.10247167199850082, 0.021950088441371918, -0.2118268758058548, -0.010989906266331673, 0.11629932373762131, 0.24025695025920868, -1.3498872111541471, -0.7152572665990533, -3.9602699165047883, 9362.0, 30146.0, 35388.0, 9362.0, 8.033059120178223, -1.3268935680389404, -0.28736138343811035, -4.673224449157715, -0.0029612204525619745, -0.06371396780014038, 1.0046571493148804, -0.08953429013490677, -0.13815879821777344, 1.484619140625, 1.32275390625, 0.0251312255859375, 1.481689453125
145062, -0.02005627565085888, -0.15509209036827087, 0.0493665374815464, 0.29113152623176575, 0.06806017458438873, -0.8776439428329468, 0.10273933410644531, 0.02198234759271145, -0.21142925322055817, -0.011005159467458725, 0.11634158343076706, 0.24023956060409546, -1.3731550106476713, -0.6563125507675807, -3.953401600108756, 9362.0, 30146.0, 35388.0, 9362.0, 8.033059120178223, -0.649673342704773, -0.014184615574777126, 1.5723415613174438, -0.007723184768110514, -0.07674180716276169, 0.9953468441963196, -0.09517541527748108, -0.03959846496582031, 1.49267578125, 1.310302734375, 0.036285400390625, 1.483154296875
145072, -0.019542347639799118, -0.15584343671798706, 0.04709760844707489, 0.2921602427959442, 0.0682801678776741, -0.8797633647918701, 0.10300205647945404, 0.022016555070877075, -0.21245494484901428, -0.010991004295647144, 0.11630375683307648, 0.24025064706802368, -1.3840321608967299, -0.7346506415318572, -3.9687997355973383, 9362.0, 30146.0, 35388.0, 9362.0, 8.05289363861084, 0.736906886100769, -0.0804762914776802, -6.870267391204834, 0.012141869403421879, -0.06662174314260483, 0.9936900734901428, -0.07962504774332047, -0.06647872924804688, 1.490478515625, 1.31982421875, 0.0273590087890625, 1.48388671875
145082, -0.015180844813585281, -0.15525265038013458, 0.06522981077432632, 0.2931916117668152, 0.06850050389766693, -0.8818843960762024, 0.10327077656984329, 0.022050507366657257, -0.2117520123720169, -0.01109128538519144, 0.11624853312969208, 0.23987750709056854, -2.0893997343570687, 0.32962071947378035, -3.7923410970079283, 9362.0, 30146.0, 35388.0, 9362.0, 8.05289363861084, 0.8327590227127075, 0.16011038422584534, -7.6162896156311035, -0.004456036724150181, -0.08755118399858475, 1.0115489959716797, -0.07586783170700073, -0.10231781005859375, 1.487548828125, 1.305908203125, 0.0413360595703125, 1.484619140625
145092, -0.017078714445233345, -0.15566004812717438, -0.003477894002571702, 0.29422563314437866, 0.06872113794088364, -0.8840051889419556, 0.10353489965200424, 0.022076308727264404, -0.21240617334842682, -0.010986573062837124, 0.11629977077245712, 0.2401677370071411, -1.456061403341694, -0.6209504661774758, -3.964007377193897, 9362.0, 30146.0, 35388.0, 9362.0, 8.033059120178223, 0.31151464581489563, 0.002657931763678789, 16.191537857055664, -0.0020237064454704523, -0.08095720410346985, 0.9846715331077576, -0.07770983129739761, -0.1291980743408203, 1.4853515625, 1.2626953125, 0.1252593994140625, 1.483154296875
145102, -0.01765710487961769, -0.15586289763450623, 0.09526986628770828, 0.29526230692863464, 0.06894204765558243, -0.886131227016449, 0.10380043089389801, 0.022105896845459938, -0.21280644834041595, -0.010443788953125477, 0.11631032079458237, 0.23938670754432678, -2.7748734582127215, 1.3250227608240834, -4.269326975732406, 9362.0, 30146.0, 35388.0, 9362.0, 8.05289363861084, -1.5512473583221436, -0.37578248977661133, -4.83297061920166, -0.004960705526173115, -0.06723789870738983, 1.0047290325164795, -0.08326487243175507, -0.03959846496582031, 1.49267578125, 1.3037109375, 0.04412841796875, 1.486083984375
145112, -0.021718129515647888, -0.1553986519575119, 0.03974398970603943, 0.2963016629219055, 0.0691632628440857, -0.8882573843002319, 0.10406836122274399, 0.022136470302939415, -0.21242430806159973, -0.010985694825649261, 0.11628657579421997, 0.2402772754430771, -1.3162501958608699, -0.8060159608872368, -3.9840145395136113, 9362.0, 30146.0, 35388.0, 9362.0, 8.05289363861084, -1.17047917842865, -0.6504007577896118, 5.120706558227539, -0.011590386740863323, -0.07464608550071716, 0.9949535727500916, -0.08654226362705231, -0.10231781005859375, 1.487548828125, 1.31689453125, 0.0298919677734375, 1.48388671875
145122, -0.023546962067484856, -0.15230093896389008, 0.04942198842763901, 0.2973436713218689, 0.06938481330871582, -0.8903870582580566, 0.10433150082826614, 0.022173432633280754, -0.21351249516010284, -0.011062796227633953, 0.11626292020082474, 0.23990365862846375, -2.0788197712993957, 0.33378175425823997, -3.787869518037744, 9362.0, 30146.0, 35388.0, 9362.0, 8.05289363861084, 1.1750918626785278, 0.7298211455345154, -7.33336877822876, 0.008394070900976658, -0.06375216692686081, 0.9931115508079529, -0.08900502324104309, -0.1291980743408203, 1.4853515625, 1.324951171875, 0.0236663818359375, 1.481689453125
145132, -0.01721612922847271, -0.1544891744852066, 0.05928157642483711, 0.2983883023262024, 0.06960675120353699, -0.8925187587738037, 0.10459408164024353, 0.02221422828733921, -0.21283270418643951, -0.011004841886460781, 0.11630932986736298, 0.24014820158481598, -1.4721564762148172, -0.5852834386406869, -3.97526693287594, 9362.0, 30146.0, 35388.0, 9362.0, 8.05289363861084, 0.7610794901847839, 0.3548394441604614, -7.789798736572266, -0.007260305341333151, -0.08644267916679382, 1.0109153985977173, -0.06839317828416824, 0.023120880126953125, 1.497802734375, 1.311767578125, 0.0348052978515625, 1.483154296875
145142, -0.018570873886346817, -0.15718631446361542, -0.00663750758394599, 0.299435555934906, 0.06982903927564621, -0.8946500420570374, 0.10485702753067017, 0.022243492305278778, -0.21342605352401733, -0.011011620052158833, 0.11631172150373459, 0.24023446440696716, -1.3611578867636045, -0.6667389835549784, -3.943814591972061, 9362.0, 30146.0, 35388.0, 9362.0, 8.033059120178223, 0.4180029034614563, -0.002908063819631934, 14.969941139221191, 0.0012856422690674663, -0.08396551012992859, 0.9880622625350952, -0.0649898499250412, -0.12023735046386719, 1.486083984375, 1.32421875, 0.024139404296875, 1.4853515625
145152, -0.019961902871727943, -0.15852852165699005, 0.09365023672580719, 0.3004854619503021, 0.0700516328215599, -0.8967839479446411, 0.10512647777795792, 0.022275786846876144, -0.21335084736347198, -0.011008001863956451, 0.11631704866886139, 0.2402481585741043, -1.3636984431107793, -0.6951300727621401, -3.9393566599656444, 9362.0, 30146.0, 35388.0, 9362.0, 8.033059120178223, -1.3527036905288696, -0.2361859232187271, -4.582897663116455, -0.002711002714931965, -0.06660167872905731, 1.0083125829696655, -0.07472672313451767, -0.10231781005859375, 1.487548828125, 1.323486328125, 0.024688720703125, 1.483154296875
145162, -0.022222595289349556, -0.1589745581150055, 0.038966719061136246, 0.3015380799770355, 0.07027456164360046, -0.8989149332046509, 0.10539933294057846, 0.02231035940349102, -0.21284939348697662, -0.010983713902533054, 0.11632619798183441, 0.24023588001728058, -1.3892503798515177, -0.6800462876293238, -3.95793961404037, 9362.0, 30146.0, 35388.0, 9362.0, 8.033059120178223, -1.1531922817230225, 0.2245704084634781, 6.508216857910156, -0.013444818556308746, -0.0734066516160965, 0.9950108528137207, -0.07233746349811554, 0.08584022521972656, 1.5029296875, 1.31103515625, 0.0355682373046875, 1.48095703125
145172, -0.023331182077527046, -0.16106753051280975, 0.05452639237046242, 0.3025934100151062, 0.07049785554409027, -0.9010486006736755, 0.1056685596704483, 0.02234824188053608, -0.21388795971870422, -0.010411091148853302, 0.11634624004364014, 0.23931270837783813, -2.8583258249779475, 1.441878299562859, -4.364378507808072, 9362.0, 30146.0, 35388.0, 9362.0, 8.033059120178223, 1.0794202089309692, 0.1321604698896408, -7.97336483001709, 0.0052398876287043095, -0.06221292167901993, 0.9942097663879395, -0.054936669766902924, -0.12023735046386719, 1.486083984375, 1.27587890625, 0.092620849609375, 1.483154296875
145182, -0.01671273075044155, -0.1604401171207428, 0.0584808774292469, 0.30365148186683655, 0.07072153687477112, -0.903184175491333, 0.10594616085290909, 0.02238866686820984, -0.21322718262672424, -0.010982194915413857, 0.11632020026445389, 0.24024389684200287, -1.320347289607968, -0.7605024122296129, -3.975002571316041, 9362.0, 30146.0, 35388.0, 9362.0, 8.033059120178223, 1.0389072895050049, 0.12534278631210327, -10.666783332824707, -0.0042275963351130486, -0.08568591624498367, 1.0090687274932861, -0.12534382939338684, -0.14711761474609375, 1.48388671875, 1.31103515625, 0.0355682373046875, 1.483154296875
145192, -0.019404346123337746, -0.1596088856458664, -0.014131580479443073, 0.30471229553222656, 0.07094556838274002, -0.9053211212158203, 0.1062183603644371, 0.022416923195123672, -0.21415720880031586, -0.01097145676612854, 0.11631834506988525, 0.24027268588542938, -1.3423347497080595, -0.7560875104605884, -4.017149091204613, 9362.0, 30146.0, 35388.0, 9362.0, 8.033059120178223, 0.6554796099662781, 0.1445910930633545, 12.399626731872559, 0.0018521761521697044, -0.08465024083852768, 0.9844179153442383, -0.11211326718330383, -0.07543754577636719, 1.48974609375, 1.317626953125, 0.0291900634765625, 1.48095703125
145202, -0.018373895436525345, -0.1598258912563324, 0.09113181382417679, 0.30577585101127625, 0.0711699053645134, -0.907463788986206, 0.10649115592241287, 0.022450542077422142, -0.21437421441078186, -0.010970937088131905, 0.11631728708744049, 0.24021750688552856, -1.427856736956785, -0.6613455793144567, -3.9855271579068825, 9362.0, 30146.0, 35388.0, 9362.0, 8.033059120178223, -1.3225150108337402, -0.39860692620277405, -4.265780448913574, -0.009876315481960773, -0.06774341315031052, 1.007130742073059, -0.10983850061893463, -0.09335899353027344, 1.48828125, 1.3095703125, 0.037139892578125, 1.48388671875
145212, -0.021697595715522766, -0.1585792750120163, 0.02855689637362957, 0.3068421483039856, 0.07139457017183304, -0.909606397151947, 0.10676548629999161, 0.022482240572571754, -0.21414868533611298, -0.011014873161911964, 0.11632999032735825, 0.24018220603466034, -1.4454909776259985, -0.5828770331037276, -3.9484500802106615, 9362.0, 30146.0, 35388.0, 9362.0, 8.05289363861084, -1.2273685932159424, -0.02191188372671604, 13.319267272949219, -0.01473417691886425, -0.069485142827034, 0.9918797016143799, -0.10544165223836899, -0.11127853393554688, 1.48681640625, 1.317626953125, 0.0291900634765625, 1.48095703125
145222, -0.02259606122970581, -0.15892724692821503, 0.06362249702215195, 0.3079111576080322, 0.07161957770586014, -0.911752462387085, 0.10703445225954056, 0.02251933142542839, -0.21506279706954956, -0.011078688316047192, 0.11625902354717255, 0.23989178240299225, -2.0270515501916955, 0.27931812837542225, -3.773178857882271, 9362.0, 30146.0, 35388.0, 9362.0, 8.05289363861084, 0.5428138375282288, 0.38607078790664673, -7.221638202667236, 0.009615810588002205, -0.06380776315927505, 0.9969393014907837, -0.08407238870859146, 0.12168121337890625, 1.505859375, 1.314697265625, 0.0319061279296875, 1.481689453125
145232, -0.018091218546032906, -0.16081619262695312, 0.04906837269663811, 0.30898287892341614, 0.07184496521949768, -0.9138992428779602, 0.10730869323015213, 0.02255849912762642, -0.21429094672203064, -0.011023053899407387, 0.11632344871759415, 0.24021068215370178, -1.387387966778425, -0.5921014988721538, -3.9107906686097276, 9362.0, 30146.0, 35388.0, 9362.0, 8.033059120178223, 1.057170033454895, -0.07958076894283295, -9.620397567749023, -0.0024448654148727655, -0.08848505467176437, 1.0079299211502075, -0.08123381435871124, -0.030637741088867188, 1.493408203125, 1.3125, 0.034027099609375, 1.481689453125
145242, -0.01832636073231697, -0.1603417992591858, -0.013343777507543564, 0.3100573420524597, 0.07207070291042328, -0.9160465002059937, 0.10758168995380402, 0.022589152678847313, -0.21515686810016632, -0.01100021693855524, 0.11632052063941956, 0.2402913123369217, -1.2993895002479527, -0.758702812470716, -3.956334799571693, 9362.0, 30146.0, 35388.0, 9362.0, 8.05289363861084, 1.0733606815338135, 0.2851702868938446, 10.500005722045898, 0.005155282560735941, -0.08753885328769684, 0.9876742362976074, -0.08787961304187775, -0.10231781005859375, 1.487548828125, 1.326416015625, 0.022705078125, 1.4794921875
145252, -0.017013803124427795, -0.16213136911392212, 0.08505771309137344, 0.31113454699516296, 0.07229675352573395, -0.918197512626648, 0.1078566461801529, 0.02262100577354431, -0.215047225356102, -0.010996315628290176, 0.11630848050117493, 0.24023430049419403, -1.410222239230055, -0.6112691664168892, -3.941027006277066, 9362.0, 30146.0, 35388.0, 9362.0, 8.033059120178223, -1.4909789562225342, -0.03114641085267067, -4.442346572875977, -0.0031909316312521696, -0.06800868362188339, 1.0088783502578735, -0.08264198154211044, 0.023120880126953125, 1.497802734375, 1.306640625, 0.040557861328125, 1.4794921875
145262, -0.021462297067046165, -0.16278530657291412, 0.03178641200065613, 0.3122144937515259, 0.07252310961484909, -0.9203473329544067, 0.10813465714454651, 0.022650349885225296, -0.2149113565683365, -0.011003297753632069, 0.11633064597845078, 0.24024294316768646, -1.3923515839623632, -0.6067253949613871, -3.9420163562824535, 9362.0, 30146.0, 35388.0, 9362.0, 8.05289363861084, -0.9707501530647278, 0.08113043010234833, 12.031486511230469, -0.013756494969129562, -0.0694429874420166, 0.9906952977180481, -0.08302055299282074, -0.10231781005859375, 1.487548828125, 1.326416015625, 0.022705078125, 1.4853515625
145272, -0.02050238661468029, -0.1632443368434906, 0.06296030431985855, 0.31329721212387085, 0.0727497935295105, -0.922501802444458, 0.1084102913737297, 0.022687019780278206, -0.21598349511623383, -0.011012250557541847, 0.11631398648023605, 0.24030324816703796, -1.2710216049551855, -0.7804553069635176, -3.9495062489740365, 9362.0, 30146.0, 35388.0, 9362.0, 8.05289363861084, 0.685002326965332, 0.26879075169563293, -7.250077247619629, 0.002401899080723524, -0.058197636157274246, 0.9951030015945435, -0.08337970077991486, -0.04855918884277344, 1.491943359375, 1.316162109375, 0.030517578125, 1.4794921875
145282, -0.016329139471054077, -0.16424712538719177, 0.05263171344995499, 0.31438273191452026, 0.07297684252262115, -0.9246580600738525, 0.10869181901216507, 0.02272258698940277, -0.21526753902435303, -0.011077864095568657, 0.11627041548490524, 0.23989775776863098, -2.036780172749946, 0.28547200294443087, -3.7877451061888507, 9362.0, 30146.0, 35388.0, 9362.0, 8.05289363861084, 0.966878354549408, 0.14244116842746735, -9.535076141357422, -0.0052826604805886745, -0.08391053974628448, 1.0088742971420288, -0.08981400728225708, -0.15607833862304688, 1.483154296875, 1.32275390625, 0.0251312255859375, 1.481689453125
145292, -0.017846861854195595, -0.16331970691680908, -0.012384460307657719, 0.3154710531234741, 0.07320421189069748, -0.9268150329589844, 0.10897065699100494, 0.022750236093997955, -0.2161312848329544, -0.010996174067258835, 0.11631937325000763, 0.24031436443328857, -1.2770932563384791, -0.8300224150264341, -3.9604913065677305, 9362.0, 30146.0, 35388.0, 9362.0, 8.05289363861084, 0.8203878998756409, -0.2604529559612274, 10.234298706054688, -0.00033545566839165986, -0.08463523536920547, 0.9862760901451111, -0.07189616560935974, 0.12168121337890625, 1.505859375, 1.319091796875, 0.0279998779296875, 1.4794921875
145302, -0.01674211584031582, -0.16181044280529022, 0.08106999099254608, 0.31656214594841003, 0.07343186438083649, -0.9289776682853699, 0.10924966633319855, 0.0227811336517334, -0.21639293432235718, -0.011017457582056522, 0.11632826179265976, 0.24020466208457947, -1.4207265648794851, -0.5960532840013002, -3.9421491526274397, 9362.0, 30146.0, 35388.0, 9362.0, 8.033059120178223, -1.4434958696365356, -0.09968872368335724, -4.667660713195801, -0.0013148885918781161, -0.06568710505962372, 1.0052930116653442, -0.05457866191864014, -0.09335899353027344, 1.48828125, 1.32421875, 0.024139404296875, 1.482421875
145312, -0.020437151193618774, -0.15971578657627106, 0.02767031453549862, 0.3176560401916504, 0.07365982234477997, -0.9311409592628479, 0.10952708125114441, 0.022809991613030434, -0.21627049148082733, -0.010396300815045834, 0.1163351908326149, 0.2392130047082901, -2.9334945731733244, 1.5592588279974962, -4.38797507984038, 9362.0, 30146.0, 35388.0, 9362.0, 8.05289363861084, -1.0617588758468628, 0.021335303783416748, 11.376837730407715, -0.012521336786448956, -0.07082928717136383, 0.9909958839416504, -0.06316711753606796, -0.10231781005859375, 1.487548828125, 1.317626953125, 0.0291900634765625, 1.4853515625
145322, -0.02096615545451641, -0.16009297966957092, 0.05754264071583748, 0.3187526762485504, 0.07388809323310852, -0.9333092570304871, 0.1097973957657814, 0.022844847291707993, -0.21738772094249725, -0.010417003184556961, 0.11632540822029114, 0.23928530514240265, -2.8452069717891395, 1.4125321696851074, -4.344608773981569, 9362.0, 30146.0, 35388.0, 9362.0, 8.033059120178223, 0.6786812543869019, 0.4205547273159027, -7.367668628692627, 0.001739826169796288, -0.057289935648441315, 0.9945244789123535, -0.06854693591594696, -0.12023735046386719, 1.486083984375, 1.317626953125, 0.0291900634765625, 1.478759765625
145332, -0.015597113408148289, -0.1626465767621994, 0.04949233680963516, 0.3198520243167877, 0.07411672174930573, -0.9354798197746277, 0.11007335782051086, 0.022881167009472847, -0.21672113239765167, -0.010981928557157516, 0.11631599068641663, 0.24026216566562653, -1.3223269789534198, -0.7277119812159469, -3.9922799095736194, 9362.0, 30146.0, 35388.0, 9362.0, 8.05289363861084, 1.2458975315093994, 0.12587930262088776, -10.18181324005127, -0.006385130807757378, -0.0880131870508194, 1.0074819326400757, -0.07733534276485443, -0.12023735046386719, 1.486083984375, 1.330078125, 0.0206298828125, 1.483154296875
145352, -0.015348060987889767, -0.16632486879825592, 0.08013781905174255, 0.3209541440010071, 0.0743456706404686, -0.9376512169837952, 0.11034953594207764, 0.02290758304297924, -0.2175542712211609, -0.011048702523112297, 0.11624416708946228, 0.23987039923667908, -2.0884739256097595, 0.27666551323383715, -3.848151578842404, 9362.0, 30146.0, 35388.0, 9362.0, 8.033059120178223, 0.6023150086402893, 0.1111031025648117, 8.738001823425293, 0.006774863228201866, -0.0831073597073555, 0.9875864386558533, -0.08896593749523163, -0.07543754577636719, 1.48974609375, 1.341064453125, 0.01654052734375, 1.480224609375
145362, -0.01893734186887741, -0.16763967275619507, 0.030284440144896507, 0.32316675782203674, 0.07480435818433762, -0.9419997334480286, 0.1109161376953125, 0.022961195558309555, -0.21727414429187775, -0.010990265756845474, 0.11633041501045227, 0.24026720225811005, -1.3291740643807988, -0.7294742741628397, -3.94351237981537, 9362.0, 30146.0, 35388.0, 9362.0, 8.033059120178223, 0.6023150086402893, 0.1111031025648117, 8.738001823425293, 0.006774863228201866, -0.0831073597073555, 0.9875864386558533, -0.059158775955438614, -0.0037593841552734375, 1.49560546875, 1.341064453125, 0.01654052734375, 1.48388671875
145372, -0.01935424469411373, -0.16511598229408264, 0.06538111716508865, 0.3242773413658142, 0.07503413408994675, -0.9441779851913452, 0.11119997501373291, 0.022993573918938637, -0.21837003529071808, -0.010972005315124989, 0.11631827801465988, 0.2403375655412674, -1.204081285689824, -0.8754688978646357, -3.994181334523575, 9362.0, 30146.0, 35388.0, 9362.0, 8.033059120178223, 0.6023150086402893, 0.1111031025648117, 8.738001823425293, 0.006774863228201866, -0.0831073597073555, 0.9875864386558533, -0.059158775955438614, -0.0037593841552734375, 1.49560546875, 1.341064453125, 0.01654052734375, 1.480224609375
145382, -0.01616252027451992, -0.16796843707561493, 0.05235692858695984, 0.3242773413658142, 0.07503413408994675, -0.9441779851913452, 0.11119997501373291, 0.022993573918938637, -0.21837003529071808, -0.010397086851298809, 0.11633799970149994, 0.23934663832187653, -2.834277287592146, 1.386761728634042, -4.348801140284478, 9362.0, 30146.0, 35388.0, 9362.0, 8.033059120178223, 1.2564005851745605, 0.4838760197162628, -10.29188346862793, 0.006774863228201866, -0.0831073597073555, 0.9875864386558533, -0.0676974505186081, -0.10231781005859375, 1.487548828125, 1.341064453125, 0.01654052734375, 1.4853515625
145412, -0.017493993043899536, -0.17101743817329407, 0.03162737563252449, 0.3287482261657715, 0.07595627009868622, -0.9529144167900085, 0.11235348880290985, 0.023106247186660767, -0.21838602423667908, -0.011000233702361584, 0.11632447689771652, 0.2402772605419159, -1.3172051091711057, -0.753998812703145, -3.9483923791034354, 9362.0, 30146.0, 35388.0, 9362.0, 8.05289363861084, 1.2564005851745605, 0.4838760197162628, -10.29188346862793, 0.006774863228201866, -0.0831073597073555, 0.9875864386558533, -0.06259889900684357, -0.12023735046386719, 1.486083984375, 1.341064453125, 0.01654052734375, 1.47802734375
145422, -0.01881755329668522, -0.17093336582183838, 0.06632239371538162, 0.3298732042312622, 0.07618748396635056, -0.9551028609275818, 0.1126435324549675, 0.023136237636208534, -0.21930737793445587, -0.010377178899943829, 0.11632293462753296, 0.23931074142456055, -2.839010523412765, 1.448168036329065, -4.377583972414517, 9362.0, 30146.0, 35388.0, 9362.0, 8.05289363861084, 1.2564005851745605, 0.4838760197162628, -10.29188346862793, 0.006774863228201866, -0.0831073597073555, 0.9875864386558533, -0.06259889900684357, -0.12023735046386719, 1.486083984375, 1.341064453125, 0.01654052734375, 1.48095703125
145432, -0.015498390421271324, -0.1712627112865448, 0.056387484073638916, 0.3298732042312622, 0.07618748396635056, -0.9551028609275818, 0.1126435324549675, 0.023136237636208534, -0.21930737793445587, -0.010994566604495049, 0.1163233071565628, 0.24025283753871918, -1.340569173471412, -0.7345485792206148, -3.949615602577928, 9362.0, 30146.0, 35388.0, 9362.0, 8.05289363861084, 1.2564005851745605, 0.4838760197162628, -10.29188346862793, 0.006774863228201866, -0.0831073597073555, 0.9875864386558533, -0.08202476799488068, -0.06647872924804688, 1.490478515625, 1.341064453125, 0.01654052734375, 1.4794921875
145452, -0.016096612438559532, -0.1722339689731598, 0.08121905475854874, 0.33213192224502563, 0.07665083557367325, -0.9594855308532715, 0.11322805285453796, 0.02319507673382759, -0.21979109942913055, -0.011001250706613064, 0.11633624136447906, 0.24026672542095184, -1.319898116441257, -0.7152152959029934, -3.9502198769466883, 9362.0, 30146.0, 35388.0, 9362.0, 8.05289363861084, 1.0409375429153442, 0.34422168135643005, 7.595728397369385, -0.0012784884311258793, -0.07020361721515656, 1.0071626901626587, -0.0700603798031807, -0.08439826965332031, 1.489013671875, 1.341064453125, 0.01654052734375, 1.481689453125
145472, -0.02148115634918213, -0.17658117413520813, 0.05839661881327629, 0.3355419933795929, 0.07734803855419159, -0.9660841226577759, 0.11411400139331818, 0.02328774333000183, -0.2208070009946823, -0.011079240590333939, 0.1162375658750534, 0.23985962569713593, -2.0153387038302526, 0.25201447747778616, -3.7846931770711643, 9362.0, 30146.0, 35388.0, 9362.0, 8.033059120178223, 0.8517220616340637, 0.08242414146661758, -4.934060573577881, 0.006416513118892908, -0.06158711016178131, 0.9947317838668823, -0.07870898395776749, -0.15607833862304688, 1.483154296875, 1.341064453125, 0.01654052734375, 1.478759765625
145522, -0.022672312334179878, -0.17342478036880493, 0.05658816918730736, 0.34128516912460327, 0.07851652801036835, -0.977125883102417, 0.11560573428869247, 0.023452047258615494, -0.22205759584903717, -0.011008195579051971, 0.11631635576486588, 0.24025951325893402, -1.350987276451768, -0.7050420192125273, -3.956770713890968, 9362.0, 30146.0, 35388.0, 9362.0, 8.033059120178223, -1.3550859689712524, -0.21390751004219055, 7.048438549041748, -0.01438708882778883, -0.06974498927593231, 0.9923490285873413, -0.07373307645320892, -0.12023735046386719, 1.486083984375, 1.341064453125, 0.01654052734375, 1.4794921875
145572, -0.023944949731230736, -0.1700737178325653, 0.0616961233317852, 0.34710249304771423, 0.07969348877668381, -0.9882308840751648, 0.1170865148305893, 0.02362707443535328, -0.22315514087677002, -0.011000783182680607, 0.11632958054542542, 0.24021406471729279, -1.37139693696111, -0.7319883445968287, -3.958746897167168, 9362.0, 30146.0, 35388.0, 9362.0, 8.033059120178223, -1.1617954969406128, -0.575210452079773, 10.540141105651855, 0.003457547165453434, -0.06396782398223877, 0.9960219264030457, -0.06853916496038437, -0.1291980743408203, 1.4853515625, 1.341064453125, 0.01654052734375, 1.4794921875
145582, -0.019195398315787315, -0.1722557544708252, 0.055368635803461075, 0.34710249304771423, 0.07969348877668381, -0.9882308840751648, 0.1170865148305893, 0.02362707443535328, -0.22315514087677002, -0.011026342399418354, 0.11625266820192337, 0.2398754358291626, -2.011150291663557, 0.23088711827958264, -3.8253230030305994, 9362.0, 30146.0, 35388.0, 9362.0, 8.033059120178223, -1.1617954969406128, -0.575210452079773, 10.540141105651855, 0.003457547165453434, -0.06396782398223877, 0.9960219264030457, -0.07589790970087051, 0.04104042053222656, 1.499267578125, 1.341064453125, 0.01654052734375, 1.4794921875
145632, -0.017780408263206482, -0.17791584134101868, 0.06093456968665123, 0.35418084263801575, 0.08111758530139923, -1.0016400814056396, 0.11887018382549286, 0.023843811824917793, -0.2238515317440033, -0.011058124713599682, 0.1162513718008995, 0.23984794318675995, -2.046553945670519, 0.28759396028880246, -3.821395375886529, 9362.0, 30146.0, 35388.0, 9362.0, 8.033059120178223, 0.8049445152282715, 0.4547653794288635, -5.883478164672852, -0.006284770555794239, -0.08807242661714554, 1.0064605474472046, -0.08835132420063019, -0.11127853393554688, 1.48681640625, 1.311767578125, 0.0348052978515625, 1.484619140625
145652, -0.014753182418644428, -0.17914749681949615, 0.08946280181407928, 0.35656431317329407, 0.08159506320953369, -1.0061320066452026, 0.11947949230670929, 0.02390357293188572, -0.22497592866420746, -0.011048143729567528, 0.1162499487400055, 0.23987308144569397, -1.9930860921699625, 0.24924955499332668, -3.828012474128254, 9362.0, 30146.0, 35388.0, 9362.0, 8.05289363861084, 0.8049445152282715, 0.4547653794288635, -5.883478164672852, -0.0053495909087359905, -0.06451033800840378, 1.0060093402862549, -0.07488932460546494, -0.03959846496582031, 1.49267578125, 1.311767578125, 0.0348052978515625, 1.48095703125
145692, -0.01661718636751175, -0.1843462437391281, -0.0006537989829666913, 0.36136797070503235, 0.08255361020565033, -1.0151509046554565, 0.12070689350366592, 0.02402660623192787, -0.22623038291931152, -0.011026717722415924, 0.1163405254483223, 0.24018749594688416, -1.3656365234771353, -0.7071016763270279, -3.936747618865427, 9362.0, 30146.0, 35388.0, 9362.0, 8.05289363861084, 0.36243343353271484, 0.37597939372062683, -6.338298797607422, 0.007599940989166498, -0.08382157981395721, 0.9875581860542297, -0.06863409280776978, -0.08439826965332031, 1.489013671875, 1.311767578125, 0.0348052978515625, 1.48095703125
145712, -0.01863778382539749, -0.18481069803237915, 0.04777142405509949, 0.3637884259223938, 0.0830346941947937, -1.0196760892868042, 0.12134115397930145, 0.02407972328364849, -0.22622479498386383, -0.011040670797228813, 0.11623978614807129, 0.23988711833953857, -2.0562626720697055, 0.24119503646906537, -3.8474710985137834, 9362.0, 30146.0, 35388.0, 9362.0, 8.033059120178223, -1.101028561592102, -0.13175617158412933, -3.511788845062256, 0.007599940989166498, -0.08382157981395721, 0.9875581860542297, -0.039220549166202545, -0.09335899353027344, 1.48828125, 1.311767578125, 0.0348052978515625, 1.48388671875
145722, -0.021451251581311226, -0.1811203807592392, 0.07378333806991577, 0.3637884259223938, 0.0830346941947937, -1.0196760892868042, 0.12134115397930145, 0.02407972328364849, -0.22622479498386383, -0.011030953377485275, 0.11633112281560898, 0.24021072685718536, -1.4174643931421478, -0.6163171247271748, -3.926111056162469, 9362.0, 30146.0, 35388.0, 9362.0, 8.033059120178223, -1.101028561592102, -0.13175617158412933, -3.511788845062256, 0.007599940989166498, -0.08382157981395721, 0.9875581860542297, -0.06852809339761734, -0.12023735046386719, 1.486083984375, 1.311767578125, 0.0348052978515625, 1.48388671875
145742, -0.015811407938599586, -0.18392959237098694, 0.009996719658374786, 0.36622151732444763, 0.08351695537567139, -1.02421236038208, 0.12196653336286545, 0.02414897084236145, -0.2265859842300415, -0.010990450158715248, 0.116329126060009, 0.24024683237075806, -1.3521134721933583, -0.6982455379385897, -3.966087261775537, 9362.0, 30146.0, 35388.0, 9362.0, 8.033059120178223, -1.101028561592102, -0.13175617158412933, -3.511788845062256, -0.0008913071360439062, -0.08442371338605881, 0.9851367473602295, -0.06690797209739685, -0.07543754577636719, 1.48974609375, 1.311767578125, 0.0348052978515625, 1.48388671875
145762, -0.02066729962825775, -0.1805814504623413, 0.047820594161748886, 0.36989468336105347, 0.08424262702465057, -1.0310355424880981, 0.1229085624217987, 0.024230636656284332, -0.22743381559848785, -0.010976845398545265, 0.11631178110837936, 0.24023647606372833, -1.3429523426641985, -0.6848789213013617, -4.004803151720663, 9362.0, 30146.0, 35388.0, 9362.0, 8.033059120178223, -1.5496245622634888, -0.2599559426307678, -4.439640522003174, -0.0008913071360439062, -0.08442371338605881, 0.9851367473602295, -0.06690797209739685, -0.07543754577636719, 1.48974609375, 1.311767578125, 0.0348052978515625, 1.4794921875
145772, -0.02144468016922474, -0.18029320240020752, 0.05654369294643402, 0.37112531065940857, 0.08448510617017746, -1.0333153009414673, 0.12321431934833527, 0.024265924468636513, -0.2285148948431015, -0.011006003245711327, 0.11632105708122253, 0.24027375876903534, -1.3130840281802694, -0.7676616697378336, -3.9530231031174843, 9362.0, 30146.0, 35388.0, 9362.0, 8.05289363861084, -1.5496245622634888, -0.2599559426307678, -4.439640522003174, -0.0008913071360439062, -0.08442371338605881, 0.9851367473602295, -0.08047718554735184, -0.1650371551513672, 1.482421875, 1.311767578125, 0.0348052978515625, 1.483154296875
145792, -0.01889384165406227, -0.180219367146492, 0.001180430524982512, 0.3723590075969696, 0.0847279503941536, -1.0355974435806274, 0.12352485209703445, 0.024303192272782326, -0.22792096436023712, -0.010988104157149792, 0.11631810665130615, 0.24025940895080566, -1.3053232351894408, -0.726219183433642, -3.951916786208852, 9362.0, 30146.0, 35388.0, 9362.0, 8.05289363861084, -1.5496245622634888, -0.2599559426307678, -4.439640522003174, -0.0044859847985208035, -0.0818677768111229, 0.984155535697937, -0.0490790493786335, -0.05751800537109375, 1.4912109375, 1.311767578125, 0.0348052978515625, 1.482421875
145812, -0.02214229293167591, -0.18133044242858887, 0.04326518625020981, 0.3760785162448883, 0.0854584202170372, -1.0424588918685913, 0.12444636225700378, 0.024398038163781166, -0.22869721055030823, -0.010987089946866035, 0.1163085475564003, 0.2402193248271942, -1.3397119020976092, -0.7644177821061078, -3.9880984158748074, 9362.0, 30146.0, 35388.0, 9362.0, 8.05289363861084, -1.5496245622634888, -0.2599559426307678, -4.439640522003174, -0.008289576508104801, -0.07303225994110107, 0.9953653812408447, -0.0490790493786335, -0.05751800537109375, 1.4912109375, 1.311767578125, 0.0348052978515625, 1.477294921875
145852, -0.020423084497451782, -0.18143361806869507, 0.08477621525526047, 0.38120684027671814, 0.08646190166473389, -1.0518752336502075, 0.12571623921394348, 0.02454737201333046, -0.23055461049079895, -0.010408725589513779, 0.11632867902517319, 0.23926781117916107, -2.8617888906980116, 1.5119066582466303, -4.332932922311696, 9362.0, 30146.0, 35388.0, 9362.0, 8.033059120178223, -0.1689562052488327, 0.06786346435546875, 19.342748641967773, -0.006364385597407818, -0.0650491863489151, 1.0039665699005127, -0.05157603323459625, -0.08439826965332031, 1.489013671875, 1.311767578125, 0.0348052978515625, 1.483154296875
145872, -0.022075461223721504, -0.18010449409484863, 0.03688722103834152, 0.38372737169265747, 0.08695357292890549, -1.05648672580719, 0.12633340060710907, 0.02462088316679001, -0.2314210832118988, -0.011019554920494556, 0.11632716655731201, 0.2402191013097763, -1.3723284585773623, -0.6840033787597974, -3.9303182845569844, 9362.0, 30146.0, 35388.0, 9362.0, 8.033059120178223, -0.09299524128437042, -0.22016975283622742, -5.679286003112793, 0.008185754530131817, -0.0670834556221962, 0.9905176758766174, -0.05157603323459625, -0.08439826965332031, 1.489013671875, 1.311767578125, 0.0348052978515625, 1.4794921875
145902, -0.020563879981637, -0.17974817752838135, 0.08045279234647751, 0.3875312805175781, 0.08769376575946808, -1.0634344816207886, 0.12726150453090668, 0.024722229689359665, -0.23217105865478516, -0.010997248813509941, 0.11632033437490463, 0.2402123361825943, -1.3500717009097796, -0.7223113097935538, -3.9635795042959905, 9362.0, 30146.0, 35388.0, 9362.0, 8.05289363861084, -0.011427003890275955, -0.025639861822128296, -6.634789943695068, 0.008185754530131817, -0.0670834556221962, 0.9905176758766174, -0.09006636589765549, -0.1291980743408203, 1.4853515625, 1.311767578125, 0.0348052978515625, 1.483154296875
145912, -0.02184857800602913, -0.18292461335659027, 0.03847630321979523, 0.3875312805175781, 0.08769376575946808, -1.0634344816207886, 0.12726150453090668, 0.024722229689359665, -0.23217105865478516, -0.011023211292922497, 0.1163148432970047, 0.24017764627933502, -1.429369452007534, -0.5842429504847644, -3.9242867740144436, 9362.0, 30146.0, 35388.0, 9362.0, 8.033059120178223, -0.011427003890275955, -0.025639861822128296, -6.634789943695068, 0.008185754530131817, -0.0670834556221962, 0.9905176758766174, -0.09285883605480194, -0.12023735046386719, 1.486083984375, 1.311767578125, 0.0348052978515625, 1.480224609375
145962, -0.02171153575181961, -0.18683750927448273, 0.035603348165750504, 0.3939334452152252, 0.08893436193466187, -1.0750612020492554, 0.12883786857128143, 0.0248954389244318, -0.23323486745357513, -0.011010508053004742, 0.1163250282406807, 0.24021993577480316, -1.3409117591724127, -0.6647453998621415, -3.933621753411577, 9362.0, 30146.0, 35388.0, 9362.0, 8.05289363861084, -0.43819454312324524, -0.0903857871890068, 19.927602767944336, -0.010442144237458706, -0.07859852910041809, 0.997413694858551, -0.07399143278598785, -0.12023735046386719, 1.486083984375, 1.311767578125, 0.0348052978515625, 1.484619140625
146122, -0.023848678916692734, -0.19255085289478302, 0.01580624468624592, 0.4163036048412323, 0.09321760386228561, -1.1149719953536987, 0.13433952629566193, 0.025500863790512085, -0.23721499741077423, -0.011029287241399288, 0.11632610857486725, 0.24024127423763275, -1.3571278728856775, -0.6917509348749604, -3.9137898302674055, 9362.0, 30146.0, 35388.0, 9362.0, 8.05289363861084, -0.4971749782562256, 0.3060896396636963, -2.698486089706421, 0.009470237419009209, -0.06564441323280334, 0.9887266755104065, -0.06911073625087738, 0.09480094909667969, 1.503662109375, 1.311767578125, 0.0348052978515625, 1.48095703125
146132, -0.01768694818019867, -0.19164031744003296, 0.05276370048522949, 0.41764864325523376, 0.09347281605005264, -1.1173429489135742, 0.1346699744462967, 0.02554207481443882, -0.23698534071445465, -0.010380244813859463, 0.11632421612739563, 0.23923474550247192, -2.955091979715288, 1.5679032791680356, -4.394400770706309, 9362.0, 30146.0, 35388.0, 9362.0, 8.033059120178223, -0.4971749782562256, 0.3060896396636963, -2.698486089706421, 0.009470237419009209, -0.06564441323280334, 0.9887266755104065, -0.06911073625087738, 0.09480094909667969, 1.503662109375, 1.311767578125, 0.0348052978515625, 1.48095703125
146142, -0.021279579028487206, -0.1884135752916336, -0.01105235330760479, 0.4189969599246979, 0.09372838586568832, -1.1197164058685303, 0.13499583303928375, 0.025572050362825394, -0.237702876329422, -0.0109960762783885, 0.11633893102407455, 0.24029012024402618, -1.2869015460502515, -0.7878865261821204, -3.9350610666226413, 9362.0, 30146.0, 35388.0, 9362.0, 8.05289363861084, -0.4971749782562256, 0.3060896396636963, -2.698486089706421, 0.009470237419009209, -0.06564441323280334, 0.9887266755104065, -0.06572646647691727, -0.08439826965332031, 1.489013671875, 1.311767578125, 0.0348052978515625, 1.4765625
146182, -0.019593538716435432, -0.18884579837322235, 0.055906038731336594, 0.4244225025177002, 0.09475436806678772, -1.1292446851730347, 0.13628509640693665, 0.025733578950166702, -0.23821042478084564, -0.010995019227266312, 0.11632312834262848, 0.2401643842458725, -1.4597923258850252, -0.5130291753592076, -3.9719596357435734, 9362.0, 30146.0, 35388.0, 9362.0, 8.05289363861084, 1.0484977960586548, 0.14583757519721985, -5.4370856285095215, -0.001084706629626453, -0.08028487861156464, 1.011335849761963, -0.06936179101467133, -0.07543754577636719, 1.48974609375, 1.311767578125, 0.0348052978515625, 1.4794921875
146192, -0.022315718233585358, -0.18780450522899628, -0.0034831762313842773, 0.4244225025177002, 0.09475436806678772, -1.1292446851730347, 0.13628509640693665, 0.025733578950166702, -0.23821042478084564, -0.011007195338606834, 0.11632400751113892, 0.24027489125728607, -1.3081249693448767, -0.7894837007780495, -3.936622920949907, 9362.0, 30146.0, 35388.0, 9362.0, 8.033059120178223, 1.0484977960586548, 0.14583757519721985, -5.4370856285095215, -0.001084706629626453, -0.08028487861156464, 1.011335849761963, -0.06026647984981537, -0.08439826965332031, 1.489013671875, 1.311767578125, 0.0348052978515625, 1.480224609375
146202, -0.02367391064763069, -0.18981708586215973, 0.0855044573545456, 0.4244225025177002, 0.09475436806678772, -1.1292446851730347, 0.13628509640693665, 0.025733578950166702, -0.23821042478084564, -0.010978695005178452, 0.1163160502910614, 0.24022118747234344, -1.3835163405974396, -0.6382432907725502, -3.991406625781234, 9362.0, 30146.0, 35388.0, 9362.0, 8.033059120178223, 1.0484977960586548, 0.14583757519721985, -5.4370856285095215, -0.001084706629626453, -0.08028487861156464, 1.011335849761963, -0.06912191212177277, -0.1650371551513672, 1.482421875, 1.311767578125, 0.0348052978515625, 1.48095703125
146212, -0.023020926862955093, -0.18772122263908386, 0.04317103698849678, 0.42852553725242615, 0.09552799165248871, -1.1364059448242188, 0.13725392520427704, 0.025846485048532486, -0.23859186470508575, -0.010391315445303917, 0.1163468137383461, 0.23927365243434906, -2.8840539016337186, 1.4788626451227742, -4.378284842354034, 9362.0, 30146.0, 35388.0, 9362.0, 8.033059120178223, 1.0484977960586548, 0.14583757519721985, -5.4370856285095215, -0.001084706629626453, -0.08028487861156464, 1.011335849761963, -0.06912191212177277, -0.1650371551513672, 1.482421875, 1.311767578125, 0.0348052978515625, 1.4794921875
146222, -0.02334526740014553, -0.18833474814891815, 0.017550524324178696, 0.42852553725242615, 0.09552799165248871, -1.1364059448242188, 0.13725392520427704, 0.025846485048532486, -0.23859186470508575, -0.010986716486513615, 0.11633262038230896, 0.2402086704969406, -1.3973924194682164, -0.6215611801438286, -3.9883883429703215, 9362.0, 30146.0, 35388.0, 9362.0, 8.033059120178223, 1.0484977960586548, 0.14583757519721985, -5.4370856285095215, -0.001084706629626453, -0.08028487861156464, 1.011335849761963, -0.06937728077173233, -0.09335899353027344, 1.48828125, 1.311767578125, 0.0348052978515625, 1.48095703125
146242, -0.022046642377972603, -0.1865072101354599, -0.00629545608535409, 0.43265753984451294, 0.09630510956048965, -1.1435933113098145, 0.13821661472320557, 0.02595408260822296, -0.23997095227241516, -0.010411400347948074, 0.11635447293519974, 0.23926514387130737, -2.8993924835356633, 1.5337470425019717, -4.3377580392229165, 9362.0, 30146.0, 35388.0, 9362.0, 8.033059120178223, 0.02699103206396103, -0.17780621349811554, -7.422049045562744, -0.008190900087356567, -0.07896146923303604, 0.986128568649292, -0.06937728077173233, -0.09335899353027344, 1.48828125, 1.311767578125, 0.0348052978515625, 1.481689453125
146252, -0.021322177723050117, -0.1864122897386551, 0.08035028725862503, 0.43265753984451294, 0.09630510956048965, -1.1435933113098145, 0.13821661472320557, 0.02595408260822296, -0.23997095227241516, -0.011000711470842361, 0.11630186438560486, 0.24014759063720703, -1.4949016947589302, -0.5610738049488475, -3.980781783986815, 9362.0, 30146.0, 35388.0, 9362.0, 8.033059120178223, 0.02699103206396103, -0.17780621349811554, -7.422049045562744, -0.008190900087356567, -0.07896146923303604, 0.986128568649292, -0.06392693519592285, 0.08584022521972656, 1.5029296875, 1.311767578125, 0.0348052978515625, 1.481689453125
146272, -0.02610923908650875, -0.18288804590702057, 0.004835160449147224, 0.43681833148002625, 0.09708543866872787, -1.1508097648620605, 0.13916663825511932, 0.026070114225149155, -0.2413744330406189, -0.011034095659852028, 0.11626435816287994, 0.23989446461200714, -2.052871000578769, 0.3171040658858715, -3.837020182498134, 9362.0, 30146.0, 35388.0, 9362.0, 8.033059120178223, 0.02699103206396103, -0.17780621349811554, -7.422049045562744, -0.008190900087356567, -0.07896146923303604, 0.986128568649292, -0.06327448785305023, -0.07543754577636719, 1.48974609375, 1.311767578125, 0.0348052978515625, 1.481689453125
146302, -0.023269226774573326, -0.18772844970226288, 0.07369475811719894, 0.441007524728775, 0.09786933660507202, -1.1580524444580078, 0.14011642336845398, 0.02618468552827835, -0.24209611117839813, -0.011000389233231544, 0.11630144715309143, 0.24020029604434967, -1.3871813658899346, -0.6900131801566829, -3.9853270855993816, 9362.0, 30146.0, 35388.0, 9362.0, 8.033059120178223, -0.4366132616996765, 0.16313080489635468, 19.670982360839844, -0.011392541229724884, -0.07353954017162323, 0.9856536984443665, -0.05823751538991928, 0.08584022521972656, 1.5029296875, 1.311767578125, 0.0348052978515625, 1.48095703125
146312, -0.02216442860662937, -0.18658801913261414, 0.03418968617916107, 0.44241032004356384, 0.09813138842582703, -1.1604697704315186, 0.1404402107000351, 0.026225009933114052, -0.24137337505817413, -0.010428650304675102, 0.11634833365678787, 0.23931175470352173, -2.8249320578348116, 1.4383173388133912, -4.31611679126625, 9362.0, 30146.0, 35388.0, 9362.0, 8.05289363861084, -0.4366132616996765, 0.16313080489635468, 19.670982360839844, -0.011392541229724884, -0.07353954017162323, 0.9856536984443665, -0.0379306897521019, 0.1396007537841797, 1.50732421875, 1.311767578125, 0.0348052978515625, 1.481689453125
146362, -0.0206208024173975, -0.18753859400749207, 0.028001409024000168, 0.44947174191474915, 0.09944711625576019, -1.1725984811782837, 0.1420159786939621, 0.02640017494559288, -0.24301956593990326, -0.011008483357727528, 0.11633723229169846, 0.24026203155517578, -1.297947871766183, -0.7564462337970781, -3.9504371621601932, 9362.0, 30146.0, 35388.0, 9362.0, 8.05289363861084, -0.02996058389544487, 0.24819369614124298, -5.816463470458984, -0.009818661957979202, -0.08058465272188187, 0.999603807926178, -0.03755880147218704, -0.06647872924804688, 1.490478515625, 1.311767578125, 0.0348052978515625, 1.33447265625
146372, -0.020383669063448906, -0.1853010505437851, -0.007471621036529541, 0.44947174191474915, 0.09944711625576019, -1.1725984811782837, 0.1420159786939621, 0.02640017494559288, -0.24301956593990326, -0.010406427085399628, 0.11629847437143326, 0.2392658293247223, -2.877834475137565, 1.444006595861424, -4.333532644356719, 9362.0, 30146.0, 35388.0, 9362.0, 8.05289363861084, -0.02996058389544487, 0.24819369614124298, -5.816463470458984, -0.009818661957979202, -0.08058465272188187, 0.999603807926178, -0.06609345972537994, -0.08439826965332031, 1.489013671875, 1.311767578125, 0.0348052978515625, 1.48828125
146382, -0.015550794079899788, -0.1876380294561386, 0.051016613841056824, 0.4523184299468994, 0.0999758169054985, -1.177473545074463, 0.14265185594558716, 0.02647034078836441, -0.2438208907842636, -0.011029559187591076, 0.11630530655384064, 0.24020889401435852, -1.3862632717105998, -0.5984745516877865, -3.9302144802004366, 9362.0, 30146.0, 35388.0, 9362.0, 8.05289363861084, -0.02996058389544487, 0.24819369614124298, -5.816463470458984, -0.009818661957979202, -0.08058465272188187, 0.999603807926178, -0.06241191178560257, -0.030637741088867188, 1.493408203125, 1.311767578125, 0.0348052978515625, 1.481689453125
146482, -0.01418391801416874, -0.18519538640975952, 0.05970115214586258, 0.4652855098247528, 0.10237116366624832, -1.1994974613189697, 0.14548765122890472, 0.026761775836348534, -0.2460448145866394, -0.01100187748670578, 0.11630682647228241, 0.2401827871799469, -1.455808101187248, -0.5930222885572505, -3.9676251537725418, 9362.0, 30146.0, 35388.0, 9362.0, 8.033059120178223, 0.9943755269050598, 0.27330195903778076, -0.1701180636882782, -0.006161912344396114, -0.08501482009887695, 1.0013256072998047, -0.08976654708385468, -0.06647872924804688, 1.490478515625, 1.311767578125, 0.0348052978515625, 1.480224609375
146502, -0.018785880878567696, -0.18269191682338715, 0.0664311870932579, 0.468201607465744, 0.10290698707103729, -1.2044137716293335, 0.14612102508544922, 0.026817120611667633, -0.24583429098129272, -0.011007444001734257, 0.11632829904556274, 0.2401522994041443, -1.3806220681841723, -0.6367363940853181, -3.9481106571509526, 9362.0, 30146.0, 35388.0, 9362.0, 8.033059120178223, -0.9150807857513428, -0.20175480842590332, 19.3153133392334, -0.00300917262211442, -0.06331045180559158, 1.0009870529174805, -0.06416511535644531, -0.08439826965332031, 1.489013671875, 1.311767578125, 0.0348052978515625, 1.483154296875
146552, -0.017755700275301933, -0.1840532273054123, 0.06903664022684097, 0.47554677724838257, 0.10425155609846115, -1.2167340517044067, 0.14768293499946594, 0.02695612981915474, -0.24697573482990265, -0.010986843146383762, 0.11630412936210632, 0.24017547070980072, -1.4788774363897765, -0.6168457700943577, -3.986624370020374, 9362.0, 30146.0, 35388.0, 9362.0, 8.05289363861084, 1.0859224796295166, 0.2911662459373474, 6.320393085479736, -0.0017701858887448907, -0.05739911273121834, 0.9960673451423645, -0.06738124042749405, -0.10231781005859375, 1.487548828125, 1.33447265625, 0.0186309814453125, 1.484619140625
146582, -0.014011983759701252, -0.19177725911140442, 0.061448995023965836, 0.4799914062023163, 0.1050615981221199, -1.224158763885498, 0.14863063395023346, 0.027045952156186104, -0.24814864993095398, -0.011007578112185001, 0.11629578471183777, 0.24015161395072937, -1.4706223438702242, -0.5372735813051293, -3.956496017636604, 9362.0, 30146.0, 35388.0, 9362.0, 8.033059120178223, -1.2185392379760742, -0.09622278809547424, -5.1023359298706055, -0.0087872464209795, -0.06959380954504013, 1.0075433254241943, -0.06382887065410614, -0.05751800537109375, 1.4912109375, 1.33447265625, 0.0186309814453125, 1.482421875
146652, -0.01769205927848816, -0.1914743036031723, 0.06416765600442886, 0.49047577381134033, 0.10696175694465637, -1.2415775060653687, 0.150932177901268, 0.027237292379140854, -0.24960508942604065, -0.010978198610246181, 0.11631810665130615, 0.24031962454319, -1.2085386002986556, -0.9163816292447109, -3.9780968790742968, 9362.0, 30146.0, 35388.0, 9362.0, 8.05289363861084, -1.196098804473877, -0.27050694823265076, 13.432538986206055, -0.007215591613203287, -0.07022111862897873, 1.0069934129714966, -0.0727941244840622, -0.11127853393554688, 1.48681640625, 1.33447265625, 0.0186309814453125, 1.486083984375
146662, -0.016194909811019897, -0.19178174436092377, 0.0360146164894104, 0.4919867515563965, 0.10723426938056946, -1.2440775632858276, 0.15126104652881622, 0.027265088632702827, -0.25041481852531433, -0.011029191315174103, 0.11633865535259247, 0.24023042619228363, -1.3680110373980077, -0.6121019398607928, -3.9228559710312103, 9362.0, 30146.0, 35388.0, 9362.0, 8.05289363861084, -1.196098804473877, -0.27050694823265076, 13.432538986206055, -0.0072415373288095, -0.08568429946899414, 1.0061982870101929, -0.0727941244840622, -0.11127853393554688, 1.48681640625, 1.33447265625, 0.0186309814453125, 1.486083984375
146682, -0.012410850264132023, -0.19114457070827484, 0.06120360642671585, 0.4919867515563965, 0.10723426938056946, -1.2440775632858276, 0.15126104652881622, 0.027265088632702827, -0.25041481852531433, -0.01095141377300024, 0.11621036380529404, 0.2402423918247223, -1.0551916322957617, -0.9045170636701982, -3.872564116134571, 9362.0, 30146.0, 35388.0, 9362.0, 8.05289363861084, -1.196098804473877, -0.27050694823265076, 13.432538986206055, -0.003154967911541462, -0.06656711548566818, 1.0071948766708374, -0.05201846733689308, -0.15607833862304688, 1.483154296875, 1.33447265625, 0.0186309814453125, 1.480224609375
146692, -0.016388190910220146, -0.1910638064146042, 0.007020134944468737, 0.49653932452201843, 0.1080535352230072, -1.2515931129455566, 0.15224212408065796, 0.027351252734661102, -0.2509121298789978, -0.011002800427377224, 0.11633112281560898, 0.2402736395597458, -1.2591236543626452, -0.7855029598489693, -3.9494823982643, 9362.0, 30146.0, 35388.0, 9362.0, 8.033059120178223, -1.196098804473877, -0.27050694823265076, 13.432538986206055, -0.003154967911541462, -0.06656711548566818, 1.0071948766708374, -0.05201846733689308, -0.15607833862304688, 1.483154296875, 1.33447265625, 0.0186309814453125, 1.48095703125
146722, -0.014949072152376175, -0.18984189629554749, -0.02313222736120224, 0.5011212229728699, 0.10887518525123596, -1.2591277360916138, 0.15321624279022217, 0.027430398389697075, -0.2510700225830078, -0.011007489636540413, 0.11633400619029999, 0.2402648776769638, -1.290603014427425, -0.7361367367268201, -3.9314214329355015, 9362.0, 30146.0, 35388.0, 9362.0, 8.05289363861084, 0.9000424742698669, 0.5577183365821838, -10.310266494750977, 0.006231294944882393, -0.0851798877120018, 0.9879470467567444, -0.06371389329433441, -0.08439826965332031, 1.489013671875, 1.33447265625, 0.0186309814453125, 1.481689453125
146772, -0.016096726059913635, -0.1857643723487854, -0.016294369474053383, 0.5072755813598633, 0.10997426509857178, -1.2692054510116577, 0.15450303256511688, 0.027524638921022415, -0.2529698610305786, -0.010986830107867718, 0.11630555242300034, 0.24022254347801208, -1.3938226903464055, -0.6608063012834009, -3.963227716930264, 9362.0, 30146.0, 35388.0, 9362.0, 8.05289363861084, 0.7066980600357056, -0.008825181052088737, -6.016172885894775, 0.004842943511903286, -0.06503410637378693, 0.9928513169288635, -0.07594098895788193, -0.0037593841552734375, 1.49560546875, 1.33447265625, 0.0186309814453125, 1.48681640625
146792, -0.017012344673275948, -0.18369010090827942, 0.010962838307023048, 0.5119251012802124, 0.11080127954483032, -1.2767874002456665, 0.1554633378982544, 0.027607090771198273, -0.2530476152896881, -0.010980233550071716, 0.11632254719734192, 0.24022176861763, -1.390506147010362, -0.643672933406009, -3.9762234727541053, 9362.0, 30146.0, 35388.0, 9362.0, 8.033059120178223, -1.1521096229553223, -0.5910298228263855, -4.776452541351318, 0.004842943511903286, -0.06503410637378693, 0.9928513169288635, -0.07594098895788193, -0.0037593841552734375, 1.49560546875, 1.33447265625, 0.0186309814453125, 1.480224609375
146802, -0.020104384049773216, -0.18073607981204987, 0.05605808645486832, 0.5119251012802124, 0.11080127954483032, -1.2767874002456665, 0.1554633378982544, 0.027607090771198273, -0.2530476152896881, -0.010996486060321331, 0.11636228114366531, 0.24015139043331146, -1.410024214520037, -0.5690953056255523, -3.9308828794425765, 9362.0, 30146.0, 35388.0, 9362.0, 8.033059120178223, -1.1521096229553223, -0.5910298228263855, -4.776452541351318, -0.00099056342151016, -0.05947275459766388, 0.9925975799560547, -0.07594098895788193, -0.0037593841552734375, 1.49560546875, 1.33447265625, 0.0186309814453125, 1.480224609375
146822, -0.017091523855924606, -0.1822640746831894, -0.022124098613858223, 0.5150406956672668, 0.11135392636060715, -1.2818549871444702, 0.15609465539455414, 0.027660105377435684, -0.25419723987579346, -0.010981958359479904, 0.11631739139556885, 0.24022553861141205, -1.362633211108092, -0.67028803309654, -3.971136434847145, 9362.0, 30146.0, 35388.0, 9362.0, 8.05289363861084, 0.8504273295402527, -0.051236554980278015, 8.768840789794922, 0.0029234448447823524, -0.08359052985906601, 0.9860064387321472, -0.07594098895788193, -0.0037593841552734375, 1.49560546875, 1.33447265625, 0.0186309814453125, 1.478759765625
146842, -0.018792707473039627, -0.18186500668525696, 0.010650210082530975, 0.5197375416755676, 0.11218515038490295, -1.289475917816162, 0.15702970325946808, 0.027751170098781586, -0.25443801283836365, -0.01100129634141922, 0.11631079018115997, 0.24023833870887756, -1.3932533358523103, -0.6772463064303906, -3.945306946101658, 9362.0, 30146.0, 35388.0, 9362.0, 8.033059120178223, -1.3490744829177856, -0.29080185294151306, 8.589622497558594, -0.014810432679951191, -0.07324209064245224, 0.9929072260856628, -0.07372770458459854, -0.05751800537109375, 1.4912109375, 1.33447265625, 0.0186309814453125, 1.4794921875
146852, -0.020904408767819405, -0.18068385124206543, 0.054713550955057144, 0.5213093757629395, 0.11246278882026672, -1.292020559310913, 0.15734031796455383, 0.027776775881648064, -0.25448715686798096, -0.01098774466663599, 0.1162937730550766, 0.24023562669754028, -1.3259191877905998, -0.7807584806550096, -3.979990357506549, 9362.0, 30146.0, 35388.0, 9362.0, 8.033059120178223, 0.850455105304718, 0.25128477811813354, -4.48099422454834, -0.014810432679951191, -0.07324209064245224, 0.9929072260856628, -0.07892797142267227, -0.12023735046386719, 1.486083984375, 1.33447265625, 0.0186309814453125, 1.48388671875
146882, -0.01620437204837799, -0.18066012859344482, 0.06535124778747559, 0.5260434746742249, 0.11329758912324905, -1.2996715307235718, 0.1582689732313156, 0.027874577790498734, -0.25579920411109924, -0.010999768041074276, 0.11630889028310776, 0.24018260836601257, -1.4004545684659588, -0.6320916710160986, -3.9491812485531996, 9362.0, 30146.0, 35388.0, 9362.0, 8.033059120178223, 0.8390542268753052, 0.11241021007299423, 11.581932067871094, -0.002631198149174452, -0.06480126827955246, 1.0029395818710327, -0.04886411130428314, -0.11127853393554688, 1.48681640625, 1.33447265625, 0.0186309814453125, 1.480224609375
146902, -0.01918257586658001, -0.18269138038158417, 0.06176555156707764, 0.5292150378227234, 0.11385568976402283, -1.3047919273376465, 0.15888720750808716, 0.0279337540268898, -0.25605490803718567, -0.010976794175803661, 0.11631986498832703, 0.2402804046869278, -1.2908577402176367, -0.7870647067390166, -4.001983581148524, 9362.0, 30146.0, 35388.0, 9362.0, 8.05289363861084, -1.1486717462539673, 0.12033897638320923, 9.643312454223633, -0.011450164951384068, -0.07169212400913239, 0.9949139356613159, -0.06532645225524902, -0.07543754577636719, 1.48974609375, 1.33447265625, 0.0186309814453125, 1.475830078125
146932, -0.016458822414278984, -0.18088524043560028, 0.0680270791053772, 0.5339956879615784, 0.11469513922929764, -1.3124903440475464, 0.1598220318555832, 0.028027571737766266, -0.2571830153465271, -0.011018553748726845, 0.11632614582777023, 0.2401585429906845, -1.413674038165297, -0.6079539967694245, -3.937009837000446, 9362.0, 30146.0, 35388.0, 9362.0, 8.033059120178223, 0.6790467500686646, -0.18913467228412628, 12.42690658569336, -0.00244163884781301, -0.06324131041765213, 1.0058643817901611, -0.06231565773487091, -0.0037593841552734375, 1.49560546875, 1.33447265625, 0.0186309814453125, 1.486083984375
146942, -0.019879816100001335, -0.18276913464069366, 0.00929987896233797, 0.5355954766273499, 0.11497556418180466, -1.315062165260315, 0.1601332128047943, 0.028058141469955444, -0.257170706987381, -0.011000667698681355, 0.11630123108625412, 0.24019236862659454, -1.3898777729475504, -0.6850949731905871, -3.979928107866177, 9362.0, 30146.0, 35388.0, 9362.0, 8.033059120178223, -0.9970001578330994, 0.24980390071868896, 10.74646282196045, -0.013650991022586823, -0.07595974951982498, 0.9947643876075745, -0.06126666069030762, 0.014162063598632812, 1.4970703125, 1.33447265625, 0.0186309814453125, 1.480224609375
