timeTick, roll, pitch, yaw, stateX, stateY, stateZ, stateVX, stateVY, stateVZ, otX0, otY0, otZ0, otRoll0, otPitch0, otYaw0, left wing, pitch motor, yaw motor, right wing, voltage, roll rate, pitch rate, yaw rate, A_x, A_y, A_z, current, i_raw, v_raw, airflow_voltage, airflow_speed, pot_Pitch
459869, 0.2444838285446167, -1.0547845363616943, 0.3162936866283417, 0, 0, 0, 0, 0, 0, 0.0011369390413165092, 0.11090592294931412, 0.23887786269187927, -4.20785593406149, 4.870729184514971, -14.351326622019615, 0, 0, 0, 0, 0, 0, 0, 0, 0, 0, 0, 0, 0, 0, 0, 0, 0
459879, 0.24502070248126984, -1.0570021867752075, 0.31735941767692566, 9.981807708740234, -2.0914411544799805, -1.921411156654358, 1.674283504486084, -0.36519935727119446, -0.21553419530391693, 0.0011391909793019295, 0.11091554164886475, 0.23890164494514465, -4.195392603682266, 4.832864107308723, -14.347030314987913, 9362.0, 36699.0, 35388.0, 9362.0, 8.251240730285645, 0.15209588408470154, 0.022746920585632324, 0.3125542402267456, -0.0028665896970778704, -0.06827493757009506, 0.9988692998886108, -0.11734997481107712, -0.11127853393554688, 1.48681640625, 0, 0, 0
459889, 0.24539606273174286, -1.0562081336975098, 0.31888464093208313, 9.998559951782227, -2.095095157623291, -1.9235665798187256, 1.6760917901992798, -0.36560800671577454, -0.215543732047081, 0.0011621331796050072, 0.11091286689043045, 0.23889504373073578, -4.194869552155816, 4.840970063588344, -14.345980019433313, 9362.0, 36699.0, 35388.0, 9362.0, 8.251240730285645, 0.15980464220046997, -0.3402986526489258, -0.04501708596944809, -0.0011136563261970878, -0.06803559511899948, 0.9991334080696106, -0.11502466350793839, -0.13815879821777344, 1.484619140625, 1.49560546875, 0.1868743896484375, 1.660400390625
459899, 0.24578826129436493, -1.053760290145874, 0.3182297945022583, 10.01533031463623, -2.0987532138824463, -1.925722599029541, 1.6779018640518188, -0.36601704359054565, -0.2156495898962021, 0.001135258935391903, 0.11091100424528122, 0.23890675604343414, -4.229618319407569, 4.844496577466543, -14.349444486749892, 9362.0, 36699.0, 35388.0, 9362.0, 8.251240730285645, -0.0950770378112793, 0.41965609788894653, 0.283522367477417, -0.0015597870806232095, -0.06776918470859528, 0.9990514516830444, -0.11825457960367203, -0.10231781005859375, 1.487548828125, 1.491943359375, 0.179656982421875, 1.661865234375
459909, 0.244808167219162, -1.0569961071014404, 0.3205537796020508, 10.032118797302246, -2.1024153232574463, -1.9278796911239624, 1.6797106266021729, -0.3664267659187317, -0.21575748920440674, 0.0011449623852968216, 0.11091823875904083, 0.23881573975086212, -4.250404588658395, 4.911564292436964, -14.339990912468137, 9362.0, 36699.0, 35388.0, 9362.0, 8.251240730285645, 0.06610915064811707, 0.15789484977722168, 0.17419807612895966, -0.0023916757199913263, -0.06804949045181274, 1.0004806518554688, -0.11639028042554855, -0.1291980743408203, 1.4853515625, 1.490478515625, 0.1768646240234375, 1.658203125
459919, 0.24496327340602875, -1.057395100593567, 0.32024088501930237, 10.048925399780273, -2.10608172416687, -1.9300377368927002, 1.681516170501709, -0.36683720350265503, -0.21584710478782654, 0.0011561131104826927, 0.11090990900993347, 0.238937646150589, -4.124987243145266, 4.743112759798237, -14.35297431457629, 9362.0, 36699.0, 35388.0, 9362.0, 8.231406211853027, 0.08070175349712372, -0.020704500377178192, -0.2647625207901001, -0.004982746206223965, -0.06975387781858444, 0.997673749923706, -0.1155623123049736, -0.06647872924804688, 1.490478515625, 1.49560546875, 0.1868743896484375, 1.66259765625
459929, 0.24630437791347504, -1.056888461112976, 0.3181150555610657, 10.065749168395996, -2.1097521781921387, -1.9321961402893066, 1.68332839012146, -0.36724627017974854, -0.21584440767765045, 0.0011257603764533997, 0.1109025850892067, 0.23886370658874512, -4.210796663481089, 4.902980071511536, -14.341098650604122, 9362.0, 36699.0, 35388.0, 9362.0, 8.231406211853027, 0.018544021993875504, -0.18857626616954803, -0.026409132406115532, -0.003941672388464212, -0.0706358551979065, 0.9977807402610779, -0.11522585898637772, -0.08439826965332031, 1.489013671875, 1.493408203125, 0.1825714111328125, 1.66259765625
459939, 0.24695956707000732, -1.0552157163619995, 0.3175525665283203, 10.08259105682373, -2.113426685333252, -1.934355616569519, 1.6851375102996826, -0.3676548898220062, -0.21605134010314941, 0.0011314917355775833, 0.1109151765704155, 0.23883265256881714, -4.29715467813684, 4.917193719998863, -14.320685889533134, 9362.0, 36699.0, 35388.0, 9362.0, 8.231406211853027, 0.11576777696609497, 0.32002004981040955, -0.02098751999437809, -0.0020619123242795467, -0.06739810109138489, 0.9987387657165527, -0.11269538104534149, -0.1291980743408203, 1.4853515625, 1.497802734375, 0.19122314453125, 1.660400390625
459949, 0.24796077609062195, -1.0560017824172974, 0.3167552649974823, 10.099451065063477, -2.11710524559021, -1.936517357826233, 1.6869453191757202, -0.36806562542915344, -0.21629078686237335, 0.0011293906718492508, 0.1109168604016304, 0.2388542741537094, -4.193439928246891, 4.877323631727165, -14.338692806235327, 9362.0, 36699.0, 35388.0, 9362.0, 8.231406211853027, 0.06340689212083817, 0.10951869934797287, 0.10803686827421188, -0.0021290325094014406, -0.06556016206741333, 0.999233067035675, -0.11324575543403625, -0.11127853393554688, 1.48681640625, 1.493408203125, 0.1825714111328125, 1.6611328125
459959, 0.24825802445411682, -1.056338906288147, 0.3165828287601471, 10.116329193115234, -2.1207878589630127, -1.9386810064315796, 1.688751459121704, -0.36847788095474243, -0.2164427787065506, 0.0011261124163866043, 0.11091345548629761, 0.23885174095630646, -4.2412642862975085, 4.876923963483108, -14.337872707613931, 9362.0, 36699.0, 35388.0, 9362.0, 8.231406211853027, 0.34349262714385986, 0.4112485349178314, -0.13729995489120483, -0.004888014402240515, -0.06724896281957626, 0.99801105260849, -0.11461643129587173, -0.07543754577636719, 1.48974609375, 1.49853515625, 0.1927032470703125, 1.660400390625
459969, 0.24967768788337708, -1.0596129894256592, 0.31588518619537354, 10.133225440979004, -2.1244747638702393, -1.9408458471298218, 1.6905604600906372, -0.3688920736312866, -0.21653632819652557, 0.001138388179242611, 0.11091260612010956, 0.2389041781425476, -4.198280590867168, 4.810568550433146, -14.351064649640008, 9362.0, 36699.0, 35388.0, 9362.0, 8.231406211853027, -0.04791417717933655, 0.33600595593452454, 0.14854519069194794, -0.004337823484092951, -0.0675392597913742, 0.9982309341430664, -0.1124650314450264, -0.09335899353027344, 1.48828125, 1.50439453125, 0.2044219970703125, 1.658203125
459979, 0.24974395334720612, -1.062027931213379, 0.31709063053131104, 10.150139808654785, -2.1281657218933105, -1.9430121183395386, 1.6923680305480957, -0.36930644512176514, -0.2167278677225113, 0.0011274944990873337, 0.11091594398021698, 0.23885275423526764, -4.258529922745262, 4.937427619706568, -14.351395627733735, 9362.0, 36699.0, 35388.0, 9362.0, 8.231406211853027, 0.13689745962619781, -0.2992863953113556, -0.06491719186306, -0.0014921632828190923, -0.06801148504018784, 0.998603105545044, -0.11367480456829071, -0.10231781005859375, 1.487548828125, 1.494873046875, 0.185455322265625, 1.6611328125
459989, 0.25029250979423523, -1.0592937469482422, 0.31649377942085266, 10.167072296142578, -2.1318609714508057, -1.9451801776885986, 1.6941817998886108, -0.36972326040267944, -0.21688559651374817, 0.0011419495567679405, 0.11089689284563065, 0.23887884616851807, -4.187410256469207, 4.849668427201834, -14.33436080775001, 9362.0, 36699.0, 35388.0, 9362.0, 8.231406211853027, -0.08426007628440857, 0.06423978507518768, 0.2982001006603241, 0.0001831340923672542, -0.06815596669912338, 0.9960010647773743, -0.11111754924058914, -0.14711761474609375, 1.48388671875, 1.462646484375, 0.125823974609375, 1.6611328125
459999, 0.24973301589488983, -1.0597429275512695, 0.31894493103027344, 10.184022903442383, -2.1355602741241455, -1.9473499059677124, 1.6959998607635498, -0.3701402544975281, -0.21705903112888336, 0.0011417707428336143, 0.1109233945608139, 0.2388911247253418, -4.217093181818182, 4.8766049325905385, -14.353499323167682, 9362.0, 36699.0, 35388.0, 9362.0, 8.231406211853027, 0.19682838022708893, 0.075608029961586, 0.05699007958173752, 0.0002754816669039428, -0.06834621727466583, 0.9989731907844543, -0.11654487997293472, -0.10231781005859375, 1.487548828125, 1.5, 0.19561767578125, 1.6611328125
460009, 0.25004565715789795, -1.0602483749389648, 0.32032978534698486, 10.2009916305542, -2.139263868331909, -1.9495223760604858, 1.6978089809417725, -0.3705570697784424, -0.21744148433208466, 0.0011397842317819595, 0.11090918630361557, 0.2389020323753357, -4.200639465093518, 4.852389593952694, -14.353870058683176, 9362.0, 36699.0, 35388.0, 9362.0, 8.251240730285645, -0.026354001834988594, 0.20135147869586945, 0.006950297858566046, -0.0016662778798490763, -0.06632120162248611, 0.9969599843025208, -0.120524562895298, -0.10231781005859375, 1.487548828125, 1.50146484375, 0.1985626220703125, 1.6552734375
460019, 0.24976524710655212, -1.0609157085418701, 0.3204721510410309, 10.217978477478027, -2.1429715156555176, -1.9516974687576294, 1.699623465538025, -0.37097397446632385, -0.21758303046226501, 0.001136808656156063, 0.11091683059930801, 0.23891501128673553, -4.174555463637073, 4.809825583549895, -14.337766810185787, 9362.0, 36699.0, 35388.0, 9362.0, 8.231406211853027, -0.033470235764980316, 0.11327257007360458, -0.10213112831115723, -0.003064356278628111, -0.06540665775537491, 0.9983981251716614, -0.12094644457101822, -0.1291980743408203, 1.4853515625, 1.500732421875, 0.1970977783203125, 1.6611328125
460029, 0.2500905394554138, -1.061893105506897, 0.3200885057449341, 10.234983444213867, -2.14668345451355, -1.9538747072219849, 1.701436161994934, -0.37139084935188293, -0.2178606390953064, 0.0011315811425447464, 0.11091893911361694, 0.23889543116092682, -4.188264394215101, 4.841828137684018, -14.344298900082528, 9362.0, 36699.0, 35388.0, 9362.0, 8.231406211853027, -0.008778717368841171, 0.3333601653575897, 0.3491649627685547, -0.003118565073236823, -0.06664226949214935, 0.9998144507408142, -0.12159224599599838, -0.1291980743408203, 1.4853515625, 1.49267578125, 0.1811065673828125, 1.65673828125
460039, 0.24957749247550964, -1.0642662048339844, 0.32281193137168884, 10.252006530761719, -2.1503994464874268, -1.9560543298721313, 1.7032513618469238, -0.3718075752258301, -0.21805313229560852, 0.0011221440508961678, 0.11091668158769608, 0.23889173567295074, -4.241919573628445, 4.910383253713832, -14.33612688771115, 9362.0, 36699.0, 35388.0, 9362.0, 8.231406211853027, 0.10555829852819443, -0.31043487787246704, 0.058677468448877335, -0.0015776111977174878, -0.06863497942686081, 0.998873770236969, -0.11775847524404526, -0.1291980743408203, 1.4853515625, 1.4091796875, 0.04937744140625, 1.6611328125
460049, 0.2505185902118683, -1.0623013973236084, 0.3227199912071228, 10.269047737121582, -2.1541197299957275, -1.9582351446151733, 1.705071210861206, -0.3722253143787384, -0.21811716258525848, 0.0011376198381185532, 0.11091253161430359, 0.2389218658208847, -4.227415561302539, 4.873168760767896, -14.346673626617694, 9362.0, 36699.0, 35388.0, 9362.0, 8.231406211853027, -0.03077649511396885, 0.08624842762947083, 0.13234785199165344, -0.0025045389775186777, -0.06927657127380371, 0.9968602061271667, -0.11616931110620499, -0.05751800537109375, 1.4912109375, 1.40771484375, 0.0478363037109375, 1.66259765625
460059, 0.25074243545532227, -1.063035249710083, 0.32300642132759094, 10.286108016967773, -2.157844066619873, -1.9604169130325317, 1.7068934440612793, -0.372641921043396, -0.218244731426239, 0.0011229729279875755, 0.11091923713684082, 0.23890544474124908, -4.190503075844242, 4.843924941271496, -14.357330338297107, 9362.0, 36699.0, 35388.0, 9362.0, 8.231406211853027, -0.2600859999656677, -0.14976422488689423, -0.23240618407726288, -0.002315487479791045, -0.06560321152210236, 0.9976011514663696, -0.1156945452094078, -0.10231781005859375, 1.487548828125, 1.41943359375, 0.0612945556640625, 1.657470703125
460069, 0.24975042045116425, -1.0628834962844849, 0.32182514667510986, 10.303186416625977, -2.1615724563598633, -1.962600827217102, 1.7087095975875854, -0.3730594515800476, -0.2185390144586563, 0.0011340538039803505, 0.11091196537017822, 0.23883403837680817, -4.332588660284826, 5.019047375147466, -14.339542973966573, 9362.0, 36699.0, 35388.0, 9362.0, 8.231406211853027, 0.05074493959546089, -0.1997200846672058, -0.12230708450078964, -0.0035477292258292437, -0.06792960315942764, 0.9965918660163879, -0.11732319742441177, -0.15607833862304688, 1.483154296875, 1.421630859375, 0.0640716552734375, 1.65966796875
460079, 0.25035229325294495, -1.0623252391815186, 0.32142338156700134, 10.320282936096191, -2.1653051376342773, -1.964787483215332, 1.7105275392532349, -0.3734774589538574, -0.21879912912845612, 0.001136978156864643, 0.11091849207878113, 0.238899827003479, -4.238868851889993, 4.896749162933645, -14.340606799257273, 9362.0, 36699.0, 35388.0, 9362.0, 8.251240730285645, -0.0444956012070179, -0.19030989706516266, 0.06735053658485413, -0.0048393262550234795, -0.06844998151063919, 0.9986041784286499, -0.11654412746429443, -0.12023735046386719, 1.486083984375, 1.40625, 0.04620361328125, 1.660400390625
460089, 0.24983470141887665, -1.0615674257278442, 0.3214050233364105, 10.337397575378418, -2.1690421104431152, -1.9669770002365112, 1.7123438119888306, -0.3738935887813568, -0.21911168098449707, 0.0011365683749318123, 0.110899418592453, 0.23881711065769196, -4.287907947683731, 5.054096842960405, -14.339310867751026, 9362.0, 36699.0, 35388.0, 9362.0, 8.251240730285645, 0.01169276051223278, 0.0586991049349308, 0.04771825671195984, -0.002606393536552787, -0.06843394041061401, 0.9985449314117432, -0.11541133373975754, -0.12023735046386719, 1.486083984375, 1.4208984375, 0.063079833984375, 1.660400390625
460099, 0.24961991608142853, -1.0629246234893799, 0.3209337592124939, 10.354530334472656, -2.172783136367798, -1.969169020652771, 1.71416175365448, -0.37431129813194275, -0.21930097043514252, 0.0011286446824669838, 0.11091121286153793, 0.23889705538749695, -4.250721204678509, 4.89671122787837, -14.34455588055553, 9362.0, 36699.0, 35388.0, 9362.0, 8.251240730285645, 0.11537546664476395, -0.1745581179857254, 0.18345579504966736, -0.000887231610249728, -0.068240687251091, 0.9975723624229431, -0.11522688716650009, -0.09335899353027344, 1.48828125, 1.41650390625, 0.0577545166015625, 1.658935546875
460109, 0.24969838559627533, -1.0624587535858154, 0.32198649644851685, 10.371681213378906, -2.176528215408325, -1.971362829208374, 1.7159790992736816, -0.374728262424469, -0.21946075558662415, 0.0011511174961924553, 0.11091490834951401, 0.2388993799686432, -4.2262717794780995, 4.871487960594351, -14.3556454295716, 9362.0, 36699.0, 35388.0, 9362.0, 8.251240730285645, 0.07028346508741379, -0.15393325686454773, 0.11050770431756973, -0.0029887701384723186, -0.06673900038003922, 0.9987538456916809, -0.11550910025835037, -0.10231781005859375, 1.487548828125, 1.418701171875, 0.0603485107421875, 1.65966796875
460119, 0.24923324584960938, -1.0623317956924438, 0.3229365646839142, 10.388850212097168, -2.1802775859832764, -1.9735586643218994, 1.7177971601486206, -0.37514445185661316, -0.2196986973285675, 0.0011009657755494118, 0.11090677231550217, 0.2387697398662567, -4.34502851717459, 5.105476802887267, -14.332017375856783, 9362.0, 36699.0, 35388.0, 9362.0, 8.231406211853027, 0.07731063663959503, -0.0099753737449646, -0.17900855839252472, -0.0035377047024667263, -0.0690385177731514, 1.0001667737960815, -0.1179872676730156, -0.15607833862304688, 1.483154296875, 1.412841796875, 0.0534515380859375, 1.658203125
460129, 0.2490951120853424, -1.062071442604065, 0.3215729892253876, 10.406037330627441, -2.1840310096740723, -1.9757561683654785, 1.7196167707443237, -0.375561386346817, -0.21981298923492432, 0.001146099530160427, 0.11090261489152908, 0.23892079293727875, -4.181003758976258, 4.817874005642892, -14.343073235789676, 9362.0, 36699.0, 35388.0, 9362.0, 8.251240730285645, 0.06113530322909355, 0.29916656017303467, 0.06038893386721611, -0.0011902112746611238, -0.0695897787809372, 0.998022198677063, -0.1174478679895401, -0.1291980743408203, 1.4853515625, 1.4267578125, 0.070709228515625, 1.658203125
460139, 0.2492019236087799, -1.0634225606918335, 0.321067214012146, 10.423242568969727, -2.187788724899292, -1.977954387664795, 1.7214378118515015, -0.37597787380218506, -0.21983499825000763, 0.0011195475235581398, 0.11091851443052292, 0.23885108530521393, -4.232745956381025, 4.91475820851997, -14.346656260499769, 9362.0, 36699.0, 35388.0, 9362.0, 8.231406211853027, -0.05352900177240372, 0.23960521817207336, 0.2798916697502136, -0.0035457173362374306, -0.0678672045469284, 0.9988096356391907, -0.11664710193872452, -0.13815879821777344, 1.484619140625, 1.41650390625, 0.0577545166015625, 1.65673828125
460169, 0.24962176382541656, -1.0647138357162476, 0.3206881284713745, 10.474967002868652, -2.1990866661071777, -1.9845561981201172, 1.726901650428772, -0.37722545862197876, -0.2201533168554306, 0.0011393828317523003, 0.11090141534805298, 0.23882371187210083, -4.279418397001636, 4.990096830181159, -14.343079192069426, 9362.0, 36699.0, 35388.0, 9362.0, 8.231406211853027, 0.07837235182523727, -0.2594890594482422, -3.8063542888266966e-05, -0.0028057987801730633, -0.06757362186908722, 0.9995297789573669, -0.11404117941856384, -0.06647872924804688, 1.490478515625, 1.405517578125, 0.0454254150390625, 1.65673828125
460199, 0.2497643232345581, -1.0633211135864258, 0.32095715403556824, 10.492244720458984, -2.2028610706329346, -1.9867581129074097, 1.72872793674469, -0.3776441216468811, -0.22022269666194916, 0.001133006066083908, 0.11091393977403641, 0.23892724514007568, -4.176573387463982, 4.811564451734483, -14.365075266862855, 9362.0, 36699.0, 35388.0, 9362.0, 8.251240730285645, 0.04992700740695, 0.05730446055531502, 0.02192137949168682, -0.0010294797830283642, -0.06805860996246338, 0.9956514835357666, -0.11040887236595154, -0.08439826965332031, 1.489013671875, 1.421630859375, 0.0640716552734375, 1.65673828125
460219, 0.24882066249847412, -1.063675045967102, 0.32311949133872986, 10.561540603637695, -2.2180001735687256, -1.995591402053833, 1.7359979152679443, -0.3793078064918518, -0.2214893251657486, 0.0011361399665474892, 0.11090822517871857, 0.2388518750667572, -4.212783056433569, 4.9283900373546885, -14.335597349691094, 9362.0, 36699.0, 35388.0, 9362.0, 8.251240730285645, -0.015315176919102669, -0.04646529629826546, 0.11544657498598099, -0.0025219779927283525, -0.07024114578962326, 0.9958780407905579, -0.11040887236595154, -0.08439826965332031, 1.489013671875, 1.41357421875, 0.0542449951171875, 1.65673828125
460259, 0.24672921001911163, -1.063159704208374, 0.3234727680683136, 10.596297264099121, -2.2255945205688477, -2.000028133392334, 1.7396328449249268, -0.38013800978660583, -0.2220824956893921, 0.001126517541706562, 0.11091455817222595, 0.23889049887657166, -4.225055596955121, 4.939504828286232, -14.334771211453697, 9362.0, 36699.0, 35388.0, 9362.0, 8.231406211853027, -0.04597919061779976, -0.2060004025697708, -0.16720281541347504, -0.003383023664355278, -0.06626228988170624, 0.9973689913749695, -0.1140073835849762, -0.1291980743408203, 1.4853515625, 1.4208984375, 0.063079833984375, 1.65673828125
460289, 0.24648910760879517, -1.0623939037322998, 0.3244362771511078, 10.596297264099121, -2.2255945205688477, -2.000028133392334, 1.7396328449249268, -0.38013800978660583, -0.2220824956893921, 0.0011348500847816467, 0.11091304570436478, 0.23886051774024963, -4.2099752931319605, 4.8878712118036844, -14.3406993808798, 9362.0, 36699.0, 35388.0, 9362.0, 8.231406211853027, 0.05171265825629234, 0.5250453948974609, 0.2168598622083664, -0.0020351598504930735, -0.06754164397716522, 0.9974488019943237, -0.11453236639499664, -0.08439826965332031, 1.489013671875, 1.412841796875, 0.0534515380859375, 1.6611328125
460299, 0.24716214835643768, -1.0638377666473389, 0.3231085240840912, 10.70100212097168, -2.2484772205352783, -2.0133869647979736, 1.750541090965271, -0.382612019777298, -0.22316282987594604, 0.0011184969916939735, 0.11092140525579453, 0.23885418474674225, -4.22396515174786, 4.8757016121594745, -14.343344049873268, 9362.0, 36699.0, 35388.0, 9362.0, 8.231406211853027, 0.20319457352161407, 0.09894818067550659, 0.1013486385345459, -0.0020351598504930735, -0.06754164397716522, 0.9974488019943237, -0.10940651595592499, -0.08439826965332031, 1.489013671875, 1.412841796875, 0.0534515380859375, 1.6611328125
460309, 0.2471897304058075, -1.0635989904403687, 0.3228916525840759, 10.71851634979248, -2.252305507659912, -2.015619993209839, 1.752358078956604, -0.38302281498908997, -0.22342009842395782, 0.001138308085501194, 0.1109125167131424, 0.2388259321451187, -4.303616625281014, 5.006083344688335, -14.337309612109978, 9362.0, 36699.0, 35388.0, 9362.0, 8.231406211853027, 0.20319457352161407, 0.09894818067550659, 0.1013486385345459, -0.0028791504446417093, -0.06736891716718674, 0.9956055879592896, -0.10940651595592499, -0.08439826965332031, 1.489013671875, 1.412841796875, 0.0534515380859375, 1.6611328125
460329, 0.24678707122802734, -1.059977650642395, 0.3232618570327759, 10.736048698425293, -2.2561378479003906, -2.0178558826446533, 1.7541760206222534, -0.3834344148635864, -0.2237517535686493, 0.0011251932010054588, 0.11091291904449463, 0.23887042701244354, -4.208902004423494, 4.846123218127076, -14.34860357323266, 9362.0, 36699.0, 35388.0, 9362.0, 8.231406211853027, 0.12380287796258926, 0.19772736728191376, 0.0477297380566597, -0.0028791504446417093, -0.06736891716718674, 0.9956055879592896, -0.11185047775506973, -0.08439826965332031, 1.489013671875, 1.412841796875, 0.0534515380859375, 1.6611328125
460339, 0.24763426184654236, -1.0614655017852783, 0.3235527276992798, 10.771167755126953, -2.263814687728882, -2.0223388671875, 1.7578036785125732, -0.3842565715312958, -0.22454829514026642, 0.0011301608756184578, 0.11090380698442459, 0.23885813355445862, -4.238323021127221, 4.858120442365788, -14.343396224436514, 9362.0, 36699.0, 35388.0, 9362.0, 8.231406211853027, 0.0790896937251091, -0.3715168833732605, 0.1799907684326172, -0.0028791504446417093, -0.06736891716718674, 0.9956055879592896, -0.11185047775506973, -0.08439826965332031, 1.489013671875, 1.412841796875, 0.0534515380859375, 1.6611328125
460359, 0.2478269636631012, -1.0634645223617554, 0.32443103194236755, 10.771167755126953, -2.263814687728882, -2.0223388671875, 1.7578036785125732, -0.3842565715312958, -0.22454829514026642, 0.0011247461661696434, 0.11091382056474686, 0.2388501763343811, -4.222820868557101, 4.882659573258763, -14.341658996951521, 9362.0, 36699.0, 35388.0, 9362.0, 8.231406211853027, 0.030886344611644745, 0.1987815797328949, 0.14530359208583832, -0.0028791504446417093, -0.06736891716718674, 0.9956055879592896, -0.11304483562707901, -0.1650371551513672, 1.482421875, 1.412841796875, 0.0534515380859375, 1.6611328125
460369, 0.2490023523569107, -1.0638298988342285, 0.32207074761390686, 10.771167755126953, -2.263814687728882, -2.0223388671875, 1.7578036785125732, -0.3842565715312958, -0.22454829514026642, 0.001110830344259739, 0.11090542376041412, 0.23881052434444427, -4.228308971114553, 4.891726218803967, -14.340160294664749, 9362.0, 36699.0, 35388.0, 9362.0, 8.231406211853027, 0.030886344611644745, 0.1987815797328949, 0.14530359208583832, -0.004702310543507338, -0.06821079552173615, 0.9990037083625793, -0.11304483562707901, -0.1650371551513672, 1.482421875, 1.412841796875, 0.0534515380859375, 1.6611328125
460389, 0.2506234645843506, -1.0624322891235352, 0.3237859606742859, 10.771167755126953, -2.263814687728882, -2.0223388671875, 1.7578036785125732, -0.3842565715312958, -0.22454829514026642, 0.0011219494044780731, 0.11091044545173645, 0.23880498111248016, -4.2689512515872465, 4.937936125331419, -14.346121225595557, 9362.0, 36699.0, 35388.0, 9362.0, 8.251240730285645, -0.061683960258960724, 0.48919183015823364, 0.3083285093307495, -9.226037946064025e-05, -0.06885732710361481, 0.9982815980911255, -0.11890492588281631, -0.13815879821777344, 1.484619140625, 1.489013671875, 0.174041748046875, 1.6611328125
460429, 0.25083792209625244, -1.0687223672866821, 0.325335294008255, 10.876962661743164, -2.286944627761841, -2.0358355045318604, 1.7687169313430786, -0.3867436945438385, -0.22509561479091644, 0.0011380882933735847, 0.11092433333396912, 0.2388639897108078, -4.224974521624542, 4.891205755741623, -14.362427717336198, 9362.0, 36699.0, 35388.0, 9362.0, 8.231406211853027, -0.046857647597789764, 0.03666834533214569, -0.08408138155937195, -0.0026909499429166317, -0.06861889362335205, 0.9993755221366882, -0.11539310216903687, -0.05751800537109375, 1.4912109375, 1.499267578125, 0.1941070556640625, 1.6611328125
460459, 0.2531958520412445, -1.0729897022247314, 0.3259831964969635, 10.876962661743164, -2.286944627761841, -2.0358355045318604, 1.7687169313430786, -0.3867436945438385, -0.22509561479091644, 0.0011441567912697792, 0.11089935898780823, 0.23886866867542267, -4.208078407153802, 4.8401793060969, -14.361586839402147, 9362.0, 36699.0, 35388.0, 9362.0, 8.251240730285645, 0.09797871857881546, 0.3382672667503357, -0.04512465372681618, -0.0026909499429166317, -0.06861889362335205, 0.9993755221366882, -0.11932308971881866, -0.08439826965332031, 1.489013671875, 1.489013671875, 0.174041748046875, 1.6611328125
460489, 0.2547788918018341, -1.0790996551513672, 0.3269805610179901, 11.036887168884277, -2.3219213485717773, -2.056130886077881, 1.7852007150650024, -0.3905215561389923, -0.22585870325565338, 0.0011384440585970879, 0.11091380566358566, 0.23885802924633026, -4.229352743226254, 4.9333110196134555, -14.368182440367127, 9362.0, 36699.0, 35388.0, 9362.0, 8.251240730285645, -0.04560745507478714, 0.08456166088581085, 0.22230957448482513, -0.0038140700198709965, -0.06808320432901382, 0.9976813793182373, -0.11973913758993149, -0.07543754577636719, 1.48974609375, 1.489013671875, 0.174041748046875, 1.6611328125
460499, 0.25605762004852295, -1.077534556388855, 0.32641977071762085, 11.05474853515625, -2.325828790664673, -2.058389663696289, 1.787047266960144, -0.3909468948841095, -0.22588516771793365, 0.001126650720834732, 0.11091277003288269, 0.23885856568813324, -4.197040369769971, 4.8477921479498605, -14.342800759995784, 9362.0, 36699.0, 35388.0, 9362.0, 8.231406211853027, -0.04560745507478714, 0.08456166088581085, 0.22230957448482513, -0.0038140700198709965, -0.06808320432901382, 0.9976813793182373, -0.11973913758993149, -0.07543754577636719, 1.48974609375, 1.489013671875, 0.174041748046875, 1.6611328125
460549, 0.2563765048980713, -1.07876718044281, 0.32514506578445435, 11.144331932067871, -2.3454291820526123, -2.0697131156921387, 1.7962836027145386, -0.3930811285972595, -0.22675549983978271, 0.0011086314916610718, 0.11089203506708145, 0.23882287740707397, -4.316808552857327, 5.017056338734562, -14.334543872172054, 9362.0, 36699.0, 35388.0, 9362.0, 8.231406211853027, -0.0088181272149086, 0.02951543964445591, -0.2552659213542938, -0.0015740968519821763, -0.06738706678152084, 0.9999208450317383, -0.11490751802921295, -0.11127853393554688, 1.48681640625, 1.491943359375, 0.179656982421875, 1.6611328125
460559, 0.2569918632507324, -1.079156756401062, 0.3249570429325104, 11.162303924560547, -2.3493621349334717, -2.0719809532165527, 1.798133134841919, -0.39350759983062744, -0.22680051624774933, 0.0011370955035090446, 0.11090517789125443, 0.23891577124595642, -4.17496938451592, 4.803992928456978, -14.357680591605689, 9362.0, 36699.0, 35388.0, 9362.0, 8.231406211853027, -0.0088181272149086, 0.02951543964445591, -0.2552659213542938, -0.0015740968519821763, -0.06738706678152084, 0.9999208450317383, -0.11490751802921295, -0.11127853393554688, 1.48681640625, 1.491943359375, 0.179656982421875, 1.6611328125
460599, 0.25333839654922485, -1.0820083618164062, 0.3292614817619324, 11.216330528259277, -2.3611867427825928, -2.0787861347198486, 1.803682565689087, -0.3947913944721222, -0.22701096534729004, 0.0011335480958223343, 0.11090366542339325, 0.23888055980205536, -4.208763672578564, 4.861290781377335, -14.340704395522074, 9362.0, 36699.0, 35388.0, 9362.0, 8.251240730285645, 0.027325546368956566, 0.386447012424469, 0.02218199521303177, -0.0049681831151247025, -0.06990047544240952, 0.9977389574050903, -0.12305836379528046, -0.08439826965332031, 1.489013671875, 1.490478515625, 0.1768646240234375, 1.6611328125
460609, 0.25355300307273865, -1.0849133729934692, 0.32944703102111816, 11.216330528259277, -2.3611867427825928, -2.0787861347198486, 1.803682565689087, -0.3947913944721222, -0.22701096534729004, 0.0011266041547060013, 0.11090126633644104, 0.23886746168136597, -4.189310451030393, 4.868046895203491, -14.3505358009774, 9362.0, 36699.0, 35388.0, 9362.0, 8.231406211853027, 0.24140267074108124, 0.22815543413162231, 0.19809673726558685, -0.0035951584577560425, -0.06824130564928055, 0.9968353509902954, -0.12305836379528046, -0.08439826965332031, 1.489013671875, 1.5029296875, 0.201446533203125, 1.6611328125
460619, 0.25457724928855896, -1.0864990949630737, 0.33066436648368835, 11.216330528259277, -2.3611867427825928, -2.0787861347198486, 1.803682565689087, -0.3947913944721222, -0.22701096534729004, 0.0011172201484441757, 0.11089816689491272, 0.23883973062038422, -4.291667023586737, 4.983651489371113, -14.329353916241862, 9362.0, 36699.0, 35388.0, 9362.0, 8.231406211853027, 0.18793688714504242, 0.4697161316871643, 0.1099575087428093, -0.0035951584577560425, -0.06824130564928055, 0.9968353509902954, -0.11867070198059082, -0.09335899353027344, 1.48828125, 1.4970703125, 0.18975830078125, 1.6611328125
460649, 0.25624144077301025, -1.0913639068603516, 0.3303302526473999, 11.306746482849121, -2.380979299545288, -2.090158700942993, 1.8129568099975586, -0.39690831303596497, -0.22787219285964966, 0.0011307979002594948, 0.11091434955596924, 0.23885545134544373, -4.254236337836692, 4.8986621739981615, -14.343689301966695, 9362.0, 36699.0, 35388.0, 9362.0, 8.231406211853027, 0.11796820163726807, 0.10105417668819427, -0.20338255167007446, -0.0035951584577560425, -0.06824130564928055, 0.9968353509902954, -0.1162295788526535, -0.1291980743408203, 1.4853515625, 1.436279296875, 0.0838775634765625, 1.6611328125
460669, 0.2549903392791748, -1.0913376808166504, 0.33288899064064026, 11.36121940612793, -2.3929054737091064, -2.0970003604888916, 1.8185570240020752, -0.39818859100341797, -0.22837360203266144, 0.0011288588866591454, 0.11092296242713928, 0.2389402687549591, -4.163604341371, 4.793232690123887, -14.354981733414297, 9362.0, 36699.0, 35388.0, 9362.0, 8.231406211853027, 0.11796820163726807, 0.10105417668819427, -0.20338255167007446, -0.0043706768192350864, -0.06688090413808823, 0.9971691966056824, -0.119057297706604, -0.11127853393554688, 1.48681640625, 1.327880859375, 0.0218353271484375, 1.6611328125
460679, 0.25433483719825745, -1.0955320596694946, 0.33423733711242676, 11.379414558410645, -2.3968894481658936, -2.0992848873138428, 1.8204236030578613, -0.39861440658569336, -0.2285546213388443, 0.0011133449152112007, 0.11090424656867981, 0.23885639011859894, -4.245331199641031, 4.905812517861023, -14.34474946238973, 9362.0, 36699.0, 35388.0, 9362.0, 8.231406211853027, 0.11796820163726807, 0.10105417668819427, -0.20338255167007446, -0.0043706768192350864, -0.06688090413808823, 0.9971691966056824, -0.119057297706604, -0.11127853393554688, 1.48681640625, 1.327880859375, 0.0218353271484375, 1.6611328125
460709, 0.25433191657066345, -1.0984216928482056, 0.3314054012298584, 11.415860176086426, -2.4048702716827393, -2.1038615703582764, 1.8241626024246216, -0.3994623124599457, -0.22912569344043732, 0.0011305063962936401, 0.11091487109661102, 0.23885442316532135, -4.228313889120231, 4.939355530932517, -14.339742177069414, 9362.0, 36699.0, 35388.0, 9362.0, 8.251240730285645, 0.19325920939445496, 0.14809927344322205, -0.14149072766304016, -0.0031235069036483765, -0.06649471074342728, 0.9994082450866699, -0.11671849340200424, -0.10231781005859375, 1.487548828125, 1.273681640625, 0.0975494384765625, 1.6611328125
460729, 0.25331223011016846, -1.1000607013702393, 0.3334694802761078, 11.415860176086426, -2.4048702716827393, -2.1038615703582764, 1.8241626024246216, -0.3994623124599457, -0.22912569344043732, 0.0011056559160351753, 0.11089365929365158, 0.23891779780387878, -4.158112856154866, 4.797327657533714, -14.346323235709248, 9362.0, 36699.0, 35388.0, 9362.0, 8.231406211853027, 0.19325920939445496, 0.14809927344322205, -0.14149072766304016, -0.002664591185748577, -0.06663347780704498, 0.9997734427452087, -0.11671849340200424, -0.10231781005859375, 1.487548828125, 1.2744140625, 0.0959014892578125, 1.6611328125
460739, 0.2536066472530365, -1.100528359413147, 0.33420929312705994, 11.415860176086426, -2.4048702716827393, -2.1038615703582764, 1.8241626024246216, -0.3994623124599457, -0.22912569344043732, 0.001142364926636219, 0.11090537905693054, 0.2389426827430725, -4.186061475440103, 4.8352887256739905, -14.352481183596128, 9362.0, 36699.0, 35388.0, 9362.0, 8.231406211853027, 0.12741991877555847, 0.021926093846559525, 0.08445003628730774, -0.002664591185748577, -0.06663347780704498, 0.9997734427452087, -0.11671849340200424, -0.10231781005859375, 1.487548828125, 1.2744140625, 0.0959014892578125, 1.6611328125
460799, 0.2540879547595978, -1.1040488481521606, 0.3344634473323822, 11.58079719543457, -2.440993070602417, -2.124523878097534, 1.8411239385604858, -0.4032723307609558, -0.22948485612869263, 0.0011343639343976974, 0.11091102659702301, 0.2388491928577423, -4.304357184445892, 4.940326715206027, -14.36488419959632, 9362.0, 36699.0, 35388.0, 9362.0, 8.231406211853027, 0.09479979425668716, -0.08909729868173599, -0.11933589726686478, -0.0029513344634324312, -0.06969130784273148, 1.0003284215927124, -0.11515915393829346, -0.06647872924804688, 1.490478515625, 1.4853515625, 0.1669921875, 1.6611328125
460839, 0.2568892240524292, -1.102745771408081, 0.3347614109516144, 11.58079719543457, -2.440993070602417, -2.124523878097534, 1.8411239385604858, -0.4032723307609558, -0.22948485612869263, 0.001134711317718029, 0.11090411990880966, 0.23884634673595428, -4.286725787060416, 4.953326384609085, -14.341606255188072, 9362.0, 36699.0, 35388.0, 9362.0, 8.231406211853027, -0.21670906245708466, -0.15594150125980377, -0.406673401594162, -0.0017383780796080828, -0.07004910707473755, 0.997852087020874, -0.11859933286905289, -0.10231781005859375, 1.487548828125, 1.494873046875, 0.185455322265625, 1.6611328125
460849, 0.2569621801376343, -1.1031219959259033, 0.33442506194114685, 11.691604614257812, -2.465265989303589, -2.1383063793182373, 1.8524730205535889, -0.4058258533477783, -0.23015908896923065, 0.0011396268382668495, 0.11091883480548859, 0.23889686167240143, -4.230574083634674, 4.857179656811894, -14.347901300657965, 9362.0, 36699.0, 35388.0, 9362.0, 8.231406211853027, -0.21670906245708466, -0.15594150125980377, -0.406673401594162, -0.003906704485416412, -0.07114279270172119, 0.9980514049530029, -0.11859933286905289, -0.10231781005859375, 1.487548828125, 1.494873046875, 0.185455322265625, 1.6611328125
460859, 0.2578851878643036, -1.1035515069961548, 0.33481988310813904, 11.691604614257812, -2.465265989303589, -2.1383063793182373, 1.8524730205535889, -0.4058258533477783, -0.23015908896923065, 0.001142570748925209, 0.11091433465480804, 0.23892933130264282, -4.162009716393515, 4.786301361482344, -14.354230091147665, 9362.0, 36699.0, 35388.0, 9362.0, 8.251240730285645, -0.21670906245708466, -0.15594150125980377, -0.406673401594162, -0.0016991497250273824, -0.06931795179843903, 0.9998792409896851, -0.11859933286905289, -0.10231781005859375, 1.487548828125, 1.494873046875, 0.185455322265625, 1.6611328125
460889, 0.25794586539268494, -1.1048723459243774, 0.3380078673362732, 11.691604614257812, -2.465265989303589, -2.1383063793182373, 1.8524730205535889, -0.4058258533477783, -0.23015908896923065, 0.0011267121881246567, 0.11090566217899323, 0.2388603538274765, -4.2698320507089464, 4.918370438176169, -14.33826653810146, 9362.0, 36699.0, 35388.0, 9362.0, 8.231406211853027, -0.21670906245708466, -0.15594150125980377, -0.406673401594162, -0.0012564851203933358, -0.06997693330049515, 0.9999361634254456, -0.11814257502555847, -0.10231781005859375, 1.487548828125, 1.493408203125, 0.1825714111328125, 1.658935546875
460899, 0.25895023345947266, -1.105954885482788, 0.33748382329940796, 11.691604614257812, -2.465265989303589, -2.1383063793182373, 1.8524730205535889, -0.4058258533477783, -0.23015908896923065, 0.0011378247290849686, 0.11090055108070374, 0.23886507749557495, -4.269106713900257, 4.9148346071937965, -14.348827423453663, 9362.0, 36699.0, 35388.0, 9362.0, 8.231406211853027, 0.18927450478076935, 0.39645230770111084, 0.12320952117443085, -0.0012564851203933358, -0.06997693330049515, 0.9999361634254456, -0.11814257502555847, -0.10231781005859375, 1.487548828125, 1.49560546875, 0.1868743896484375, 1.658935546875
460919, 0.2609224319458008, -1.1110092401504517, 0.3387666940689087, 11.691604614257812, -2.465265989303589, -2.1383063793182373, 1.8524730205535889, -0.4058258533477783, -0.23015908896923065, 0.001141807995736599, 0.11090587079524994, 0.23883411288261414, -4.222939397128654, 4.876947277377951, -14.35126728700381, 9362.0, 36699.0, 35388.0, 9362.0, 8.231406211853027, 0.18927450478076935, 0.39645230770111084, 0.12320952117443085, -0.0019237721571698785, -0.0669875219464302, 0.9988589882850647, -0.11814257502555847, -0.10231781005859375, 1.487548828125, 1.49853515625, 0.1927032470703125, 1.658935546875
460959, 0.26361075043678284, -1.1174025535583496, 0.34157124161720276, 11.859091758728027, -2.5019638538360596, -2.1590888500213623, 1.8695064783096313, -0.4096999168395996, -0.2314012199640274, 0.0011323951184749603, 0.11090966314077377, 0.23882168531417847, -4.267773175632452, 4.973856383815246, -14.333787214298006, 9362.0, 36699.0, 35388.0, 9362.0, 8.251240730285645, 0.12570634484291077, 0.5372847318649292, 0.05123374983668327, -0.0022598684299737215, -0.07059351354837418, 0.9966976642608643, -0.12301517277956009, -0.10231781005859375, 1.487548828125, 1.27001953125, 0.10626220703125, 1.658935546875
460969, 0.26536890864372253, -1.1169312000274658, 0.342662513256073, 11.859091758728027, -2.5019638538360596, -2.1590888500213623, 1.8695064783096313, -0.4096999168395996, -0.2314012199640274, 0.0011304328218102455, 0.11090653389692307, 0.238856241106987, -4.2640258349509885, 4.906872394420134, -14.348069814382043, 9362.0, 36699.0, 35388.0, 9362.0, 8.231406211853027, 0.12570634484291077, 0.5372847318649292, 0.05123374983668327, -0.0022598684299737215, -0.07059351354837418, 0.9966976642608643, -0.12211594730615616, -0.12023735046386719, 1.486083984375, 1.27001953125, 0.10626220703125, 1.658935546875
460989, 0.26556921005249023, -1.1168878078460693, 0.34299686551094055, 11.952804565429688, -2.52250337600708, -2.170698404312134, 1.8790286779403687, -0.41188713908195496, -0.2329363375902176, 0.00112954992800951, 0.11090368032455444, 0.2388283759355545, -4.266522019721673, 4.919581290554248, -14.350381754949192, 9362.0, 36699.0, 35388.0, 9362.0, 8.231406211853027, -0.05678868293762207, 0.20740382373332977, 0.28281381726264954, -0.0019220872782170773, -0.06749129295349121, 0.9979425072669983, -0.12211594730615616, -0.12023735046386719, 1.486083984375, 1.275146484375, 0.09429931640625, 1.658935546875
461009, 0.2654382586479187, -1.1193469762802124, 0.34426185488700867, 11.990423202514648, -2.530750036239624, -2.175360918045044, 1.8828529119491577, -0.41277167201042175, -0.23322951793670654, 0.0011249901726841927, 0.11090852320194244, 0.23888586461544037, -4.225153044823846, 4.90388933418734, -14.342147788661492, 9362.0, 36699.0, 35388.0, 9362.0, 8.231406211853027, -0.05678868293762207, 0.20740382373332977, 0.28281381726264954, -0.003491922514513135, -0.06637520343065262, 0.9987918138504028, -0.12211594730615616, -0.12023735046386719, 1.486083984375, 1.275146484375, 0.09429931640625, 1.658935546875
461039, 0.2680741548538208, -1.1217292547225952, 0.34624266624450684, 12.009261131286621, -2.5348799228668213, -2.1776938438415527, 1.884769320487976, -0.41321438550949097, -0.23336267471313477, 0.0011182092130184174, 0.11092612892389297, 0.23884867131710052, -4.2499273418555905, 4.933117145196803, -14.34187398129002, 9362.0, 36699.0, 35388.0, 9362.0, 8.231406211853027, 0.08297518640756607, 0.18212106823921204, -0.07026255130767822, -0.0037607874255627394, -0.0666290670633316, 1.0012404918670654, -0.11959593743085861, -0.12023735046386719, 1.486083984375, 1.276611328125, 0.0910186767578125, 1.658935546875
461049, 0.26837974786758423, -1.1244990825653076, 0.3484702706336975, 12.009261131286621, -2.5348799228668213, -2.1776938438415527, 1.884769320487976, -0.41321438550949097, -0.23336267471313477, 0.0011331522837281227, 0.11091241240501404, 0.2388286292552948, -4.268939345911907, 4.975708966892398, -14.349535073693392, 9362.0, 36699.0, 35388.0, 9362.0, 8.251240730285645, 0.08010043203830719, 0.19026142358779907, 0.07844739407300949, -0.0037607874255627394, -0.0666290670633316, 1.0012404918670654, -0.11959593743085861, -0.12023735046386719, 1.486083984375, 1.276611328125, 0.0910186767578125, 1.658935546875
461059, 0.2689829170703888, -1.1258665323257446, 0.3490687906742096, 12.08480453491211, -2.5514440536499023, -2.187044143676758, 1.8924458026885986, -0.4149925708770752, -0.23380526900291443, 0.0011227214708924294, 0.11091591417789459, 0.23881372809410095, -4.327769816285789, 5.02105177253739, -14.337087372863486, 9362.0, 36699.0, 35388.0, 9362.0, 8.231406211853027, 0.10802970826625824, 0.13013982772827148, -0.06975094228982925, -0.0037607874255627394, -0.0666290670633316, 1.0012404918670654, -0.11959593743085861, -0.12023735046386719, 1.486083984375, 1.276611328125, 0.0910186767578125, 1.658935546875
461149, 0.2680553197860718, -1.1303822994232178, 0.3504423499107361, 12.255905151367188, -2.588974714279175, -2.2081592082977295, 1.9097965955734253, -0.4190256893634796, -0.23558075726032257, 0.0011265715584158897, 0.11088719964027405, 0.2387532889842987, -4.393897697243244, 5.113111353077386, -14.335641367214924, 9362.0, 36699.0, 35388.0, 9362.0, 8.231406211853027, 0.08705964684486389, -0.11405933648347855, -0.04300295561552048, -0.0033162981271743774, -0.06539512425661087, 0.9981943964958191, -0.12122629582881927, -0.13815879821777344, 1.484619140625, 1.266357421875, 0.1154937744140625, 1.658935546875
461159, 0.26820069551467896, -1.1309784650802612, 0.3508027493953705, 12.255905151367188, -2.588974714279175, -2.2081592082977295, 1.9097965955734253, -0.4190256893634796, -0.23558075726032257, 0.0011394945904612541, 0.11091765761375427, 0.2389153391122818, -4.142122939387423, 4.757502715547076, -14.366819590506342, 9362.0, 36699.0, 35388.0, 9362.0, 8.231406211853027, 0.08705964684486389, -0.11405933648347855, -0.04300295561552048, -0.0018743586260825396, -0.06695878505706787, 0.9967491030693054, -0.12122629582881927, -0.13815879821777344, 1.484619140625, 1.2685546875, 0.1099395751953125, 1.658935546875
461199, 0.2711268663406372, -1.1347448825836182, 0.3525388240814209, 12.35163688659668, -2.6099820137023926, -2.2199695110321045, 1.9194788932800293, -0.4212642312049866, -0.23662716150283813, 0.0011410471051931381, 0.11090891063213348, 0.23886460065841675, -4.19904380436354, 4.869864895977429, -14.357707959484797, 9362.0, 36699.0, 35388.0, 9362.0, 8.251240730285645, -0.059651896357536316, 0.026721157133579254, -0.17188914120197296, -0.0010037400061264634, -0.06747052818536758, 0.9982209801673889, -0.12112423032522202, -0.11127853393554688, 1.48681640625, 1.480224609375, 0.157379150390625, 1.658935546875
461219, 0.2717447876930237, -1.1369974613189697, 0.35104331374168396, 12.35163688659668, -2.6099820137023926, -2.2199695110321045, 1.9194788932800293, -0.4212642312049866, -0.23662716150283813, 0.0011374447494745255, 0.11089998483657837, 0.23883211612701416, -4.252304813210073, 4.926493260633862, -14.336673829107498, 9362.0, 36699.0, 35388.0, 9362.0, 8.231406211853027, -0.24566921591758728, 0.17309096455574036, 0.10837408900260925, -0.0032022688537836075, -0.07009570300579071, 0.9988386631011963, -0.11932652443647385, -0.19191741943359375, 1.480224609375, 1.480224609375, 0.157379150390625, 1.658935546875
461239, 0.271237850189209, -1.1376407146453857, 0.3530249297618866, 12.35163688659668, -2.6099820137023926, -2.2199695110321045, 1.9194788932800293, -0.4212642312049866, -0.23662716150283813, 0.001142268069088459, 0.11090011894702911, 0.23874974250793457, -4.346378101815745, 5.0740457655212765, -14.340449528415258, 9362.0, 36699.0, 35388.0, 9362.0, 8.231406211853027, 0.02960791252553463, -0.05942872166633606, 0.1987282931804657, -0.004085668362677097, -0.06641844660043716, 0.999236524105072, -0.1179923564195633, -0.08439826965332031, 1.489013671875, 1.480224609375, 0.157379150390625, 1.658935546875
461269, 0.2717621624469757, -1.1412343978881836, 0.35499006509780884, 12.48647689819336, -2.6395816802978516, -2.2365405559539795, 1.9331120252609253, -0.4244285225868225, -0.23707187175750732, 0.0011263974010944366, 0.11092385649681091, 0.23883233964443207, -4.280785499918819, 4.930899222253771, -14.353166400930787, 9362.0, 36699.0, 35388.0, 9362.0, 8.231406211853027, 0.02960791252553463, -0.05942872166633606, 0.1987282931804657, -0.0009786903392523527, -0.07067921757698059, 0.9961620569229126, -0.1198716014623642, -0.07543754577636719, 1.48974609375, 1.480224609375, 0.157379150390625, 1.658935546875
461319, 0.27046629786491394, -1.1442888975143433, 0.35367539525032043, 12.525177955627441, -2.6480791568756104, -2.2412869930267334, 1.9370146989822388, -0.4253309667110443, -0.23764899373054504, 0.0011518364772200584, 0.1109030544757843, 0.23889026045799255, -4.211753305203873, 4.871443799708629, -14.346574495289667, 9362.0, 36699.0, 35388.0, 9362.0, 8.231406211853027, 0.06520687788724899, 0.1049114391207695, 0.036019280552864075, -0.0017848373390734196, -0.06573260575532913, 0.9985783696174622, -0.1187172532081604, -0.09335899353027344, 1.48828125, 1.278076171875, 0.087799072265625, 1.658935546875
461329, 0.27097249031066895, -1.1450976133346558, 0.35368612408638, 12.525177955627441, -2.6480791568756104, -2.2412869930267334, 1.9370146989822388, -0.4253309667110443, -0.23764899373054504, 0.001159854233264923, 0.11091521382331848, 0.23891699314117432, -4.1528422123537165, 4.765301909226736, -14.34496210698936, 9362.0, 36699.0, 35388.0, 9362.0, 8.231406211853027, 0.06520687788724899, 0.1049114391207695, 0.036019280552864075, -0.0039012611377984285, -0.06731066852807999, 0.9995452165603638, -0.1187172532081604, -0.09335899353027344, 1.48828125, 1.278076171875, 0.087799072265625, 1.658935546875
461339, 0.2702707052230835, -1.1457908153533936, 0.35409438610076904, 12.622273445129395, -2.6694021224975586, -2.2531988620758057, 1.94680917263031, -0.4275929033756256, -0.23873187601566315, 0.0011474760249257088, 0.11091231554746628, 0.23886555433273315, -4.209262055351714, 4.861068830712782, -14.340096288950233, 9362.0, 36699.0, 35388.0, 9362.0, 8.231406211853027, 0.06520687788724899, 0.1049114391207695, 0.036019280552864075, -0.0023068462032824755, -0.06870022416114807, 0.9992718696594238, -0.1187172532081604, -0.09335899353027344, 1.48828125, 1.278076171875, 0.087799072265625, 1.658935546875
461369, 0.27211707830429077, -1.1456409692764282, 0.35246339440345764, 12.641751289367676, -2.673680305480957, -2.255586624145508, 1.9487714767456055, -0.42804446816444397, -0.2388051450252533, 0.0011415444314479828, 0.1109088659286499, 0.2387903779745102, -4.280822979069627, 4.985467459978196, -14.363387336423648, 9362.0, 36699.0, 35388.0, 9362.0, 8.251240730285645, -0.14344817399978638, 0.07060128450393677, 0.33695074915885925, -0.0023068462032824755, -0.06870022416114807, 0.9992718696594238, -0.1164398267865181, -0.08439826965332031, 1.489013671875, 1.480224609375, 0.157379150390625, 1.658935546875
461399, 0.2741035223007202, -1.145638346672058, 0.35204949975013733, 12.700303077697754, -2.68654203414917, -2.262756586074829, 1.9546574354171753, -0.42939481139183044, -0.23918817937374115, 0.0011330731213092804, 0.11091279238462448, 0.23885813355445862, -4.26509152798784, 4.9600332857154115, -14.35072073288627, 9362.0, 36699.0, 35388.0, 9362.0, 8.231406211853027, 0.08754542469978333, 0.06904337555170059, -0.06530474871397018, -0.001464841770939529, -0.07155723869800568, 1.0015839338302612, -0.08194155246019363, -0.08439826965332031, 1.489013671875, 1.335205078125, 0.018280029296875, 1.658935546875
461409, 0.275175541639328, -1.145617961883545, 0.35191383957862854, 12.700303077697754, -2.68654203414917, -2.262756586074829, 1.9546574354171753, -0.42939481139183044, -0.23918817937374115, 0.0011349376291036606, 0.11091185361146927, 0.23887668550014496, -4.235373178553679, 4.895715557508822, -14.340207683786092, 9362.0, 36699.0, 35388.0, 9362.0, 8.231406211853027, 0.08754542469978333, 0.06904337555170059, -0.06530474871397018, -0.0006624103989452124, -0.06908673793077469, 1.0007398128509521, -0.08194155246019363, -0.08439826965332031, 1.489013671875, 1.335205078125, 0.018280029296875, 1.658935546875
461419, 0.2752285301685333, -1.1453503370285034, 0.3524881899356842, 12.700303077697754, -2.68654203414917, -2.262756586074829, 1.9546574354171753, -0.42939481139183044, -0.23918817937374115, 0.0011229896917939186, 0.11092045158147812, 0.2388443946838379, -4.265031466454451, 4.970293765660443, -14.320275617375357, 9362.0, 36699.0, 35388.0, 9362.0, 8.231406211853027, -0.005071146879345179, -0.20407168567180634, 0.0810505747795105, -0.0006624103989452124, -0.06908673793077469, 1.0007398128509521, -0.10296712070703506, -0.10231781005859375, 1.487548828125, 1.335205078125, 0.018280029296875, 1.658935546875
461459, 0.2769278883934021, -1.1437774896621704, 0.3496587872505188, 12.857303619384766, -2.7210395336151123, -2.281912088394165, 1.9703630208969116, -0.43305182456970215, -0.23947513103485107, 0.0011260220780968666, 0.1109108254313469, 0.2388717383146286, -4.25933871672408, 4.923801031992241, -14.345059815217674, 9362.0, 36699.0, 35388.0, 9362.0, 8.231406211853027, 0.02172917313873768, 0.17296573519706726, -0.08833473920822144, -0.0044093867763876915, -0.06801547110080719, 1.0003893375396729, -0.11341363936662674, -0.1739978790283203, 1.481689453125, 1.3447265625, 0.0158538818359375, 1.658935546875
461469, 0.27772536873817444, -1.144153356552124, 0.3499913215637207, 12.8770170211792, -2.725372314453125, -2.2843070030212402, 1.972326397895813, -0.4335145950317383, -0.23949553072452545, 0.001117786392569542, 0.11091955006122589, 0.238864466547966, -4.234618777012781, 4.879887558505686, -14.343117891115199, 9362.0, 36699.0, 35388.0, 9362.0, 8.231406211853027, 0.02172917313873768, 0.17296573519706726, -0.08833473920822144, -0.0044093867763876915, -0.06801547110080719, 1.0003893375396729, -0.11341363936662674, -0.1739978790283203, 1.481689453125, 1.3447265625, 0.0158538818359375, 1.658935546875
461489, 0.27789926528930664, -1.1495927572250366, 0.3509117066860199, 12.8770170211792, -2.725372314453125, -2.2843070030212402, 1.972326397895813, -0.4335145950317383, -0.23949553072452545, 0.0011343657970428467, 0.11093052476644516, 0.2388714700937271, -4.242637067854029, 4.897829783339404, -14.340592561876207, 9362.0, 36699.0, 35388.0, 9362.0, 8.251240730285645, 0.02172917313873768, 0.17296573519706726, -0.08833473920822144, -0.0027045016176998615, -0.06725222617387772, 0.9998911023139954, -0.11341363936662674, -0.1739978790283203, 1.481689453125, 1.49560546875, 0.1868743896484375, 1.658935546875
461499, 0.2780459225177765, -1.150519847869873, 0.3521193861961365, 12.936275482177734, -2.738398551940918, -2.2914929389953613, 1.9782137870788574, -0.43490347266197205, -0.23958025872707367, 0.0011341208592057228, 0.11091220378875732, 0.23884673416614532, -4.24789113728634, 4.9499249962880185, -14.323076683056902, 9362.0, 36699.0, 35388.0, 9362.0, 8.251240730285645, -0.061007995158433914, 0.34544387459754944, -0.25300538539886475, -0.0027045016176998615, -0.06725222617387772, 0.9998911023139954, -0.11341363936662674, -0.1739978790283203, 1.481689453125, 1.49560546875, 0.1868743896484375, 1.658935546875
461509, 0.27756303548812866, -1.1538492441177368, 0.3514902591705322, 12.956067085266113, -2.7427499294281006, -2.293889045715332, 1.9801839590072632, -0.43536698818206787, -0.23964199423789978, 0.001155736856162548, 0.11091186106204987, 0.23893238604068756, -4.162723515825616, 4.8012196577101065, -14.341424639792361, 9362.0, 36699.0, 35388.0, 9362.0, 8.251240730285645, 0.21930697560310364, -0.07499068230390549, -0.1612289845943451, -0.0027045016176998615, -0.06725222617387772, 0.9998911023139954, -0.11341363936662674, -0.1739978790283203, 1.481689453125, 1.49560546875, 0.1868743896484375, 1.658935546875
461519, 0.27884164452552795, -1.1545841693878174, 0.35117754340171814, 12.975878715515137, -2.747105836868286, -2.2962865829467773, 1.9821525812149048, -0.4358299672603607, -0.239872545003891, 0.0011154096573591232, 0.1109047532081604, 0.23887133598327637, -4.229550348101397, 4.924173830465378, -14.35403127784158, 9362.0, 36699.0, 35388.0, 9362.0, 8.251240730285645, 0.21930697560310364, -0.07499068230390549, -0.1612289845943451, -0.0035571542102843523, -0.06867248564958572, 0.9973385334014893, -0.11341363936662674, -0.1739978790283203, 1.481689453125, 1.49560546875, 0.1868743896484375, 1.658935546875
461529, 0.2792837619781494, -1.152370810508728, 0.35175371170043945, 12.975878715515137, -2.747105836868286, -2.2962865829467773, 1.9821525812149048, -0.4358299672603607, -0.239872545003891, 0.0011361343786120415, 0.11092233657836914, 0.23891381919384003, -4.171319276273188, 4.80223253462546, -14.35675977411096, 9362.0, 36699.0, 35388.0, 9362.0, 8.231406211853027, 0.21930697560310364, -0.07499068230390549, -0.1612289845943451, -0.0018699769861996174, -0.06529434770345688, 0.9990280866622925, -0.11341363936662674, -0.1739978790283203, 1.481689453125, 1.49560546875, 0.1868743896484375, 1.658935546875
461539, 0.27991676330566406, -1.1519029140472412, 0.35045382380485535, 13.017547607421875, -2.7562685012817383, -2.301328420639038, 1.9863002300262451, -0.4368029534816742, -0.24030852317810059, 0.0011455938220024109, 0.11092682927846909, 0.23892782628536224, -4.156379521119302, 4.8427534677980475, -14.338411840019853, 9362.0, 36699.0, 35388.0, 9362.0, 8.231406211853027, 0.21930697560310364, -0.07499068230390549, -0.1612289845943451, -0.0023252114187926054, -0.06543794274330139, 0.9999859929084778, -0.11341363936662674, -0.1739978790283203, 1.481689453125, 1.49560546875, 0.1868743896484375, 1.658935546875
461559, 0.2819458842277527, -1.1541154384613037, 0.3510204553604126, 13.017547607421875, -2.7562685012817383, -2.301328420639038, 1.9863002300262451, -0.4368029534816742, -0.24030852317810059, 0.0011299625039100647, 0.11091598123311996, 0.23885689675807953, -4.2522723163308225, 4.922966766081004, -14.334900307298449, 9362.0, 36699.0, 35388.0, 9362.0, 8.231406211853027, -0.000570913078263402, -0.05896598473191261, 0.08645885437726974, -0.0021977999713271856, -0.06779072433710098, 0.9981864094734192, -0.12197444587945938, -0.1291980743408203, 1.4853515625, 1.484619140625, 0.1656646728515625, 1.658935546875
461579, 0.2821873426437378, -1.1632471084594727, 0.35464268922805786, 13.017547607421875, -2.7562685012817383, -2.301328420639038, 1.9863002300262451, -0.4368029534816742, -0.24030852317810059, 0.001132924109697342, 0.11092126369476318, 0.2388661950826645, -4.2813745671255035, 4.942142947539878, -14.334935686235177, 9362.0, 36699.0, 35388.0, 9362.0, 8.231406211853027, -0.000570913078263402, -0.05896598473191261, 0.08645885437726974, -0.002887061098590493, -0.06647515296936035, 0.9995052218437195, -0.11898933351039886, -0.10231781005859375, 1.487548828125, 1.486083984375, 0.16845703125, 1.658935546875
461589, 0.28252989053726196, -1.1662455797195435, 0.3551337718963623, 13.117109298706055, -2.778167247772217, -2.3133535385131836, 1.996190071105957, -0.4391445517539978, -0.240777388215065, 0.0011401651427149773, 0.1109265387058258, 0.23885323107242584, -4.273864618505091, 4.9180911110132115, -14.330557404933884, 9362.0, 36699.0, 35388.0, 9362.0, 8.231406211853027, -0.000570913078263402, -0.05896598473191261, 0.08645885437726974, -0.002887061098590493, -0.06647515296936035, 0.9995052218437195, -0.1182171180844307, -0.11127853393554688, 1.48681640625, 1.486083984375, 0.16845703125, 1.658935546875
461609, 0.281985878944397, -1.1658406257629395, 0.3554726839065552, 13.117109298706055, -2.778167247772217, -2.3133535385131836, 1.996190071105957, -0.4391445517539978, -0.240777388215065, 0.0011342307552695274, 0.11093221604824066, 0.23888348042964935, -4.268829378903396, 4.938864826698335, -14.344519686921839, 9362.0, 36699.0, 35388.0, 9362.0, 8.231406211853027, 0.20186389982700348, 0.05131278187036514, -0.1045619547367096, -0.002887061098590493, -0.06647515296936035, 0.9995052218437195, -0.11658115684986115, -0.1291980743408203, 1.4853515625, 1.48974609375, 0.1755218505859375, 1.658935546875
461629, 0.28375759720802307, -1.1677353382110596, 0.35665157437324524, 13.117109298706055, -2.778167247772217, -2.3133535385131836, 1.996190071105957, -0.4391445517539978, -0.240777388215065, 0.0011380957439541817, 0.11089766770601273, 0.2388230860233307, -4.371646388274262, 5.0481205806920855, -14.333733633412466, 9362.0, 36699.0, 35388.0, 9362.0, 8.231406211853027, -0.18975307047367096, 0.015975818037986755, 0.11667484790086746, -0.0031637914944440126, -0.06740303337574005, 0.9977846741676331, -0.11530282348394394, -0.10231781005859375, 1.487548828125, 1.4853515625, 0.1669921875, 1.658935546875
461639, 0.2823846638202667, -1.1680855751037598, 0.35743361711502075, 13.217168807983398, -2.8001835346221924, -2.325392961502075, 2.0061795711517334, -0.4415024220943451, -0.24097220599651337, 0.0012075351551175117, 0.11087721586227417, 0.23904573917388916, -4.032604760327683, 4.591046059260833, -14.365540872886628, 9362.0, 36699.0, 35388.0, 9362.0, 8.231406211853027, -0.18975307047367096, 0.015975818037986755, 0.11667484790086746, -0.0025126980617642403, -0.06858472526073456, 0.9992580413818359, -0.11530282348394394, -0.10231781005859375, 1.487548828125, 1.4853515625, 0.1669921875, 1.658935546875
461649, 0.28373590111732483, -1.168931484222412, 0.35789984464645386, 13.217168807983398, -2.8001835346221924, -2.325392961502075, 2.0061795711517334, -0.4415024220943451, -0.24097220599651337, 0.0011445367708802223, 0.11092063039541245, 0.2388964593410492, -4.211427147035115, 4.856651140998423, -14.338898841949959, 9362.0, 36699.0, 35388.0, 9362.0, 8.231406211853027, -0.18975307047367096, 0.015975818037986755, 0.11667484790086746, -0.0021567041985690594, -0.06922521442174911, 0.9986342787742615, -0.11530282348394394, -0.10231781005859375, 1.487548828125, 1.4853515625, 0.1669921875, 1.658935546875
461689, 0.2820861339569092, -1.1725025177001953, 0.3630678057670593, 13.297576904296875, -2.8178813457489014, -2.3350417613983154, 2.014186143875122, -0.4433891773223877, -0.24156449735164642, 0.0011395374312996864, 0.11091651022434235, 0.23883818089962006, -4.2786364056393875, 4.906080945402266, -14.332114918240553, 9362.0, 36699.0, 35388.0, 9362.0, 8.251240730285645, -0.1568559855222702, 0.11057467013597488, 0.2816779613494873, -0.0013205312425270677, -0.06844452023506165, 0.9985373020172119, -0.12284901738166809, -0.1291980743408203, 1.4853515625, 1.50146484375, 0.1985626220703125, 1.658935546875
461709, 0.2830139696598053, -1.1739027500152588, 0.3636825978755951, 13.33790111541748, -2.826758623123169, -2.339876651763916, 2.018195390701294, -0.4443289637565613, -0.24201218783855438, 0.0011465903371572495, 0.110927052795887, 0.23886799812316895, -4.260738917119811, 4.933214317047117, -14.34150781750122, 9362.0, 36699.0, 35388.0, 9362.0, 8.251240730285645, -0.16552339494228363, -0.07647141814231873, -0.2968132793903351, -0.003768586553633213, -0.0682598277926445, 0.9990323781967163, -0.12284901738166809, -0.1291980743408203, 1.4853515625, 1.48681640625, 0.1698150634765625, 1.658935546875
