timeTick, roll, pitch, yaw, stateX, stateY, stateZ, stateVX, stateVY, stateVZ, otX0, otY0, otZ0, otRoll0, otPitch0, otYaw0, left wing, pitch motor, yaw motor, right wing, voltage, roll rate, pitch rate, yaw rate, A_x, A_y, A_z, current, i_raw, v_raw, airflow_voltage, airflow_speed, pot_Pitch
42357, 0.8422538042068481, 2.603306770324707, 0.5956686735153198, 0, 0, 0, 0, 0, 0, 0.016747405752539635, 0.10365130752325058, 0.2401609718799591, -1.005469826133279, -0.06300795927978697, -26.504716748884757, 0, 0, 0, 0, 0, 0, 0, 0, 0, 0, 0, 0, 0, 0, 0, 0, 0
42367, 0.8420819640159607, 2.60499906539917, 0.5965469479560852, 0.0006908598588779569, 0.00023197272093966603, -13.354126930236816, 0.01638876274228096, 0.005507261957973242, -0.6558305025100708, 0.01674259826540947, 0.10364779084920883, 0.24018463492393494, -0.9937128441892569, -0.0744594700850314, -26.49169221821034, 9362.0, 44563.0, 35388.0, 9362.0, 8.072728157043457, -0.2667248845100403, -0.14705884456634521, -0.06851883977651596, -0.011514430865645409, -0.0732671245932579, 0.9968891143798828, 0, 0, 0, 0, 0, 0
42377, 0.8435377478599548, 2.6044654846191406, 0.596333384513855, 0.0008326111128553748, 0.00027962541207671165, -13.360687255859375, 0.01196152251213789, 0.004023211542516947, -0.656224250793457, 0.016766779124736786, 0.10365695506334305, 0.24015386402606964, -1.0678852288837801, 0.001405259558111993, -26.506754685516213, 9362.0, 44563.0, 35388.0, 9362.0, 8.072728157043457, 0.1614116132259369, 0.34190675616264343, 0.18033228814601898, -0.013632865622639656, -0.07227814197540283, 0.9973214268684387, -0.026052061468362808, -0.12023735046386719, 1.486083984375, 1.58203125, 0.37493896484375, 1.8310546875
42387, 0.8430230617523193, 2.6039977073669434, 0.5958023071289062, 0.0009300753590650856, 0.0003124384966213256, -13.3672513961792, 0.007531316485255957, 0.0025394251570105553, -0.6566166877746582, 0.01675681583583355, 0.10364646464586258, 0.24016062915325165, -1.0208818265507602, -0.048757819112950074, -26.494140522736497, 9362.0, 44563.0, 35388.0, 9362.0, 8.072728157043457, 0.06997471302747726, 0.2215305119752884, -0.2267017513513565, -0.012889609672129154, -0.07210985571146011, 0.9963582158088684, -0.029102690517902374, 0.25608062744140625, 1.516845703125, 1.614990234375, 0.4530181884765625, 1.827392578125
42397, 0.8433725833892822, 2.601936101913452, 0.5950739979743958, 0.0009832467185333371, 0.0003304029523860663, -13.373819351196289, 0.003102945163846016, 0.0010535037145018578, -0.6570292115211487, 0.016740206629037857, 0.10364551097154617, 0.24017123878002167, -0.9749359589500036, -0.05823777276569331, -26.487928193475906, 9362.0, 44563.0, 35388.0, 9362.0, 8.072728157043457, -0.11030565947294235, 0.20344729721546173, 0.0694986879825592, -0.013940581120550632, -0.07297953963279724, 0.9981797933578491, -0.02939734235405922, -0.11127853393554688, 1.48681640625, 1.59228515625, 0.3989715576171875, 1.83251953125
42407, 0.8426889777183533, 2.599815845489502, 0.5978217720985413, 0.000992144108749926, 0.0003335147921461612, -13.380392074584961, -0.0013234977377578616, -0.0004310804361011833, -0.657467246055603, 0.016766706481575966, 0.10368067026138306, 0.24010029435157776, -1.1210975012681277, 0.03334217072278989, -26.521627337814174, 9362.0, 44563.0, 35388.0, 9362.0, 8.072728157043457, 0.10905351489782333, 0.012019979767501354, 0.4618215262889862, -0.013310978189110756, -0.07157671451568604, 0.9970044493675232, -0.020201971754431725, 0.22023963928222656, 1.513916015625, 1.61572265625, 0.45465087890625, 1.840576171875
42417, 0.8427395820617676, 2.5981075763702393, 0.6012338995933533, 0.0009567664819769561, 0.00032176883541978896, -13.386968612670898, -0.005751979071646929, -0.0019183249678462744, -0.6577811241149902, 0.016766831278800964, 0.10365801304578781, 0.24018307030200958, -0.9888412533905251, -0.08011452612470293, -26.497200637454583, 9362.0, 44563.0, 35388.0, 9362.0, 8.072728157043457, 0.012126058340072632, -0.029805341735482216, 0.1277894675731659, -0.014721622690558434, -0.07053756713867188, 0.9978707432746887, -0.020436376333236694, 0.2829608917236328, 1.51904296875, 1.609130859375, 0.4388580322265625, 1.831787109375
42427, 0.8442346453666687, 2.6008362770080566, 0.6006687879562378, 0.0008771381108090281, 0.0002951606875285506, -13.393548011779785, -0.01017360296100378, -0.0034035667777061462, -0.6581645607948303, 0.016744252294301987, 0.10366189479827881, 0.24012047052383423, -1.070535377778935, -0.049720720198337176, -26.496015953266614, 9362.0, 44563.0, 35388.0, 9362.0, 8.072728157043457, -0.09742221981287003, -0.08688858896493912, 0.02795802615582943, -0.012718704529106617, -0.07277919352054596, 0.9972622990608215, 0.07098699361085892, -0.12023735046386719, 1.486083984375, 1.39013671875, 0.0314483642578125, 1.828857421875
42437, 0.8435966968536377, 2.6018757820129395, 0.6005321145057678, 0.0007532964809797704, 0.00025369448121637106, -13.400131225585938, -0.014594713225960732, -0.00488963071256876, -0.6584947109222412, 0.016764964908361435, 0.10365914553403854, 0.2401404231786728, -0.9923517015148775, -0.045373395832911, -26.490066584470615, 9362.0, 44563.0, 35388.0, 9362.0, 8.072728157043457, 0.03737723454833031, 0.043739646673202515, -0.03985651209950447, -0.013854355551302433, -0.07568659633398056, 0.9978044033050537, 0.051495734602212906, -0.11127853393554688, 1.48681640625, 1.346923828125, 0.015472412109375, 1.828857421875
42447, 0.8433491587638855, 2.6012027263641357, 0.6015856862068176, 0.0005852410686202347, 0.0001973617181647569, -13.406718254089355, -0.01901637576520443, -0.006376912817358971, -0.6589154601097107, 0.016763892024755478, 0.10366515070199966, 0.240146666765213, -1.024800530552164, -0.0352677498655396, -26.506434698012043, 9362.0, 44563.0, 35388.0, 9362.0, 8.072728157043457, 0.11895938962697983, 0.003502056235447526, -0.043035853654146194, -0.01332257129251957, -0.07566581666469574, 0.9995367527008057, 0.014517897740006447, -0.19191741943359375, 1.480224609375, 1.341064453125, 0.01654052734375, 1.847900390625
42457, 0.8440669775009155, 2.6033358573913574, 0.6007024049758911, 0.00037292775232344866, 0.00012615065497811884, -13.413309097290039, -0.02344626747071743, -0.007865377701818943, -0.6591935157775879, 0.01674497313797474, 0.1036468967795372, 0.24013270437717438, -1.037122647364497, -0.016193616976693193, -26.49945815292016, 9362.0, 44563.0, 35388.0, 9362.0, 8.072728157043457, -0.016741976141929626, -0.0026305713690817356, -0.03833618760108948, -0.013671843335032463, -0.07304365932941437, 0.9975680708885193, 0.006223722826689482, -0.1291980743408203, 1.4853515625, 1.320556640625, 0.02685546875, 1.831787109375
42467, 0.8434970378875732, 2.604348659515381, 0.6003887057304382, 0.00011631060624495149, 4.0053113480098546e-05, -13.419901847839355, -0.027877165004611015, -0.009354060515761375, -0.6594240665435791, 0.016746889799833298, 0.10364216566085815, 0.24011680483818054, -1.0301839816938196, -0.009016974009227852, -26.49995181439703, 9362.0, 44563.0, 35388.0, 9362.0, 8.072728157043457, -0.13898611068725586, 0.13101403415203094, 0.06097451224923134, -0.011740841902792454, -0.0715409442782402, 0.9997053146362305, -0.006785503122955561, -0.09335899353027344, 1.48828125, 1.314697265625, 0.0319061279296875, 1.828125
42477, 0.84224933385849, 2.6013500690460205, 0.6011672616004944, -0.00018461878062225878, -6.093220872571692e-05, -13.426497459411621, -0.03230872377753258, -0.010842978954315186, -0.6597209572792053, 0.01672484539449215, 0.10366055369377136, 0.24017900228500366, -0.9557597421660714, -0.07425670713701038, -26.472998100120186, 9362.0, 44563.0, 35388.0, 9362.0, 8.072728157043457, -0.14602701365947723, 0.15647879242897034, 0.04277757555246353, -0.012188533321022987, -0.07197912782430649, 0.9986920952796936, -0.01120151486247778, -0.13815879821777344, 1.484619140625, 1.2802734375, 0.0831756591796875, 1.83251953125
42487, 0.842410147190094, 2.601280927658081, 0.6001039147377014, -0.0005299088079482317, -0.00017681402096059173, -13.43309497833252, -0.03674927353858948, -0.012333438731729984, -0.6598572731018066, 0.016749368980526924, 0.10365409404039383, 0.240118607878685, -1.0496982822254315, 0.03265980840285465, -26.523745029211483, 9362.0, 44563.0, 35388.0, 9362.0, 8.072728157043457, -0.060717709362506866, 0.25154954195022583, 0.45041972398757935, -0.015101809054613113, -0.07117190212011337, 0.9983447790145874, -0.005406844895333052, 0.25608062744140625, 1.516845703125, 1.319091796875, 0.0279998779296875, 1.830322265625
42497, 0.840955376625061, 2.6014750003814697, 0.602738082408905, -0.0009195485035888851, -0.0003075796121265739, -13.439695358276367, -0.04117868095636368, -0.013819596730172634, -0.6601272225379944, 0.01678304187953472, 0.10365061461925507, 0.24013978242874146, -1.0887770325850004, 0.05258626239967157, -26.516647176888775, 9362.0, 44563.0, 35388.0, 9362.0, 8.072728157043457, 0.18710950016975403, -0.2627265155315399, -0.011120305396616459, -0.01349599938839674, -0.07278572767972946, 0.9984134435653687, -0.022693786770105362, -0.10231781005859375, 1.487548828125, 1.33154296875, 0.0198516845703125, 1.833251953125
42507, 0.8419824838638306, 2.5991458892822266, 0.6030977964401245, -0.0013534828322008252, -0.0004532081075012684, -13.446297645568848, -0.04560811445116997, -0.015306305140256882, -0.6603926420211792, 0.01675005629658699, 0.10364723205566406, 0.24015788733959198, -1.079605932658221, -0.0011811498274596488, -26.508690452558845, 9362.0, 44563.0, 35388.0, 9362.0, 8.072728157043457, 0.04428178071975708, 0.13901211321353912, 0.13001781702041626, -0.013469246216118336, -0.0711594820022583, 0.9973993897438049, -0.023622574284672737, -0.14711761474609375, 1.48388671875, 1.327880859375, 0.0218353271484375, 1.82958984375
42517, 0.8418624997138977, 2.5981204509735107, 0.6036452651023865, -0.001831701723858714, -0.0006136884912848473, -13.452902793884277, -0.05003568157553673, -0.016789807006716728, -0.6607071757316589, 0.016787102445960045, 0.10364271700382233, 0.24013295769691467, -1.0944875522956388, 0.05773985352624322, -26.522599862298435, 9362.0, 44563.0, 35388.0, 9362.0, 8.072728157043457, -0.011593940667808056, 0.11688759922981262, 0.2541908919811249, -0.01272527128458023, -0.07157950848340988, 0.998092770576477, -0.09678927809000015, -0.10231781005859375, 1.487548828125, 1.44873046875, 0.102813720703125, 1.8720703125
42527, 0.8411633372306824, 2.597303628921509, 0.605930745601654, -0.0023541664704680443, -0.000789009383879602, -13.459511756896973, -0.05445726960897446, -0.01827440783381462, -0.6610647439956665, 0.016766617074608803, 0.10365807265043259, 0.24011045694351196, -1.1284562195622911, 0.0779376480871008, -26.525385830066906, 9362.0, 44563.0, 35388.0, 9362.0, 8.072728157043457, -0.11277347058057785, 0.15078961849212646, 0.2423500120639801, -0.012810192070901394, -0.06884677708148956, 0.9992125034332275, -0.06158912926912308, -0.1291980743408203, 1.4853515625, 1.559326171875, 0.32293701171875, 1.8310546875
42537, 0.8416949510574341, 2.5977399349212646, 0.606268048286438, -0.0029208718333393335, -0.0009791865013539791, -13.466123580932617, -0.05888374149799347, -0.019761204719543457, -0.6612744927406311, 0.016712810844182968, 0.10367392003536224, 0.24021866917610168, -0.9144330019483383, -0.18029578120072642, -26.464391626777083, 9362.0, 44563.0, 35388.0, 9362.0, 8.072728157043457, -0.047936417162418365, -0.024873929098248482, -0.04848489537835121, -0.011661306023597717, -0.07263942062854767, 0.9972370862960815, -0.06290853768587112, -0.06647872924804688, 1.490478515625, 1.609130859375, 0.4388580322265625, 1.86474609375
42547, 0.8408635854721069, 2.5966923236846924, 0.6053303480148315, -0.003531835740432143, -0.0011842268286272883, -13.472737312316895, -0.06330904364585876, -0.0212468970566988, -0.6614794135093689, 0.01678679883480072, 0.10366610437631607, 0.24013106524944305, -1.1513806679540304, 0.08340942713547861, -26.548635257544138, 9362.0, 44563.0, 35388.0, 9362.0, 8.072728157043457, 0.07498917728662491, 0.07013316452503204, -0.12687398493289948, -0.0129036670550704, -0.07352995127439499, 0.9942147135734558, -0.051463883370161057, -0.1291980743408203, 1.4853515625, 1.563720703125, 0.3327789306640625, 1.849365234375
42557, 0.8419883847236633, 2.599228620529175, 0.6047480702400208, -0.004186991136521101, -0.0014041069662198424, -13.479354858398438, -0.06772207468748093, -0.02272905968129635, -0.6619724035263062, 0.016804421320557594, 0.10363130271434784, 0.2401331067085266, -1.111541693954068, 0.08808279682088482, -26.544763298854228, 9362.0, 44563.0, 35388.0, 9362.0, 8.072728157043457, 0.14466287195682526, -0.06759047508239746, 0.08223314583301544, -0.01084029208868742, -0.07125786691904068, 0.9941605925559998, -0.046778492629528046, 0.24711990356445312, 1.51611328125, 1.376953125, 0.0225982666015625, 1.828125
42567, 0.8416780829429626, 2.598923444747925, 0.6032510995864868, -0.004886213690042496, -0.0016387829091399908, -13.485978126525879, -0.07212244719266891, -0.024206077679991722, -0.6627058386802673, 0.016754794865846634, 0.10364635288715363, 0.24018259346485138, -1.0396832692192013, 0.022458395632440897, -26.50410250679912, 9362.0, 44563.0, 35388.0, 9362.0, 8.072728157043457, 0.030886923894286156, -0.1631241738796234, -0.24124111235141754, -0.011104032397270203, -0.07314419001340866, 0.9991596341133118, -0.03409072384238243, -0.13815879821777344, 1.484619140625, 1.35791015625, 0.015869140625, 1.82958984375
42577, 0.8423935174942017, 2.598869562149048, 0.602083683013916, -0.005629523657262325, -0.0018882594304159284, -13.492607116699219, -0.07653956860303879, -0.02568911388516426, -0.663165807723999, 0.016783062368631363, 0.10364962369203568, 0.240094855427742, -1.1119209608170295, 0.11914998016288791, -26.54270861268789, 9362.0, 44563.0, 35388.0, 9362.0, 8.072728157043457, 0.0776059627532959, -0.10504932701587677, 0.20442669093608856, -0.012908536940813065, -0.07355835288763046, 0.998775064945221, -0.028567587956786156, 0.30088043212890625, 1.5205078125, 1.329345703125, 0.02105712890625, 1.827392578125
42587, 0.8445947766304016, 2.5994627475738525, 0.6019859313964844, -0.0064170644618570805, -0.002152583794668317, -13.499239921569824, -0.08096858859062195, -0.027175677940249443, -0.6633515357971191, 0.0167431328445673, 0.10366008430719376, 0.24015796184539795, -1.0330573893267714, -0.03783976301392045, -26.49461824790474, 9362.0, 44563.0, 35388.0, 9362.0, 8.072728157043457, -0.004885105416178703, 0.07389523088932037, -0.008809796534478664, -0.012746503576636314, -0.07112587988376617, 0.9976269602775574, -0.021658333018422127, -0.10231781005859375, 1.487548828125, 1.341796875, 0.0162811279296875, 1.839111328125
42597, 0.8437601327896118, 2.5995168685913086, 0.602704644203186, -0.0072488742880523205, -0.0024317726492881775, -13.505874633789062, -0.08539342880249023, -0.02866208553314209, -0.6636278033256531, 0.01678941771388054, 0.10365217179059982, 0.24012421071529388, -1.1287918473788092, 0.0777234794994115, -26.5487398424039, 9362.0, 44563.0, 35388.0, 9362.0, 8.072728157043457, -0.23455820977687836, 0.027871111407876015, 0.23770718276500702, -0.012673210352659225, -0.06975039094686508, 0.9982374310493469, -0.031769759953022, -0.10231781005859375, 1.487548828125, 1.31396484375, 0.0325469970703125, 1.822998046875
42607, 0.8425326347351074, 2.598458766937256, 0.6035470962524414, -0.008124933578073978, -0.002725843107327819, -13.51251220703125, -0.08981849253177643, -0.030152080580592155, -0.6639201045036316, 0.01677229255437851, 0.10365541279315948, 0.24012722074985504, -1.0611457139928993, 0.021480656644200735, -26.524175250343433, 9362.0, 44563.0, 35388.0, 9362.0, 8.072728157043457, -0.42572465538978577, 0.10845579952001572, 0.08818352222442627, -0.013468640856444836, -0.07155956327915192, 0.997795820236206, -0.020132610574364662, 0.15752029418945312, 1.5087890625, 1.3271484375, 0.022308349609375, 1.8251953125
42617, 0.8417017459869385, 2.5984718799591064, 0.6035900712013245, -0.009045235812664032, -0.0030348040163517, -13.519152641296387, -0.09424205124378204, -0.03164017200469971, -0.6642479300498962, 0.016746370121836662, 0.1036544069647789, 0.2401789426803589, -1.017163588772535, -0.044682481477451574, -26.495767555959354, 9362.0, 44563.0, 35388.0, 9362.0, 8.072728157043457, -0.004914591088891029, -0.08268905431032181, -0.10446911305189133, -0.013790825381875038, -0.07101339101791382, 0.9970467686653137, -0.029055822640657425, 0.0052013397216796875, 1.496337890625, 1.302978515625, 0.0450897216796875, 1.842041015625
42627, 0.8415562510490417, 2.597804546356201, 0.6047965884208679, -0.010009761899709702, -0.003358634654432535, -13.525796890258789, -0.09866318851709366, -0.033125948160886765, -0.6645892858505249, 0.016721704974770546, 0.10366009920835495, 0.24016858637332916, -0.9972986185184556, -0.13831353726800444, -26.48847382135658, 9362.0, 44563.0, 35388.0, 9362.0, 8.072728157043457, 0.14868275821208954, -0.09300435334444046, 0.12215881794691086, -0.0130838043987751, -0.07117150723934174, 0.998317539691925, -0.045482754707336426, -0.12023735046386719, 1.486083984375, 1.30810546875, 0.0388031005859375, 1.833251953125
42647, 0.8437815308570862, 2.5984604358673096, 0.6037986874580383, -0.012071449309587479, -0.004050842951983213, -13.539094924926758, -0.10750521719455719, -0.03609492629766464, -0.6652525663375854, 0.016762597486376762, 0.10365675389766693, 0.24017579853534698, -1.0425145040269395, -0.04627920454913692, -26.50775343048653, 9362.0, 44563.0, 35388.0, 9362.0, 8.072728157043457, -0.10150948911905289, -0.005370489787310362, -0.022223658859729767, -0.0130838043987751, -0.07117150723934174, 0.998317539691925, -0.01918707974255085, 0.08584022521972656, 1.5029296875, 1.30810546875, 0.0388031005859375, 1.833251953125
42657, 0.8429011106491089, 2.598980188369751, 0.6026629209518433, -0.012071449309587479, -0.004050842951983213, -13.539094924926758, -0.10750521719455719, -0.03609492629766464, -0.6652525663375854, 0.01674339734017849, 0.10363990068435669, 0.24016782641410828, -0.9940929702264676, -0.09480621322174443, -26.487285502091815, 9362.0, 44563.0, 35388.0, 9362.0, 8.072728157043457, -0.10150948911905289, -0.005370489787310362, -0.022223658859729767, -0.012840816751122475, -0.07151050120592117, 0.9960343241691589, -0.01918707974255085, 0.08584022521972656, 1.5029296875, 1.30810546875, 0.0388031005859375, 1.875732421875
42667, 0.8421837687492371, 2.5987966060638428, 0.6029645800590515, -0.012071449309587479, -0.004050842951983213, -13.539094924926758, -0.10750521719455719, -0.03609492629766464, -0.6652525663375854, 0.016735125333070755, 0.10365534573793411, 0.24015574157238007, -1.0061183964475438, -0.06734379505152788, -26.497658281532384, 9362.0, 44563.0, 35388.0, 9362.0, 8.072728157043457, -0.07019863277673721, 0.14155460894107819, 0.010392327792942524, -0.012840816751122475, -0.07151050120592117, 0.9960343241691589, -0.01918707974255085, 0.08584022521972656, 1.5029296875, 1.30810546875, 0.0388031005859375, 1.875732421875
42677, 0.8405246734619141, 2.5962154865264893, 0.6049574613571167, -0.012071449309587479, -0.004050842951983213, -13.539094924926758, -0.10750521719455719, -0.03609492629766464, -0.6652525663375854, 0.0167547594755888, 0.10366815328598022, 0.24012093245983124, -1.0775472441418996, -0.009676696275562335, -26.51049143894204, 9362.0, 44563.0, 35388.0, 9362.0, 8.072728157043457, 0.015069829300045967, 0.19806352257728577, 0.044711530208587646, -0.012840816751122475, -0.07151050120592117, 0.9960343241691589, -0.01918707974255085, 0.08584022521972656, 1.5029296875, 1.30810546875, 0.0388031005859375, 1.830322265625
42687, 0.8411090970039368, 2.592223882675171, 0.6078341603279114, -0.016725145280361176, -0.005613525863736868, -13.565735816955566, -0.1251729279756546, -0.042035166174173355, -0.667014479637146, 0.01677091419696808, 0.1036592647433281, 0.240143284201622, -1.04943867794867, 0.026327624904695313, -26.519482116801495, 9362.0, 44563.0, 35388.0, 9362.0, 8.072728157043457, 0.10789209604263306, 0.30923670530319214, 0.3803095817565918, -0.012840816751122475, -0.07151050120592117, 0.9960343241691589, -0.01918707974255085, 0.08584022521972656, 1.5029296875, 1.30810546875, 0.0388031005859375, 1.830322265625
42697, 0.8411024808883667, 2.5933709144592285, 0.6073244214057922, -0.017998920753598213, -0.006041276268661022, -13.572408676147461, -0.12958228588104248, -0.04351513460278511, -0.6675302982330322, 0.016781585291028023, 0.10365162789821625, 0.24012990295886993, -1.0917293375967319, 0.10830691029457284, -26.512981898470855, 9362.0, 44563.0, 35388.0, 9362.0, 8.072728157043457, 0.0022357539273798466, 0.09500379860401154, -0.2076755315065384, -0.012840816751122475, -0.07151050120592117, 0.9960343241691589, -0.01918707974255085, 0.08584022521972656, 1.5029296875, 1.30810546875, 0.0388031005859375, 1.830322265625
42727, 0.8413056135177612, 2.594604730606079, 0.603811502456665, -0.017998920753598213, -0.006041276268661022, -13.572408676147461, -0.12958228588104248, -0.04351513460278511, -0.6675302982330322, 0.016742097213864326, 0.10367098450660706, 0.24017396569252014, -1.0239099476396478, -0.015899542867884975, -26.484559732560594, 9362.0, 44563.0, 35388.0, 9362.0, 8.072728157043457, -0.2504485249519348, 0.16611136496067047, -0.036329884082078934, -0.012567693367600441, -0.0712888240814209, 0.9984338879585266, -0.01918707974255085, 0.08584022521972656, 1.5029296875, 1.56591796875, 0.337738037109375, 1.83251953125
42747, 0.8408846855163574, 2.5946335792541504, 0.6036171913146973, -0.025029020383954048, -0.008402273058891296, -13.605843544006348, -0.15163466334342957, -0.050927840173244476, -0.6696333885192871, 0.016782207414507866, 0.10364171117544174, 0.24008458852767944, -1.1195019616936974, 0.12354668087297682, -26.53119247404665, 9362.0, 44563.0, 35388.0, 9362.0, 8.072728157043457, 0.04462399706244469, -0.279226154088974, -0.12728388607501984, -0.012567693367600441, -0.0712888240814209, 0.9984338879585266, -0.01918707974255085, 0.08584022521972656, 1.5029296875, 1.56591796875, 0.337738037109375, 1.83251953125
42757, 0.8418409824371338, 2.595965623855591, 0.60295170545578, -0.025029020383954048, -0.008402273058891296, -13.605843544006348, -0.15163466334342957, -0.050927840173244476, -0.6696333885192871, 0.016750536859035492, 0.10365719348192215, 0.24013911187648773, -0.9917022133675322, -0.01985660673790335, -26.51220372749505, 9362.0, 44563.0, 35388.0, 9362.0, 8.072728157043457, 0.2683267295360565, 0.1318013072013855, -0.026517698541283607, -0.012567693367600441, -0.0712888240814209, 0.9984338879585266, -0.01918707974255085, 0.08584022521972656, 1.5029296875, 1.27880859375, 0.086212158203125, 1.83251953125
42817, 0.8433567881584167, 2.594677209854126, 0.6049942970275879, -0.03144705295562744, -0.010557902045547962, -13.63266658782959, -0.1692679226398468, -0.05685475841164589, -0.6715667247772217, 0.01678294502198696, 0.10365188121795654, 0.240098774433136, -1.0943742048884666, 0.10886138496718445, -26.519204005111305, 9362.0, 44563.0, 35388.0, 9362.0, 8.072728157043457, -0.2841005325317383, -0.23585517704486847, 0.2266719788312912, -0.01190919429063797, -0.07332298159599304, 0.9978172183036804, -0.04037245362997055, -0.1291980743408203, 1.4853515625, 1.27880859375, 0.086212158203125, 1.830322265625
42827, 0.841824471950531, 2.596571445465088, 0.6046171188354492, -0.03144705295562744, -0.010557902045547962, -13.63266658782959, -0.1692679226398468, -0.05685475841164589, -0.6715667247772217, 0.016763482242822647, 0.10367979854345322, 0.2401251494884491, -1.0376881542841954, -0.013891861727927335, -26.501622698358986, 9362.0, 44563.0, 35388.0, 9362.0, 8.072728157043457, 0.03967905789613724, 0.17101117968559265, -0.1040995717048645, -0.01190919429063797, -0.07332298159599304, 0.9978172183036804, -0.04037245362997055, -0.1291980743408203, 1.4853515625, 1.27880859375, 0.086212158203125, 1.830322265625
42867, 0.8411247134208679, 2.59801983833313, 0.6078730821609497, -0.04437750577926636, -0.014901923947036266, -13.679765701293945, -0.20017674565315247, -0.06725712865591049, -0.6741248369216919, 0.01675637811422348, 0.1036543995141983, 0.24015800654888153, -0.9856497763629739, -0.0609541823330062, -26.489094229939578, 9362.0, 44563.0, 35388.0, 9362.0, 8.072728157043457, -0.014598638750612736, 0.23249123990535736, -0.22783266007900238, -0.012406880035996437, -0.07040049135684967, 0.997953474521637, -0.04037245362997055, -0.1291980743408203, 1.4853515625, 1.27880859375, 0.086212158203125, 1.834716796875
42887, 0.8416061997413635, 2.594947099685669, 0.6111040115356445, -0.05058180168271065, -0.016986388713121414, -13.700004577636719, -0.21344466507434845, -0.07170869410037994, -0.675057590007782, 0.01675296574831009, 0.10365790128707886, 0.2401304841041565, -1.044305557658715, -0.007017091220120619, -26.509813621173326, 9362.0, 44563.0, 35388.0, 9362.0, 8.072728157043457, -0.014598638750612736, 0.23249123990535736, -0.22783266007900238, -0.0138115044683218, -0.07058634608983994, 0.998943030834198, -0.04037245362997055, -0.1291980743408203, 1.4853515625, 1.27880859375, 0.086212158203125, 1.834716796875
42907, 0.84247887134552, 2.597810983657837, 0.610356330871582, -0.05493902787566185, -0.018450237810611725, -13.713512420654297, -0.222274512052536, -0.074676014482975, -0.6758153438568115, 0.01677272841334343, 0.10366547852754593, 0.24013762176036835, -1.0348000709093428, 0.009724401890395029, -26.520405892616974, 9362.0, 44563.0, 35388.0, 9362.0, 8.072728157043457, -0.11822710186243057, 0.09587183594703674, -0.1354265809059143, -0.0138115044683218, -0.07058634608983994, 0.998943030834198, -0.04037245362997055, -0.1291980743408203, 1.4853515625, 1.27880859375, 0.086212158203125, 1.834716796875
42917, 0.8418779969215393, 2.595127820968628, 0.6106452345848083, -0.05493902787566185, -0.018450237810611725, -13.713512420654297, -0.222274512052536, -0.074676014482975, -0.6758153438568115, 0.016753705218434334, 0.10365836322307587, 0.24013040959835052, -1.0322377865922536, -0.0010886081022078997, -26.492863880177733, 9362.0, 44563.0, 35388.0, 9362.0, 8.072728157043457, -0.08579400181770325, 0.04839053377509117, -0.003173129167407751, -0.0138115044683218, -0.07058634608983994, 0.998943030834198, -0.04037245362997055, -0.1291980743408203, 1.4853515625, 1.27880859375, 0.086212158203125, 1.834716796875
42927, 0.8408941030502319, 2.595026969909668, 0.6098966598510742, -0.05493902787566185, -0.018450237810611725, -13.713512420654297, -0.222274512052536, -0.074676014482975, -0.6758153438568115, 0.01675187610089779, 0.10365814715623856, 0.24013003706932068, -1.0962866313267852, 0.008986001788173326, -26.522800205833693, 9362.0, 44563.0, 35388.0, 9362.0, 8.072728157043457, -0.01912670023739338, -0.34616222977638245, 0.08817511796951294, -0.01338689960539341, -0.07133059948682785, 0.9976708292961121, -0.04037245362997055, -0.1291980743408203, 1.4853515625, 1.27880859375, 0.086212158203125, 1.834716796875
42977, 0.8392179012298584, 2.6012563705444336, 0.6084696650505066, -0.06907030194997787, -0.023198053240776062, -13.754129409790039, -0.24876536428928375, -0.08357632905244827, -0.6782361268997192, 0.01676306501030922, 0.10364947468042374, 0.24014687538146973, -1.0366084900409043, -0.03005144180252728, -26.496368727929944, 9362.0, 44563.0, 35388.0, 9362.0, 8.072728157043457, 0.24009758234024048, -0.25443801283836365, -0.26322951912879944, -0.015441782772541046, -0.0708003044128418, 0.9953087568283081, -0.04037245362997055, -0.1291980743408203, 1.4853515625, 1.27880859375, 0.086212158203125, 1.834716796875
43067, 0.8365229368209839, 2.6022348403930664, 0.6066800355911255, -0.09615908563137054, -0.032295502722263336, -13.822157859802246, -0.2930431067943573, -0.09837813675403595, -0.6818992495536804, 0.016754157841205597, 0.10367576777935028, 0.24015620350837708, -1.0082580455701868, -0.03321431381235129, -26.509789989945133, 9362.0, 44563.0, 35388.0, 9362.0, 8.072728157043457, -0.048620209097862244, -0.08674805611371994, 0.2884419858455658, -0.01341311726719141, -0.07107316702604294, 0.9958404302597046, -0.04037245362997055, -0.1291980743408203, 1.4853515625, 1.27880859375, 0.086212158203125, 1.8369140625
43087, 0.837634265422821, 2.6023054122924805, 0.6088677048683167, -0.10210835188627243, -0.0342925600707531, -13.83580493927002, -0.3018871247768402, -0.10132814943790436, -0.6827857494354248, 0.016751134768128395, 0.10366667807102203, 0.24012455344200134, -1.03904979731479, -0.021110631458640228, -26.481594158141597, 9362.0, 44563.0, 35388.0, 9362.0, 8.072728157043457, -0.052668794989585876, -0.20502528548240662, -0.14452409744262695, -0.01341311726719141, -0.07107316702604294, 0.9958404302597046, -0.04037245362997055, -0.1291980743408203, 1.4853515625, 1.27880859375, 0.086212158203125, 1.8369140625
43097, 0.8372840285301208, 2.6024298667907715, 0.6083338856697083, -0.10210835188627243, -0.0342925600707531, -13.83580493927002, -0.3018871247768402, -0.10132814943790436, -0.6827857494354248, 0.016791019588708878, 0.1036430150270462, 0.24010829627513885, -1.08602715701129, 0.0471761858568982, -26.518452320069386, 9362.0, 44563.0, 35388.0, 9362.0, 8.092562675476074, -0.059703901410102844, 0.021280396729707718, -0.030728725716471672, -0.01341311726719141, -0.07107316702604294, 0.9958404302597046, -0.04037245362997055, -0.1291980743408203, 1.4853515625, 1.27880859375, 0.086212158203125, 1.84423828125
43107, 0.836905837059021, 2.601579189300537, 0.607365071773529, -0.10210835188627243, -0.0342925600707531, -13.83580493927002, -0.3018871247768402, -0.10132814943790436, -0.6827857494354248, 0.016736149787902832, 0.10366220772266388, 0.24015551805496216, -1.0068809981657514, -0.07142456837132727, -26.48767114454294, 9362.0, 44563.0, 35388.0, 9362.0, 8.072728157043457, 0.0912170335650444, -0.04025791212916374, -0.22695444524288177, -0.013905752450227737, -0.07022593170404434, 0.9986758828163147, -0.04037245362997055, -0.1291980743408203, 1.4853515625, 1.27880859375, 0.086212158203125, 1.84423828125
43117, 0.8380828499794006, 2.6026504039764404, 0.6063944101333618, -0.10210835188627243, -0.0342925600707531, -13.83580493927002, -0.3018871247768402, -0.10132814943790436, -0.6827857494354248, 0.016781674697995186, 0.10366344451904297, 0.24007758498191833, -1.1441783106509194, 0.09994834347892834, -26.539191392935663, 9362.0, 44563.0, 35388.0, 9362.0, 8.072728157043457, -0.047557879239320755, 0.16482765972614288, 0.22098420560359955, -0.013147972524166107, -0.07084237784147263, 0.9961438775062561, -0.04037245362997055, -0.1291980743408203, 1.4853515625, 1.27880859375, 0.086212158203125, 1.8310546875
43157, 0.8369031548500061, 2.601388692855835, 0.6066157221794128, -0.12432465702295303, -0.04174720495939255, -13.883695602416992, -0.3328680992126465, -0.11166466027498245, -0.6854358315467834, 0.016772620379924774, 0.10363467037677765, 0.24012067914009094, -1.111049519093754, 0.09425894375033295, -26.519371061338976, 9362.0, 44563.0, 35388.0, 9362.0, 8.072728157043457, -0.30828818678855896, -0.07152586430311203, -0.03750454634428024, -0.015309890732169151, -0.07463255524635315, 0.9962826371192932, -0.04037245362997055, -0.1291980743408203, 1.4853515625, 1.27880859375, 0.086212158203125, 1.850830078125
43217, 0.8369237184524536, 2.598782777786255, 0.6079744696617126, -0.1379929929971695, -0.046331748366355896, -13.911150932312012, -0.3505571186542511, -0.11756616085767746, -0.6871911883354187, 0.01677580736577511, 0.10365957021713257, 0.2401198148727417, -1.0775792305757697, 0.005770508246456529, -26.506029099902225, 9362.0, 44563.0, 35388.0, 9362.0, 8.072728157043457, -0.2139807939529419, 0.3659404516220093, 0.05657030642032623, -0.0133597943931818, -0.07147303968667984, 0.9960390329360962, -0.04037245362997055, -0.1291980743408203, 1.4853515625, 1.27880859375, 0.086212158203125, 1.833984375
43227, 0.8358201384544373, 2.5948843955993652, 0.6078563928604126, -0.1379929929971695, -0.046331748366355896, -13.911150932312012, -0.3505571186542511, -0.11756616085767746, -0.6871911883354187, 0.016763892024755478, 0.10365185141563416, 0.24015796184539795, -1.0064641554960172, -0.052332140306816655, -26.49313277956949, 9362.0, 44563.0, 35388.0, 9362.0, 8.072728157043457, 0.05040151998400688, 0.13666364550590515, 0.030744552612304688, -0.0133597943931818, -0.07147303968667984, 0.9960390329360962, -0.04037245362997055, -0.1291980743408203, 1.4853515625, 1.27880859375, 0.086212158203125, 1.852294921875
43237, 0.8359146118164062, 2.59261417388916, 0.6103636622428894, -0.1379929929971695, -0.046331748366355896, -13.911150932312012, -0.3505571186542511, -0.11756616085767746, -0.6871911883354187, 0.01676877774298191, 0.10364241153001785, 0.24015416204929352, -1.0236522107121555, -0.056111904359084974, -26.511389806018773, 9362.0, 44563.0, 35388.0, 9362.0, 8.072728157043457, -0.029801441356539726, -0.05319967493414879, -0.051318395882844925, -0.0133597943931818, -0.07147303968667984, 0.9960390329360962, -0.04037245362997055, -0.1291980743408203, 1.4853515625, 1.27880859375, 0.086212158203125, 1.83251953125
43257, 0.8368798494338989, 2.590304374694824, 0.6101608872413635, -0.1598222702741623, -0.05365142226219177, -13.952454566955566, -0.3770611584186554, -0.1264173835515976, -0.6897152066230774, 0.016785062849521637, 0.10363322496414185, 0.24013741314411163, -1.0652654885712918, 0.028263604291907996, -26.53186637402633, 9362.0, 44563.0, 35388.0, 9362.0, 8.072728157043457, 0.07803113013505936, 0.07883576303720474, -0.13707637786865234, -0.013585133478045464, -0.07351016253232956, 0.9964606165885925, -0.04037245362997055, -0.1291980743408203, 1.4853515625, 1.27880859375, 0.086212158203125, 1.83251953125
43267, 0.8364210724830627, 2.5916833877563477, 0.6122399568557739, -0.1598222702741623, -0.05365142226219177, -13.952454566955566, -0.3770611584186554, -0.1264173835515976, -0.6897152066230774, 0.016783997416496277, 0.10364215075969696, 0.24012833833694458, -1.0791868376702312, 0.0550067032135928, -26.51833187984473, 9362.0, 44563.0, 35388.0, 9362.0, 8.072728157043457, 0.07803113013505936, 0.07883576303720474, -0.13707637786865234, -0.013585133478045464, -0.07351016253232956, 0.9964606165885925, -0.04037245362997055, -0.1291980743408203, 1.4853515625, 1.27880859375, 0.086212158203125, 1.83251953125
43277, 0.8363081216812134, 2.5889244079589844, 0.6142026782035828, -0.1674516797065735, -0.05620928853750229, -13.966255187988281, -0.38588181138038635, -0.12937094271183014, -0.6903042793273926, 0.01677694357931614, 0.10364013910293579, 0.24012590944766998, -1.0383361425546698, 0.007887016574557038, -26.510681970813966, 9362.0, 44563.0, 35388.0, 9362.0, 8.072728157043457, -0.10871335864067078, 0.513872504234314, 0.1068989560008049, -0.013585133478045464, -0.07351016253232956, 0.9964606165885925, -0.04037245362997055, -0.1291980743408203, 1.4853515625, 1.27880859375, 0.086212158203125, 1.83251953125
43337, 0.8376815319061279, 2.582383871078491, 0.6122569441795349, -0.1913968175649643, -0.06423717737197876, -14.007742881774902, -0.4122737944126129, -0.13823124766349792, -0.6925727725028992, 0.01674777641892433, 0.10364751517772675, 0.2401336282491684, -1.0137585740290023, 0.0026974560576604745, -26.504185774606807, 9362.0, 44563.0, 35388.0, 9362.0, 8.072728157043457, 0.20871299505233765, 0.3430356979370117, 0.30120915174484253, -0.012839139439165592, -0.07215417921543121, 0.9970293045043945, -0.04037245362997055, -0.1291980743408203, 1.4853515625, 1.27880859375, 0.086212158203125, 1.82666015625
43357, 0.8396677374839783, 2.5795934200286865, 0.6109329462051392, -0.1913968175649643, -0.06423717737197876, -14.007742881774902, -0.4122737944126129, -0.13823124766349792, -0.6925727725028992, 0.016762733459472656, 0.10364774614572525, 0.24011573195457458, -1.0390480827390902, 0.036900584910455336, -26.512623365756692, 9362.0, 44563.0, 35388.0, 9362.0, 8.072728157043457, -0.15139265358448029, 0.22069643437862396, -0.12277869135141373, -0.01160899456590414, -0.07269085943698883, 0.9973493814468384, -0.04037245362997055, -0.1291980743408203, 1.4853515625, 1.27880859375, 0.086212158203125, 1.8720703125
43377, 0.8407889008522034, 2.57955002784729, 0.606742262840271, -0.20823916792869568, -0.06988468021154404, -14.035475730895996, -0.429837703704834, -0.1441456526517868, -0.6941241025924683, 0.016759581863880157, 0.10363839566707611, 0.24015602469444275, -1.0331440574044877, 0.0022661668123760137, -26.487839200180765, 9362.0, 44563.0, 35388.0, 9362.0, 8.072728157043457, -0.10377126932144165, -0.07384037226438522, -0.4598385691642761, -0.013271222822368145, -0.07248144596815109, 0.997735321521759, -0.04037245362997055, -0.1291980743408203, 1.4853515625, 1.27880859375, 0.086212158203125, 1.83251953125
43407, 0.8411449193954468, 2.5765373706817627, 0.605755090713501, -0.22133196890354156, -0.07427578419446945, -14.05631160736084, -0.44301027059555054, -0.1485942006111145, -0.6950145959854126, 0.01678541675209999, 0.10366848111152649, 0.2401694506406784, -1.0573173488100212, 0.007140148645333966, -26.51985925498599, 9362.0, 44563.0, 35388.0, 9362.0, 8.072728157043457, 0.07803498953580856, -0.04079743102192879, 0.01636115089058876, -0.013028348796069622, -0.07160009443759918, 0.9989781975746155, -0.04037245362997055, -0.1291980743408203, 1.4853515625, 1.27880859375, 0.086212158203125, 1.831787109375
43467, 0.8422373533248901, 2.5782487392425537, 0.6034353375434875, -0.23481975495815277, -0.07880037277936935, -14.077176094055176, -0.4561794102191925, -0.1530483365058899, -0.6957651376724243, 0.01676512323319912, 0.10364916920661926, 0.24017475545406342, -1.0248343495060834, -0.015976336599607066, -26.502100838690048, 9362.0, 44563.0, 35388.0, 9362.0, 8.072728157043457, 0.1479843109846115, 0.3232290744781494, -0.03473706543445587, -0.012332020327448845, -0.07235854864120483, 0.9976528882980347, -0.04037245362997055, -0.1291980743408203, 1.4853515625, 1.27880859375, 0.086212158203125, 1.83251953125
43477, 0.8408904075622559, 2.578770160675049, 0.6058551669120789, -0.23481975495815277, -0.07880037277936935, -14.077176094055176, -0.4561794102191925, -0.1530483365058899, -0.6957651376724243, 0.016750382259488106, 0.10365431755781174, 0.24015474319458008, -1.040101326829477, -0.004701804670929732, -26.498367102360547, 9362.0, 44563.0, 35388.0, 9362.0, 8.072728157043457, -0.15804800391197205, 0.11586157232522964, 0.2215733677148819, -0.012332020327448845, -0.07235854864120483, 0.9976528882980347, -0.04037245362997055, -0.1291980743408203, 1.4853515625, 1.27880859375, 0.086212158203125, 1.85888671875
43517, 0.8394845724105835, 2.582502603530884, 0.6077450513839722, -0.2727181315422058, -0.09151923656463623, -14.132951736450195, -0.4912784695625305, -0.16491882503032684, -0.6987489461898804, 0.016765369102358818, 0.10364285856485367, 0.24011944234371185, -1.0502494744388247, 0.016454708726627132, -26.504165829288578, 9362.0, 44563.0, 35388.0, 9362.0, 8.072728157043457, -0.13409805297851562, 0.05808352679014206, 0.17970478534698486, -0.014445429667830467, -0.07108672708272934, 0.9973568320274353, -0.04037245362997055, -0.1291980743408203, 1.4853515625, 1.27880859375, 0.086212158203125, 1.85888671875
43527, 0.8395345211029053, 2.58134388923645, 0.6076533198356628, -0.2727181315422058, -0.09151923656463623, -14.132951736450195, -0.4912784695625305, -0.16491882503032684, -0.6987489461898804, 0.01676090434193611, 0.10365409404039383, 0.24016402661800385, -1.0216677530103058, -0.044725020922896874, -26.506070125488346, 9362.0, 44563.0, 35388.0, 9362.0, 8.072728157043457, -0.2626867890357971, -0.07475663721561432, 0.11904564499855042, -0.014445429667830467, -0.07108672708272934, 0.9973568320274353, -0.04037245362997055, -0.1291980743408203, 1.4853515625, 1.27880859375, 0.086212158203125, 1.85888671875
43547, 0.8406093716621399, 2.5774760246276855, 0.611570417881012, -0.28765398263931274, -0.0965333953499794, -14.153932571411133, -0.5044452548027039, -0.16935788094997406, -0.7000171542167664, 0.016757134348154068, 0.10363594442605972, 0.24014899134635925, -1.0034205190884076, -0.03547154416150988, -26.492023118171655, 9362.0, 44563.0, 35388.0, 9362.0, 8.072728157043457, 0.14583933353424072, 0.18536415696144104, 0.3197452425956726, -0.014445429667830467, -0.07108672708272934, 0.9973568320274353, -0.04037245362997055, -0.1291980743408203, 1.4853515625, 1.27880859375, 0.086212158203125, 1.828857421875
43587, 0.8423604369163513, 2.576061487197876, 0.6085255742073059, -0.30818334221839905, -0.10342653840780258, -14.1819486618042, -0.5220108032226562, -0.1752970963716507, -0.7009274363517761, 0.016749205067753792, 0.10365346074104309, 0.2401566207408905, -0.9960322960851402, -0.04462839990731027, -26.49578866058584, 9362.0, 44563.0, 35388.0, 9362.0, 8.072728157043457, 0.2126552015542984, -0.39749985933303833, -0.3624795973300934, -0.012144941836595535, -0.07323180884122849, 0.9979301691055298, -0.04037245362997055, -0.1291980743408203, 1.4853515625, 1.27880859375, 0.086212158203125, 1.833251953125
43597, 0.8429343104362488, 2.5764811038970947, 0.6090441346168518, -0.30818334221839905, -0.10342653840780258, -14.1819486618042, -0.5220108032226562, -0.1752970963716507, -0.7009274363517761, 0.016774142161011696, 0.10365936160087585, 0.24008972942829132, -1.0897028487954394, 0.07013301733712751, -26.51718211689309, 9362.0, 44563.0, 35388.0, 9362.0, 8.072728157043457, 0.1574990153312683, -0.14577698707580566, 0.0881495550274849, -0.012144941836595535, -0.07323180884122849, 0.9979301691055298, -0.04037245362997055, -0.1291980743408203, 1.4853515625, 1.27880859375, 0.086212158203125, 1.833251953125
43637, 0.8433696627616882, 2.5751571655273438, 0.6063512563705444, -0.3294144570827484, -0.11055727303028107, -14.210012435913086, -0.5395430326461792, -0.18123936653137207, -0.7023685574531555, 0.016789279878139496, 0.10365205258131027, 0.2400989979505539, -1.1047757643086442, 0.08974344399808842, -26.5254700632527, 9362.0, 44563.0, 35388.0, 9362.0, 8.072728157043457, -0.16227993369102478, 0.07923496514558792, 0.040335141122341156, -0.013252300210297108, -0.07284994423389435, 0.9966135025024414, -0.04037245362997055, -0.1291980743408203, 1.4853515625, 1.27880859375, 0.086212158203125, 1.8603515625
43647, 0.8427878022193909, 2.5760624408721924, 0.6041945219039917, -0.3294144570827484, -0.11055727303028107, -14.210012435913086, -0.5395430326461792, -0.18123936653137207, -0.7023685574531555, 0.016753552481532097, 0.10365048050880432, 0.2401489019393921, -1.0198681529550975, -0.03721569799762392, -26.499600142151962, 9362.0, 44563.0, 35388.0, 9362.0, 8.072728157043457, -0.0877680629491806, -0.30879342555999756, -0.15022648870944977, -0.013252300210297108, -0.07284994423389435, 0.9966135025024414, -0.04037245362997055, -0.1291980743408203, 1.4853515625, 1.27880859375, 0.086212158203125, 1.833251953125
43687, 0.8433425426483154, 2.5763537883758545, 0.6015212535858154, -0.3569391071796417, -0.11980485916137695, -14.245183944702148, -0.5614544153213501, -0.1886686086654663, -0.7042273879051208, 0.016711117699742317, 0.10365758091211319, 0.24014121294021606, -0.9894522044900269, -0.13029965981746727, -26.470734770796348, 9362.0, 44563.0, 35388.0, 9362.0, 8.072728157043457, 0.02358251065015793, 0.007560786325484514, 0.13400359451770782, -0.011441637761890888, -0.06999475508928299, 0.9965900778770447, -0.04037245362997055, -0.1291980743408203, 1.4853515625, 1.27880859375, 0.086212158203125, 1.833984375
43707, 0.8418021202087402, 2.5782992839813232, 0.6012904644012451, -0.3569391071796417, -0.11980485916137695, -14.245183944702148, -0.5614544153213501, -0.1886686086654663, -0.7042273879051208, 0.01677822880446911, 0.10365427285432816, 0.24011854827404022, -1.0807140725459274, 0.037937869603752006, -26.505591583743353, 9362.0, 44563.0, 35388.0, 9362.0, 8.072728157043457, 0.02358251065015793, 0.007560786325484514, 0.13400359451770782, -0.014531249180436134, -0.0724303275346756, 0.9965099096298218, -0.04037245362997055, -0.1291980743408203, 1.4853515625, 1.27880859375, 0.086212158203125, 1.82958984375
43717, 0.8430641293525696, 2.5774199962615967, 0.601476788520813, -0.3569391071796417, -0.11980485916137695, -14.245183944702148, -0.5614544153213501, -0.1886686086654663, -0.7042273879051208, 0.016775691881775856, 0.10365347564220428, 0.2401793897151947, -1.0281569136135322, -0.04942423431401721, -26.51993169479703, 9362.0, 44563.0, 35388.0, 9362.0, 8.072728157043457, -0.06036572903394699, -0.2805365324020386, -0.04028421640396118, -0.012517937459051609, -0.07277031242847443, 0.9988974928855896, -0.04037245362997055, -0.1291980743408203, 1.4853515625, 1.27880859375, 0.086212158203125, 1.833251953125
43727, 0.8430209159851074, 2.580207586288452, 0.6001999974250793, -0.3569391071796417, -0.11980485916137695, -14.245183944702148, -0.5614544153213501, -0.1886686086654663, -0.7042273879051208, 0.01679050177335739, 0.10365936905145645, 0.24010825157165527, -1.0907045613118391, 0.10881287512219728, -26.538848409565944, 9362.0, 44563.0, 35388.0, 9362.0, 8.072728157043457, 0.09555508941411972, -0.2830227315425873, -0.26283422112464905, -0.012517937459051609, -0.07277031242847443, 0.9988974928855896, -0.04037245362997055, -0.1291980743408203, 1.4853515625, 1.27880859375, 0.086212158203125, 1.833251953125
43757, 0.8431499600410461, 2.5803091526031494, 0.5997408032417297, -0.40325844287872314, -0.1353738009929657, -14.30163860321045, -0.5965412259101868, -0.20055261254310608, -0.7070637941360474, 0.016758084297180176, 0.10365742444992065, 0.24015182256698608, -1.0264545844257995, -0.02471339114359239, -26.50756419935943, 9362.0, 44563.0, 35388.0, 9362.0, 8.072728157043457, -0.02710833214223385, -0.32514646649360657, -0.05775754898786545, -0.01072537899017334, -0.07396239042282104, 0.9972714781761169, -0.04037245362997055, -0.1291980743408203, 1.4853515625, 1.27880859375, 0.086212158203125, 1.82958984375
43767, 0.8435840010643005, 2.5797863006591797, 0.5995347499847412, -0.4092457890510559, -0.137386754155159, -14.308711051940918, -0.6009278893470764, -0.20203664898872375, -0.707470178604126, 0.016758812591433525, 0.10365624725818634, 0.24016667902469635, -1.038332489580499, -0.04465974670091555, -26.49202568854014, 9362.0, 44563.0, 35388.0, 9362.0, 8.072728157043457, 0.013290333561599255, 0.28118857741355896, 0.010527070611715317, -0.01072537899017334, -0.07396239042282104, 0.9972714781761169, -0.04037245362997055, -0.1291980743408203, 1.4853515625, 1.27880859375, 0.086212158203125, 1.82958984375
43777, 0.8441779017448425, 2.576923370361328, 0.6018904447555542, -0.4092457890510559, -0.137386754155159, -14.308711051940918, -0.6009278893470764, -0.20203664898872375, -0.707470178604126, 0.016755618155002594, 0.1036510169506073, 0.24014446139335632, -1.050886018144503, -0.0076901280738752575, -26.49503261316842, 9362.0, 44563.0, 35388.0, 9362.0, 8.072728157043457, -0.12484607845544815, 0.14057114720344543, 0.03485354408621788, -0.01072537899017334, -0.07396239042282104, 0.9972714781761169, -0.04037245362997055, -0.1291980743408203, 1.4853515625, 1.27880859375, 0.086212158203125, 1.87060546875
43827, 0.8445941209793091, 2.5804717540740967, 0.6016539931297302, -0.43983951210975647, -0.1476740539073944, -14.344152450561523, -0.6228190660476685, -0.2094579041004181, -0.7101594805717468, 0.016751807183027267, 0.10364965349435806, 0.24013115465641022, -1.032355489955373, 0.002732450702865208, -26.499349784126206, 9362.0, 44563.0, 35388.0, 9362.0, 8.072728157043457, 0.01029376033693552, 0.052443601191043854, 0.1878591924905777, -0.013370439410209656, -0.07231604307889938, 0.9960000514984131, -0.04037245362997055, -0.1291980743408203, 1.4853515625, 1.27880859375, 0.086212158203125, 1.831787109375
43847, 0.8452430963516235, 2.5810084342956543, 0.6027179956436157, -0.4523835778236389, -0.15189294517040253, -14.358365058898926, -0.6315891146659851, -0.21243149042129517, -0.7110797166824341, 0.016733340919017792, 0.1036541685461998, 0.2401624470949173, -0.9967878635405346, -0.051352641048339365, -26.47902105421752, 9362.0, 44563.0, 35388.0, 9362.0, 8.072728157043457, -0.24992094933986664, 0.3701748251914978, 0.2280927449464798, -0.012367216870188713, -0.07427094131708145, 0.9989569187164307, -0.04037245362997055, -0.1291980743408203, 1.4853515625, 1.27880859375, 0.086212158203125, 1.833251953125
43857, 0.8456220626831055, 2.5780293941497803, 0.6031388640403748, -0.4523835778236389, -0.15189294517040253, -14.358365058898926, -0.6315891146659851, -0.21243149042129517, -0.7110797166824341, 0.0167939905077219, 0.10364178568124771, 0.2401052862405777, -1.1163707281029072, 0.11857516884313668, -26.5389528639907, 9362.0, 44563.0, 35388.0, 9362.0, 8.072728157043457, -0.24992094933986664, 0.3701748251914978, 0.2280927449464798, -0.012367216870188713, -0.07427094131708145, 0.9989569187164307, -0.04037245362997055, -0.1291980743408203, 1.4853515625, 1.27880859375, 0.086212158203125, 1.833251953125
43877, 0.8460005521774292, 2.5774738788604736, 0.6014494895935059, -0.4523835778236389, -0.15189294517040253, -14.358365058898926, -0.6315891146659851, -0.21243149042129517, -0.7110797166824341, 0.01676534302532673, 0.10364402085542679, 0.24015791714191437, -1.0269355571084657, -0.02978110323718397, -26.50585499432871, 9362.0, 44563.0, 35388.0, 9362.0, 8.072728157043457, 0.0825047492980957, 0.23958350718021393, 0.41860896348953247, -0.012367216870188713, -0.07427094131708145, 0.9989569187164307, -0.04037245362997055, -0.1291980743408203, 1.4853515625, 1.27880859375, 0.086212158203125, 1.831787109375
43947, 0.8453109860420227, 2.576184034347534, 0.6054354906082153, -0.5245132446289062, -0.17616240680217743, -14.436787605285645, -0.6798242330551147, -0.2288312017917633, -0.7152080535888672, 0.016785738989710808, 0.10366237908601761, 0.24013914167881012, -1.0874262358481097, 0.028378299250391592, -26.512150851703954, 9362.0, 44563.0, 35388.0, 9362.0, 8.072728157043457, -0.2065678834915161, 0.19130852818489075, 0.04553401097655296, -0.013950562104582787, -0.07299438118934631, 0.9972227811813354, -0.03980651870369911, -0.08439826965332031, 1.489013671875, 1.27880859375, 0.086212158203125, 1.830322265625
43997, 0.8463889360427856, 2.572695016860962, 0.6049128174781799, -0.5520565509796143, -0.18543484807014465, -14.465428352355957, -0.6973379850387573, -0.2347918301820755, -0.7168217897415161, 0.016764888539910316, 0.10365594923496246, 0.2401113510131836, -1.068446882253505, -0.0024273851826137616, -26.49599279557737, 9362.0, 44563.0, 35388.0, 9362.0, 8.072728157043457, 0.15812508761882782, 0.06551194190979004, -0.07681314647197723, -0.01261461153626442, -0.07240567356348038, 0.9977160692214966, -0.03980651870369911, -0.08439826965332031, 1.489013671875, 1.27880859375, 0.086212158203125, 1.830322265625
44007, 0.8471472859382629, 2.5748581886291504, 0.6022017002105713, -0.5520565509796143, -0.18543484807014465, -14.465428352355957, -0.6973379850387573, -0.2347918301820755, -0.7168217897415161, 0.01677669957280159, 0.10366059094667435, 0.24012446403503418, -1.030421270467799, -0.02503525173594312, -26.51301734175446, 9362.0, 44563.0, 35388.0, 9362.0, 8.072728157043457, 0.03823893144726753, 0.3069784343242645, 0.0882451981306076, -0.012092849239706993, -0.07464772462844849, 0.9973396062850952, -0.03980651870369911, -0.08439826965332031, 1.489013671875, 1.27880859375, 0.086212158203125, 1.830322265625
44017, 0.8471096754074097, 2.5745279788970947, 0.6018406748771667, -0.5520565509796143, -0.18543484807014465, -14.465428352355957, -0.6973379850387573, -0.2347918301820755, -0.7168217897415161, 0.016804780811071396, 0.10365884751081467, 0.24013559520244598, -1.1398475545797802, 0.07550962712099363, -26.53074436149906, 9362.0, 44563.0, 35388.0, 9362.0, 8.072728157043457, 0.04099506139755249, -0.06685630232095718, -0.13247746229171753, -0.012092849239706993, -0.07464772462844849, 0.9973396062850952, -0.03980651870369911, -0.08439826965332031, 1.489013671875, 1.27880859375, 0.086212158203125, 1.830322265625
44027, 0.848031759262085, 2.5732574462890625, 0.6005208492279053, -0.5520565509796143, -0.18543484807014465, -14.465428352355957, -0.6973379850387573, -0.2347918301820755, -0.7168217897415161, 0.01676265522837639, 0.10364654660224915, 0.24012257158756256, -1.066378372476371, 0.006370050651298698, -26.512165660009252, 9362.0, 44563.0, 35388.0, 9362.0, 8.072728157043457, 0.23943790793418884, 0.24697987735271454, -0.17158947885036469, -0.012092849239706993, -0.07464772462844849, 0.9973396062850952, -0.03980651870369911, -0.08439826965332031, 1.489013671875, 1.27880859375, 0.086212158203125, 1.831787109375
44047, 0.8463810682296753, 2.57055926322937, 0.598820686340332, -0.5520565509796143, -0.18543484807014465, -14.465428352355957, -0.6973379850387573, -0.2347918301820755, -0.7168217897415161, 0.016774840652942657, 0.10365098714828491, 0.24014030396938324, -1.0647049148079601, 0.00322391276512235, -26.501120552248686, 9362.0, 44563.0, 35388.0, 9362.0, 8.072728157043457, 0.23943790793418884, 0.24697987735271454, -0.17158947885036469, -0.012598242610692978, -0.07298444956541061, 0.9971867203712463, -0.03980651870369911, -0.08439826965332031, 1.489013671875, 1.27880859375, 0.086212158203125, 1.83251953125
44067, 0.8453620672225952, 2.5682129859924316, 0.5966853499412537, -0.6019424796104431, -0.20223583281040192, -14.515701293945312, -0.727979302406311, -0.2452414333820343, -0.7193296551704407, 0.016777673736214638, 0.10364775359630585, 0.24013540148735046, -1.0962951896123028, 0.049654755290617913, -26.52673640341217, 9362.0, 44563.0, 35388.0, 9362.0, 8.072728157043457, 0.23943790793418884, 0.24697987735271454, -0.17158947885036469, -0.012277379631996155, -0.07297477126121521, 0.9991247653961182, -0.03980651870369911, -0.08439826965332031, 1.489013671875, 1.27880859375, 0.086212158203125, 1.831787109375
44077, 0.8454540967941284, 2.5665972232818604, 0.5955721139907837, -0.6019424796104431, -0.20223583281040192, -14.515701293945312, -0.727979302406311, -0.2452414333820343, -0.7193296551704407, 0.016800783574581146, 0.10365410894155502, 0.24010787904262543, -1.0949667426154048, 0.06277108767906725, -26.53592550919522, 9362.0, 44563.0, 35388.0, 9362.0, 8.072728157043457, 0.11139103770256042, -0.16446012258529663, -0.03813418000936508, -0.012277379631996155, -0.07297477126121521, 0.9991247653961182, -0.03980651870369911, -0.08439826965332031, 1.489013671875, 1.27880859375, 0.086212158203125, 1.862548828125
44087, 0.8466911315917969, 2.5676021575927734, 0.594718873500824, -0.6019424796104431, -0.20223583281040192, -14.515701293945312, -0.727979302406311, -0.2452414333820343, -0.7193296551704407, 0.01676594279706478, 0.10366299003362656, 0.2401684820652008, -1.0133867461987351, -0.05032885889096406, -26.48794253596361, 9362.0, 44563.0, 35388.0, 9362.0, 8.072728157043457, -0.005185372661799192, 0.04391324147582054, -0.11522537469863892, -0.012277379631996155, -0.07297477126121521, 0.9991247653961182, -0.03980651870369911, -0.08439826965332031, 1.489013671875, 1.27880859375, 0.086212158203125, 1.830322265625
44117, 0.8472850918769836, 2.5721018314361572, 0.591877281665802, -0.64640873670578, -0.2172187715768814, -14.558908462524414, -0.7542110681533813, -0.2541860044002533, -0.7211692929267883, 0.016778631135821342, 0.10365373641252518, 0.2401072382926941, -1.1017770444069301, 0.04004517762064097, -26.534286806908252, 9362.0, 44563.0, 35388.0, 9362.0, 8.072728157043457, -0.0832463726401329, -0.028548045083880424, -0.03800306096673012, -0.012519028969109058, -0.07134373486042023, 0.9968928694725037, -0.03980651870369911, -0.08439826965332031, 1.489013671875, 1.27880859375, 0.086212158203125, 1.830322265625
44137, 0.848623514175415, 2.5738887786865234, 0.5919927954673767, -0.64640873670578, -0.2172187715768814, -14.558908462524414, -0.7542110681533813, -0.2541860044002533, -0.7211692929267883, 0.016769148409366608, 0.10363942384719849, 0.24014604091644287, -1.0646046235036042, 0.027471509605135225, -26.50886936103358, 9362.0, 44563.0, 35388.0, 9362.0, 8.072728157043457, 0.04797404631972313, -0.09745310246944427, 0.04029792547225952, -0.012620564550161362, -0.07057484984397888, 0.9969823360443115, -0.03980651870369911, -0.08439826965332031, 1.489013671875, 1.27880859375, 0.086212158203125, 1.8310546875
44147, 0.8493732213973999, 2.573146104812622, 0.5941458940505981, -0.64640873670578, -0.2172187715768814, -14.558908462524414, -0.7542110681533813, -0.2541860044002533, -0.7211692929267883, 0.016797048971056938, 0.10365983843803406, 0.2401021271944046, -1.1518815413179995, 0.09451696261913867, -26.526060446133137, 9362.0, 44563.0, 35388.0, 9362.0, 8.072728157043457, 0.074872687458992, 0.3437655568122864, 0.23350490629673004, -0.012620564550161362, -0.07057484984397888, 0.9969823360443115, -0.03980651870369911, -0.08439826965332031, 1.489013671875, 1.27880859375, 0.086212158203125, 1.8310546875
44177, 0.8484573364257812, 2.572794198989868, 0.5948523283004761, -0.6846662163734436, -0.23011472821235657, -14.595009803771973, -0.7761003375053406, -0.2616575360298157, -0.7227951884269714, 0.016774144023656845, 0.10364657640457153, 0.24010992050170898, -1.0886504402559873, 0.017121296399920993, -26.52445031470963, 9362.0, 44563.0, 35388.0, 9362.0, 8.072728157043457, 0.074872687458992, 0.3437655568122864, 0.23350490629673004, -0.010764965787529945, -0.06973996013402939, 0.9979943037033081, -0.03980651870369911, -0.08439826965332031, 1.489013671875, 1.27880859375, 0.086212158203125, 1.83251953125
44187, 0.8485012054443359, 2.5722646713256836, 0.594781756401062, -0.6846662163734436, -0.23011472821235657, -14.595009803771973, -0.7761003375053406, -0.2616575360298157, -0.7227951884269714, 0.016757478937506676, 0.10365340858697891, 0.2401873916387558, -1.0122751459280779, -0.036258058758903644, -26.498816807957322, 9362.0, 44563.0, 35388.0, 9362.0, 8.072728157043457, -0.026609594002366066, -0.26731446385383606, 0.1918531358242035, -0.010764965787529945, -0.06973996013402939, 0.9979943037033081, -0.03980651870369911, -0.08439826965332031, 1.489013671875, 1.27880859375, 0.086212158203125, 1.833251953125
44217, 0.8471604585647583, 2.564436912536621, 0.5965883731842041, -0.7240185737609863, -0.2433847188949585, -14.631182670593262, -0.7979918718338013, -0.2691388428211212, -0.7241568565368652, 0.016754640266299248, 0.10365785658359528, 0.24016670882701874, -1.0591636836737597, -0.01623056190831562, -26.516791852578816, 9362.0, 44563.0, 35388.0, 9362.0, 8.072728157043457, -0.2327297478914261, 0.2703607678413391, -0.2095826119184494, -0.010764965787529945, -0.06973996013402939, 0.9979943037033081, -0.03980651870369911, -0.08439826965332031, 1.489013671875, 1.27880859375, 0.086212158203125, 1.828125
44237, 0.8466184735298157, 2.5607447624206543, 0.595608115196228, -0.7240185737609863, -0.2433847188949585, -14.631182670593262, -0.7979918718338013, -0.2691388428211212, -0.7241568565368652, 0.016768939793109894, 0.10363642126321793, 0.24013307690620422, -1.0889863771920847, 0.06844456858203785, -26.51157398333753, 9362.0, 44563.0, 35388.0, 9362.0, 8.072728157043457, 0.0037406112533062696, 0.18121424317359924, 0.09294011443853378, -0.015039083547890186, -0.07094503939151764, 0.9973767995834351, -0.03980651870369911, -0.08439826965332031, 1.489013671875, 1.27880859375, 0.086212158203125, 1.8720703125
44267, 0.8486011624336243, 2.5607924461364746, 0.5947908759117126, -0.7562875151634216, -0.25426968932151794, -14.660172462463379, -0.8154453635215759, -0.2751091420650482, -0.7253547310829163, 0.016734223812818527, 0.10364937782287598, 0.24018576741218567, -0.9901465219753017, -0.05363963107149061, -26.513807594274734, 9362.0, 44563.0, 35388.0, 9362.0, 8.072728157043457, 0.09826286882162094, -0.10468298941850662, -0.1760779321193695, -0.013543562032282352, -0.07341169565916061, 0.9973406791687012, -0.03980651870369911, -0.08439826965332031, 1.489013671875, 1.27880859375, 0.086212158203125, 1.83544921875
