timeTick, roll, pitch, yaw, stateX, stateY, stateZ, stateVX, stateVY, stateVZ, otX0, otY0, otZ0, otRoll0, otPitch0, otYaw0, left wing, pitch motor, yaw motor, right wing, voltage, roll rate, pitch rate, yaw rate, A_x, A_y, A_z, current, i_raw, v_raw, airflow_voltage, airflow_speed, pot_Pitch
32180, -0.3082695007324219, 7.8419294357299805, -7.064913749694824, 0, 0, 0, 0, 0, 0, 0.008304525166749954, 0.1079791933298111, 0.24052265286445618, -1.905222212017246, 1.5885617260636025, -19.926635840921964, 0, 0, 0, 0, 0, 0, 0, 0, 0, 0, 0, 0, 0, 0, 0, 0, 0
32190, -0.30845463275909424, 7.840039253234863, -7.066591262817383, 0.0005431194440461695, -8.924901339923963e-05, -6.905362129211426, 0.0477178581058979, -0.007840795442461967, -0.4489021301269531, 0.008382603526115417, 0.1079094335436821, 0.24054831266403198, -1.9496381772387361, 1.6134410096480565, -19.916844051931776, 9362.0, 40631.0, 35388.0, 9362.0, 8.17190170288086, 0.07295346260070801, 0.0956711694598198, 0.18321289122104645, -0.0033762191887944937, -0.06944065541028976, 0.9986021518707275, 0, 0, 0, 0, 0, 0
32200, -0.30784592032432556, 7.838877201080322, -7.064846038818359, 0.000954296556301415, -0.00015682146477047354, -6.90985631942749, 0.03451760113239288, -0.0056733014062047005, -0.4499512016773224, 0.00837340485304594, 0.10789652913808823, 0.2405501902103424, -1.9469401059214735, 1.6029657537957291, -19.92251919498474, 9362.0, 40631.0, 35388.0, 9362.0, 8.152067184448242, 0.05632452294230461, -0.25967133045196533, -0.12746892869472504, -0.006417266093194485, -0.0685238465666771, 0.9984142184257507, -0.045734282582998276, -0.10231781005859375, 1.487548828125, 1.538818359375, 0.2772674560546875, 1.745361328125
32210, -0.30788764357566833, 7.841018199920654, -7.06542444229126, 0.0012335096253082156, -0.00020272105757612735, -6.914361476898193, 0.021324923262000084, -0.0035070248413830996, -0.45103245973587036, 0.008375401608645916, 0.10791376233100891, 0.2405676394701004, -1.9227600543749712, 1.56095221215881, -19.911819800454314, 9362.0, 40631.0, 35388.0, 9362.0, 8.17190170288086, 0.21896284818649292, -0.28792324662208557, -0.28496307134628296, -0.00707288971170783, -0.06792321801185608, 0.9999827146530151, -0.053311221301555634, 0.03208160400390625, 1.49853515625, 1.5205078125, 0.237762451171875, 1.757080078125
32220, -0.3057919144630432, 7.841398239135742, -7.067836284637451, 0.0013807556824758649, -0.00022695821826346219, -6.918876647949219, 0.008124341256916523, -0.0013402786571532488, -0.4520421028137207, 0.008368546143174171, 0.10791514813899994, 0.24056574702262878, -1.9163838200465744, 1.5632072138898252, -19.916463274319113, 9362.0, 40631.0, 35388.0, 9362.0, 8.17190170288086, 0.05346545949578285, 0.041725028306245804, -0.18840493261814117, -0.007334845140576363, -0.06867428123950958, 0.9980893135070801, -0.06353652477264404, -0.1739978790283203, 1.481689453125, 1.521240234375, 0.2393646240234375, 1.745361328125
32230, -0.3050526976585388, 7.841457843780518, -7.069008827209473, 0.0013959420612081885, -0.0002295187587151304, -6.923401832580566, -0.005086978431791067, 0.0008286921074613929, -0.4529988467693329, 0.008296338841319084, 0.10795679688453674, 0.24050799012184143, -1.903685512806677, 1.5507020922584331, -19.92006726173122, 9362.0, 40631.0, 35388.0, 9362.0, 8.17190170288086, -0.03995664790272713, -0.04726678505539894, -0.21680587530136108, -0.005842774175107479, -0.07025779038667679, 0.9961458444595337, -0.07326433062553406, -0.12023735046386719, 1.486083984375, 1.37841796875, 0.023406982421875, 1.745361328125
32240, -0.30514904856681824, 7.842078685760498, -7.0703840255737305, 0.001279116957448423, -0.00021042169828433543, -6.9279375076293945, -0.018277985975146294, 0.002990978304296732, -0.45411255955696106, 0.00835888460278511, 0.1079004630446434, 0.24055933952331543, -1.9450817700428855, 1.6060203695130042, -19.916111588104126, 9362.0, 40631.0, 35388.0, 9362.0, 8.17190170288086, -0.0653599202632904, 0.1546632945537567, 0.0430474616587162, -0.004193904343992472, -0.06887607276439667, 0.9973943829536438, -0.08082228899002075, -0.12023735046386719, 1.486083984375, 1.330810546875, 0.0203399658203125, 1.74462890625
32250, -0.3055912256240845, 7.840218544006348, -7.069114685058594, 0.0010304737370461226, -0.00016972185403574258, -6.932485103607178, -0.03145059943199158, 0.005149304401129484, -0.45536309480667114, 0.008360976353287697, 0.10791288316249847, 0.24056147038936615, -1.9005159139771544, 1.556730030588767, -19.920731202796965, 9362.0, 40631.0, 35388.0, 9362.0, 8.17190170288086, 0.14007294178009033, -0.10543691366910934, -0.20795199275016785, -0.0063147107139229774, -0.0701064020395279, 0.9986274242401123, -0.046998728066682816, -0.10231781005859375, 1.487548828125, 1.428955078125, 0.073577880859375, 1.76220703125
32260, -0.30497270822525024, 7.83951473236084, -7.0685954093933105, 0.0006500198505818844, -0.00010742266749730334, -6.937044620513916, -0.04464025795459747, 0.007310251705348492, -0.45649611949920654, 0.008369255810976028, 0.10789553076028824, 0.24055008590221405, -1.9101402824636267, 1.5265321163669512, -19.932177203530536, 9362.0, 40631.0, 35388.0, 9362.0, 8.17190170288086, 0.07614177465438843, 0.1743278056383133, 0.11877405643463135, -0.007935150526463985, -0.06996871531009674, 1.0000543594360352, -0.06373240053653717, -0.13815879821777344, 1.484619140625, 1.49267578125, 0.1811065673828125, 1.74462890625
32270, -0.3048590123653412, 7.838664531707764, -7.068141460418701, 0.00013759772991761565, -2.349933492951095e-05, -6.941614627838135, -0.05784419924020767, 0.009474290534853935, -0.4575002193450928, 0.008371112868189812, 0.10790903866291046, 0.24056555330753326, -1.8998023427912123, 1.5670353219036315, -19.925775375366612, 9362.0, 40631.0, 35388.0, 9362.0, 8.17190170288086, -0.13877364993095398, 0.08800454437732697, -0.07272738963365555, -0.006633465178310871, -0.06997670978307724, 0.9972290396690369, -0.07229115068912506, -0.08439826965332031, 1.489013671875, 1.491943359375, 0.179656982421875, 1.745361328125
32280, -0.3054637014865875, 7.837464809417725, -7.0682549476623535, -0.0005068788304924965, 8.20611312519759e-05, -6.946194648742676, -0.07105113565921783, 0.011637698858976364, -0.45847436785697937, 0.00837483536452055, 0.10790643095970154, 0.24054095149040222, -1.9805226237489972, 1.5827445529826036, -19.920551796488922, 9362.0, 40631.0, 35388.0, 9362.0, 8.17190170288086, 0.016909705474972725, -0.29233723878860474, -0.09305144101381302, -0.007761352229863405, -0.06914693117141724, 0.9967412948608398, -0.08367853611707687, -0.09335899353027344, 1.48828125, 1.487548828125, 0.1712188720703125, 1.74462890625
32290, -0.30502864718437195, 7.839078426361084, -7.069456577301025, -0.0012832770589739084, 0.0002092302602250129, -6.950785160064697, -0.08422855287790298, 0.01379616279155016, -0.4596552550792694, 0.008378216996788979, 0.10790389031171799, 0.24057428538799286, -1.9346717938425158, 1.5309572703170886, -19.9207524668533, 9362.0, 40631.0, 35388.0, 9362.0, 8.17190170288086, 0.09380720555782318, -0.0035695272963494062, -0.16808392107486725, -0.006314011290669441, -0.06941942125558853, 0.9977923035621643, -0.05292099341750145, -0.08439826965332031, 1.489013671875, 1.365966796875, 0.017791748046875, 1.743896484375
32300, -0.30592620372772217, 7.840122699737549, -7.070060729980469, -0.0021914192475378513, 0.00035798485623672605, -6.955387592315674, -0.09739983826875687, 0.01595502346754074, -0.4608650803565979, 0.008366738446056843, 0.10790926963090897, 0.24059034883975983, -1.9358743571451378, 1.5687399024049569, -19.9195453054631, 9362.0, 40631.0, 35388.0, 9362.0, 8.17190170288086, -0.24395015835762024, 0.06121847406029701, 0.26390403509140015, -0.003946065437048674, -0.0707177221775055, 0.9968253970146179, -0.06292905658483505, -0.09335899353027344, 1.48828125, 1.335205078125, 0.018280029296875, 1.749755859375
32310, -0.3064834475517273, 7.83956241607666, -7.067779064178467, -0.003231324488297105, 0.0005283333593979478, -6.9600019454956055, -0.1105811670422554, 0.018114829435944557, -0.4620216488838196, 0.008369614370167255, 0.10792113840579987, 0.24059940874576569, -1.9069300423264124, 1.5535222679614833, -19.906860008257105, 9362.0, 40631.0, 35388.0, 9362.0, 8.17190170288086, -0.009589356370270252, -0.01745804026722908, -0.15946358442306519, -0.004642447456717491, -0.07114586979150772, 0.9974693655967712, -0.07386941462755203, -0.18295860290527344, 1.48095703125, 1.34326171875, 0.01605224609375, 1.745361328125
32320, -0.3057957589626312, 7.8373308181762695, -7.069774150848389, -0.004403018858283758, 0.0007202841225080192, -6.964628219604492, -0.12375783920288086, 0.020274806767702103, -0.46322497725486755, 0.008359892293810844, 0.10791639983654022, 0.24058258533477783, -1.9071068638992212, 1.5595554078763882, -19.908243991735752, 9362.0, 40631.0, 35388.0, 9362.0, 8.17190170288086, 0.02587803266942501, 0.1221080794930458, -0.086744025349617, -0.006536437198519707, -0.07186859846115112, 0.9988816976547241, -0.08284028619527817, -0.10231781005859375, 1.487548828125, 1.327880859375, 0.0218353271484375, 1.745361328125
32330, -0.30605196952819824, 7.836745262145996, -7.069416046142578, -0.005706505384296179, 0.0009338411036878824, -6.969266414642334, -0.1369394212961197, 0.022437047213315964, -0.46438339352607727, 0.008367765694856644, 0.10791822522878647, 0.24056506156921387, -1.9369594583413856, 1.6157402195867974, -19.922974741116853, 9362.0, 40631.0, 35388.0, 9362.0, 8.17190170288086, 0.0735246017575264, 0.3411007523536682, 0.175077885389328, -0.004483910743147135, -0.07064864784479141, 0.9995572566986084, -0.05593613535165787, -0.04855918884277344, 1.491943359375, 1.365234375, 0.0175933837890625, 1.7431640625
32340, -0.3052087426185608, 7.834040641784668, -7.069857120513916, -0.007141907699406147, 0.0011690340470522642, -6.973915100097656, -0.1501411348581314, 0.02460147999227047, -0.46536698937416077, 0.008350838907063007, 0.10790140926837921, 0.24059294164180756, -1.9198314560233705, 1.5983910928313492, -19.90014554614487, 9362.0, 40631.0, 35388.0, 9362.0, 8.17190170288086, 0.03606732562184334, 0.29546234011650085, 0.07058746367692947, -0.006055949721485376, -0.07016057521104813, 0.9980573058128357, -0.07245641201734543, -0.12023735046386719, 1.486083984375, 1.3388671875, 0.017120361328125, 1.7841796875
32350, -0.3057657778263092, 7.833611011505127, -7.069976806640625, -0.008709321729838848, 0.0014258724404498935, -6.978573799133301, -0.16334165632724762, 0.026766283437609673, -0.46635112166404724, 0.008364512585103512, 0.10791512578725815, 0.2405802607536316, -1.927569382177066, 1.5685569644864472, -19.90865817033307, 9362.0, 40631.0, 35388.0, 9362.0, 8.17190170288086, -0.0005738185136578977, -0.20248296856880188, 0.046542588621377945, -0.00734258908778429, -0.06949267536401749, 0.9971457719802856, -0.07400476932525635, -0.1291980743408203, 1.4853515625, 1.35205078125, 0.015380859375, 1.748291015625
32360, -0.30469828844070435, 7.834379196166992, -7.070405960083008, -0.010408624075353146, 0.0017043338157236576, -6.983242988586426, -0.1765187680721283, 0.028926020488142967, -0.46747490763664246, 0.008363648317754269, 0.10791666805744171, 0.24055951833724976, -1.92699996345692, 1.5869647067716244, -19.909531582473193, 9362.0, 40631.0, 35388.0, 9362.0, 8.17190170288086, -0.08738021552562714, -0.30518838763237, -0.24293780326843262, -0.007226304616779089, -0.07033758610486984, 0.996478259563446, -0.0862610787153244, -0.11127853393554688, 1.48681640625, 1.32861328125, 0.0214385986328125, 1.745361328125
32370, -0.303847074508667, 7.836073398590088, -7.071002960205078, -0.012239618226885796, 0.0020043847616761923, -6.987924098968506, -0.1896800398826599, 0.031084241345524788, -0.46870917081832886, 0.008371003903448582, 0.10791734606027603, 0.24055640399456024, -1.9238544241298394, 1.5680172092002351, -19.921983745360755, 9362.0, 40631.0, 35388.0, 9362.0, 8.17190170288086, 0.22481535375118256, -0.04066578671336174, -0.0035403617657721043, -0.0071310498751699924, -0.06861172616481781, 0.9995716214179993, -0.05649970844388008, 0.15752029418945312, 1.5087890625, 1.34619140625, 0.015594482421875, 1.74462890625
32380, -0.3018353581428528, 7.835862159729004, -7.072563171386719, -0.014202254824340343, 0.0023260137531906366, -6.992617130279541, -0.20284725725650787, 0.03324167802929878, -0.46991074085235596, 0.008358788676559925, 0.10790233314037323, 0.24058128893375397, -1.9182426026114792, 1.5473712896537108, -19.905516270780204, 9362.0, 40631.0, 35388.0, 9362.0, 8.17190170288086, 0.005096049979329109, -0.026512838900089264, -0.12892818450927734, -0.0069155823439359665, -0.0695708841085434, 0.9993395805358887, -0.0659213587641716, -0.1291980743408203, 1.4853515625, 1.3359375, 0.01806640625, 1.751953125
32390, -0.3018348813056946, 7.838026523590088, -7.0740647315979, -0.0162967462092638, 0.0026692398823797703, -6.997321128845215, -0.21605102717876434, 0.035403862595558167, -0.4708651900291443, 0.00837724283337593, 0.10790909081697464, 0.24055686593055725, -1.91588930273353, 1.5497024783902873, -19.926030947382262, 9362.0, 40631.0, 35388.0, 9362.0, 8.17190170288086, -0.04223848506808281, -0.183293879032135, -0.09327004104852676, -0.007865462452173233, -0.07020802795886993, 0.9981106519699097, -0.0799742192029953, -0.05751800537109375, 1.4912109375, 1.3447265625, 0.0158538818359375, 1.74462890625
32400, -0.30264919996261597, 7.8423895835876465, -7.07412576675415, -0.018523219972848892, 0.003034063149243593, -7.002035140991211, -0.22924359142780304, 0.03756113722920418, -0.4719025492668152, 0.008345196954905987, 0.10790524631738663, 0.2405790537595749, -1.9217270245215934, 1.5905060577458414, -19.901399244655103, 9362.0, 40631.0, 35388.0, 9362.0, 8.17190170288086, -0.02971646934747696, -0.2718271017074585, -0.2954646646976471, -0.007797543425112963, -0.07026951014995575, 0.9957099556922913, -0.08559751510620117, -0.11127853393554688, 1.48681640625, 1.34326171875, 0.01605224609375, 1.745361328125
32410, -0.3020942211151123, 7.84084415435791, -7.0754828453063965, -0.020881548523902893, 0.0034204486291855574, -7.006760120391846, -0.24242201447486877, 0.0397159680724144, -0.4730716943740845, 0.008370459079742432, 0.10791175067424774, 0.24058543145656586, -1.9125521408753459, 1.575123394557977, -19.924291028233572, 9362.0, 40631.0, 35388.0, 9362.0, 8.17190170288086, 0.14133451879024506, 0.5376510620117188, -0.1376873105764389, -0.0070347534492611885, -0.07086805254220963, 0.9956019520759583, -0.06434918195009232, 0.26503944396972656, 1.517578125, 1.327880859375, 0.0218353271484375, 1.7431640625
32430, -0.30217263102531433, 7.839929580688477, -7.077968597412109, -0.020881548523902893, 0.0034204486291855574, -7.006760120391846, -0.24242201447486877, 0.0397159680724144, -0.4730716943740845, 0.008363784290850163, 0.10791004449129105, 0.24054385721683502, -1.940246230721658, 1.5958670239121204, -19.92518445808387, 9362.0, 40631.0, 35388.0, 9362.0, 8.17190170288086, 0.12531857192516327, 0.024098917841911316, 0.014287279918789864, -0.006844234652817249, -0.07005181908607483, 0.997933566570282, -0.0526718869805336, -0.07543754577636719, 1.48974609375, 1.471435546875, 0.14129638671875, 1.7431640625
32440, -0.30082276463508606, 7.839300632476807, -7.0793609619140625, -0.020881548523902893, 0.0034204486291855574, -7.006760120391846, -0.24242201447486877, 0.0397159680724144, -0.4730716943740845, 0.008351858705282211, 0.10790840536355972, 0.24055036902427673, -1.886236299558041, 1.5558810908231067, -19.91580083303467, 9362.0, 40631.0, 35388.0, 9362.0, 8.17190170288086, 0.12531857192516327, 0.024098917841911316, 0.014287279918789864, -0.006642394233494997, -0.06832194328308105, 0.9998618960380554, -0.0526718869805336, -0.07543754577636719, 1.48974609375, 1.471435546875, 0.14129638671875, 1.7431640625
32460, -0.30040231347084045, 7.841214656829834, -7.0798187255859375, -0.020881548523902893, 0.0034204486291855574, -7.006760120391846, -0.24242201447486877, 0.0397159680724144, -0.4730716943740845, 0.00835969764739275, 0.10790566354990005, 0.24055950343608856, -1.9434554677415052, 1.5899612657290731, -19.91168314030943, 9362.0, 40631.0, 35388.0, 9362.0, 8.17190170288086, 0.12531857192516327, 0.024098917841911316, 0.014287279918789864, -0.005797568708658218, -0.07003958523273468, 0.9982492923736572, -0.0526718869805336, -0.07543754577636719, 1.48974609375, 1.29052734375, 0.06378173828125, 1.7431640625
32490, -0.298977255821228, 7.8428754806518555, -7.083946704864502, -0.041080404072999954, 0.006728790234774351, -7.040164470672607, -0.3347506523132324, 0.05481421574950218, -0.48086032271385193, 0.008375630713999271, 0.10790925472974777, 0.24055597186088562, -1.9085104003524294, 1.5840833570835002, -19.91458824406813, 9362.0, 40631.0, 35388.0, 9362.0, 8.17190170288086, 0.01348953414708376, 0.2481204867362976, 0.06660829484462738, -0.006687655113637447, -0.07091920077800751, 0.9988327026367188, -0.0526718869805336, -0.07543754577636719, 1.48974609375, 1.283203125, 0.0772247314453125, 1.7431640625
32500, -0.2995676100254059, 7.840868949890137, -7.082984447479248, -0.041080404072999954, 0.006728790234774351, -7.040164470672607, -0.3347506523132324, 0.05481421574950218, -0.48086032271385193, 0.008383233100175858, 0.10791158676147461, 0.24057330191135406, -1.9041248868709761, 1.543208323667642, -19.91426405770412, 9362.0, 40631.0, 35388.0, 9362.0, 8.17190170288086, 0.01348953414708376, 0.2481204867362976, 0.06660829484462738, -0.006687655113637447, -0.07091920077800751, 0.9988327026367188, -0.0526718869805336, -0.07543754577636719, 1.48974609375, 1.2626953125, 0.1252593994140625, 1.7431640625
32510, -0.2984260618686676, 7.84003210067749, -7.084683895111084, -0.041080404072999954, 0.006728790234774351, -7.040164470672607, -0.3347506523132324, 0.05481421574950218, -0.48086032271385193, 0.008365134708583355, 0.10791464149951935, 0.24054978787899017, -1.9197369732990064, 1.5935603066439512, -19.912669877464033, 9362.0, 40631.0, 35388.0, 9362.0, 8.17190170288086, 0.01348953414708376, 0.2481204867362976, 0.06660829484462738, -0.007757197599858046, -0.06968998908996582, 0.9971048831939697, -0.0526718869805336, -0.07543754577636719, 1.48974609375, 1.2919921875, 0.0613250732421875, 1.7431640625
32530, -0.29778429865837097, 7.840628147125244, -7.084986209869385, -0.05946722254157066, 0.009738827124238014, -7.064345359802246, -0.4007055461406708, 0.06558461487293243, -0.48646676540374756, 0.008358798921108246, 0.10790818929672241, 0.24055135250091553, -1.8797692247074698, 1.5715677354662887, -19.906775434983444, 9362.0, 40631.0, 35388.0, 9362.0, 8.17190170288086, 0.01348953414708376, 0.2481204867362976, 0.06660829484462738, -0.008860287256538868, -0.06856812536716461, 0.9969682693481445, -0.0526718869805336, -0.07543754577636719, 1.48974609375, 1.332275390625, 0.019561767578125, 1.7431640625
32560, -0.29858675599098206, 7.843664169311523, -7.087498188018799, -0.06774474680423737, 0.011093486100435257, -7.074100017547607, -0.42703911662101746, 0.06988049298524857, -0.4890265166759491, 0.008345565758645535, 0.10789931565523148, 0.24053865671157837, -1.9257042279971712, 1.581311757645068, -19.907138780758658, 9362.0, 40631.0, 35388.0, 9362.0, 8.17190170288086, 0.04418383911252022, 0.013111380860209465, -0.17390336096286774, -0.006590207107365131, -0.06780552864074707, 0.9981209635734558, -0.0526718869805336, -0.07543754577636719, 1.48974609375, 1.359375, 0.0160980224609375, 1.7431640625
32610, -0.2991282641887665, 7.841158390045166, -7.086616516113281, -0.0967554822564125, 0.015839891508221626, -7.1046462059021, -0.5088136792182922, 0.0832376778125763, -0.49615707993507385, 0.008378604426980019, 0.10792634636163712, 0.24056917428970337, -1.9022547078754548, 1.5647577915713953, -19.92764459878809, 9362.0, 40631.0, 35388.0, 9362.0, 8.17190170288086, -0.14031781256198883, 0.05793248116970062, -0.08751498907804489, -0.0075329989194869995, -0.07101494073867798, 0.9973862767219543, -0.0526718869805336, -0.07543754577636719, 1.48974609375, 1.327880859375, 0.0218353271484375, 1.7431640625
32620, -0.30031949281692505, 7.8401689529418945, -7.086292743682861, -0.10190949589014053, 0.016683032736182213, -7.10961389541626, -0.5219887495040894, 0.08539016544818878, -0.4974018335342407, 0.008360825479030609, 0.10790688544511795, 0.2405451536178589, -1.9169706946840122, 1.5779152400151588, -19.913245705305016, 9362.0, 40631.0, 35388.0, 9362.0, 8.17190170288086, 0.10101103782653809, 0.040202151983976364, 0.0075010270811617374, -0.0075329989194869995, -0.07101494073867798, 0.9973862767219543, -0.0526718869805336, -0.07543754577636719, 1.48974609375, 1.327880859375, 0.0218353271484375, 1.7431640625
32630, -0.29880040884017944, 7.840759754180908, -7.086434841156006, -0.10190949589014053, 0.016683032736182213, -7.10961389541626, -0.5219887495040894, 0.08539016544818878, -0.4974018335342407, 0.008373536169528961, 0.10790587216615677, 0.24056008458137512, -1.8865711736615705, 1.5606000361885037, -19.89408246304879, 9362.0, 40631.0, 35388.0, 9362.0, 8.17190170288086, 0.10101103782653809, 0.040202151983976364, 0.0075010270811617374, -0.006533222738653421, -0.06671163439750671, 0.9963264465332031, -0.0526718869805336, -0.07543754577636719, 1.48974609375, 1.32861328125, 0.0214385986328125, 1.7431640625
32650, -0.2981320917606354, 7.841775417327881, -7.083439350128174, -0.11816104501485825, 0.01934145577251911, -7.124598979949951, -0.5614618062973022, 0.09183957427740097, -0.5014666318893433, 0.008369123563170433, 0.10790635645389557, 0.2405100017786026, -1.9036567418386823, 1.574995649815179, -19.930763973822042, 9362.0, 40631.0, 35388.0, 9362.0, 8.17190170288086, 0.0041768657974898815, -0.0278277900069952, -0.0027173932176083326, -0.006652747746556997, -0.06888214498758316, 0.9962337017059326, -0.0526718869805336, -0.07543754577636719, 1.48974609375, 1.335205078125, 0.018280029296875, 1.7431640625
32670, -0.2971302270889282, 7.840699672698975, -7.082923889160156, -0.12965382635593414, 0.021221274510025978, -7.134652137756348, -0.5878241062164307, 0.09614263474941254, -0.503838062286377, 0.008363352157175541, 0.10790691524744034, 0.24053658545017242, -1.920390128080874, 1.581997264877117, -19.920390429535182, 9362.0, 40631.0, 35388.0, 9362.0, 8.17190170288086, -0.13228340446949005, -0.07990538328886032, -0.16493594646453857, -0.006175427231937647, -0.06914088875055313, 0.998642086982727, -0.0526718869805336, -0.07543754577636719, 1.48974609375, 1.33740234375, 0.0175323486328125, 1.7431640625
32680, -0.29829302430152893, 7.8380866050720215, -7.082496166229248, -0.1355980634689331, 0.02219347096979618, -7.139695644378662, -0.60102379322052, 0.09829650074243546, -0.5048851370811462, 0.008375527337193489, 0.10790488123893738, 0.240557000041008, -1.8949159661304478, 1.6078294584358446, -19.913291038080132, 9362.0, 40631.0, 35388.0, 9362.0, 8.17190170288086, -0.13228340446949005, -0.07990538328886032, -0.16493594646453857, -0.004911833442747593, -0.06993438303470612, 0.9966722130775452, -0.0526718869805336, -0.07543754577636719, 1.48974609375, 1.33740234375, 0.0175323486328125, 1.7431640625
32690, -0.29843053221702576, 7.8377909660339355, -7.081631183624268, -0.1355980634689331, 0.02219347096979618, -7.139695644378662, -0.60102379322052, 0.09829650074243546, -0.5048851370811462, 0.008393952623009682, 0.10789912939071655, 0.24053756892681122, -1.9254749640167075, 1.620671881379394, -19.917538693925962, 9362.0, 40631.0, 35388.0, 9362.0, 8.17190170288086, -0.13228340446949005, -0.07990538328886032, -0.16493594646453857, -0.006406304892152548, -0.0676196739077568, 0.9976416230201721, -0.0526718869805336, -0.07543754577636719, 1.48974609375, 1.329345703125, 0.02105712890625, 1.7431640625
32720, -0.2963808476924896, 7.836271286010742, -7.084743022918701, -0.16069309413433075, 0.026297280564904213, -7.159987449645996, -0.6537196040153503, 0.10689572244882584, -0.5097230672836304, 0.008366897702217102, 0.10791103541851044, 0.24056705832481384, -1.886798047711886, 1.5792036342855624, -19.92169725288367, 9362.0, 40631.0, 35388.0, 9362.0, 8.17190170288086, 0.1006833091378212, 0.24464662373065948, 0.0805668979883194, -0.007208453491330147, -0.06753595918416977, 0.9973408579826355, -0.0526718869805336, -0.07543754577636719, 1.48974609375, 1.335205078125, 0.018280029296875, 1.7431640625
32740, -0.29587066173553467, 7.834493637084961, -7.084235191345215, -0.1672961562871933, 0.02737698145210743, -7.165090560913086, -0.6668924689292908, 0.10904459655284882, -0.5109091997146606, 0.00837236363440752, 0.10790976136922836, 0.24055266380310059, -1.90316097582753, 1.5550655297626008, -19.92378173659934, 9362.0, 40631.0, 35388.0, 9362.0, 8.17190170288086, 0.00905314926058054, 0.3560718894004822, -0.1949371099472046, -0.006451781373471022, -0.07095541805028915, 0.998857319355011, -0.0526718869805336, -0.07543754577636719, 1.48974609375, 1.36083984375, 0.016387939453125, 1.7431640625
32750, -0.2973003685474396, 7.834405899047852, -7.082867622375488, -0.1672961562871933, 0.02737698145210743, -7.165090560913086, -0.6668924689292908, 0.10904459655284882, -0.5109091997146606, 0.00837280135601759, 0.10790599882602692, 0.2405513972043991, -1.9253635415813215, 1.5510047552064918, -19.919026768288155, 9362.0, 40631.0, 35388.0, 9362.0, 8.17190170288086, 0.00905314926058054, 0.3560718894004822, -0.1949371099472046, -0.008044134825468063, -0.0700535848736763, 0.998235285282135, -0.0526718869805336, -0.07543754577636719, 1.48974609375, 1.329345703125, 0.02105712890625, 1.7431640625
32770, -0.29623502492904663, 7.834622859954834, -7.082768440246582, -0.1672961562871933, 0.02737698145210743, -7.165090560913086, -0.6668924689292908, 0.10904459655284882, -0.5109091997146606, 0.008372184820473194, 0.10790926963090897, 0.24053335189819336, -1.9287781701228965, 1.603277152182443, -19.904890427603345, 9362.0, 40631.0, 35388.0, 9362.0, 8.17190170288086, -0.0987444594502449, -0.015068902634084225, 0.013580264523625374, -0.0033664433285593987, -0.06837072968482971, 0.9989456534385681, -0.0526718869805336, -0.07543754577636719, 1.48974609375, 1.342529296875, 0.0161895751953125, 1.7431640625
32780, -0.29604852199554443, 7.834820747375488, -7.083065509796143, -0.1672961562871933, 0.02737698145210743, -7.165090560913086, -0.6668924689292908, 0.10904459655284882, -0.5109091997146606, 0.00836751889437437, 0.10791715979576111, 0.24056214094161987, -1.9200416158371916, 1.6146612754987757, -19.91600501820781, 9362.0, 40631.0, 35388.0, 9362.0, 8.17190170288086, -0.0987444594502449, -0.015068902634084225, 0.013580264523625374, -0.0043726819567382336, -0.06767105311155319, 0.9985445141792297, -0.0526718869805336, -0.07543754577636719, 1.48974609375, 1.335205078125, 0.018280029296875, 1.7431640625
32790, -0.29618170857429504, 7.834884166717529, -7.081644535064697, -0.1672961562871933, 0.02737698145210743, -7.165090560913086, -0.6668924689292908, 0.10904459655284882, -0.5109091997146606, 0.008385272696614265, 0.10790731757879257, 0.24056413769721985, -1.903865367826048, 1.5388552567241334, -19.90931420330292, 9362.0, 40631.0, 35388.0, 9362.0, 8.17190170288086, 0.1774492710828781, 0.05549870431423187, 0.41618645191192627, -0.0043726819567382336, -0.06767105311155319, 0.9985445141792297, -0.0526718869805336, -0.07543754577636719, 1.48974609375, 1.34765625, 0.0154571533203125, 1.7431640625
32800, -0.2963019013404846, 7.834639072418213, -7.080872058868408, -0.21720893681049347, 0.03553665429353714, -7.2011213302612305, -0.7592024207115173, 0.12408968806266785, -0.5184047222137451, 0.008364757522940636, 0.10791128128767014, 0.24054114520549774, -1.91241628190904, 1.6014359180913686, -19.913780941406984, 9362.0, 40631.0, 35388.0, 9362.0, 8.17190170288086, 0.01054393220692873, -0.09515585750341415, -0.024629052728414536, -0.0043726819567382336, -0.06767105311155319, 0.9985445141792297, -0.0526718869805336, -0.07543754577636719, 1.48974609375, 1.33154296875, 0.0198516845703125, 1.7431640625
32840, -0.29497283697128296, 7.827731132507324, -7.084099769592285, -0.2405780404806137, 0.03935595601797104, -7.216724395751953, -0.7987298965454102, 0.13052895665168762, -0.5218443870544434, 0.008364943787455559, 0.1079053208231926, 0.24052610993385315, -1.9063578782484418, 1.5814099929405074, -19.927036754104687, 9362.0, 40631.0, 35388.0, 9362.0, 8.17190170288086, 0.06660131365060806, 0.5546116828918457, -0.145974799990654, -0.00723722530528903, -0.06772153824567795, 0.9957191348075867, -0.0587054006755352, -0.05751800537109375, 1.4912109375, 1.47509765625, 0.147857666015625, 1.7431640625
32860, -0.29611581563949585, 7.828099250793457, -7.084166526794434, -0.25681617856025696, 0.04200948774814606, -7.2271833419799805, -0.8250694870948792, 0.1348203420639038, -0.5241637229919434, 0.008373848162591457, 0.10790488868951797, 0.2405725121498108, -1.9158985138404594, 1.5597547133791352, -19.91514265989642, 9362.0, 40631.0, 35388.0, 9362.0, 8.17190170288086, -0.1334134042263031, -0.3075953722000122, -0.24202945828437805, -0.006913578603416681, -0.0681186094880104, 0.9963832497596741, -0.0587054006755352, -0.05751800537109375, 1.4912109375, 1.53515625, 0.2692413330078125, 1.7431640625
32870, -0.29646947979927063, 7.827701091766357, -7.08669900894165, -0.25681617856025696, 0.04200948774814606, -7.2271833419799805, -0.8250694870948792, 0.1348203420639038, -0.5241637229919434, 0.0083739273250103, 0.10791020095348358, 0.24055063724517822, -1.888930763156669, 1.5602668861236566, -19.91686991222237, 9362.0, 40631.0, 35388.0, 9362.0, 8.17190170288086, -0.1334134042263031, -0.3075953722000122, -0.24202945828437805, -0.008293100632727146, -0.06981568783521652, 0.996760368347168, -0.0587054006755352, -0.05751800537109375, 1.4912109375, 1.538818359375, 0.2772674560546875, 1.7431640625
32880, -0.29527464509010315, 7.8262505531311035, -7.088177680969238, -0.25681617856025696, 0.04200948774814606, -7.2271833419799805, -0.8250694870948792, 0.1348203420639038, -0.5241637229919434, 0.00838453508913517, 0.10790707916021347, 0.24055562913417816, -1.8934471299427806, 1.5777529065056513, -19.92714739447528, 9362.0, 40631.0, 35388.0, 9362.0, 8.17190170288086, -0.0891147032380104, 0.20384174585342407, -0.06292461603879929, -0.005927222315222025, -0.06867292523384094, 0.9968198537826538, -0.0587054006755352, -0.05751800537109375, 1.4912109375, 1.487548828125, 0.1712188720703125, 1.7431640625
32910, -0.295207679271698, 7.829028606414795, -7.090597629547119, -0.30868756771087646, 0.05048443377017975, -7.258856773376465, -0.9039759039878845, 0.14768120646476746, -0.5316140651702881, 0.008286836557090282, 0.10797519236803055, 0.2404724508523941, -1.8938431150531991, 1.5855433283972218, -19.912983502542946, 9362.0, 40631.0, 35388.0, 9362.0, 8.17190170288086, -0.02607150748372078, 0.027756569907069206, 0.22382277250289917, -0.005865925457328558, -0.06776673346757889, 0.9961373805999756, -0.0587054006755352, -0.05751800537109375, 1.4912109375, 1.4970703125, 0.18975830078125, 1.7431640625
32930, -0.2958378493785858, 7.829476356506348, -7.092223644256592, -0.3177931010723114, 0.051971957087516785, -7.264179229736328, -0.9171288013458252, 0.14982321858406067, -0.5328664779663086, 0.008369936607778072, 0.1079002097249031, 0.24052877724170685, -1.9005547484839949, 1.5754102156443253, -19.920613061476672, 9362.0, 40631.0, 35388.0, 9362.0, 8.17190170288086, 0.0013604243285953999, -0.24267776310443878, 0.19295966625213623, -0.006532500963658094, -0.06802816689014435, 0.9985455274581909, -0.0587054006755352, -0.05751800537109375, 1.4912109375, 1.3271484375, 0.022308349609375, 1.7431640625
32940, -0.295320600271225, 7.830665588378906, -7.08991813659668, -0.3177931010723114, 0.051971957087516785, -7.264179229736328, -0.9171288013458252, 0.14982321858406067, -0.5328664779663086, 0.008361361920833588, 0.10788965970277786, 0.24053044617176056, -1.8998858254592539, 1.53340561887768, -19.90681619218747, 9362.0, 40631.0, 35388.0, 9362.0, 8.17190170288086, 0.0013604243285953999, -0.24267776310443878, 0.19295966625213623, -0.007036092225462198, -0.06936294585466385, 0.9988705515861511, -0.0587054006755352, -0.05751800537109375, 1.4912109375, 1.484619140625, 0.1656646728515625, 1.7431640625
33010, -0.2942317724227905, 7.830902576446533, -7.087762832641602, -0.3751925528049469, 0.061347831040620804, -7.2963480949401855, -0.9961572289466858, 0.16269727051258087, -0.5397019386291504, 0.008385444059967995, 0.10790619254112244, 0.24057528376579285, -1.8967159681511514, 1.571865266175081, -19.90818554001474, 9362.0, 40631.0, 35388.0, 9362.0, 8.17190170288086, 0.01611178368330002, 0.0774872675538063, 0.02471703290939331, -0.007015140727162361, -0.06935909390449524, 0.9957244396209717, -0.0587054006755352, -0.05751800537109375, 1.4912109375, 1.32275390625, 0.0251312255859375, 1.7431640625
33050, -0.29232847690582275, 7.832380771636963, -7.090902805328369, -0.4160924553871155, 0.06802720576524734, -7.318031311035156, -1.048813819885254, 0.17126958072185516, -0.5446258783340454, 0.008389144204556942, 0.10789478570222855, 0.24055205285549164, -1.9002556440990452, 1.5810341020123815, -19.908637591992647, 9362.0, 40631.0, 35388.0, 9362.0, 8.17190170288086, 0.02905929647386074, -0.08415576070547104, -0.2753978669643402, -0.004652378614991903, -0.07002538442611694, 0.9977707266807556, -0.0587054006755352, -0.05751800537109375, 1.4912109375, 1.493408203125, 0.1825714111328125, 1.7431640625
33060, -0.2922152280807495, 7.834043025970459, -7.092503070831299, -0.4160924553871155, 0.06802720576524734, -7.318031311035156, -1.048813819885254, 0.17126958072185516, -0.5446258783340454, 0.008384468033909798, 0.10789209604263306, 0.2405613213777542, -1.8843308301469668, 1.534695427783305, -19.910205669388663, 9362.0, 40631.0, 35388.0, 9362.0, 8.17190170288086, 0.09648074209690094, -0.2197696715593338, -0.11724535375833511, -0.007838880643248558, -0.06998363882303238, 0.9987262487411499, -0.0587054006755352, -0.05751800537109375, 1.4912109375, 1.493408203125, 0.1825714111328125, 1.7431640625
33100, -0.29105517268180847, 7.833627223968506, -7.095311641693115, -0.5042111277580261, 0.08241426944732666, -7.361978054046631, -1.154225468635559, 0.18841500580310822, -0.5536177754402161, 0.00838177464902401, 0.10789968818426132, 0.24053238332271576, -1.9138876538055094, 1.5858922853820445, -19.916553741196036, 9362.0, 40631.0, 35388.0, 9362.0, 8.17190170288086, 0.08175822347402573, -0.5058197379112244, -0.4293724298477173, -0.0068084364756941795, -0.07110529392957687, 0.9997729063034058, -0.0587054006755352, -0.05751800537109375, 1.4912109375, 1.5322265625, 0.2628021240234375, 1.7431640625
33110, -0.2905917167663574, 7.8395233154296875, -7.096892356872559, -0.5042111277580261, 0.08241426944732666, -7.361978054046631, -1.154225468635559, 0.18841500580310822, -0.5536177754402161, 0.00837461743503809, 0.10791795700788498, 0.24054251611232758, -1.9263533790009655, 1.5742047604603329, -19.9086072990241, 9362.0, 40631.0, 35388.0, 9362.0, 8.17190170288086, 0.08175822347402573, -0.5058197379112244, -0.4293724298477173, -0.004089750815182924, -0.06825511157512665, 0.998641312122345, -0.0587054006755352, -0.05751800537109375, 1.4912109375, 1.5322265625, 0.2628021240234375, 1.77099609375
33120, -0.28958016633987427, 7.840427398681641, -7.099781036376953, -0.5275595784187317, 0.0862254723906517, -7.373069763183594, -1.1806191205978394, 0.19270485639572144, -0.5556014776229858, 0.008376291953027248, 0.10791129618883133, 0.24052175879478455, -1.9198659170149395, 1.5968221099205664, -19.920052631015103, 9362.0, 40631.0, 35388.0, 9362.0, 8.17190170288086, 0.08175822347402573, -0.5058197379112244, -0.4293724298477173, -0.007841377519071102, -0.06883510202169418, 0.9983499050140381, -0.0587054006755352, -0.05751800537109375, 1.4912109375, 1.5322265625, 0.2628021240234375, 1.77099609375
33130, -0.2896731197834015, 7.842624187469482, -7.099969863891602, -0.5394317507743835, 0.08816323429346085, -7.378631114959717, -1.1938141584396362, 0.194848895072937, -0.5566772818565369, 0.00838413368910551, 0.10790521651506424, 0.24052868783473969, -1.8933138718130995, 1.5550989776083384, -19.931833449482546, 9362.0, 40631.0, 35388.0, 9362.0, 8.17190170288086, 0.08175822347402573, -0.5058197379112244, -0.4293724298477173, -0.0080254590138793, -0.06947977840900421, 0.9992731809616089, -0.0587054006755352, -0.05751800537109375, 1.4912109375, 1.5322265625, 0.2628021240234375, 1.77099609375
33150, -0.28970447182655334, 7.842235088348389, -7.099677562713623, -0.5514358878135681, 0.09012243896722794, -7.38420295715332, -1.2070143222808838, 0.19699202477931976, -0.5577262043952942, 0.008388898335397243, 0.10791624337434769, 0.24053287506103516, -1.9000595020261202, 1.5775783956357259, -19.92804467682559, 9362.0, 40631.0, 35388.0, 9362.0, 8.17190170288086, 0.08175822347402573, -0.5058197379112244, -0.4293724298477173, -0.005288397893309593, -0.069315604865551, 0.996111273765564, -0.0587054006755352, -0.05751800537109375, 1.4912109375, 1.541015625, 0.2819976806640625, 1.77099609375
33160, -0.28969135880470276, 7.8440141677856445, -7.100235462188721, -0.5758402943611145, 0.09410515427589417, -7.395378589630127, -1.2334096431732178, 0.2012769728899002, -0.5599236488342285, 0.008381451480090618, 0.10789751261472702, 0.24051538109779358, -1.8920706613812461, 1.563210330203674, -19.910657642517236, 9362.0, 40631.0, 35388.0, 9362.0, 8.17190170288086, 0.08175822347402573, -0.5058197379112244, -0.4293724298477173, -0.005963953211903572, -0.06871668994426727, 0.9972667098045349, -0.0587054006755352, -0.05751800537109375, 1.4912109375, 1.541015625, 0.2819976806640625, 1.77099609375
33170, -0.28948691487312317, 7.844880104064941, -7.10107421875, -0.5758402943611145, 0.09410515427589417, -7.395378589630127, -1.2334096431732178, 0.2012769728899002, -0.5599236488342285, 0.008396604098379612, 0.10790444910526276, 0.24052903056144714, -1.9090229093448838, 1.5640224853875964, -19.928570910839188, 9362.0, 40631.0, 35388.0, 9362.0, 8.17190170288086, 0.05692457780241966, 0.1789489984512329, -0.020535826683044434, -0.005963953211903572, -0.06871668994426727, 0.9972667098045349, -0.0587054006755352, -0.05751800537109375, 1.4912109375, 1.53076171875, 0.2596435546875, 1.77099609375
33180, -0.28867846727371216, 7.845987319946289, -7.10131311416626, -0.5758402943611145, 0.09410515427589417, -7.395378589630127, -1.2334096431732178, 0.2012769728899002, -0.5599236488342285, 0.008374173194169998, 0.10791037976741791, 0.24052157998085022, -1.9098065783288365, 1.5690012070064938, -19.915221440030933, 9362.0, 40631.0, 35388.0, 9362.0, 8.17190170288086, 0.10813549906015396, -0.07660754024982452, -0.35179662704467773, -0.005963953211903572, -0.06871668994426727, 0.9972667098045349, -0.0587054006755352, -0.05751800537109375, 1.4912109375, 1.5380859375, 0.2755889892578125, 1.77099609375
33230, -0.2859637439250946, 7.848923206329346, -7.106306552886963, -0.6391594409942627, 0.10443665087223053, -7.423521041870117, -1.2993875741958618, 0.21198466420173645, -0.5656478404998779, 0.008384648710489273, 0.10790400952100754, 0.24050307273864746, -1.9393081742710236, 1.625856807188967, -19.908306814388332, 9362.0, 40631.0, 35388.0, 9362.0, 8.17190170288086, 0.15862257778644562, 0.34347692131996155, 0.027348404750227928, -0.005163411609828472, -0.07091589272022247, 0.9975926280021667, -0.0587054006755352, -0.05751800537109375, 1.4912109375, 1.490478515625, 0.1768646240234375, 1.743896484375
33280, -0.2832881510257721, 7.853631019592285, -7.104645729064941, -0.733352541923523, 0.11979963630437851, -7.463390827178955, -1.3918201923370361, 0.22694455087184906, -0.5736749172210693, 0.008387614972889423, 0.10790545493364334, 0.240514874458313, -1.8981997435938733, 1.6207366339552323, -19.92368407175228, 9362.0, 40631.0, 35388.0, 9362.0, 8.17190170288086, -0.11208593845367432, 0.17345264554023743, -0.05533149838447571, -0.0073438771069049835, -0.06773543357849121, 0.9978156089782715, -0.0587054006755352, -0.05751800537109375, 1.4912109375, 1.47509765625, 0.147857666015625, 1.743896484375
33290, -0.28332075476646423, 7.854397773742676, -7.105988025665283, -0.733352541923523, 0.11979963630437851, -7.463390827178955, -1.3918201923370361, 0.22694455087184906, -0.5736749172210693, 0.008394806645810604, 0.10790427029132843, 0.24051617085933685, -1.9029868706479225, 1.605966217440141, -19.91117402263718, 9362.0, 40631.0, 35388.0, 9362.0, 8.17190170288086, -0.08926349878311157, -0.10918844491243362, 0.15297332406044006, -0.0073438771069049835, -0.06773543357849121, 0.9978156089782715, -0.0587054006755352, -0.05751800537109375, 1.4912109375, 1.474365234375, 0.14654541015625, 1.743896484375
33300, -0.28244319558143616, 7.85345458984375, -7.103908061981201, -0.733352541923523, 0.11979963630437851, -7.463390827178955, -1.3918201923370361, 0.22694455087184906, -0.5736749172210693, 0.008366580121219158, 0.10790195316076279, 0.24047662317752838, -1.9201611217099321, 1.5987278081654495, -19.913305487379137, 9362.0, 40631.0, 35388.0, 9362.0, 8.17190170288086, -0.08926349878311157, -0.10918844491243362, 0.15297332406044006, -0.00655450951308012, -0.06696167588233948, 0.9975690245628357, -0.0587054006755352, -0.05751800537109375, 1.4912109375, 1.51171875, 0.21942138671875, 1.743896484375
33340, -0.2820761799812317, 7.851326942443848, -7.100459575653076, -0.7900821566581726, 0.12904812395572662, -7.486429214477539, -1.4446725845336914, 0.2354804128408432, -0.5781789422035217, 0.008382429368793964, 0.1079094409942627, 0.24052542448043823, -1.9236484655661814, 1.571491000516943, -19.921972820493245, 9362.0, 40631.0, 35388.0, 9362.0, 8.17190170288086, 0.0874655693769455, -0.05605502054095268, 0.1963610053062439, -0.008563211187720299, -0.0700424537062645, 0.9961196780204773, -0.0587054006755352, -0.05751800537109375, 1.4912109375, 1.481689453125, 0.1600799560546875, 1.743896484375
33350, -0.282938688993454, 7.851668357849121, -7.098786354064941, -0.7900821566581726, 0.12904812395572662, -7.486429214477539, -1.4446725845336914, 0.2354804128408432, -0.5781789422035217, 0.008375495672225952, 0.10789405554533005, 0.240498349070549, -1.9140468352026998, 1.601021048553065, -19.909545259029347, 9362.0, 40631.0, 35388.0, 9362.0, 8.17190170288086, 0.0874655693769455, -0.05605502054095268, 0.1963610053062439, -0.00570523738861084, -0.0692121833562851, 0.9998221397399902, -0.0587054006755352, -0.05751800537109375, 1.4912109375, 1.48681640625, 0.1698150634765625, 1.743896484375
33360, -0.2828114926815033, 7.852390766143799, -7.100063800811768, -0.8489259481430054, 0.13863790035247803, -7.50964879989624, -1.4975112676620483, 0.24400554597377777, -0.5827980041503906, 0.008377216756343842, 0.10790539532899857, 0.24049553275108337, -1.904152433336613, 1.605668021616765, -19.92241615921892, 9362.0, 40631.0, 35388.0, 9362.0, 8.17190170288086, 0.0874655693769455, -0.05605502054095268, 0.1963610053062439, -0.006940356455743313, -0.07073605805635452, 0.9973973035812378, -0.0587054006755352, -0.05751800537109375, 1.4912109375, 1.4794921875, 0.155975341796875, 1.743896484375
33470, -0.2776123285293579, 7.852033615112305, -7.1060686111450195, -1.0052807331085205, 0.16410335898399353, -7.568508148193359, -1.6295995712280273, 0.26529771089553833, -0.5943130850791931, 0.008354169316589832, 0.10792195796966553, 0.24050138890743256, -1.9198969740340428, 1.603073210768116, -19.91222052736595, 9362.0, 40631.0, 35388.0, 9362.0, 8.17190170288086, 0.061295393854379654, 0.24578611552715302, 0.12116481363773346, -0.004968637600541115, -0.06868119537830353, 0.9948623180389404, -0.0587054006755352, -0.05751800537109375, 1.4912109375, 1.53369140625, 0.265960693359375, 1.743896484375
33480, -0.2774418592453003, 7.852476119995117, -7.106395244598389, -1.0052807331085205, 0.16410335898399353, -7.568508148193359, -1.6295995712280273, 0.26529771089553833, -0.5943130850791931, 0.00837484747171402, 0.10790766030550003, 0.24052920937538147, -1.9032884679365003, 1.5354767785569834, -19.90734620736518, 9362.0, 40631.0, 35388.0, 9362.0, 8.17190170288086, 0.15327148139476776, 0.04923200234770775, 0.10360118001699448, -0.004968637600541115, -0.06868119537830353, 0.9948623180389404, -0.0587054006755352, -0.05751800537109375, 1.4912109375, 1.529296875, 0.2564849853515625, 1.743896484375
33530, -0.27691423892974854, 7.851109027862549, -7.106027603149414, -1.12258780002594, 0.18319477140903473, -7.610396385192871, -1.7220479249954224, 0.28017038106918335, -0.6023867726325989, 0.008373122662305832, 0.10790575295686722, 0.24049891531467438, -1.9181715252755958, 1.5987139684785632, -19.93068714159559, 9362.0, 40631.0, 35388.0, 9362.0, 8.17190170288086, -0.031205367296934128, -0.17965535819530487, 0.03179425746202469, -0.005991271696984768, -0.07036115974187851, 0.9992185831069946, -0.0587054006755352, -0.05751800537109375, 1.4912109375, 1.544677734375, 0.2900543212890625, 1.743896484375
33580, -0.27590346336364746, 7.852499008178711, -7.110802173614502, -1.1398743391036987, 0.18600709736347198, -7.61642599105835, -1.7352631092071533, 0.28229594230651855, -0.6034871339797974, 0.00837076548486948, 0.10790065675973892, 0.24049024283885956, -1.9061782840066244, 1.5832254270993928, -19.91930182526757, 9362.0, 40631.0, 35388.0, 9362.0, 8.17190170288086, 0.21315523982048035, 0.24763235449790955, 0.15309520065784454, -0.004494027234613895, -0.06985163688659668, 0.9996886253356934, -0.0587054006755352, -0.05751800537109375, 1.4912109375, 1.5380859375, 0.2755889892578125, 1.743896484375
33590, -0.27614134550094604, 7.853758335113525, -7.109511852264404, -1.228289246559143, 0.20038746297359467, -7.646738052368164, -1.801361083984375, 0.29292547702789307, -0.6087784767150879, 0.008364865556359291, 0.10790150612592697, 0.24054506421089172, -1.9106382731148477, 1.566280454638985, -19.906669569119362, 9362.0, 40631.0, 35388.0, 9362.0, 8.17190170288086, 0.21315523982048035, 0.24763235449790955, 0.15309520065784454, -0.005789013579487801, -0.06978002935647964, 0.9977516531944275, -0.0587054006755352, -0.05751800537109375, 1.4912109375, 1.5380859375, 0.2755889892578125, 1.743896484375
33600, -0.27540960907936096, 7.852838039398193, -7.108438014984131, -1.228289246559143, 0.20038746297359467, -7.646738052368164, -1.801361083984375, 0.29292547702789307, -0.6087784767150879, 0.008379447273910046, 0.10790026932954788, 0.24057962000370026, -1.8946402322318403, 1.5450965579006208, -19.924806270819094, 9362.0, 40631.0, 35388.0, 9362.0, 8.17190170288086, 0.23372913897037506, 0.050769906491041183, -0.08959507942199707, -0.005789013579487801, -0.06978002935647964, 0.9977516531944275, -0.0587054006755352, -0.05751800537109375, 1.4912109375, 1.532958984375, 0.2644195556640625, 1.743896484375
33630, -0.27344658970832825, 7.858556747436523, -7.113239288330078, -1.301401138305664, 0.21227437257766724, -7.671176910400391, -1.8542098999023438, 0.3014126121997833, -0.6133228540420532, 0.008408943191170692, 0.10789467394351959, 0.2405262589454651, -1.902505671944856, 1.593655893723593, -19.928878790563623, 9362.0, 40631.0, 35388.0, 9362.0, 8.17190170288086, -0.01822216436266899, -0.17231358587741852, 0.12983489036560059, -0.0051529319025576115, -0.07158999145030975, 0.9973337650299072, -0.0587054006755352, -0.05751800537109375, 1.4912109375, 1.53955078125, 0.278778076171875, 1.743896484375
33640, -0.274212509393692, 7.858822822570801, -7.11235237121582, -1.3200093507766724, 0.2152990996837616, -7.677315711975098, -1.867427110671997, 0.30353325605392456, -0.6144720911979675, 0.008371902629733086, 0.1079021468758583, 0.24048377573490143, -1.921635331134713, 1.563592315714601, -19.91086221846101, 9362.0, 40631.0, 35388.0, 9362.0, 8.17190170288086, -0.01822216436266899, -0.17231358587741852, 0.12983489036560059, -0.0057815853506326675, -0.07253903895616531, 0.9967156052589417, -0.0587054006755352, -0.05751800537109375, 1.4912109375, 1.53955078125, 0.278778076171875, 1.743896484375
33700, -0.27351513504981995, 7.854779243469238, -7.113830089569092, -1.4344322681427002, 0.23389247059822083, -7.714406967163086, -1.946655511856079, 0.3162422478199005, -0.621924102306366, 0.008365388959646225, 0.10789728909730911, 0.2405184805393219, -1.9183018122461999, 1.5984505152237602, -19.904680587242378, 9362.0, 40631.0, 35388.0, 9362.0, 8.17190170288086, 0.014871290884912014, 0.3396880626678467, 0.07821894437074661, -0.006553164217621088, -0.06895435601472855, 0.997802734375, -0.07228202372789383, -0.09335899353027344, 1.48828125, 1.552001953125, 0.3063201904296875, 1.743896484375
33710, -0.27254796028137207, 7.854196548461914, -7.114763259887695, -1.4539649486541748, 0.23706549406051636, -7.720632076263428, -1.959869623184204, 0.31836166977882385, -0.623076856136322, 0.008358119055628777, 0.10790760070085526, 0.24052591621875763, -1.86767330960571, 1.5552638364285656, -19.907015685772198, 9362.0, 40631.0, 35388.0, 9362.0, 8.17190170288086, 0.014871290884912014, 0.3396880626678467, 0.07821894437074661, -0.006326325703412294, -0.07006195932626724, 0.9961710572242737, -0.07228202372789383, -0.09335899353027344, 1.48828125, 1.552001953125, 0.3063201904296875, 1.743896484375
33720, -0.27157193422317505, 7.852779865264893, -7.1144304275512695, -1.4539649486541748, 0.23706549406051636, -7.720632076263428, -1.959869623184204, 0.31836166977882385, -0.623076856136322, 0.008391469717025757, 0.107918880879879, 0.24054771661758423, -1.9333220655440009, 1.6134476425021091, -19.926188928598894, 9362.0, 40631.0, 35388.0, 9362.0, 8.17190170288086, 0.22737079858779907, 0.08831124752759933, 0.0546562559902668, -0.007925454527139664, -0.06908103823661804, 0.9963445067405701, -0.07228202372789383, -0.09335899353027344, 1.48828125, 1.5380859375, 0.2755889892578125, 1.743896484375
33780, -0.27317938208580017, 7.847782611846924, -7.114285945892334, -1.5334151983261108, 0.2499692142009735, -7.7456583976745605, -2.0126328468322754, 0.32682004570961, -0.6283087134361267, 0.008365164510905743, 0.10790795087814331, 0.24052411317825317, -1.9303367709579702, 1.6250788416998319, -19.92089246581923, 9362.0, 40631.0, 35388.0, 9362.0, 8.17190170288086, -0.02787270024418831, 0.4843962788581848, 0.35246092081069946, -0.005521248560398817, -0.06994349509477615, 0.9976239204406738, -0.060867492109537125, -0.11127853393554688, 1.48681640625, 1.576904296875, 0.36309814453125, 1.743896484375
33790, -0.2730499505996704, 7.84774112701416, -7.113475322723389, -1.5334151983261108, 0.2499692142009735, -7.7456583976745605, -2.0126328468322754, 0.32682004570961, -0.6283087134361267, 0.008376200683414936, 0.10790276527404785, 0.24055568873882294, -1.9226221363957883, 1.5972441167710656, -19.9119325248328, 9362.0, 40631.0, 35388.0, 9362.0, 8.17190170288086, -0.02787270024418831, 0.4843962788581848, 0.35246092081069946, -0.004713017027825117, -0.06814134120941162, 0.9977512359619141, -0.060867492109537125, -0.11127853393554688, 1.48681640625, 1.576904296875, 0.36309814453125, 1.743896484375
33830, -0.27281755208969116, 7.851268768310547, -7.112409591674805, -1.6775370836257935, 0.2733655571937561, -7.789906978607178, -2.105105400085449, 0.34164780378341675, -0.6360741257667542, 0.00836618710309267, 0.10790152102708817, 0.2405531257390976, -1.917559931352559, 1.5469817217485797, -19.903478142563984, 9362.0, 40631.0, 35388.0, 9362.0, 8.17190170288086, 0.003022588323801756, 0.002341480227187276, 0.15346147119998932, -0.006841576192528009, -0.06912876665592194, 0.998477578163147, -0.060867492109537125, -0.11127853393554688, 1.48681640625, 1.55712890625, 0.31793212890625, 1.743896484375
33840, -0.2721100449562073, 7.852043151855469, -7.112428188323975, -1.6775370836257935, 0.2733655571937561, -7.789906978607178, -2.105105400085449, 0.34164780378341675, -0.6360741257667542, 0.008385208435356617, 0.10790665447711945, 0.24051041901111603, -1.9303270547829063, 1.5881497146484662, -19.91542696046667, 9362.0, 40631.0, 35388.0, 9362.0, 8.17190170288086, 0.027413293719291687, -0.032685600221157074, -0.2039143294095993, -0.00766582740470767, -0.06862536072731018, 0.9981309175491333, -0.060867492109537125, -0.11127853393554688, 1.48681640625, 1.53369140625, 0.265960693359375, 1.743896484375
33870, -0.2711152136325836, 7.853090763092041, -7.112140655517578, -1.7844438552856445, 0.2907128632068634, -7.8218488693237305, -2.1711690425872803, 0.3522408604621887, -0.6416568756103516, 0.008381086401641369, 0.10791490226984024, 0.2405470460653305, -1.8932454345607348, 1.5974047224244714, -19.926172223863265, 9362.0, 40631.0, 35388.0, 9362.0, 8.17190170288086, 0.027413293719291687, -0.032685600221157074, -0.2039143294095993, -0.007336481008678675, -0.06840986758470535, 0.9971799850463867, -0.060867492109537125, -0.11127853393554688, 1.48681640625, 1.587890625, 0.38861083984375, 1.743896484375
33880, -0.2710641324520111, 7.854959487915039, -7.112462520599365, -1.7844438552856445, 0.2907128632068634, -7.8218488693237305, -2.1711690425872803, 0.3522408604621887, -0.6416568756103516, 0.008392345160245895, 0.10790625959634781, 0.24052946269512177, -1.9212596488469336, 1.5320823430236032, -19.924678660236967, 9362.0, 40631.0, 35388.0, 9362.0, 8.17190170288086, 0.027413293719291687, -0.032685600221157074, -0.2039143294095993, -0.00781472772359848, -0.07078449428081512, 0.9986981749534607, -0.060867492109537125, -0.11127853393554688, 1.48681640625, 1.336669921875, 0.0177764892578125, 1.743896484375
33890, -0.2709712088108063, 7.851574420928955, -7.110633373260498, -1.8281315565109253, 0.2977999746799469, -7.834704875946045, -2.1976001262664795, 0.35647308826446533, -0.6439040303230286, 0.008394278585910797, 0.10789888352155685, 0.24054114520549774, -1.9237069467557635, 1.5557077366731562, -19.915512979301262, 9362.0, 40631.0, 35388.0, 9362.0, 8.17190170288086, 0.275350421667099, -0.09072031080722809, -0.15022143721580505, -0.00781472772359848, -0.07078449428081512, 0.9986981749534607, -0.060867492109537125, -0.11127853393554688, 1.48681640625, 1.336669921875, 0.0177764892578125, 1.743896484375
33900, -0.27052462100982666, 7.854828834533691, -7.110865592956543, -1.8281315565109253, 0.2977999746799469, -7.834704875946045, -2.1976001262664795, 0.35647308826446533, -0.6439040303230286, 0.008373762480914593, 0.10788878798484802, 0.2405325025320053, -1.9310233963965575, 1.6124102688590938, -19.919395009968525, 9362.0, 40631.0, 35388.0, 9362.0, 8.17190170288086, 0.275350421667099, -0.09072031080722809, -0.15022143721580505, -0.005712843965739012, -0.06963077932596207, 0.9981077313423157, -0.060867492109537125, -0.11127853393554688, 1.48681640625, 1.336669921875, 0.0177764892578125, 1.743896484375
33920, -0.27130645513534546, 7.853445053100586, -7.108172416687012, -1.8946540355682373, 0.30858930945396423, -7.854074001312256, -2.23724365234375, 0.36281687021255493, -0.6473223567008972, 0.008360232226550579, 0.10791218280792236, 0.2405148446559906, -1.939540307130189, 1.603323759708303, -19.903943789021973, 9362.0, 40631.0, 35388.0, 9362.0, 8.17190170288086, -0.11934824287891388, -0.07249311357736588, -0.021644743159413338, -0.007482140325009823, -0.06796526908874512, 0.9956392049789429, -0.060867492109537125, -0.11127853393554688, 1.48681640625, 1.3330078125, 0.0191650390625, 1.743896484375
33930, -0.27104026079177856, 7.8554463386535645, -7.1093597412109375, -1.9170925617218018, 0.3122280538082123, -7.86055326461792, -2.2504584789276123, 0.36493104696273804, -0.6484871506690979, 0.008374576456844807, 0.10789963603019714, 0.24056701362133026, -1.8719164072109986, 1.5654555714387186, -19.911043545537947, 9362.0, 40631.0, 35388.0, 9362.0, 8.17190170288086, 0.017992062494158745, 0.05550900846719742, -0.14742545783519745, -0.006798069458454847, -0.0708819106221199, 0.9984123110771179, -0.060867492109537125, -0.11127853393554688, 1.48681640625, 1.285400390625, 0.0730438232421875, 1.743896484375
33940, -0.27189940214157104, 7.856110572814941, -7.1089253425598145, -1.9396631717681885, 0.3158879280090332, -7.867044448852539, -2.263659954071045, 0.36704421043395996, -0.6497172713279724, 0.008373991586267948, 0.10791130363941193, 0.24051864445209503, -1.9091591489651942, 1.5952192141292016, -19.922704852158155, 9362.0, 40631.0, 35388.0, 9362.0, 8.17190170288086, 0.07315647602081299, -0.12482468038797379, 0.25166070461273193, -0.006576253101229668, -0.06992050260305405, 0.9963669180870056, -0.060867492109537125, -0.11127853393554688, 1.48681640625, 1.276611328125, 0.0910186767578125, 1.743896484375
33950, -0.27105486392974854, 7.85753870010376, -7.107822895050049, -1.9623658657073975, 0.319568932056427, -7.873547554016113, -2.2768771648406982, 0.36915919184684753, -0.6508616209030151, 0.008376942947506905, 0.10791350901126862, 0.24054495990276337, -1.9184050509360395, 1.5623038736540877, -19.917921402461943, 9362.0, 40631.0, 35388.0, 9362.0, 8.17190170288086, 0.2346155345439911, -0.4534119665622711, -0.20176608860492706, -0.0044071730226278305, -0.06963774561882019, 0.9952276349067688, -0.060867492109537125, -0.11127853393554688, 1.48681640625, 1.271484375, 0.1027679443359375, 1.743896484375
33990, -0.26659658551216125, 7.860540866851807, -7.113285064697266, -2.008167266845703, 0.3269943594932556, -7.88659143447876, -2.3032591342926025, 0.37338194251060486, -0.6535630226135254, 0.008367416448891163, 0.10790383815765381, 0.24051803350448608, -1.9510250756403915, 1.6032086234596363, -19.899725360931605, 9362.0, 40631.0, 35388.0, 9362.0, 8.17190170288086, 0.09229208528995514, 0.20007233321666718, 0.07009276002645493, -0.004333319142460823, -0.0694476068019867, 0.9959742426872253, -0.07676371186971664, -0.1291980743408203, 1.4853515625, 1.32421875, 0.024139404296875, 1.743896484375
34010, -0.2669074237346649, 7.861905097961426, -7.1140055656433105, -2.07785964012146, 0.33829084038734436, -7.906254291534424, -2.342890739440918, 0.3797145485877991, -0.6573395729064941, 0.008400623686611652, 0.10790302604436874, 0.24054588377475739, -1.8434848552367928, 1.5648010862500996, -19.920585579674192, 9362.0, 40631.0, 35388.0, 9362.0, 8.17190170288086, 0.041202835738658905, -0.08667942136526108, -0.0949661135673523, -0.006080863997340202, -0.06858440488576889, 0.9982725977897644, -0.07676371186971664, -0.1291980743408203, 1.4853515625, 1.53662109375, 0.27239990234375, 1.743896484375
34050, -0.2656986117362976, 7.857644081115723, -7.11453914642334, -2.07785964012146, 0.33829084038734436, -7.906254291534424, -2.342890739440918, 0.3797145485877991, -0.6573395729064941, 0.008362350054085255, 0.10789551585912704, 0.24053235352039337, -1.8803376033804438, 1.577224496391068, -19.92008187771705, 9362.0, 40631.0, 35388.0, 9362.0, 8.17190170288086, 0.03326568752527237, -0.2825939357280731, -0.1653074324131012, -0.005821553524583578, -0.06883696466684341, 0.9970263242721558, -0.07676371186971664, -0.1291980743408203, 1.4853515625, 1.5908203125, 0.395538330078125, 1.743896484375
34060, -0.26527512073516846, 7.857634544372559, -7.113936424255371, -2.07785964012146, 0.33829084038734436, -7.906254291534424, -2.342890739440918, 0.3797145485877991, -0.6573395729064941, 0.00837127584964037, 0.10789186507463455, 0.24050764739513397, -1.8863489729692204, 1.5471565913461234, -19.912239426776463, 9362.0, 40631.0, 35388.0, 9362.0, 8.17190170288086, -0.06784392893314362, -0.12763969600200653, 0.06147154048085213, -0.005821553524583578, -0.06883696466684341, 0.9970263242721558, -0.07676371186971664, -0.1291980743408203, 1.4853515625, 1.531494140625, 0.26129150390625, 1.743896484375
34070, -0.2662063241004944, 7.858635902404785, -7.115924835205078, -2.07785964012146, 0.33829084038734436, -7.906254291534424, -2.342890739440918, 0.3797145485877991, -0.6573395729064941, 0.008374478667974472, 0.1078910380601883, 0.2405080944299698, -1.8934490245782662, 1.575533862585985, -19.90863708000265, 9362.0, 40631.0, 35388.0, 9362.0, 8.17190170288086, -0.06784392893314362, -0.12763969600200653, 0.06147154048085213, -0.004716422874480486, -0.07049592584371567, 0.9970796704292297, -0.07676371186971664, -0.1291980743408203, 1.4853515625, 1.531494140625, 0.26129150390625, 1.743896484375
