timeTick, roll, pitch, yaw, stateX, stateY, stateZ, stateVX, stateVY, stateVZ, otX0, otY0, otZ0, otRoll0, otPitch0, otYaw0, left wing, pitch motor, yaw motor, right wing, voltage, roll rate, pitch rate, yaw rate, A_x, A_y, A_z, current, i_raw, v_raw, airflow_voltage, airflow_speed, pot_Pitch
50864, 4.870833873748779, -0.5950693488121033, -2.151768922805786, 0, 0, 0, 0, 0, 0, 0.012841702438890934, 0.10508381575345993, 0.2410544753074646, -0.5253341702874847, -0.5898567154112584, -23.38588822468444, 0, 0, 0, 0, 0, 0, 0, 0, 0, 0, 0, 0, 0, 0, 0, 0, 0
50874, 4.870249271392822, -0.595648467540741, -2.151489496231079, -9.49462701100856e-05, 0.0011261655017733574, -33.72166061401367, -0.009143945761024952, 0.10845644026994705, -1.3655469417572021, 0.012880292721092701, 0.1050959900021553, 0.24100010097026825, -0.664973370995854, -0.5009849877983186, -23.428362436432195, 9362.0, 41942.0, 35388.0, 9362.0, 8.152067184448242, -0.06087370216846466, -0.03640247881412506, 0.10682395100593567, -0.008410025388002396, -0.07045827060937881, 0.9974145293235779, -0.07709313929080963, -0.1291980743408203, 1.4853515625, 0, 0, 0
50884, 4.870104789733887, -0.5958565473556519, -2.150614023208618, -0.00018289269064553082, 0.0021691047586500645, -33.735321044921875, -0.008445306681096554, 0.10013137757778168, -1.3663365840911865, 0.012876586057245731, 0.10514381527900696, 0.2410089522600174, -0.39489721942977585, -0.6544332198205041, -23.43869143922165, 9362.0, 41942.0, 35388.0, 9362.0, 8.17190170288086, -0.12177446484565735, 0.08668291568756104, 0.3112800717353821, -0.009734490886330605, -0.07200118899345398, 0.9976417422294617, -0.07696790993213654, 0.30088043212890625, 1.5205078125, 1.58203125, 0.37493896484375, 1.78271484375
50894, 4.870063781738281, -0.5947549343109131, -2.149996519088745, -0.0002638413570821285, 0.0031287260353565216, -33.74898910522461, -0.007744302973151207, 0.09179287403821945, -1.366957664489746, 0.012861802242696285, 0.1050906628370285, 0.24101562798023224, -0.6130451017569556, -0.5833022144725248, -23.41538860480127, 9362.0, 41942.0, 35388.0, 9362.0, 8.152067184448242, 0.2034797966480255, -0.10612332075834274, -0.14610223472118378, -0.00811562966555357, -0.06950585544109344, 0.9978042840957642, -0.07822103053331375, -0.13815879821777344, 1.484619140625, 1.575439453125, 0.3596649169921875, 1.77978515625
50904, 4.871360778808594, -0.5953755974769592, -2.150979518890381, -0.0003377770772203803, 0.004004957620054483, -33.76266098022461, -0.007042736746370792, 0.08345349133014679, -1.3675655126571655, 0.012904166243970394, 0.10508279502391815, 0.24097326397895813, -0.6839044220957725, -0.39919636337373277, -23.448033376856394, 9362.0, 41942.0, 35388.0, 9362.0, 8.17190170288086, -0.10091432929039001, 0.001746373949572444, 0.0706554651260376, -0.008935654535889626, -0.07044345140457153, 0.9985924363136292, -0.08640334010124207, -0.12023735046386719, 1.486083984375, 1.5849609375, 0.381805419921875, 1.77392578125
50914, 4.870532035827637, -0.5964419841766357, -2.151376247406006, -0.0004047031980007887, 0.004797762725502253, -33.77634048461914, -0.006342639215290546, 0.07510750740766525, -1.368094801902771, 0.012871840968728065, 0.10507690161466599, 0.2409716546535492, -0.6043957527747121, -0.5466600308833449, -23.417347991862886, 9362.0, 41942.0, 35388.0, 9362.0, 8.152067184448242, -0.0927484855055809, -0.11193396151065826, -0.027140691876411438, -0.006434362847357988, -0.07061835378408432, 0.9977965950965881, -0.07147631794214249, 0.09480094909667969, 1.503662109375, 1.600341796875, 0.4178924560546875, 1.78271484375
50924, 4.869433403015137, -0.5969738960266113, -2.1498730182647705, -0.00046462385216727853, 0.005507092457264662, -33.79002380371094, -0.00564156100153923, 0.06675843894481659, -1.3686147928237915, 0.012841531075537205, 0.10509920120239258, 0.24104182422161102, -0.5789672527803811, -0.6012059777773118, -23.412724543300385, 9362.0, 41942.0, 35388.0, 9362.0, 8.17190170288086, -0.19734685122966766, -0.05951041355729103, 0.11621109396219254, -0.00988876074552536, -0.0711154192686081, 0.998009979724884, -0.07740186899900436, -0.07543754577636719, 1.48974609375, 1.578369140625, 0.3665008544921875, 1.781982421875
50934, 4.869868278503418, -0.596642792224884, -2.1493706703186035, -0.0005175276892259717, 0.006132974289357662, -33.803714752197266, -0.004938995465636253, 0.05841793864965439, -1.3692184686660767, 0.01285155862569809, 0.1050657331943512, 0.24103185534477234, -0.583642385662893, -0.5520286220922799, -23.39967745068737, 9362.0, 41942.0, 35388.0, 9362.0, 8.152067184448242, -0.0522010400891304, 0.09115026891231537, 0.17057229578495026, -0.008754906244575977, -0.07009414583444595, 0.9984424114227295, -0.0859270840883255, -0.11127853393554688, 1.48681640625, 1.584228515625, 0.3801727294921875, 1.7783203125
50944, 4.8701910972595215, -0.5971513986587524, -2.147780179977417, -0.0005633974215015769, 0.006675430573523045, -33.81740951538086, -0.00423487089574337, 0.05007332190871239, -1.3697527647018433, 0.013373181223869324, 0.10533831268548965, 0.23977728188037872, -2.6961591686321382, 2.121883730576144, -24.017002603789898, 9362.0, 41942.0, 35388.0, 9362.0, 8.152067184448242, -0.02858060598373413, -0.3691902160644531, -0.18198174238204956, -0.007893403060734272, -0.06921874731779099, 0.998077392578125, -0.0802108496427536, -0.1291980743408203, 1.4853515625, 1.349853515625, 0.015350341796875, 1.779052734375
50954, 4.870860576629639, -0.5971353054046631, -2.1487479209899902, -0.0006022296147421002, 0.007134450599551201, -33.83110809326172, -0.0035313426051288843, 0.041730742901563644, -1.3703186511993408, 0.012828994542360306, 0.10507456213235855, 0.2410660982131958, -0.5315971374821405, -0.6443289785157162, -23.391917158628036, 9362.0, 41942.0, 35388.0, 9362.0, 8.152067184448242, 0.17115308344364166, -0.028000537306070328, -0.2577573359012604, -0.009641752578318119, -0.0671730637550354, 0.9977979063987732, -0.08483857661485672, -0.15607833862304688, 1.483154296875, 1.329345703125, 0.02105712890625, 1.779052734375
50964, 4.871792793273926, -0.5972390174865723, -2.1497693061828613, -0.0006340208929032087, 0.007510039489716291, -33.84481430053711, -0.002827061340212822, 0.03338700905442238, -1.3708783388137817, 0.012868443503975868, 0.10507605969905853, 0.24104103446006775, -0.6126918642781045, -0.5607140098920809, -23.42001736949743, 9362.0, 41942.0, 35388.0, 9362.0, 8.152067184448242, -0.05683780461549759, -0.11259383708238602, -0.440051406621933, -0.009464019909501076, -0.06906980276107788, 0.9951003193855286, -0.07541373372077942, 0.014162063598632812, 1.4970703125, 1.355712890625, 0.0155029296875, 1.7783203125
50974, 4.872106552124023, -0.5968725085258484, -2.1530489921569824, -0.0006587730604223907, 0.007802215870469809, -33.85852813720703, -0.0021235246676951647, 0.02504831925034523, -1.3715105056762695, 0.012826054356992245, 0.1050688847899437, 0.24109533429145813, -0.5133322574171946, -0.6920290452617337, -23.384614266365062, 9362.0, 41942.0, 35388.0, 9362.0, 8.152067184448242, 0.0071963658556342125, 0.18334488570690155, -0.15091972053050995, -0.009348220191895962, -0.06908559799194336, 0.9948484897613525, -0.08513054251670837, -0.15607833862304688, 1.483154296875, 1.346923828125, 0.015472412109375, 1.779052734375
50984, 4.873073101043701, -0.5959068536758423, -2.1564767360687256, -0.000676498981192708, 0.008011103607714176, -33.87224578857422, -0.001422131317667663, 0.016729235649108887, -1.372390866279602, 0.012879349291324615, 0.1050882413983345, 0.24100331962108612, -0.6340042210949963, -0.5005788784861522, -23.443938381873423, 9362.0, 41942.0, 35388.0, 9362.0, 8.152067184448242, -0.06842845678329468, -0.05906616151332855, -0.09517132490873337, -0.011604423634707928, -0.06865332275629044, 0.9965397119522095, -0.08243578672409058, 0.06792068481445312, 1.50146484375, 1.3330078125, 0.0191650390625, 1.78125
50994, 4.871842384338379, -0.5971245765686035, -2.154916763305664, -0.0006872124504297972, 0.008136749267578125, -33.8859748840332, -0.0007210553740151227, 0.008399887941777706, -1.3731579780578613, 0.012876917608082294, 0.10507757216691971, 0.24108725786209106, -0.5611394740524733, -0.5982016792080742, -23.406806984510077, 9362.0, 41942.0, 35388.0, 9362.0, 8.152067184448242, 0.2767736613750458, -0.2535756528377533, 0.13092723488807678, -0.011796685867011547, -0.0712621808052063, 0.9991588592529297, -0.08628638088703156, -0.1291980743408203, 1.4853515625, 1.336669921875, 0.0177764892578125, 1.78125
51004, 4.8715972900390625, -0.5955840945243835, -2.153536081314087, -0.0006909227231517434, 0.00817905180156231, -33.89971160888672, -2.0778863472514786e-05, 6.063055479899049e-05, -1.3738274574279785, 0.013399532996118069, 0.10533839464187622, 0.2397691011428833, -2.7345059856988763, 2.1195782108179912, -24.058934114436695, 9362.0, 41942.0, 35388.0, 9362.0, 8.17190170288086, -0.29428133368492126, -0.02959742397069931, -0.37673133611679077, -0.011285110376775265, -0.07012907415628433, 1.0008220672607422, -0.0989796444773674, -0.14711761474609375, 1.48388671875, 1.33447265625, 0.0186309814453125, 1.77978515625
51014, 4.870510578155518, -0.5956347584724426, -2.156708240509033, -0.0006876086117699742, 0.008137856610119343, -33.9134521484375, 0.0006838112603873014, -0.008299612440168858, -1.37422776222229, 0.012887004762887955, 0.10506980121135712, 0.24101045727729797, -0.6221128834771019, -0.5635278309192415, -23.430101759055972, 9362.0, 41942.0, 35388.0, 9362.0, 8.152067184448242, 0.06785046309232712, 0.07693929225206375, -0.022872300818562508, -0.009391925297677517, -0.0692238137125969, 0.9982485175132751, -0.08796846866607666, -0.14711761474609375, 1.48388671875, 1.330078125, 0.0206298828125, 1.80029296875
51024, 4.870365142822266, -0.5986760258674622, -2.154918909072876, -0.0006772581837140024, 0.008013032376766205, -33.92719650268555, 0.0013858175370842218, -0.016665278002619743, -1.3745591640472412, 0.01282825693488121, 0.10508304089307785, 0.2410476952791214, -0.5364427799242337, -0.6332266496823991, -23.40052695498969, 9362.0, 41942.0, 35388.0, 9362.0, 8.152067184448242, -0.0652230829000473, 0.3346588909626007, -0.12518811225891113, -0.00816723145544529, -0.06964392960071564, 0.995470404624939, -0.09374012798070908, -0.11127853393554688, 1.48681640625, 1.3271484375, 0.022308349609375, 1.78125
51034, 4.871588706970215, -0.6005063652992249, -2.1538469791412354, -0.0006598987965844572, 0.007804675027728081, -33.94094467163086, 0.002086284337565303, -0.02500612847507, -1.375158429145813, 0.01288527436554432, 0.10506616532802582, 0.24101082980632782, -0.6619916150378529, -0.5089624918366269, -23.43932108028527, 9362.0, 41942.0, 35388.0, 9362.0, 8.152067184448242, 0.22509388625621796, 0.20420826971530914, 0.009558320045471191, -0.00957153458148241, -0.07029927521944046, 0.9954444766044617, -0.0912131741642952, -0.12023735046386719, 1.486083984375, 1.349853515625, 0.015350341796875, 1.781982421875
51044, 4.871757507324219, -0.5999948978424072, -2.1541807651519775, -0.0006355149671435356, 0.007512996904551983, -33.9547004699707, 0.002790614031255245, -0.03332945331931114, -1.3759621381759644, 0.01284104399383068, 0.10508163273334503, 0.2410198152065277, -0.5935536360430436, -0.5909167219125777, -23.420314222420973, 9362.0, 41942.0, 35388.0, 9362.0, 8.17190170288086, -0.030799677595496178, -0.053698163479566574, -0.09929580241441727, -0.008238880895078182, -0.07054315507411957, 0.997027575969696, -0.09519711136817932, -0.14711761474609375, 1.48388671875, 1.335205078125, 0.018280029296875, 1.779052734375
51054, 4.872230529785156, -0.6002604961395264, -2.1534597873687744, -0.0006040690932422876, 0.007138041779398918, -33.96846389770508, 0.0034985167440027, -0.04166159778833389, -1.3766885995864868, 0.012850728817284107, 0.1050993949174881, 0.24102292954921722, -0.5723419799767174, -0.5968868530126201, -23.413464663600948, 9362.0, 41942.0, 35388.0, 9362.0, 8.17190170288086, -0.048376962542533875, -0.2436743974685669, -0.1696101427078247, -0.01024410966783762, -0.0712655708193779, 0.9962758421897888, -0.08761189877986908, 0.05896186828613281, 1.500732421875, 1.335205078125, 0.018280029296875, 1.78125
51064, 4.872862815856934, -0.6000921726226807, -2.155548572540283, -0.0005655447603203356, 0.00667971558868885, -33.982234954833984, 0.004206450190395117, -0.050003618001937866, -1.3773027658462524, 0.012846107594668865, 0.10509335249662399, 0.2410268932580948, -0.5859210456812985, -0.5524105423808692, -23.400241248877162, 9362.0, 41942.0, 35388.0, 9362.0, 8.17190170288086, 0.12744174897670746, 0.024019327014684677, 0.08289078623056412, -0.010190213099122047, -0.06972087174654007, 0.9963399767875671, -0.09166832268238068, -0.12023735046386719, 1.486083984375, 1.3330078125, 0.0191650390625, 1.77685546875
51074, 4.8726396560668945, -0.598200261592865, -2.1551778316497803, -0.0005199424340389669, 0.006138012278825045, -33.996009826660156, 0.004913706798106432, -0.0583370216190815, -1.3780269622802734, 0.012883703224360943, 0.1050829142332077, 0.24101635813713074, -0.6494359254239621, -0.5372770415274033, -23.416990497899192, 9362.0, 41942.0, 35388.0, 9362.0, 8.152067184448242, -0.059383220970630646, -0.5456329584121704, -0.024631841108202934, -0.009984998032450676, -0.07096539437770844, 0.9977657198905945, -0.09918466210365295, -0.1291980743408203, 1.4853515625, 1.343994140625, 0.015899658203125, 1.78271484375
51084, 4.873080253601074, -0.5952752232551575, -2.1567132472991943, -0.00046726965229026973, 0.005512956529855728, -34.00979232788086, 0.005620923824608326, -0.06667408347129822, -1.3787208795547485, 0.012852716259658337, 0.10508180409669876, 0.24102599918842316, -0.6027309789145904, -0.5468163540859337, -23.41634067549593, 9362.0, 41942.0, 35388.0, 9362.0, 8.152067184448242, -0.15435296297073364, 0.040432900190353394, -0.03290862590074539, -0.01073098462074995, -0.07019177824258804, 0.9976463913917542, -0.0908191055059433, -0.1291980743408203, 1.4853515625, 1.3330078125, 0.0191650390625, 1.779052734375
51094, 4.8732805252075195, -0.5955074429512024, -2.1568312644958496, -0.0004075343313161284, 0.0048044603317976, -34.023582458496094, 0.006325946189463139, -0.07502511888742447, -1.3792463541030884, 0.012860068120062351, 0.1050778180360794, 0.24102628231048584, -0.5908370506366353, -0.5965244221567332, -23.400526969796665, 9362.0, 41942.0, 35388.0, 9362.0, 8.17190170288086, 0.13244812190532684, -0.09587251394987106, -0.26798057556152344, -0.010925066657364368, -0.06828276067972183, 0.996366024017334, -0.09540273249149323, -0.10231781005859375, 1.487548828125, 1.32568359375, 0.0232086181640625, 1.7783203125
51104, 4.872978210449219, -0.5948421955108643, -2.157264232635498, -0.00034077931195497513, 0.004012503661215305, -34.037376403808594, 0.007025039754807949, -0.08336625248193741, -1.3798942565917969, 0.012846593745052814, 0.10507818311452866, 0.24106302857398987, -0.5380309770631183, -0.671349472856889, -23.398726552280582, 9362.0, 41942.0, 35388.0, 9362.0, 8.152067184448242, 0.06426063179969788, 0.20733822882175446, 0.0450584702193737, -0.009817169979214668, -0.06854651868343353, 0.9963577389717102, -0.08619515597820282, -0.07543754577636719, 1.48974609375, 1.330078125, 0.0206298828125, 1.810546875
51114, 4.872128486633301, -0.5928753614425659, -2.1580893993377686, -0.00026703329058364034, 0.0031371545046567917, -34.051177978515625, 0.007724113296717405, -0.0917036309838295, -1.3805897235870361, 0.012884987518191338, 0.10509137064218521, 0.2410280853509903, -0.6284450449201026, -0.5072714528520237, -23.429858070169406, 9362.0, 41942.0, 35388.0, 9362.0, 8.152067184448242, 0.05971810221672058, -0.17173048853874207, -0.25821027159690857, -0.009963690303266048, -0.07075871527194977, 0.9956036806106567, -0.09202709794044495, -0.1291980743408203, 1.4853515625, 1.332275390625, 0.019561767578125, 1.7783203125
51124, 4.871948719024658, -0.592433750629425, -2.1577422618865967, -0.00018630441627465189, 0.002178458496928215, -34.06498718261719, 0.008421567268669605, -0.10003556311130524, -1.3813425302505493, 0.012860937975347042, 0.10508574545383453, 0.24105575680732727, -0.597966938891255, -0.5797006083788858, -23.394072000225595, 9362.0, 41942.0, 35388.0, 9362.0, 8.152067184448242, -0.06714465469121933, -0.11778750270605087, -0.008793202228844166, -0.01092668529599905, -0.07056432217359543, 0.9967076778411865, -0.0866256132721901, 0.05896186828613281, 1.500732421875, 1.329345703125, 0.02105712890625, 1.7783203125
51134, 4.870858669281006, -0.5925721526145935, -2.1579439640045166, -9.861935541266575e-05, 0.0011364675592631102, -34.07880401611328, 0.009115495719015598, -0.10836263746023178, -1.38213312625885, 0.012870056554675102, 0.10507911443710327, 0.2410401552915573, -0.599970889605889, -0.5752537282346282, -23.395981160439273, 9362.0, 41942.0, 35388.0, 9362.0, 8.152067184448242, -0.14451755583286285, 0.08568096160888672, -0.25986555218696594, -0.010124750435352325, -0.07011707872152328, 1.0004326105117798, -0.08985193073749542, -0.1739978790283203, 1.481689453125, 1.339599609375, 0.0168914794921875, 1.78125
51144, 4.870973587036133, -0.5934497117996216, -2.1596555709838867, -3.989422111772001e-06, 1.1098571121692657e-05, -34.092628479003906, 0.009810462594032288, -0.11671119183301926, -1.3826693296432495, 0.0128474785014987, 0.10508988797664642, 0.24109964072704315, -0.5215250276340381, -0.6687150162606201, -23.392641707114343, 9362.0, 41942.0, 35388.0, 9362.0, 8.152067184448242, 0.16956757009029388, -0.12237939238548279, -0.10135553032159805, -0.009209253825247288, -0.07142972946166992, 0.9977600574493408, -0.0956844687461853, -0.05751800537109375, 1.4912109375, 1.333740234375, 0.0189361572265625, 1.7841796875
51154, 4.872206687927246, -0.5927546620368958, -2.1583547592163086, 9.759810200193897e-05, -0.0011978251859545708, -34.1064567565918, 0.010506791062653065, -0.1250736117362976, -1.3830221891403198, 0.012852160260081291, 0.10508226603269577, 0.2410019338130951, -0.6109134828692692, -0.5081553057822248, -23.41335282725411, 9362.0, 41942.0, 35388.0, 9362.0, 8.17190170288086, -0.31753304600715637, -0.045728135854005814, 0.004523702897131443, -0.009509090334177017, -0.0719839483499527, 0.9966203570365906, -0.08742686361074448, -0.15607833862304688, 1.483154296875, 1.33447265625, 0.0186309814453125, 1.77978515625
51164, 4.871410846710205, -0.5922974348068237, -2.157258987426758, 0.0002061434497591108, -0.0024902347940951586, -34.12028884887695, 0.011202475056052208, -0.13340827822685242, -1.3837019205093384, 0.012876182794570923, 0.10507102310657501, 0.2410336136817932, -0.5733966694204904, -0.5771839878162552, -23.41061372243814, 9362.0, 41942.0, 35388.0, 9362.0, 8.152067184448242, -0.19965258240699768, -0.14132839441299438, 0.16783234477043152, -0.011176292784512043, -0.06929317116737366, 0.9989767074584961, -0.09415125846862793, -0.15607833862304688, 1.483154296875, 1.32421875, 0.024139404296875, 1.777587890625
51174, 4.871315002441406, -0.5919899940490723, -2.157581090927124, 0.000321642670314759, -0.003866029903292656, -34.13412857055664, 0.011897527612745762, -0.14175072312355042, -1.3843148946762085, 0.01282503828406334, 0.10507750511169434, 0.24105285108089447, -0.5267126306038729, -0.654735719646709, -23.38878014084997, 9362.0, 41942.0, 35388.0, 9362.0, 8.17190170288086, 0.11161685734987259, 0.3000074625015259, -0.149245947599411, -0.009761353023350239, -0.0695054829120636, 0.9996531009674072, -0.08892334252595901, -0.13815879821777344, 1.484619140625, 1.32861328125, 0.0214385986328125, 1.801025390625
51204, 4.872047424316406, -0.5909595489501953, -2.1586084365844727, 0.0007098471978679299, -0.008494358509778976, -34.17567825317383, 0.013981780968606472, -0.16678287088871002, -1.386056661605835, 0.012850330211222172, 0.10509418696165085, 0.2410423755645752, -0.525941441949462, -0.6188229531528293, -23.39359333661325, 9362.0, 41942.0, 35388.0, 9362.0, 8.17190170288086, 0.11161685734987259, 0.3000074625015259, -0.149245947599411, -0.009966201148927212, -0.06979792565107346, 0.9959057569503784, -0.08862890303134918, -0.11127853393554688, 1.48681640625, 1.32861328125, 0.0214385986328125, 1.781982421875
51244, 4.872881889343262, -0.5949303507804871, -2.158545970916748, 0.0011605049949139357, -0.013872730545699596, -34.217288970947266, 0.016060631722211838, -0.19177986681461334, -1.3882471323013306, 0.012843174859881401, 0.10508374124765396, 0.24106645584106445, -0.5208418287768641, -0.663969719538386, -23.397377037454586, 9362.0, 41942.0, 35388.0, 9362.0, 8.152067184448242, -0.23214609920978546, 0.3290726840496063, 0.04833344370126724, -0.010072506964206696, -0.07034921646118164, 0.9963586330413818, -0.07366028428077698, -0.14711761474609375, 1.48388671875, 1.32861328125, 0.0214385986328125, 1.78564453125
51254, 4.873083114624023, -0.5925509333610535, -2.160815715789795, 0.001495596137829125, -0.017874838784337044, -34.24506759643555, 0.0174503643065691, -0.2084328532218933, -1.3898189067840576, 0.012845002114772797, 0.10507909208536148, 0.24101167917251587, -0.5623428492097071, -0.5764908682762666, -23.39931173933115, 9362.0, 41942.0, 35388.0, 9362.0, 8.17190170288086, 0.209477037191391, -0.13820983469486237, -0.1566571593284607, -0.010072506964206696, -0.07034921646118164, 0.9963586330413818, -0.08101820945739746, -0.06647872924804688, 1.490478515625, 1.32861328125, 0.0214385986328125, 1.78564453125
51294, 4.8707275390625, -0.5885681509971619, -2.1611526012420654, 0.0020504584535956383, -0.024503514170646667, -34.28678894042969, 0.019537802785634995, -0.23348750174045563, -1.3914051055908203, 0.012863815762102604, 0.10507768392562866, 0.24098411202430725, -0.5812466400036175, -0.5227400551194137, -23.416735232287106, 9362.0, 41942.0, 35388.0, 9362.0, 8.152067184448242, -0.10489294677972794, -0.4887363612651825, -0.07945605367422104, -0.009643115103244781, -0.07105369120836258, 0.9964350461959839, -0.07632192969322205, -0.15607833862304688, 1.483154296875, 1.32861328125, 0.0214385986328125, 1.77978515625
51314, 4.87062406539917, -0.5875111818313599, -2.161891460418701, 0.0020504584535956383, -0.024503514170646667, -34.28678894042969, 0.019537802785634995, -0.23348750174045563, -1.3914051055908203, 0.012862302362918854, 0.10509023070335388, 0.24102330207824707, -0.5889426207041214, -0.5723447632946659, -23.411040851786062, 9362.0, 41942.0, 35388.0, 9362.0, 8.152067184448242, 0.0963335856795311, 0.03731219097971916, 0.26402658224105835, -0.010219642892479897, -0.06925718486309052, 0.9977890253067017, -0.07632192969322205, -0.15607833862304688, 1.483154296875, 1.32861328125, 0.0214385986328125, 1.781982421875
51324, 4.870786190032959, -0.5861644148826599, -2.159600257873535, 0.0020504584535956383, -0.024503514170646667, -34.28678894042969, 0.019537802785634995, -0.23348750174045563, -1.3914051055908203, 0.012866456061601639, 0.10508112609386444, 0.24103911221027374, -0.5516439180451949, -0.6192714785668727, -23.401264344879277, 9362.0, 41942.0, 35388.0, 9362.0, 8.152067184448242, -0.13530488312244415, -0.2128925919532776, 0.18729469180107117, -0.010564683005213737, -0.07128091156482697, 0.9966288805007935, -0.07632192969322205, -0.15607833862304688, 1.483154296875, 1.32861328125, 0.0214385986328125, 1.781982421875
51334, 4.870818138122559, -0.5863984823226929, -2.159226417541504, 0.0020504584535956383, -0.024503514170646667, -34.28678894042969, 0.019537802785634995, -0.23348750174045563, -1.3914051055908203, 0.012823796831071377, 0.10508861392736435, 0.24107372760772705, -0.5335967070170536, -0.6339026172158526, -23.378904674838406, 9362.0, 41942.0, 35388.0, 9362.0, 8.152067184448242, -0.13530488312244415, -0.2128925919532776, 0.18729469180107117, -0.009887716732919216, -0.06879005581140518, 0.9944222569465637, -0.07632192969322205, -0.15607833862304688, 1.483154296875, 1.32861328125, 0.0214385986328125, 1.781982421875
51384, 4.870972633361816, -0.579182505607605, -2.1593918800354004, 0.004347940441220999, -0.05202009901404381, -34.42626190185547, 0.026380402967333794, -0.3168439567089081, -1.397990345954895, 0.012831611558794975, 0.10508473217487335, 0.24103105068206787, -0.608307462581227, -0.6280095080883541, -23.391825912224633, 9362.0, 41942.0, 35388.0, 9362.0, 8.17190170288086, -0.05165203660726547, 0.013972178101539612, 0.2413497418165207, -0.00955022033303976, -0.06882758438587189, 0.9952692985534668, -0.08410836011171341, -0.04855918884277344, 1.491943359375, 1.32861328125, 0.0214385986328125, 1.781982421875
51394, 4.871180057525635, -0.5793460607528687, -2.1598010063171387, 0.004347940441220999, -0.05202009901404381, -34.42626190185547, 0.026380402967333794, -0.3168439567089081, -1.397990345954895, 0.012835822999477386, 0.10507660359144211, 0.24102911353111267, -0.5459812490498056, -0.5913596689360361, -23.39085883455027, 9362.0, 41942.0, 35388.0, 9362.0, 8.17190170288086, -0.05165203660726547, 0.013972178101539612, 0.2413497418165207, -0.008242187090218067, -0.07028838992118835, 0.9961314797401428, -0.08410836011171341, -0.04855918884277344, 1.491943359375, 1.32861328125, 0.0214385986328125, 1.781982421875
51434, 4.87261962890625, -0.5806971788406372, -2.1627025604248047, 0.005750971380621195, -0.0689033567905426, -34.49625778198242, 0.029745209962129593, -0.35849931836128235, -1.4015581607818604, 0.012860875576734543, 0.10508161038160324, 0.2410072684288025, -0.600940341083508, -0.5251122417449494, -23.415529239493125, 9362.0, 41942.0, 35388.0, 9362.0, 8.17190170288086, 0.12998360395431519, -0.010126723907887936, -0.20947889983654022, -0.008563593961298466, -0.06910620629787445, 0.9982460141181946, -0.0914185643196106, -0.1650371551513672, 1.482421875, 1.32861328125, 0.0214385986328125, 1.781982421875
51464, 4.873141765594482, -0.5773183703422546, -2.1615922451019287, 0.006359357386827469, -0.07624012231826782, -34.5243034362793, 0.031092915683984756, -0.37517842650413513, -1.402835488319397, 0.012817015871405602, 0.10509195923805237, 0.24105475842952728, -0.5508770222840567, -0.6511459256894057, -23.39948514644937, 9362.0, 41942.0, 35388.0, 9362.0, 8.17190170288086, -0.09949669241905212, 0.12660816311836243, -0.004464358557015657, -0.009650716558098793, -0.06974871456623077, 0.996950626373291, -0.0914185643196106, -0.1650371551513672, 1.482421875, 1.32861328125, 0.0214385986328125, 1.78125
51484, 4.873688220977783, -0.5785842537879944, -2.160862445831299, 0.006359357386827469, -0.07624012231826782, -34.5243034362793, 0.031092915683984756, -0.37517842650413513, -1.402835488319397, 0.012849945574998856, 0.10508839786052704, 0.241054967045784, -0.5680343074680307, -0.5719660710840913, -23.398166267187385, 9362.0, 41942.0, 35388.0, 9362.0, 8.152067184448242, 0.16947300732135773, -0.34690940380096436, 0.05724743753671646, -0.0096769779920578, -0.06947407126426697, 0.9959580898284912, -0.09166479855775833, -0.09335899353027344, 1.48828125, 1.324951171875, 0.0236663818359375, 1.78125
51504, 4.872601509094238, -0.5789795517921448, -2.1603267192840576, 0.006359357386827469, -0.07624012231826782, -34.5243034362793, 0.031092915683984756, -0.37517842650413513, -1.402835488319397, 0.012855714187026024, 0.10508735477924347, 0.2410254329442978, -0.5906642232102965, -0.5632953048145453, -23.409809826490154, 9362.0, 41942.0, 35388.0, 9362.0, 8.17190170288086, 0.16947300732135773, -0.34690940380096436, 0.05724743753671646, -0.007760955952107906, -0.0695526972413063, 0.9975199103355408, -0.08920098841190338, -0.08439826965332031, 1.489013671875, 1.324951171875, 0.0236663818359375, 1.7841796875
51524, 4.873920917510986, -0.5783838033676147, -2.161485195159912, 0.006359357386827469, -0.07624012231826782, -34.5243034362793, 0.031092915683984756, -0.37517842650413513, -1.402835488319397, 0.012838616967201233, 0.10508070886135101, 0.24104513227939606, -0.5588071136756132, -0.6083869526615047, -23.392465816092287, 9362.0, 41942.0, 35388.0, 9362.0, 8.17190170288086, -0.09449069947004318, -0.2612692713737488, -0.501153826713562, -0.007823806256055832, -0.07116793096065521, 0.9947788119316101, -0.08410260081291199, -0.12023735046386719, 1.486083984375, 1.324951171875, 0.0236663818359375, 1.779052734375
51544, 4.874485492706299, -0.5760002732276917, -2.1619865894317627, 0.009428962133824825, -0.11338217556476593, -34.650840759277344, 0.03712252154946327, -0.4501919746398926, -1.409279227256775, 0.012823415920138359, 0.10508647561073303, 0.24108412861824036, -0.48746321938342263, -0.7112124703913594, -23.389690612741067, 9362.0, 41942.0, 35388.0, 9362.0, 8.152067184448242, -0.09449069947004318, -0.2612692713737488, -0.501153826713562, -0.011652706190943718, -0.06956426054239273, 0.9962607026100159, -0.08828017115592957, -0.14711761474609375, 1.48388671875, 1.324951171875, 0.0236663818359375, 1.779052734375
51564, 4.874582767486572, -0.5786623954772949, -2.162370204925537, 0.01018473133444786, -0.12255270034074783, -34.679039001464844, 0.03845378756523132, -0.4668607711791992, -1.4107588529586792, 0.01283078733831644, 0.10507809370756149, 0.24104009568691254, -0.5156824039022456, -0.6805834484447928, -23.388546719604967, 9362.0, 41942.0, 35388.0, 9362.0, 8.152067184448242, 0.02859867736697197, 0.18394042551517487, -0.10490753501653671, -0.00967493373900652, -0.07027439773082733, 0.9955874681472778, -0.08904080837965012, -0.10231781005859375, 1.487548828125, 1.324951171875, 0.0236663818359375, 1.80908203125
51604, 4.8751349449157715, -0.5738229155540466, -2.1625592708587646, 0.0109671326354146, -0.13205663859844208, -34.70726776123047, 0.039788518100976944, -0.48353686928749084, -1.4121650457382202, 0.012818098068237305, 0.10509507358074188, 0.24108853936195374, -0.5271449394048038, -0.6572039024227365, -23.37693231051031, 9362.0, 41942.0, 35388.0, 9362.0, 8.152067184448242, 0.29150524735450745, -0.2466673105955124, -0.10083528608083725, -0.008575891144573689, -0.0739537924528122, 0.9971343278884888, -0.08953628689050674, 0.08584022521972656, 1.5029296875, 1.324951171875, 0.0236663818359375, 1.776123046875
51614, 4.8752851486206055, -0.5745725631713867, -2.1621289253234863, 0.01219076756387949, -0.1469380259513855, -34.749664306640625, 0.04178621619939804, -0.5085554122924805, -1.4142018556594849, 0.012874249368906021, 0.10509209334850311, 0.24098962545394897, -0.6290779906419155, -0.5044092727331417, -23.430604025566556, 9362.0, 41942.0, 35388.0, 9362.0, 8.152067184448242, 0.29150524735450745, -0.2466673105955124, -0.10083528608083725, -0.009359568357467651, -0.07105093449354172, 0.9980040788650513, -0.08953628689050674, 0.08584022521972656, 1.5029296875, 1.324951171875, 0.0236663818359375, 1.776123046875
51624, 4.875667095184326, -0.573160707950592, -2.163393020629883, 0.01219076756387949, -0.1469380259513855, -34.749664306640625, 0.04178621619939804, -0.5085554122924805, -1.4142018556594849, 0.012851258739829063, 0.10508683323860168, 0.2409818023443222, -0.6236115845306768, -0.534848444029052, -23.415312563947893, 9362.0, 41942.0, 35388.0, 9362.0, 8.152067184448242, 0.29150524735450745, -0.2466673105955124, -0.10083528608083725, -0.007760272826999426, -0.07046801596879959, 0.9972454309463501, -0.08953628689050674, 0.08584022521972656, 1.5029296875, 1.324951171875, 0.0236663818359375, 1.809814453125
51634, 4.875062942504883, -0.572577178478241, -2.164278745651245, 0.01219076756387949, -0.1469380259513855, -34.749664306640625, 0.04178621619939804, -0.5085554122924805, -1.4142018556594849, 0.012856557965278625, 0.10509169101715088, 0.24098984897136688, -0.6217304914362215, -0.4791540866914943, -23.413499899125714, 9362.0, 41942.0, 35388.0, 9362.0, 8.152067184448242, 0.29150524735450745, -0.2466673105955124, -0.10083528608083725, -0.007760272826999426, -0.07046801596879959, 0.9972454309463501, -0.0952649787068367, -0.18295860290527344, 1.48095703125, 1.324951171875, 0.0236663818359375, 1.78271484375
51654, 4.875266075134277, -0.574427604675293, -2.16458797454834, 0.013915165327489376, -0.1679479330778122, -34.80628204345703, 0.044430334120988846, -0.541930615901947, -1.4167802333831787, 0.012827389873564243, 0.1050761267542839, 0.24103684723377228, -0.544534319583386, -0.6210452413078542, -23.391216813058783, 9362.0, 41942.0, 35388.0, 9362.0, 8.152067184448242, 0.29150524735450745, -0.2466673105955124, -0.10083528608083725, -0.009341727010905743, -0.06899961084127426, 0.9981249570846558, -0.0952649787068367, -0.18295860290527344, 1.48095703125, 1.324951171875, 0.0236663818359375, 1.78271484375
51674, 4.876273155212402, -0.5761007070541382, -2.164726495742798, 0.013915165327489376, -0.1679479330778122, -34.80628204345703, 0.044430334120988846, -0.541930615901947, -1.4167802333831787, 0.012825747020542622, 0.10508595407009125, 0.241037055850029, -0.5616185367016153, -0.6307745599659711, -23.38384068828649, 9362.0, 41942.0, 35388.0, 9362.0, 8.17190170288086, 0.08278025686740875, 0.18229983747005463, 0.04931358993053436, -0.010389463044703007, -0.07260571420192719, 0.9973437190055847, -0.0952649787068367, -0.18295860290527344, 1.48095703125, 1.324951171875, 0.0236663818359375, 1.808349609375
51684, 4.875924110412598, -0.5773530602455139, -2.163353443145752, 0.013915165327489376, -0.1679479330778122, -34.80628204345703, 0.044430334120988846, -0.541930615901947, -1.4167802333831787, 0.012846594676375389, 0.10507460683584213, 0.24101661145687103, -0.5782379390982861, -0.5662954733329855, -23.41685438858686, 9362.0, 41942.0, 35388.0, 9362.0, 8.17190170288086, 0.09846559911966324, -0.027582893148064613, -0.18663303554058075, -0.010389463044703007, -0.07260571420192719, 0.9973437190055847, -0.08291476219892502, 0.06792068481445312, 1.50146484375, 1.324951171875, 0.0236663818359375, 1.808349609375
51694, 4.876616954803467, -0.5766761898994446, -2.1645383834838867, 0.013915165327489376, -0.1679479330778122, -34.80628204345703, 0.044430334120988846, -0.541930615901947, -1.4167802333831787, 0.0128555903211236, 0.10507090389728546, 0.24102796614170074, -0.5759833670742409, -0.5589843226015887, -23.405799483143966, 9362.0, 41942.0, 35388.0, 9362.0, 8.152067184448242, 0.24753683805465698, 0.31008410453796387, -0.1403426229953766, -0.010600014589726925, -0.06900453567504883, 0.996769905090332, -0.08291476219892502, 0.06792068481445312, 1.50146484375, 1.324951171875, 0.0236663818359375, 1.808349609375
51704, 4.877897262573242, -0.5764173865318298, -2.164813280105591, 0.013915165327489376, -0.1679479330778122, -34.80628204345703, 0.044430334120988846, -0.541930615901947, -1.4167802333831787, 0.012847657315433025, 0.10509355366230011, 0.24101944267749786, -0.5782455254691117, -0.5580893133523546, -23.39371438783816, 9362.0, 41942.0, 35388.0, 9362.0, 8.152067184448242, 0.24753683805465698, 0.31008410453796387, -0.1403426229953766, -0.009744144044816494, -0.06801752746105194, 0.9959758520126343, -0.09186224639415741, -0.12023735046386719, 1.486083984375, 1.324951171875, 0.0236663818359375, 1.77978515625
51774, 4.8748321533203125, -0.5725408792495728, -2.173004388809204, 0.019204605370759964, -0.23261013627052307, -34.9625129699707, 0.051742855459451675, -0.6337454319000244, -1.4238255023956299, 0.012810112908482552, 0.10509283095598221, 0.24108901619911194, -0.4789785157906764, -0.6927322947825303, -23.382652739459356, 9362.0, 41942.0, 35388.0, 9362.0, 8.17190170288086, 0.12331218272447586, 0.10744661837816238, -0.002867091679945588, -0.00907293614000082, -0.0691608265042305, 0.996200442314148, -0.07935616374015808, -0.12023735046386719, 1.486083984375, 1.324951171875, 0.0236663818359375, 1.739501953125
51794, 4.873470306396484, -0.571541428565979, -2.175898790359497, 0.020786842331290245, -0.2519989609718323, -35.005245208740234, 0.0537337064743042, -0.6588179469108582, -1.4253262281417847, 0.012882526032626629, 0.10508426278829575, 0.24099893867969513, -0.6347061017603861, -0.5131901877400935, -23.42237740276484, 9362.0, 41942.0, 35388.0, 9362.0, 8.152067184448242, -0.0572732537984848, -0.2002761960029602, -0.3928402066230774, -0.009085905738174915, -0.069706492125988, 0.9976323246955872, -0.07935616374015808, -0.12023735046386719, 1.486083984375, 1.324951171875, 0.0236663818359375, 1.739501953125
51804, 4.874988555908203, -0.5735135078430176, -2.1778578758239746, 0.020786842331290245, -0.2519989609718323, -35.005245208740234, 0.0537337064743042, -0.6588179469108582, -1.4253262281417847, 0.012843786738812923, 0.10509862005710602, 0.24102437496185303, -0.5820278054146775, -0.6193133117913305, -23.390379963542337, 9362.0, 41942.0, 35388.0, 9362.0, 8.17190170288086, -0.0572732537984848, -0.2002761960029602, -0.3928402066230774, -0.0108552360907197, -0.07018391042947769, 0.9996879696846008, -0.07935616374015808, -0.12023735046386719, 1.486083984375, 1.324951171875, 0.0236663818359375, 1.780517578125
51824, 4.873865604400635, -0.5729279518127441, -2.1775670051574707, 0.022428398951888084, -0.27213919162750244, -35.048030853271484, 0.05570640042424202, -0.6838724613189697, -1.4269391298294067, 0.01284403819590807, 0.10507802665233612, 0.2410617470741272, -0.5226668405728462, -0.6725946936590788, -23.38404091564321, 9362.0, 41942.0, 35388.0, 9362.0, 8.152067184448242, -0.0027986415661871433, -0.10744526982307434, -0.21969766914844513, -0.0108552360907197, -0.07018391042947769, 0.9996879696846008, -0.06639568507671356, -0.09335899353027344, 1.48828125, 1.324951171875, 0.0236663818359375, 1.780517578125
51864, 4.876387119293213, -0.5722190141677856, -2.1795637607574463, 0.023555682972073555, -0.28598347306251526, -35.07658386230469, 0.05702205374836922, -0.7005561590194702, -1.428227424621582, 0.012809602543711662, 0.10508750379085541, 0.24104656279087067, -0.48569015197737403, -0.6399416590186604, -23.37884454261074, 9362.0, 41942.0, 35388.0, 9362.0, 8.152067184448242, 0.104420967400074, 0.10344991832971573, 0.020102735608816147, -0.00970197282731533, -0.0698067843914032, 0.9971210956573486, -0.07844311743974686, 0.08584022521972656, 1.5029296875, 1.324951171875, 0.0236663818359375, 1.77978515625
51914, 4.87523889541626, -0.5718919634819031, -2.1828153133392334, 0.027095524594187737, -0.32951897382736206, -35.16239547729492, 0.0609687864780426, -0.7505839467048645, -1.4325886964797974, 0.012894362211227417, 0.10515289008617401, 0.24093571305274963, -0.48694544470970463, -0.48654084090728134, -23.446127479937353, 9362.0, 41942.0, 35388.0, 9362.0, 8.152067184448242, -0.09990210086107254, -0.13210529088974, -0.09162317216396332, -0.009411468170583248, -0.07057378441095352, 0.9970756769180298, -0.07765116542577744, 0.03208160400390625, 1.49853515625, 1.324951171875, 0.0236663818359375, 1.7783203125
51924, 4.874785423278809, -0.5719771385192871, -2.1826484203338623, 0.027095524594187737, -0.32951897382736206, -35.16239547729492, 0.0609687864780426, -0.7505839467048645, -1.4325886964797974, 0.012862100265920162, 0.10514920949935913, 0.2409612238407135, -0.4369945377489357, -0.6152964918859141, -23.401434415453167, 9362.0, 41942.0, 35388.0, 9362.0, 8.152067184448242, 0.11818980425596237, 0.12235824018716812, -0.11435253918170929, -0.009411468170583248, -0.07057378441095352, 0.9970756769180298, -0.07765116542577744, 0.03208160400390625, 1.49853515625, 1.324951171875, 0.0236663818359375, 1.78125
51974, 4.875646114349365, -0.5742800831794739, -2.1812264919281006, 0.031524453312158585, -0.384101003408432, -35.26287078857422, 0.06557334214448929, -0.8089487552642822, -1.4375040531158447, 0.012863480485975742, 0.10508251935243607, 0.24102357029914856, -0.5984162031139489, -0.5129954071042562, -23.404877994457276, 9362.0, 41942.0, 35388.0, 9362.0, 8.17190170288086, -0.12991158664226532, -0.2051769644021988, -0.040125418454408646, -0.010240561328828335, -0.07070410251617432, 0.9964519143104553, -0.06604301929473877, -0.11127853393554688, 1.48681640625, 1.324951171875, 0.0236663818359375, 1.78125
51984, 4.874619007110596, -0.5737237334251404, -2.17970609664917, 0.031524453312158585, -0.384101003408432, -35.26287078857422, 0.06557334214448929, -0.8089487552642822, -1.4375040531158447, 0.012856803834438324, 0.10507723689079285, 0.24097682535648346, -0.6280469604308082, -0.49668756124202673, -23.43689776839495, 9362.0, 41942.0, 35388.0, 9362.0, 8.17190170288086, -0.0073753464967012405, 0.04650013521313667, -0.012449054047465324, -0.011170278303325176, -0.06994181871414185, 0.9976696372032166, -0.06604301929473877, -0.11127853393554688, 1.48681640625, 1.324951171875, 0.0236663818359375, 1.78125
52024, 4.873750686645508, -0.5731068253517151, -2.180325508117676, 0.03488560765981674, -0.42559167742729187, -35.33482360839844, 0.06887590140104294, -0.85069340467453, -1.4404000043869019, 0.012860436923801899, 0.10507851094007492, 0.24104832112789154, -0.590445779727333, -0.5759743534650283, -23.409593936365884, 9362.0, 41942.0, 35388.0, 9362.0, 8.152067184448242, -0.0073753464967012405, 0.04650013521313667, -0.012449054047465324, -0.010665558278560638, -0.07252322137355804, 0.9970960021018982, -0.08320824801921844, -0.13815879821777344, 1.484619140625, 1.587158203125, 0.3869171142578125, 1.77978515625
52034, 4.873150825500488, -0.5738813877105713, -2.1810688972473145, 0.03488560765981674, -0.42559167742729187, -35.33482360839844, 0.06887590140104294, -0.85069340467453, -1.4404000043869019, 0.0128466272726655, 0.10508674383163452, 0.24099673330783844, -0.602632562965676, -0.526477182704923, -23.409908259543688, 9362.0, 41942.0, 35388.0, 9362.0, 8.152067184448242, -0.0073753464967012405, 0.04650013521313667, -0.012449054047465324, -0.008262255229055882, -0.07097935676574707, 0.9989995956420898, -0.08320824801921844, -0.13815879821777344, 1.484619140625, 1.587158203125, 0.3869171142578125, 1.77978515625
52104, 4.8742265701293945, -0.5773826837539673, -2.18121337890625, 0.04060651361942291, -0.4963189959526062, -35.45022964477539, 0.07415121793746948, -0.917465090751648, -1.4449512958526611, 0.012842031195759773, 0.10508943349123001, 0.24103529751300812, -0.5750377536131293, -0.5815700025438844, -23.39430943264538, 9362.0, 41942.0, 35388.0, 9362.0, 8.152067184448242, 0.08350986987352371, -0.24604690074920654, 0.04712945595383644, -0.011395683512091637, -0.0712868720293045, 0.9974688291549683, -0.08929002285003662, -0.09335899353027344, 1.48828125, 1.32421875, 0.024139404296875, 1.777587890625
52114, 4.875105857849121, -0.5749594569206238, -2.1831305027008057, 0.04135136306285858, -0.505535364151001, -35.464683532714844, 0.07481852173805237, -0.9258121848106384, -1.445523977279663, 0.012833429500460625, 0.10509482771158218, 0.24103742837905884, -0.538794055943896, -0.5971606086359884, -23.40445426176319, 9362.0, 41942.0, 35388.0, 9362.0, 8.152067184448242, 0.06879527866840363, -0.23318617045879364, 0.13270874321460724, -0.010209482163190842, -0.07043898105621338, 0.9958223104476929, -0.08929002285003662, -0.09335899353027344, 1.48828125, 1.32421875, 0.024139404296875, 1.777587890625
52134, 4.875662326812744, -0.5737534165382385, -2.1789326667785645, 0.04286101832985878, -0.5242185592651367, -35.49360656738281, 0.07614476978778839, -0.9425033926963806, -1.4467558860778809, 0.01284160278737545, 0.10507328063249588, 0.2410072386264801, -0.599457789034476, -0.5381510210152953, -23.408604889688604, 9362.0, 41942.0, 35388.0, 9362.0, 8.17190170288086, 0.06879527866840363, -0.23318617045879364, 0.13270874321460724, -0.010750642977654934, -0.07045114040374756, 0.9994385838508606, -0.08929002285003662, -0.09335899353027344, 1.48828125, 1.32421875, 0.024139404296875, 1.7783203125
52144, 4.874649524688721, -0.5724409222602844, -2.1780083179473877, 0.04286101832985878, -0.5242185592651367, -35.49360656738281, 0.07614476978778839, -0.9425033926963806, -1.4467558860778809, 0.012827574275434017, 0.10509785264730453, 0.24101528525352478, -0.5399267199456582, -0.5669264596864707, -23.39947422023631, 9362.0, 41942.0, 35388.0, 9362.0, 8.17190170288086, 0.06879527866840363, -0.23318617045879364, 0.13270874321460724, -0.009989466518163681, -0.07123687118291855, 0.9987823963165283, -0.08929002285003662, -0.09335899353027344, 1.48828125, 1.32421875, 0.024139404296875, 1.7783203125
52164, 4.873227119445801, -0.571748673915863, -2.1752099990844727, 0.045175015926361084, -0.552869975566864, -35.537025451660156, 0.07812202721834183, -0.9675850868225098, -1.4481101036071777, 0.012797757983207703, 0.10508093982934952, 0.24108953773975372, -0.4803662204855836, -0.6966075031736807, -23.368465672928817, 9362.0, 41942.0, 35388.0, 9362.0, 8.152067184448242, 0.10433133691549301, 0.04629628360271454, 0.13996317982673645, -0.009058606810867786, -0.06886838376522064, 0.9989161491394043, -0.08929002285003662, -0.09335899353027344, 1.48828125, 1.32421875, 0.024139404296875, 1.7783203125
52174, 4.8732781410217285, -0.5734466910362244, -2.174164295196533, 0.045175015926361084, -0.552869975566864, -35.537025451660156, 0.07812202721834183, -0.9675850868225098, -1.4481101036071777, 0.01283709891140461, 0.10507921874523163, 0.24103578925132751, -0.5573388525021487, -0.6007526310168885, -23.40332279801958, 9362.0, 41942.0, 35388.0, 9362.0, 8.152067184448242, 0.10217656940221786, 0.1171625405550003, -0.046818409115076065, -0.00996036734431982, -0.06692826002836227, 0.9983909726142883, -0.08929002285003662, -0.09335899353027344, 1.48828125, 1.32421875, 0.024139404296875, 1.7783203125
52184, 4.873802661895752, -0.5745257139205933, -2.1746816635131836, 0.045175015926361084, -0.552869975566864, -35.537025451660156, 0.07812202721834183, -0.9675850868225098, -1.4481101036071777, 0.012845411896705627, 0.10508012026548386, 0.24102231860160828, -0.5752162086485226, -0.5817668876331084, -23.395144492831868, 9362.0, 41942.0, 35388.0, 9362.0, 8.152067184448242, 0.12075170874595642, 0.10982225835323334, 0.332563191652298, -0.00996036734431982, -0.06692826002836227, 0.9983909726142883, -0.08193915337324142, -0.13815879821777344, 1.484619140625, 1.32421875, 0.024139404296875, 1.7783203125
52204, 4.874743938446045, -0.5722286701202393, -2.1754584312438965, 0.04835262894630432, -0.5922413468360901, -35.594993591308594, 0.08076085150241852, -1.0009803771972656, -1.4503178596496582, 0.012839787639677525, 0.10507431626319885, 0.24106667935848236, -0.539470230629344, -0.616020962568399, -23.393912885332394, 9362.0, 41942.0, 35388.0, 9362.0, 8.152067184448242, 0.02229933999478817, 0.120590440928936, 0.26427677273750305, -0.009316961281001568, -0.0713270902633667, 0.9971730709075928, -0.08320808410644531, -0.10231781005859375, 1.487548828125, 1.32421875, 0.024139404296875, 1.7783203125
52224, 4.875715255737305, -0.5754799246788025, -2.1740965843200684, 0.049981024116277695, -0.612427830696106, -35.62401580810547, 0.08207715302705765, -1.0176578760147095, -1.4516912698745728, 0.012855110689997673, 0.10507713258266449, 0.2410612404346466, -0.5516120223881168, -0.5876101755821423, -23.410618987384108, 9362.0, 41942.0, 35388.0, 9362.0, 8.152067184448242, -0.028165075927972794, 0.011562728323042393, 0.20060673356056213, -0.009487500414252281, -0.06904896348714828, 0.996651291847229, -0.08320808410644531, -0.10231781005859375, 1.487548828125, 1.32421875, 0.024139404296875, 1.7783203125
52234, 4.875038146972656, -0.5735628008842468, -2.1717004776000977, 0.049981024116277695, -0.612427830696106, -35.62401580810547, 0.08207715302705765, -1.0176578760147095, -1.4516912698745728, 0.012818347662687302, 0.10510077327489853, 0.2410201132297516, -0.5947401978590556, -0.529420137040546, -23.395299968614637, 9362.0, 41942.0, 35388.0, 9362.0, 8.17190170288086, -0.03520963340997696, 0.01798153668642044, 0.23294125497341156, -0.008694970048964024, -0.06919998675584793, 0.9953383207321167, -0.08320808410644531, -0.10231781005859375, 1.487548828125, 1.32421875, 0.024139404296875, 1.7783203125
52244, 4.874719142913818, -0.5725876092910767, -2.171126127243042, 0.049981024116277695, -0.612427830696106, -35.62401580810547, 0.08207715302705765, -1.0176578760147095, -1.4516912698745728, 0.012842683121562004, 0.10506249964237213, 0.2410466969013214, -0.5706865984085652, -0.5910449472822563, -23.396357197094037, 9362.0, 41942.0, 35388.0, 9362.0, 8.152067184448242, -0.03520963340997696, 0.01798153668642044, 0.23294125497341156, -0.008461222983896732, -0.06700415164232254, 0.9961163401603699, -0.08320808410644531, -0.10231781005859375, 1.487548828125, 1.32421875, 0.024139404296875, 1.784912109375
52264, 4.874483108520508, -0.572221577167511, -2.171754837036133, 0.053316906094551086, -0.6538007259368896, -35.682151794433594, 0.08471525460481644, -1.0509896278381348, -1.4547805786132812, 0.012834402732551098, 0.10508444160223007, 0.24106936156749725, -0.5416406841139341, -0.6310558755371858, -23.40239136673604, 9362.0, 41942.0, 35388.0, 9362.0, 8.17190170288086, 0.02638436108827591, -0.12193942815065384, 0.04366770014166832, -0.009774347767233849, -0.06797336786985397, 0.9972992539405823, -0.09049952775239944, -0.07543754577636719, 1.48974609375, 1.32421875, 0.024139404296875, 1.779052734375
52294, 4.876551628112793, -0.5742713809013367, -2.1706316471099854, 0.055024370551109314, -0.6749873161315918, -35.71126174926758, 0.08603108674287796, -1.0676738023757935, -1.4560699462890625, 0.012855447828769684, 0.10510166734457016, 0.24099530279636383, -0.6330931611219057, -0.5221937579404425, -23.418509996392352, 9362.0, 41942.0, 35388.0, 9362.0, 8.17190170288086, 0.16189727187156677, 0.4083796441555023, 0.06407184898853302, -0.007824494503438473, -0.07109330594539642, 0.9982584118843079, -0.09049952775239944, -0.07543754577636719, 1.48974609375, 1.32421875, 0.024139404296875, 1.7783203125
52304, 4.876753330230713, -0.5752882957458496, -2.16945481300354, 0.055024370551109314, -0.6749873161315918, -35.71126174926758, 0.08603108674287796, -1.0676738023757935, -1.4560699462890625, 0.012847738340497017, 0.10514416545629501, 0.24099308252334595, -0.38171552453771485, -0.6260196668461049, -23.420492730498765, 9362.0, 41942.0, 35388.0, 9362.0, 8.17190170288086, 0.18445195257663727, -0.060283858329057693, -0.10886777192354202, -0.009210102260112762, -0.07068820297718048, 0.9969050884246826, -0.09049952775239944, -0.07543754577636719, 1.48974609375, 1.32421875, 0.024139404296875, 1.7783203125
52324, 4.877523899078369, -0.5748549103736877, -2.1706948280334473, 0.0585184283554554, -0.7183627486228943, -35.76954650878906, 0.08867554366588593, -1.1010911464691162, -1.458213210105896, 0.012831304222345352, 0.10508468747138977, 0.24105416238307953, -0.5905338107421179, -0.5645192553446634, -23.384884701704298, 9362.0, 41942.0, 35388.0, 9362.0, 8.17190170288086, 0.18445195257663727, -0.060283858329057693, -0.10886777192354202, -0.009942839853465557, -0.07028046250343323, 0.9971298575401306, -0.09049952775239944, -0.07543754577636719, 1.48974609375, 1.32421875, 0.024139404296875, 1.7783203125
52334, 4.876788139343262, -0.5746542811393738, -2.1705267429351807, 0.0585184283554554, -0.7183627486228943, -35.76954650878906, 0.08867554366588593, -1.1010911464691162, -1.458213210105896, 0.012835740111768246, 0.10508383810520172, 0.24105343222618103, -0.5901854571193172, -0.5992135483167829, -23.39621215239405, 9362.0, 41942.0, 35388.0, 9362.0, 8.152067184448242, 0.18445195257663727, -0.060283858329057693, -0.10886777192354202, -0.010016711428761482, -0.07032640278339386, 0.9961395263671875, -0.09049952775239944, -0.07543754577636719, 1.48974609375, 1.32421875, 0.024139404296875, 1.7783203125
52364, 4.87518835067749, -0.5728684067726135, -2.1732969284057617, 0.06120847910642624, -0.7517714500427246, -35.81332015991211, 0.09066056460142136, -1.1261388063430786, -1.4600951671600342, 0.012836102396249771, 0.10507449507713318, 0.24101723730564117, -0.575003980985928, -0.5437279145726279, -23.411413098133647, 9362.0, 41942.0, 35388.0, 9362.0, 8.17190170288086, -0.02431044727563858, 0.404374897480011, -0.12070649117231369, -0.009871098212897778, -0.07121314108371735, 0.9966335296630859, -0.08680174499750137, -0.1650371551513672, 1.482421875, 1.32421875, 0.024139404296875, 1.7783203125
52394, 4.874363899230957, -0.575660765171051, -2.1715896129608154, 0.06395784020423889, -0.7859306931495667, -35.85715866088867, 0.09263104200363159, -1.151152491569519, -1.462261438369751, 0.012838104739785194, 0.10508251190185547, 0.24106843769550323, -0.5225531455988767, -0.6572113690479, -23.398710825648767, 9362.0, 41942.0, 35388.0, 9362.0, 8.152067184448242, -0.0077748978510499, -0.09091120213270187, 0.057072196155786514, -0.008925926871597767, -0.06986193358898163, 0.9995596408843994, -0.08545002341270447, -0.11127853393554688, 1.48681640625, 1.32421875, 0.024139404296875, 1.8046875
52404, 4.874523639678955, -0.5746068358421326, -2.172351837158203, 0.06395784020423889, -0.7859306931495667, -35.85715866088867, 0.09263104200363159, -1.151152491569519, -1.462261438369751, 0.012857960537075996, 0.10507971048355103, 0.24105185270309448, -0.5459651770076039, -0.5640645663310693, -23.38928206463057, 9362.0, 41942.0, 35388.0, 9362.0, 8.152067184448242, -0.14561296999454498, -0.3927781581878662, -0.07508914172649384, -0.010964304208755493, -0.07273039221763611, 0.9981592297554016, -0.08545002341270447, -0.11127853393554688, 1.48681640625, 1.32421875, 0.024139404296875, 1.8046875
52444, 4.875836372375488, -0.5737777948379517, -2.1749448776245117, 0.06963478028774261, -0.8565033674240112, -35.94498825073242, 0.09660085290670395, -1.2012550830841064, -1.4656105041503906, 0.013330944813787937, 0.10533127188682556, 0.2398175746202469, -2.5883566307310453, 1.9743601688780075, -24.006150077207792, 9362.0, 41942.0, 35388.0, 9362.0, 8.152067184448242, 0.05533828213810921, -0.06481122225522995, -0.02538919448852539, -0.009349525906145573, -0.06736934930086136, 0.9977452754974365, 0.08674437552690506, -0.10231781005859375, 1.487548828125, 1.32421875, 0.024139404296875, 1.779052734375
52464, 4.878107070922852, -0.5757491588592529, -2.1764206886291504, 0.06963478028774261, -0.8565033674240112, -35.94498825073242, 0.09660085290670395, -1.2012550830841064, -1.4656105041503906, 0.012805667705833912, 0.10506191104650497, 0.2411022037267685, -0.4938152422201031, -0.6585762353530811, -23.381619628952873, 9362.0, 41942.0, 35388.0, 9362.0, 8.17190170288086, 0.04862445592880249, -0.0031439471058547497, 0.38529106974601746, -0.009455890394747257, -0.06778658926486969, 1.0003324747085571, 0.08674437552690506, -0.10231781005859375, 1.487548828125, 1.32421875, 0.024139404296875, 1.780517578125
52474, 4.879204273223877, -0.5747216939926147, -2.174389362335205, 0.06963478028774261, -0.8565033674240112, -35.94498825073242, 0.09660085290670395, -1.2012550830841064, -1.4656105041503906, 0.012855719774961472, 0.1051563173532486, 0.24099524319171906, -0.39702713115870014, -0.6366984514582157, -23.424433071020513, 9362.0, 41942.0, 35388.0, 9362.0, 8.17190170288086, 0.012438900768756866, -0.004144265316426754, 0.20418573915958405, -0.00957187358289957, -0.07024378329515457, 0.998979926109314, 0.08674437552690506, -0.10231781005859375, 1.487548828125, 1.32421875, 0.024139404296875, 1.78271484375
52484, 4.879648208618164, -0.5744194388389587, -2.173360824584961, 0.06963478028774261, -0.8565033674240112, -35.94498825073242, 0.09660085290670395, -1.2012550830841064, -1.4656105041503906, 0.01282400544732809, 0.10508698970079422, 0.24103474617004395, -0.5495249886057908, -0.6082702006692102, -23.38636694255617, 9362.0, 41942.0, 35388.0, 9362.0, 8.17190170288086, -0.1071782261133194, 0.29884523153305054, -0.004607456270605326, -0.010511902160942554, -0.0683157667517662, 0.9953015446662903, 0.08674437552690506, -0.10231781005859375, 1.487548828125, 1.32421875, 0.024139404296875, 1.78271484375
52544, 4.879870414733887, -0.5757315158843994, -2.17942476272583, 0.07757461071014404, -0.9552774429321289, -36.062416076660156, 0.10190077871084213, -1.2680836915969849, -1.4703093767166138, 0.012815860100090504, 0.10507471114397049, 0.2410273551940918, -0.5643167830791449, -0.5965205154390958, -23.388720086603712, 9362.0, 41942.0, 35388.0, 9362.0, 8.17190170288086, -0.09613262116909027, -0.1302647441625595, 0.056134533137083054, -0.007774263620376587, -0.06742846220731735, 0.996338963508606, 0.06792015582323074, -0.08439826965332031, 1.489013671875, 1.32421875, 0.024139404296875, 1.7783203125
52564, 4.879566192626953, -0.5724337697029114, -2.1793301105499268, 0.08170401304960251, -1.0066694021224976, -36.12127685546875, 0.10456298291683197, -1.3015080690383911, -1.4727470874786377, 0.012810816057026386, 0.10509166121482849, 0.24103319644927979, -0.5362408514535898, -0.6279610072306241, -23.39450703839545, 9362.0, 41942.0, 35388.0, 9362.0, 8.152067184448242, -0.20367644727230072, 0.22020463645458221, 0.2535196542739868, -0.009052709676325321, -0.07188940793275833, 0.9964695572853088, 0.06792015582323074, -0.08439826965332031, 1.489013671875, 1.32421875, 0.024139404296875, 1.7783203125
52584, 4.880670070648193, -0.5747408866882324, -2.178286075592041, 0.08170401304960251, -1.0066694021224976, -36.12127685546875, 0.10456298291683197, -1.3015080690383911, -1.4727470874786377, 0.01279947254806757, 0.10508619993925095, 0.24108293652534485, -0.4597725226041968, -0.7164610612301203, -23.375213010383924, 9362.0, 41942.0, 35388.0, 9362.0, 8.152067184448242, -0.20367644727230072, 0.22020463645458221, 0.2535196542739868, -0.011088469997048378, -0.0715738907456398, 0.9974204897880554, 0.06792015582323074, -0.08439826965332031, 1.489013671875, 1.32421875, 0.024139404296875, 1.78125
52594, 4.8806586265563965, -0.5752148032188416, -2.1771440505981445, 0.08170401304960251, -1.0066694021224976, -36.12127685546875, 0.10456298291683197, -1.3015080690383911, -1.4727470874786377, 0.01283678412437439, 0.10509717464447021, 0.24102742969989777, -0.5613296045066662, -0.5589797290218428, -23.40391879737895, 9362.0, 41942.0, 35388.0, 9362.0, 8.152067184448242, -0.030761659145355225, -0.5390177965164185, -0.11786216497421265, -0.009782047010958195, -0.0721237063407898, 0.9984593391418457, 0.06792015582323074, -0.08439826965332031, 1.489013671875, 1.32421875, 0.024139404296875, 1.78125
52614, 4.880791664123535, -0.5722101926803589, -2.1767454147338867, 0.08701454102993011, -1.0727883577346802, -36.19499969482422, 0.1078633964061737, -1.343277096748352, -1.4758585691452026, 0.012843184173107147, 0.10507378727197647, 0.24101467430591583, -0.5826598754467257, -0.6016483453823582, -23.415117953773624, 9362.0, 41942.0, 35388.0, 9362.0, 8.17190170288086, -0.09663190692663193, -0.007587389089167118, -0.14505435526371002, -0.009029633365571499, -0.07235544174909592, 0.996417224407196, 0.06792015582323074, -0.08439826965332031, 1.489013671875, 1.32421875, 0.024139404296875, 1.781982421875
52644, 4.881572723388672, -0.5706779956817627, -2.180231809616089, 0.09027999639511108, -1.1134628057479858, -36.23929977416992, 0.10983377695083618, -1.3683359622955322, -1.4778045415878296, 0.012796281836926937, 0.10508972406387329, 0.24104154109954834, -0.5130650383931943, -0.6096344665359368, -23.386143063532067, 9362.0, 41942.0, 35388.0, 9362.0, 8.152067184448242, -0.03651651367545128, -0.07124615460634232, -0.258976012468338, -0.010173723101615906, -0.07133783400058746, 0.9962209463119507, -0.06441161781549454, 0.09480094909667969, 1.503662109375, 1.32421875, 0.024139404296875, 1.781982421875
52654, 4.882303714752197, -0.5719246864318848, -2.1800644397735596, 0.09027999639511108, -1.1134628057479858, -36.23929977416992, 0.10983377695083618, -1.3683359622955322, -1.4778045415878296, 0.012846793979406357, 0.10508494079113007, 0.2410103976726532, -0.6606954104809314, -0.4893173474745254, -23.42556006768284, 9362.0, 41942.0, 35388.0, 9362.0, 8.17190170288086, -0.03651651367545128, -0.07124615460634232, -0.258976012468338, -0.00916503556072712, -0.07048576325178146, 0.9971849918365479, -0.06441161781549454, 0.09480094909667969, 1.503662109375, 1.32421875, 0.024139404296875, 1.77978515625
