timeTick, roll, pitch, yaw, stateX, stateY, stateZ, stateVX, stateVY, stateVZ, otX0, otY0, otZ0, otRoll0, otPitch0, otYaw0, left wing, pitch motor, yaw motor, right wing, voltage, roll rate, pitch rate, yaw rate, A_x, A_y, A_z, current, i_raw, v_raw, airflow_voltage, airflow_speed, pot_Pitch
325248, 0.014002127572894096, -0.046696554869413376, 0.004200122784823179, 0, 0, 0, 0, 0, 0, -0.0353681817650795, 0.1188705563545227, 0.23888656497001648, -1.622480793430729, -4.82143176633366, 12.284168510985635, 0, 0, 0, 0, 0, 0, 0, 0, 0, 0, 0, 0, 0, 0, 0, 0, 0
325258, 0.014385097660124302, -0.045494694262742996, 0.004145569168031216, 0.0009440568392165005, -0.00014694845594931394, -0.008692551404237747, 0.003355914494022727, -0.0005916226655244827, -0.021044975146651268, -0.035364098846912384, 0.11887506395578384, 0.23892004787921906, -1.5800499655953355, -4.692471019546588, 12.298409315063214, 9362.0, 20971.0, 35388.0, 9362.0, 7.973554611206055, -0.17876118421554565, 0.3179195821285248, 0.18871918320655823, 0, 0, 0, 0, 0, 0, 0, 0, 0
325268, 0.013451053760945797, -0.04799981042742729, 0.005946180783212185, 0.0009780146647244692, -0.00015298421203624457, -0.008904291316866875, 0.0034356636460870504, -0.0006155261071398854, -0.021302679553627968, -0.03565231338143349, 0.11888451874256134, 0.2379515916109085, -2.081293917198039, -6.963550779424878, 12.448710492367846, 9362.0, 20971.0, 35388.0, 9362.0, 7.973554611206055, -0.17543925344944, -0.04663041979074478, 0.0047557419165968895, 0.010308146476745605, -0.07607127726078033, 0.9969463348388672, -0.12821052968502045, -0.1291980743408203, 1.4853515625, 1.25390625, 0.1508331298828125, 1.2568359375
325278, 0.013133035972714424, -0.04775422811508179, 0.006257173139601946, 0.0010127596324309707, -0.00015926222840789706, -0.009118784219026566, 0.003513315226882696, -0.0006400789134204388, -0.021595584228634834, -0.03536330908536911, 0.11887365579605103, 0.23901990056037903, -1.5846048327717501, -4.330406217539235, 12.310590832747797, 9362.0, 20971.0, 35388.0, 9362.0, 7.973554611206055, 0.07496701180934906, 0.2553112208843231, 0.20849299430847168, 0.010529009625315666, -0.07587543874979019, 0.9967270493507385, -0.12276073545217514, -0.15607833862304688, 1.483154296875, 1.264892578125, 0.119354248046875, 1.259765625
325288, 0.013831781223416328, -0.04918189346790314, 0.006934548262506723, 0.0010483022779226303, -0.00016577774658799171, -0.009336387738585472, 0.0035952269099652767, -0.0006630248972214758, -0.02192477136850357, -0.035364970564842224, 0.11888419091701508, 0.23895984888076782, -1.6289773082572623, -4.363921862990736, 12.316104204968784, 9362.0, 20971.0, 35388.0, 9362.0, 7.973554611206055, 0.038510702550411224, 0.3912633955478668, 0.029073655605316162, 0.010622374713420868, -0.07581555843353271, 0.9955349564552307, -0.11784306913614273, -0.10231781005859375, 1.487548828125, 1.263427734375, 0.1233062744140625, 1.261962890625
325298, 0.013675249181687832, -0.051406364887952805, 0.006624847184866667, 0.001084661576896906, -0.00017251988174393773, -0.00955780316144228, 0.0036766212433576584, -0.0006853964296169579, -0.022357866168022156, -0.03536063805222511, 0.11888084560632706, 0.23894934356212616, -1.642332101790256, -4.369683483833285, 12.310046071019203, 9362.0, 20971.0, 35388.0, 9362.0, 7.973554611206055, 0.06751017272472382, -0.1835423707962036, -0.08052963763475418, 0.011842727661132812, -0.07646236568689346, 0.9973891377449036, -0.11157173663377762, -0.10231781005859375, 1.487548828125, 1.130126953125, 0.9273529052734375, 1.261962890625
325308, 0.014536420814692974, -0.051660966128110886, 0.0051179747097194195, 0.0011218476574867964, -0.0001794918644009158, -0.009782799519598484, 0.0037605776451528072, -0.0007090013241395354, -0.022641073912382126, -0.0353577584028244, 0.11886730790138245, 0.2389587163925171, -1.591845801696963, -4.51378975297672, 12.274552600586881, 9362.0, 20971.0, 35388.0, 9362.0, 7.973554611206055, 0.17567236721515656, 0.2999339699745178, 0.18711939454078674, 0.012050081044435501, -0.0770706906914711, 0.9985975027084351, -0.10838562995195389, -0.06647872924804688, 1.490478515625, 1.0869140625, 1.4374237060546875, 1.261962890625
325318, 0.015173142775893211, -0.052975837141275406, 0.005149354692548513, 0.0011598928831517696, -0.0001866987149696797, -0.010009977966547012, 0.003848457708954811, -0.0007323689060285687, -0.022794203832745552, -0.03564157336950302, 0.11889611184597015, 0.23799316585063934, -2.1187385221060477, -6.675624190236789, 12.411234609655164, 9362.0, 20971.0, 35388.0, 9362.0, 7.973554611206055, 0.052804991602897644, 0.1242012307047844, 0.08315402269363403, 0.011786800809204578, -0.07642751932144165, 0.9972695112228394, -0.10516968369483948, -0.11127853393554688, 1.48681640625, 1.147705078125, 0.7606201171875, 1.259033203125
325328, 0.014770970679819584, -0.05349184200167656, 0.005657862406224012, 0.0011988186743110418, -0.00019414653070271015, -0.010239031165838242, 0.003936706110835075, -0.000757190864533186, -0.023016028106212616, -0.03565468266606331, 0.11889655888080597, 0.23800230026245117, -2.0882637750850255, -6.646466416885488, 12.423554216410812, 9362.0, 20971.0, 35388.0, 9362.0, 7.973554611206055, -0.10287966579198837, -0.21129849553108215, 0.24622850120067596, 0.01235220581293106, -0.07552927732467651, 0.9961443543434143, -0.10537881404161453, -0.10231781005859375, 1.487548828125, 1.118408203125, 1.0510711669921875, 1.26123046875
325338, 0.014822451397776604, -0.052929263561964035, 0.007187085226178169, 0.0012386374874040484, -0.00020184778259135783, -0.010471097193658352, 0.004027056507766247, -0.0007830626564100385, -0.023396706208586693, -0.035658180713653564, 0.11887971311807632, 0.23794600367546082, -2.1099990907390813, -6.9596188183476215, 12.448301833129314, 9362.0, 20971.0, 35388.0, 9362.0, 7.973554611206055, 0.297277569770813, 0.2611352801322937, -0.1773664355278015, 0.012248660437762737, -0.07485487312078476, 0.9970446825027466, -0.1038099005818367, -0.11127853393554688, 1.48681640625, 1.103759765625, 1.2206573486328125, 1.257568359375
325348, 0.016550909727811813, -0.055404748767614365, 0.00611682515591383, 0.0012793645728379488, -0.00020980442059226334, -0.010706604458391666, 0.004118362441658974, -0.0008082619169726968, -0.02370443567633629, -0.035345207899808884, 0.11888566613197327, 0.23893886804580688, -1.6024271233771428, -4.605988749697929, 12.293689078728029, 9362.0, 20971.0, 35388.0, 9362.0, 7.973554611206055, 0.2275707721710205, -0.35937410593032837, -0.19826185703277588, 0.011653520166873932, -0.07658496499061584, 0.9976385831832886, -0.10251756757497787, -0.12023735046386719, 1.486083984375, 1.175537109375, 0.5392303466796875, 1.494873046875
325358, 0.017964283004403114, -0.052038952708244324, 0.004109999630600214, 0.0013210002798587084, -0.00021801359253004193, -0.010944744572043419, 0.004208777565509081, -0.000833567522931844, -0.023923099040985107, -0.03535499423742294, 0.11887921392917633, 0.23896729946136475, -1.585626343383436, -4.459937834363075, 12.279782275126896, 9362.0, 20971.0, 35388.0, 9362.0, 7.973554611206055, -0.1859280914068222, 0.11619427055120468, -0.11396055668592453, 0.009580462239682674, -0.07584517449140549, 0.9981852173805237, -0.2507939338684082, -3.6146230697631836, 1.200439453125, 1.207763671875, 0.341400146484375, 1.257568359375
325368, 0.017043914645910263, -0.05163583904504776, 0.00343602173961699, 0.0013635613722726703, -0.00022649060701951385, -0.011184987612068653, 0.004303458612412214, -0.0008618353749625385, -0.024125073105096817, -0.035656969994306564, 0.1188909113407135, 0.23794955015182495, -2.1072384034052, -6.906379669799776, 12.462637501401682, 9362.0, 20971.0, 35388.0, 9362.0, 7.973554611206055, 0.12606950104236603, -0.19057871401309967, 0.07272299379110336, 0.01148890145123005, -0.07522015273571014, 0.9955917000770569, -0.22090645134449005, -0.1291980743408203, 1.4853515625, 1.1689453125, 0.5872039794921875, 1.259033203125
325378, 0.01802225597202778, -0.051721714437007904, 0.005016765091568232, 0.0014070398174226284, -0.00023526213772129267, -0.011428098194301128, 0.004392224829643965, -0.0008924772846512496, -0.02449658513069153, -0.03536121919751167, 0.11888709664344788, 0.23897455632686615, -1.583188130622962, -4.386549560170124, 12.304957625163302, 9362.0, 20971.0, 35388.0, 9362.0, 7.973554611206055, -0.08897937834262848, 0.3789388835430145, 0.36351871490478516, 0.011925782077014446, -0.07520950585603714, 0.9956953525543213, -0.18949590623378754, -0.05751800537109375, 1.4912109375, 1.1396484375, 0.83428955078125, 1.259033203125
325388, 0.017273111268877983, -0.05477975681424141, 0.007559575606137514, 0.0014514022041112185, -0.00024433215730823576, -0.011675180867314339, 0.004480254836380482, -0.0009215184836648405, -0.02491956390440464, -0.035379085689783096, 0.1188768595457077, 0.238850936293602, -1.6299555427886987, -4.859218569527343, 12.282305422021503, 9362.0, 20971.0, 35388.0, 9362.0, 7.973554611206055, 0.012844557873904705, -0.12473338097333908, 0.12624657154083252, 0.012722082436084747, -0.07535708695650101, 0.9962993860244751, -0.16683152318000793, -0.08439826965332031, 1.489013671875, 1.2451171875, 0.1796875, 1.259033203125
325398, 0.017627140507102013, -0.05387464165687561, 0.009178005158901215, 0.0014966457383707166, -0.00025370094226673245, -0.011926388368010521, 0.004568430129438639, -0.0009522425825707614, -0.02532150410115719, -0.035640884190797806, 0.11887774616479874, 0.23795631527900696, -2.0917206618374515, -6.9521993543878295, 12.415617498507984, 9362.0, 20971.0, 35388.0, 9362.0, 7.973554611206055, -0.12183769047260284, -0.13070255517959595, -0.093009352684021, 0.009990335442125797, -0.07603948563337326, 0.9960634708404541, -0.20647677779197693, -0.08439826965332031, 1.489013671875, 1.2568359375, 0.1420135498046875, 1.257568359375
325408, 0.017025507986545563, -0.05257606878876686, 0.008509689010679722, 0.0015427970793098211, -0.0002633705735206604, -0.012181608937680721, 0.004661849699914455, -0.0009816787205636501, -0.025722213089466095, -0.03566858917474747, 0.11888688802719116, 0.2379116415977478, -2.132183123553026, -7.032674504963694, 12.42678084327233, 9362.0, 20971.0, 35388.0, 9362.0, 7.973554611206055, 0.018227841705083847, -0.42902031540870667, -0.0878983810544014, 0.010009427554905415, -0.07469271868467331, 0.9969884753227234, -0.18455593287944794, -0.08439826965332031, 1.489013671875, 1.263427734375, 0.1233062744140625, 1.2568359375
325418, 0.017116136848926544, -0.0505061075091362, 0.00878168549388647, 0.0015898753190413117, -0.0002733377041295171, -0.012440367601811886, 0.004753814544528723, -0.001011754386126995, -0.026029072701931, -0.03534414991736412, 0.1188703402876854, 0.23893079161643982, -1.6004146527514214, -4.610214695405858, 12.27728665190881, 9362.0, 20971.0, 35388.0, 9362.0, 7.973554611206055, -0.11792092025279999, -0.07418212294578552, -0.005971567705273628, 0.009878812357783318, -0.07492567598819733, 0.9971676468849182, -0.16384927928447723, -0.07543754577636719, 1.48974609375, 1.2626953125, 0.1252593994140625, 1.26123046875
325428, 0.016150346025824547, -0.051226139068603516, 0.009686234407126904, 0.0016378622967749834, -0.0002836005005519837, -0.01270208228379488, 0.004843588452786207, -0.0010408061789348722, -0.02631339244544506, -0.035677600651979446, 0.11889035999774933, 0.23787884414196014, -2.2049264946832703, -7.075879773726996, 12.457135656951921, 9362.0, 20971.0, 35388.0, 9362.0, 7.973554611206055, 0.09803148359060287, -0.014714229851961136, -0.13977615535259247, 0.010404698550701141, -0.07667998224496841, 0.9979727268218994, -0.15326158702373505, -0.09335899353027344, 1.48828125, 1.259033203125, 0.135589599609375, 1.25830078125
325438, 0.01613154262304306, -0.05236196145415306, 0.009966939687728882, 0.0016867297235876322, -0.0002941547136288136, -0.012966247275471687, 0.0049298834055662155, -0.0010700392303988338, -0.026519333943724632, -0.03564414381980896, 0.11888745427131653, 0.23798644542694092, -2.073487190270958, -6.909019933085261, 12.421494768147406, 9362.0, 20971.0, 35388.0, 9362.0, 7.973554611206055, -0.22330835461616516, -0.04313754290342331, 0.02722758986055851, 0.010387583635747433, -0.07622670382261276, 0.9975031614303589, -0.1418795883655548, -0.05751800537109375, 1.4912109375, 1.25830078125, 0.137664794921875, 1.257568359375
325448, 0.014906302094459534, -0.05272727087140083, 0.010148923844099045, 0.0017364659579470754, -0.00030499292188324034, -0.013232775963842869, 0.005017351359128952, -0.0010976007906720042, -0.02678610570728779, -0.03536418080329895, 0.11888129264116287, 0.23897898197174072, -1.5953947305230334, -4.251961613998844, 12.303619425111677, 9362.0, 20971.0, 35388.0, 9362.0, 7.973554611206055, 0.12117613106966019, -0.07606879621744156, -0.07025117427110672, 0.00941657554358244, -0.07543143630027771, 0.9963906407356262, -0.2000679224729538, -0.10231781005859375, 1.487548828125, 1.1220703125, 1.01129150390625, 1.26123046875
325458, 0.015437507070600986, -0.05181523412466049, 0.0098431296646595, 0.0017870862502604723, -0.0003161064814776182, -0.013502342626452446, 0.005106695462018251, -0.0011251160176470876, -0.027126828208565712, -0.035657718777656555, 0.11889917403459549, 0.23796994984149933, -2.104545561257211, -6.803780939707821, 12.424566455108279, 9362.0, 20971.0, 35388.0, 9362.0, 7.973554611206055, 0.07133848965167999, 0.3502419888973236, 0.028813112527132034, 0.010415744036436081, -0.07654979825019836, 0.9970643520355225, -0.17709743976593018, -0.09335899353027344, 1.48828125, 1.12646484375, 0.9649200439453125, 1.2568359375
325468, 0.0161175187677145, -0.05345224216580391, 0.009595226496458054, 0.0018386031733825803, -0.00032748476951383054, -0.013775193132460117, 0.005196692422032356, -0.0011505376314744353, -0.027442898601293564, -0.0356537364423275, 0.11889494210481644, 0.23799630999565125, -2.1268566645214197, -6.615728481938788, 12.441977678510407, 9362.0, 20971.0, 35388.0, 9362.0, 7.973554611206055, 0.029827458783984184, -0.12825974822044373, -0.23832109570503235, 0.010572326369583607, -0.07746853679418564, 0.9962912797927856, -0.15957902371883392, -0.05751800537109375, 1.4912109375, 1.135986328125, 0.8693389892578125, 1.259033203125
325478, 0.015811389312148094, -0.053263161331415176, 0.007802862673997879, 0.0018910123035311699, -0.00033912179060280323, -0.014051203615963459, 0.00528511730954051, -0.0011768653057515621, -0.027758758515119553, -0.03568131476640701, 0.11887270212173462, 0.23787431418895721, -2.159268776778876, -7.154424277744965, 12.441762421066967, 9362.0, 20971.0, 35388.0, 9362.0, 7.973554611206055, 0.11814437806606293, 0.028374210000038147, -0.10706976801156998, 0.010749735869467258, -0.0773283913731575, 0.9957926869392395, -0.14662358164787292, -0.10231781005859375, 1.487548828125, 1.13232421875, 0.9053192138671875, 1.2568359375
325488, 0.01579141803085804, -0.053488608449697495, 0.0070939031429588795, 0.001944319112226367, -0.0003510277601890266, -0.014330859296023846, 0.005376256071031094, -0.0012043346650898457, -0.028171902522444725, -0.035646531730890274, 0.1188860610127449, 0.2380237579345703, -2.092727834129958, -6.6852238899111, 12.424125764554281, 9362.0, 20971.0, 35388.0, 9362.0, 7.973554611206055, 0.1303064227104187, -0.11913856118917465, 0.09520389884710312, 0.009883667342364788, -0.0763828381896019, 0.9978798031806946, -0.13680212199687958, -0.05751800537109375, 1.4912109375, 1.1220703125, 1.01129150390625, 1.257568359375
325498, 0.015886439010500908, -0.0534631572663784, 0.007479929830878973, 0.0019985365215688944, -0.00036320602521300316, -0.014613905921578407, 0.005467207171022892, -0.0012313219485804439, -0.02843695878982544, -0.03536027669906616, 0.11887827515602112, 0.239003986120224, -1.615428211192031, -4.312059750704293, 12.289628885592904, 9362.0, 20971.0, 35388.0, 9362.0, 7.973554611206055, 0.0839044526219368, -0.1284874975681305, -0.004262610804289579, 0.010696899145841599, -0.07574384659528732, 0.9959719777107239, -0.12855321168899536, -0.05751800537109375, 1.4912109375, 1.118408203125, 1.0510711669921875, 1.260498046875
325508, 0.016210244968533516, -0.053647030144929886, 0.007458392530679703, 0.0020536647643893957, -0.00037565387901850045, -0.014900101348757744, 0.005558451637625694, -0.0012582464842125773, -0.028801679611206055, -0.035353586077690125, 0.11888387799263, 0.23893733322620392, -1.5741910366919558, -4.551602685226726, 12.275363960656977, 9362.0, 20971.0, 35388.0, 9362.0, 7.973554611206055, 0.07427418231964111, 0.1458515226840973, -0.15240584313869476, 0.012220910750329494, -0.07538806647062302, 0.9945281147956848, -0.12338276207447052, -0.11127853393554688, 1.48681640625, 1.133056640625, 0.8980560302734375, 1.25830078125
325518, 0.016503354534506798, -0.05571651831269264, 0.006150716915726662, 0.0021097047720104456, -0.00038837161264382303, -0.01519055850803852, 0.005649536848068237, -0.001285296748392284, -0.029289279133081436, -0.03537615388631821, 0.11886914819478989, 0.23893432319164276, -1.5890049165614712, -4.560836037276005, 12.290403095734717, 9362.0, 20971.0, 35388.0, 9362.0, 7.973554611206055, 0.04196818917989731, -0.17173336446285248, 0.08857464045286179, 0.011468320153653622, -0.07548106461763382, 0.999361515045166, -0.11906970292329788, -0.13815879821777344, 1.484619140625, 1.125, 0.980224609375, 1.2568359375
325528, 0.01664973795413971, -0.055248528718948364, 0.006032355595380068, 0.0021666588727384806, -0.0004013631260022521, -0.015484023839235306, 0.005741281900554895, -0.0013130088336765766, -0.02940334565937519, -0.035336703062057495, 0.11887284368276596, 0.2389524281024933, -1.6021773896792273, -4.3813660203016696, 12.278910751750258, 9362.0, 20971.0, 35388.0, 9362.0, 7.973554611206055, 0.07937869429588318, 0.03067103587090969, 0.18063047528266907, 0.011282781139016151, -0.07797084748744965, 0.9999712705612183, -0.11906970292329788, -0.13815879821777344, 1.484619140625, 1.125, 0.980224609375, 1.261962890625
325538, 0.01703912764787674, -0.055720992386341095, 0.006155380979180336, 0.0021666588727384806, -0.0004013631260022521, -0.015484023839235306, 0.005741281900554895, -0.0013130088336765766, -0.02940334565937519, -0.03539477288722992, 0.1188802495598793, 0.23882196843624115, -1.6513840177234016, -4.895576568550581, 12.284219114199935, 9362.0, 20971.0, 35388.0, 9362.0, 7.973554611206055, -0.04148494079709053, -0.6054654717445374, -0.11177396029233932, 0.011282781139016151, -0.07797084748744965, 0.9999712705612183, -0.11906970292329788, -0.13815879821777344, 1.484619140625, 1.125, 0.980224609375, 1.260498046875
325608, 0.018723517656326294, -0.04812517762184143, 0.009487356059253216, 0.0026553564239293337, -0.0005157608538866043, -0.017918197438120842, 0.006459174212068319, -0.0015510936500504613, -0.03156805410981178, -0.03536199405789375, 0.11888095736503601, 0.23889966309070587, -1.6053639204200167, -4.702835531609452, 12.287913577495038, 9362.0, 20971.0, 35388.0, 9362.0, 7.973554611206055, 0.006113605108112097, 0.29915928840637207, 0.020715847611427307, 0.011282781139016151, -0.07797084748744965, 0.9999712705612183, -0.11906970292329788, -0.13815879821777344, 1.484619140625, 1.124267578125, 0.9879302978515625, 1.257568359375
325618, 0.018384642899036407, -0.04961889237165451, 0.009836741723120213, 0.0027203522622585297, -0.0005314354202710092, -0.018234968185424805, 0.006540014408528805, -0.0015838206745684147, -0.031785815954208374, -0.03565878048539162, 0.11887907981872559, 0.23790930211544037, -2.1033887709146617, -7.167353316899181, 12.460057549576435, 9362.0, 20971.0, 35388.0, 9362.0, 7.973554611206055, 0.021571900695562363, -0.02366066165268421, -0.2448604255914688, 0.011282781139016151, -0.07797084748744965, 0.9999712705612183, -0.11906970292329788, -0.13815879821777344, 1.484619140625, 1.124267578125, 0.9879302978515625, 1.25390625
325628, 0.0182416420429945, -0.0487559549510479, 0.007397058419883251, 0.0027203522622585297, -0.0005314354202710092, -0.018234968185424805, 0.006540014408528805, -0.0015838206745684147, -0.031785815954208374, -0.03535298630595207, 0.11887019127607346, 0.23890136182308197, -1.5856731986267234, -4.744157713487368, 12.280210058924661, 9362.0, 20971.0, 35388.0, 9362.0, 7.973554611206055, -0.174703449010849, 0.06943423300981522, 0.24916309118270874, 0.011282781139016151, -0.07797084748744965, 0.9999712705612183, -0.11906970292329788, -0.13815879821777344, 1.484619140625, 1.124267578125, 0.9879302978515625, 1.25390625
325638, 0.017506536096334457, -0.04931465536355972, 0.008392740972340107, 0.0027203522622585297, -0.0005314354202710092, -0.018234968185424805, 0.006540014408528805, -0.0015838206745684147, -0.031785815954208374, -0.03536662086844444, 0.11887980997562408, 0.23891818523406982, -1.597222668065993, -4.652142491063017, 12.281324508329645, 9362.0, 20971.0, 35388.0, 9362.0, 7.973554611206055, -0.174703449010849, 0.06943423300981522, 0.24916309118270874, 0.011282781139016151, -0.07797084748744965, 0.9999712705612183, -0.11906970292329788, -0.13815879821777344, 1.484619140625, 1.124267578125, 0.9879302978515625, 1.259033203125
325648, 0.017013341188430786, -0.048534419387578964, 0.008101765997707844, 0.002920297672972083, -0.0005803766543976963, -0.019196663051843643, 0.006790273357182741, -0.001678336993791163, -0.03247043862938881, -0.035339243710041046, 0.1188516914844513, 0.23906157910823822, -1.5262629033059567, -4.266776836142725, 12.26147677130541, 9362.0, 20971.0, 35388.0, 9362.0, 7.973554611206055, 0.04585463926196098, 0.008112543262541294, 0.3354211747646332, 0.011282781139016151, -0.07797084748744965, 0.9999712705612183, -0.11906970292329788, -0.13815879821777344, 1.484619140625, 1.124267578125, 0.9879302978515625, 1.259765625
325658, 0.017215104773640633, -0.04923265427350998, 0.00954341795295477, 0.002988620661199093, -0.0005973090883344412, -0.019523728638887405, 0.006874313112348318, -0.0017081591067835689, -0.03294249624013901, -0.03565528616309166, 0.11889493465423584, 0.23797377943992615, -2.124208342195501, -6.746016887625387, 12.432491650573017, 9362.0, 20971.0, 35388.0, 9362.0, 7.973554611206055, 0.17287194728851318, 0.4067242741584778, -0.10455672442913055, 0.011282781139016151, -0.07797084748744965, 0.9999712705612183, -0.11906970292329788, -0.13815879821777344, 1.484619140625, 1.21435546875, 0.3079071044921875, 1.259765625
325688, 0.016936445608735085, -0.05095672607421875, 0.008517246693372726, 0.002988620661199093, -0.0005973090883344412, -0.019523728638887405, 0.006874313112348318, -0.0017081591067835689, -0.03294249624013901, -0.03536716476082802, 0.1188783198595047, 0.23893634974956512, -1.5599148475316242, -4.669926642978453, 12.282932834413685, 9362.0, 20971.0, 35388.0, 9362.0, 7.973554611206055, 0.08922766149044037, 0.25822848081588745, -0.18463142216205597, 0.011282781139016151, -0.07797084748744965, 0.9999712705612183, -0.11906970292329788, -0.13815879821777344, 1.484619140625, 1.102294921875, 1.23858642578125, 1.260498046875
325698, 0.017160460352897644, -0.05152644217014313, 0.0074351197108626366, 0.002988620661199093, -0.0005973090883344412, -0.019523728638887405, 0.006874313112348318, -0.0017081591067835689, -0.03294249624013901, -0.03565613180398941, 0.11888983100652695, 0.23797838389873505, -2.12575218403158, -6.9192117118041665, 12.428072251967638, 9362.0, 20971.0, 35388.0, 9362.0, 7.973554611206055, -0.09666548669338226, -0.09587190300226212, -0.06971147656440735, 0.011282781139016151, -0.07797084748744965, 0.9999712705612183, -0.11906970292329788, -0.13815879821777344, 1.484619140625, 1.0869140625, 1.4374237060546875, 1.260498046875
325708, 0.016783682629466057, -0.05079631134867668, 0.006504124961793423, 0.0033429281320422888, -0.0006864216993562877, -0.02122330851852894, 0.007302504498511553, -0.0018563518533483148, -0.035056643187999725, -0.03533117100596428, 0.11888321489095688, 0.23904496431350708, -1.5223120113977284, -4.420161972648543, 12.27495404043167, 9362.0, 20971.0, 35388.0, 9362.0, 7.973554611206055, -0.09666548669338226, -0.09587190300226212, -0.06971147656440735, 0.011282781139016151, -0.07797084748744965, 0.9999712705612183, -0.11906970292329788, -0.13815879821777344, 1.484619140625, 1.086181640625, 1.4473876953125, 1.260498046875
325718, 0.017841806635260582, -0.051181912422180176, 0.00648358603939414, 0.0033429281320422888, -0.0006864216993562877, -0.02122330851852894, 0.007302504498511553, -0.0018563518533483148, -0.035056643187999725, -0.03565440699458122, 0.11888191848993301, 0.23793520033359528, -2.137419813253345, -6.7610578536023525, 12.431170402357123, 9362.0, 20971.0, 35388.0, 9362.0, 7.973554611206055, -0.05214313045144081, -0.11107420921325684, -0.2777426242828369, 0.011282781139016151, -0.07797084748744965, 0.9999712705612183, -0.11906970292329788, -0.13815879821777344, 1.484619140625, 1.08837890625, 1.4176025390625, 1.254638671875
325728, 0.01742558367550373, -0.05073375254869461, 0.006224712822586298, 0.0033429281320422888, -0.0006864216993562877, -0.02122330851852894, 0.007302504498511553, -0.0018563518533483148, -0.035056643187999725, -0.03539072349667549, 0.11885901540517807, 0.2388318032026291, -1.6405224131226774, -4.927578258012744, 12.289070680906354, 9362.0, 20971.0, 35388.0, 9362.0, 7.973554611206055, 0.013783429749310017, 0.13374604284763336, -0.058640848845243454, 0.011282781139016151, -0.07797084748744965, 0.9999712705612183, -0.11906970292329788, -0.13815879821777344, 1.484619140625, 1.08837890625, 1.4176025390625, 1.257568359375
325738, 0.018177732825279236, -0.05157427862286568, 0.00658382149413228, 0.0033429281320422888, -0.0006864216993562877, -0.02122330851852894, 0.007302504498511553, -0.0018563518533483148, -0.035056643187999725, -0.03536093980073929, 0.1188664361834526, 0.23895852267742157, -1.5801490688840376, -4.563324275099575, 12.284859397171006, 9362.0, 20971.0, 35388.0, 9362.0, 7.973554611206055, 0.013783429749310017, 0.13374604284763336, -0.058640848845243454, 0.011282781139016151, -0.07797084748744965, 0.9999712705612183, -0.11906970292329788, -0.13815879821777344, 1.484619140625, 1.08837890625, 1.4176025390625, 1.259033203125
325748, 0.01805998384952545, -0.05240451171994209, 0.006610330194234848, 0.0033429281320422888, -0.0006864216993562877, -0.02122330851852894, 0.007302504498511553, -0.0018563518533483148, -0.035056643187999725, -0.035350024700164795, 0.11887405812740326, 0.2389572262763977, -1.6171971715700604, -4.502515003345593, 12.270787541374496, 9362.0, 20971.0, 35388.0, 9362.0, 7.973554611206055, 0.1350802481174469, 0.03422686457633972, 0.23806986212730408, 0.011282781139016151, -0.07797084748744965, 0.9999712705612183, -0.11906970292329788, -0.13815879821777344, 1.484619140625, 1.0869140625, 1.4374237060546875, 1.2626953125
325768, 0.019961467012763023, -0.05266226455569267, 0.007828312925994396, 0.0037968021351844072, -0.0008031280594877899, -0.023388056084513664, 0.007828492671251297, -0.002036226913332939, -0.037011194974184036, -0.03566674143075943, 0.11890658736228943, 0.23793721199035645, -2.0958204668518334, -6.886607079839081, 12.433718987956677, 9362.0, 20971.0, 35388.0, 9362.0, 7.973554611206055, -0.07270026206970215, 0.06605211645364761, 0.05506736785173416, 0.011282781139016151, -0.07797084748744965, 0.9999712705612183, -0.11906970292329788, -0.13815879821777344, 1.484619140625, 1.0869140625, 1.4374237060546875, 1.259765625
325778, 0.0194402989000082, -0.05291024595499039, 0.007592843845486641, 0.0037968021351844072, -0.0008031280594877899, -0.023388056084513664, 0.007828492671251297, -0.002036226913332939, -0.037011194974184036, -0.03536215052008629, 0.11887101829051971, 0.23891004920005798, -1.5855718593436658, -4.693433031457715, 12.275532738146651, 9362.0, 20971.0, 35388.0, 9362.0, 7.973554611206055, -0.07270026206970215, 0.06605211645364761, 0.05506736785173416, 0.011282781139016151, -0.07797084748744965, 0.9999712705612183, -0.11906970292329788, -0.13815879821777344, 1.484619140625, 1.08544921875, 1.4573974609375, 1.254638671875
325788, 0.01977613940834999, -0.05511193349957466, 0.009022058919072151, 0.003955153748393059, -0.0008445220883004367, -0.02413119003176689, 0.008007275871932507, -0.0021035883110016584, -0.0373380072414875, -0.03537006303668022, 0.11886435747146606, 0.23881562054157257, -1.6780479808898119, -4.813678384737841, 12.28977366422456, 9362.0, 20971.0, 35388.0, 9362.0, 7.973554611206055, 0.11253436654806137, 0.1475721299648285, -0.06733650714159012, 0.011282781139016151, -0.07797084748744965, 0.9999712705612183, -0.11906970292329788, -0.13815879821777344, 1.484619140625, 1.08544921875, 1.4573974609375, 1.259765625
325808, 0.020085200667381287, -0.055060744285583496, 0.006093968637287617, 0.004117126110941172, -0.0008872606558725238, -0.024882201105356216, 0.008191840723156929, -0.002170561347156763, -0.03775206580758095, -0.03566912189126015, 0.1188805028796196, 0.23789538443088531, -2.1308272827263703, -7.147945167647663, 12.431214302881203, 9362.0, 20971.0, 35388.0, 9362.0, 7.973554611206055, 0.11704140901565552, 0.16461078822612762, -0.41284096240997314, 0.011282781139016151, -0.07797084748744965, 0.9999712705612183, -0.11906970292329788, -0.13815879821777344, 1.484619140625, 1.087646484375, 1.4275054931640625, 1.257568359375
325828, 0.019342029467225075, -0.05566257983446121, 0.0068937200121581554, 0.004282845184206963, -0.0009313541231676936, -0.02564287558197975, 0.008379979059100151, -0.002238891553133726, -0.03832220658659935, -0.03538406640291214, 0.1188865378499031, 0.23883628845214844, -1.6375432205728497, -4.77526655218432, 12.297669679972072, 9362.0, 20971.0, 35388.0, 9362.0, 7.973554611206055, -0.1170448362827301, -0.04006083682179451, -0.06467517465353012, 0.011282781139016151, -0.07797084748744965, 0.9999712705612183, -0.11906970292329788, -0.13815879821777344, 1.484619140625, 1.08251953125, 1.497955322265625, 1.2568359375
325848, 0.020174017176032066, -0.053903672844171524, 0.004939775913953781, 0.004282845184206963, -0.0009313541231676936, -0.02564287558197975, 0.008379979059100151, -0.002238891553133726, -0.03832220658659935, -0.03566765785217285, 0.11888803541660309, 0.2378663271665573, -2.107035743913004, -7.109310795244824, 12.43455568873723, 9362.0, 20971.0, 35388.0, 9362.0, 7.973554611206055, -0.24138198792934418, -0.22549118101596832, 0.02641025185585022, 0.011282781139016151, -0.07797084748744965, 0.9999712705612183, -0.09941016882658005, -0.10231781005859375, 1.487548828125, 1.08251953125, 1.497955322265625, 1.257568359375
325858, 0.019168796017766, -0.05297672003507614, 0.004485816694796085, 0.004282845184206963, -0.0009313541231676936, -0.02564287558197975, 0.008379979059100151, -0.002238891553133726, -0.03832220658659935, -0.03534816578030586, 0.11887672543525696, 0.23900273442268372, -1.5298066851872807, -4.502925285711029, 12.278845919251287, 9362.0, 20971.0, 35388.0, 9362.0, 7.973554611206055, -0.021645845845341682, -0.0108247185125947, 0.12967143952846527, 0.011282781139016151, -0.07797084748744965, 0.9999712705612183, -0.09941016882658005, -0.10231781005859375, 1.487548828125, 1.08251953125, 1.497955322265625, 1.261962890625
325868, 0.019671045243740082, -0.053356971591711044, 0.00543245580047369, 0.004282845184206963, -0.0009313541231676936, -0.02564287558197975, 0.008379979059100151, -0.002238891553133726, -0.03832220658659935, -0.0356527715921402, 0.11890413612127304, 0.2380058765411377, -2.0913556771748123, -6.502273990924692, 12.457745220169695, 9362.0, 20971.0, 35388.0, 9362.0, 7.973554611206055, -0.2623296082019806, -0.40336599946022034, -0.06284844875335693, 0.011282781139016151, -0.07797084748744965, 0.9999712705612183, -0.09941016882658005, -0.10231781005859375, 1.487548828125, 1.08251953125, 1.497955322265625, 1.259033203125
325878, 0.01810470223426819, -0.04996455833315849, 0.00551657984033227, 0.004282845184206963, -0.0009313541231676936, -0.02564287558197975, 0.008379979059100151, -0.002238891553133726, -0.03832220658659935, -0.035660482943058014, 0.11888976395130157, 0.23791402578353882, -2.106288000225838, -7.021807599420896, 12.445942080289871, 9362.0, 20971.0, 35388.0, 9362.0, 7.973554611206055, 0.07850496470928192, 0.38556796312332153, -0.026679627597332, 0.011282781139016151, -0.07797084748744965, 0.9999712705612183, -0.09941016882658005, -0.10231781005859375, 1.487548828125, 1.08251953125, 1.497955322265625, 1.25830078125
325908, 0.020625924691557884, -0.05063203349709511, 0.0030415032524615526, 0.004983039107173681, -0.0011212175013497472, -0.028775470331311226, 0.009110474959015846, -0.002502530813217163, -0.040188513696193695, -0.03564915060997009, 0.11888672411441803, 0.2379986196756363, -2.1214090003894057, -6.76975870209381, 12.427243725015709, 9362.0, 20971.0, 35388.0, 9362.0, 7.973554611206055, -0.07597101479768753, -0.18306852877140045, 0.02616586536169052, 0.011282781139016151, -0.07797084748744965, 0.9999712705612183, -0.09941016882658005, -0.10231781005859375, 1.487548828125, 1.086181640625, 1.4473876953125, 1.2568359375
325958, 0.020907100290060043, -0.04733678698539734, 0.0023689474910497665, 0.005449217278510332, -0.001250559464097023, -0.030816759914159775, 0.009532115422189236, -0.002671567490324378, -0.04137523099780083, -0.03535261005163193, 0.11886587738990784, 0.2389477640390396, -1.5990544217239324, -4.553310377488657, 12.28923565786251, 9362.0, 20971.0, 35388.0, 9362.0, 7.973554611206055, -0.042657140642404556, -0.21171161532402039, 0.0035131999757140875, 0.011282781139016151, -0.07797084748744965, 0.9999712705612183, -0.09941016882658005, -0.10231781005859375, 1.487548828125, 1.0869140625, 1.4374237060546875, 1.260498046875
325968, 0.02018420211970806, -0.04593617096543312, 0.0017322787316516042, 0.005449217278510332, -0.001250559464097023, -0.030816759914159775, 0.009532115422189236, -0.002671567490324378, -0.04137523099780083, -0.03565412759780884, 0.11890029907226562, 0.2379196286201477, -2.151092704218072, -6.8143007777885884, 12.446321751404339, 9362.0, 20971.0, 35388.0, 9362.0, 7.973554611206055, 0.11931272596120834, 0.1985234022140503, 0.0672072321176529, 0.011282781139016151, -0.07797084748744965, 0.9999712705612183, -0.09941016882658005, -0.10231781005859375, 1.487548828125, 1.087646484375, 1.4275054931640625, 1.260498046875
325978, 0.021124055609107018, -0.04697560518980026, 0.0018594918074086308, 0.005641471594572067, -0.0013046847889199853, -0.031652357429265976, 0.009693349711596966, -0.002741590840741992, -0.04221957176923752, -0.035653918981552124, 0.11890378594398499, 0.23798756301403046, -2.1008642433912206, -6.806045465610424, 12.44535768058601, 9362.0, 20971.0, 35388.0, 9362.0, 7.973554611206055, -0.03654307872056961, 0.22881264984607697, 0.09017767757177353, 0.011282781139016151, -0.07797084748744965, 0.9999712705612183, -0.09941016882658005, -0.10231781005859375, 1.487548828125, 1.087646484375, 1.4275054931640625, 1.261962890625
325998, 0.02097165584564209, -0.04718996211886406, 0.0034289502073079348, 0.005641471594572067, -0.0013046847889199853, -0.031652357429265976, 0.009693349711596966, -0.002741590840741992, -0.04221957176923752, -0.035360146313905716, 0.1188788041472435, 0.2389010339975357, -1.6347428555523003, -4.542428061278315, 12.287090396535188, 9362.0, 20971.0, 35388.0, 9362.0, 7.973554611206055, 0.3280752897262573, 0.11944589763879776, -0.0425957627594471, 0.011282781139016151, -0.07797084748744965, 0.9999712705612183, -0.09941016882658005, -0.10231781005859375, 1.487548828125, 1.087646484375, 1.4275054931640625, 1.259033203125
326008, 0.021394144743680954, -0.04671533405780792, 0.0020572475623339415, 0.005641471594572067, -0.0013046847889199853, -0.031652357429265976, 0.009693349711596966, -0.002741590840741992, -0.04221957176923752, -0.035345904529094696, 0.1188642606139183, 0.238913893699646, -1.633349034720559, -4.5444376982250105, 12.306352129860052, 9362.0, 20971.0, 35388.0, 9362.0, 7.973554611206055, -0.0889182910323143, -0.15152226388454437, 0.0177244171500206, 0.011282781139016151, -0.07797084748744965, 0.9999712705612183, -0.09941016882658005, -0.10231781005859375, 1.487548828125, 1.083251953125, 1.487762451171875, 1.259033203125
326018, 0.02011970430612564, -0.044635821133852005, 0.0007347411010414362, 0.005641471594572067, -0.0013046847889199853, -0.031652357429265976, 0.009693349711596966, -0.002741590840741992, -0.04221957176923752, -0.03535944223403931, 0.11887729912996292, 0.23903220891952515, -1.5862718676250642, -4.231623388900829, 12.295803841165842, 9362.0, 20971.0, 35388.0, 9362.0, 7.973554611206055, 0.05196906253695488, -0.07062851637601852, -0.06722695380449295, 0.011282781139016151, -0.07797084748744965, 0.9999712705612183, -0.09941016882658005, -0.10231781005859375, 1.487548828125, 1.31103515625, 0.0355682373046875, 1.259033203125
326038, 0.02063407190144062, -0.04493790492415428, 0.001758121419698, 0.005641471594572067, -0.0013046847889199853, -0.031652357429265976, 0.009693349711596966, -0.002741590840741992, -0.04221957176923752, -0.03567780554294586, 0.11888448894023895, 0.23783451318740845, -2.169596121370877, -7.228942858408999, 12.442717999318358, 9362.0, 20971.0, 35388.0, 9362.0, 7.973554611206055, -0.21617573499679565, -0.2940039336681366, 0.09106054157018661, 0.011282781139016151, -0.07797084748744965, 0.9999712705612183, -0.09941016882658005, -0.10231781005859375, 1.487548828125, 1.31103515625, 0.0355682373046875, 1.2568359375
326048, 0.019838597625494003, -0.04181436076760292, 0.0029788739047944546, 0.005641471594572067, -0.0013046847889199853, -0.031652357429265976, 0.009693349711596966, -0.002741590840741992, -0.04221957176923752, -0.03536469489336014, 0.11886444687843323, 0.23889634013175964, -1.6058340363614703, -4.672555513347049, 12.301663140285086, 9362.0, 20971.0, 35388.0, 9362.0, 7.973554611206055, -0.21617573499679565, -0.2940039336681366, 0.09106054157018661, 0.011282781139016151, -0.07797084748744965, 0.9999712705612183, -0.09941016882658005, -0.10231781005859375, 1.487548828125, 1.31103515625, 0.0355682373046875, 1.25830078125
326068, 0.020451605319976807, -0.03934953734278679, 0.0024670620914548635, 0.005641471594572067, -0.0013046847889199853, -0.031652357429265976, 0.009693349711596966, -0.002741590840741992, -0.04221957176923752, -0.03566552698612213, 0.11890089511871338, 0.2379438281059265, -2.1255266737473897, -6.7883888716355045, 12.45154271975326, 9362.0, 20971.0, 35388.0, 9362.0, 7.973554611206055, -0.06913969665765762, -0.30902835726737976, -0.28673940896987915, 0.011282781139016151, -0.07797084748744965, 0.9999712705612183, -0.09941016882658005, -0.10231781005859375, 1.487548828125, 1.324951171875, 0.0236663818359375, 1.25830078125
326078, 0.020991509780287743, -0.03900840878486633, 0.005070904735475779, 0.005641471594572067, -0.0013046847889199853, -0.031652357429265976, 0.009693349711596966, -0.002741590840741992, -0.04221957176923752, -0.03537888079881668, 0.1188899353146553, 0.23887385427951813, -1.6017087386862878, -4.687241208131013, 12.302542513137617, 9362.0, 20971.0, 35388.0, 9362.0, 7.973554611206055, -0.11289653182029724, -0.29860037565231323, 0.041166409850120544, 0.011282781139016151, -0.07797084748744965, 0.9999712705612183, -0.09941016882658005, -0.10231781005859375, 1.487548828125, 1.324951171875, 0.0236663818359375, 1.25537109375
326088, 0.020967230200767517, -0.03716004639863968, 0.005572228692471981, 0.005641471594572067, -0.0013046847889199853, -0.031652357429265976, 0.009693349711596966, -0.002741590840741992, -0.04221957176923752, -0.035375818610191345, 0.11889318376779556, 0.2388717085123062, -1.6615972606652858, -4.551577562242898, 12.30516134820555, 9362.0, 20971.0, 35388.0, 9362.0, 7.973554611206055, -0.02389308251440525, 0.3716949224472046, -0.24688886106014252, 0.011282781139016151, -0.07797084748744965, 0.9999712705612183, -0.09941016882658005, -0.10231781005859375, 1.487548828125, 1.3125, 0.034027099609375, 1.25537109375
326098, 0.020820453763008118, -0.03889250382781029, 0.005387940909713507, 0.005641471594572067, -0.0013046847889199853, -0.031652357429265976, 0.009693349711596966, -0.002741590840741992, -0.04221957176923752, -0.035382285714149475, 0.1188751682639122, 0.2388273924589157, -1.6368795732631514, -4.914678763116996, 12.306502686366931, 9362.0, 20971.0, 35388.0, 9362.0, 7.973554611206055, -0.04814722388982773, -0.20093657076358795, 0.44718316197395325, 0.011282781139016151, -0.07797084748744965, 0.9999712705612183, -0.09941016882658005, -0.10231781005859375, 1.487548828125, 1.3125, 0.034027099609375, 1.260498046875
326108, 0.02102680876851082, -0.03922269865870476, 0.009079862385988235, 0.005641471594572067, -0.0013046847889199853, -0.031652357429265976, 0.009693349711596966, -0.002741590840741992, -0.04221957176923752, -0.035368263721466064, 0.1188783124089241, 0.23892708122730255, -1.6081115194592193, -4.473385282135098, 12.292603847512751, 9362.0, 20971.0, 35388.0, 9362.0, 7.973554611206055, 0.013321367092430592, 0.08071820437908173, -0.1930231899023056, 0.011282781139016151, -0.07797084748744965, 0.9999712705612183, -0.09941016882658005, -0.10231781005859375, 1.487548828125, 1.3125, 0.034027099609375, 1.26123046875
326118, 0.020759159699082375, -0.0402485691010952, 0.008005868643522263, 0.005641471594572067, -0.0013046847889199853, -0.031652357429265976, 0.009693349711596966, -0.002741590840741992, -0.04221957176923752, -0.03567236661911011, 0.11889072507619858, 0.23783047497272491, -2.1006468770630207, -7.2762679894670725, 12.427302231604012, 9362.0, 20971.0, 35388.0, 9362.0, 7.973554611206055, 0.2675866186618805, 0.13924404978752136, -0.2728952467441559, 0.011282781139016151, -0.07797084748744965, 0.9999712705612183, -0.09941016882658005, -0.10231781005859375, 1.487548828125, 1.3125, 0.034027099609375, 1.26123046875
326128, 0.021704338490962982, -0.039762191474437714, 0.005088172387331724, 0.005641471594572067, -0.0013046847889199853, -0.031652357429265976, 0.009693349711596966, -0.002741590840741992, -0.04221957176923752, -0.03566497564315796, 0.11890719830989838, 0.2379717379808426, -2.1415130406594494, -6.742326958508187, 12.442151644251615, 9362.0, 20971.0, 35388.0, 9362.0, 7.973554611206055, -0.1630381941795349, 0.07120078802108765, 0.1527050882577896, 0.011282781139016151, -0.07797084748744965, 0.9999712705612183, -0.09941016882658005, -0.10231781005859375, 1.487548828125, 1.3125, 0.034027099609375, 1.2568359375
326148, 0.020832976326346397, -0.039118312299251556, 0.005865104496479034, 0.007399001158773899, -0.0018219812773168087, -0.03924504294991493, 0.010930978693068027, -0.0033458115067332983, -0.04699325188994408, -0.03533899411559105, 0.11887338012456894, 0.23899997770786285, -1.5550316246956926, -4.42993887790692, 12.249531754091228, 9362.0, 20971.0, 35388.0, 9362.0, 7.973554611206055, 0.008112022653222084, -0.37263450026512146, -0.21665669977664948, 0.011282781139016151, -0.07797084748744965, 0.9999712705612183, -0.09941016882658005, -0.10231781005859375, 1.487548828125, 1.3125, 0.034027099609375, 1.2626953125
326168, 0.021358918398618698, -0.03919871523976326, 0.004751138389110565, 0.007618969306349754, -0.0018896027468144894, -0.04019007086753845, 0.011065436527132988, -0.0034165470860898495, -0.04749501124024391, -0.03565318137407303, 0.11889219284057617, 0.23796434700489044, -2.097027416359708, -6.728035345815073, 12.435334860002682, 9362.0, 20971.0, 35388.0, 9362.0, 7.973554611206055, -0.09432906657457352, 0.10820847004652023, -0.22712574899196625, 0.011282781139016151, -0.07797084748744965, 0.9999712705612183, -0.09941016882658005, -0.10231781005859375, 1.487548828125, 1.3125, 0.034027099609375, 1.251708984375
326198, 0.02161340042948723, -0.041831985116004944, 0.0034406534396111965, 0.007953916676342487, -0.001993719255551696, -0.041625332087278366, 0.011266722343862057, -0.0035245788749307394, -0.048376016318798065, -0.035667598247528076, 0.11888900399208069, 0.2379840761423111, -2.1355890412762943, -6.7090536964578575, 12.445066685180247, 9362.0, 20971.0, 35388.0, 9362.0, 7.973554611206055, 0.11163831502199173, -0.06084435060620308, -0.23956404626369476, 0.011282781139016151, -0.07797084748744965, 0.9999712705612183, -0.09941016882658005, -0.10231781005859375, 1.487548828125, 1.257568359375, 0.1398162841796875, 1.261962890625
326218, 0.024386156350374222, -0.03791305422782898, 0.000989048625342548, 0.008180646225810051, -0.0020649381913244724, -0.04260183870792389, 0.01140731293708086, -0.0035976541694253683, -0.04918598756194115, -0.035669662058353424, 0.11890272796154022, 0.23788633942604065, -2.13634307549083, -7.008731102246628, 12.446853360246541, 9362.0, 20971.0, 35388.0, 9362.0, 7.973554611206055, -0.17635776102542877, -0.14853815734386444, -0.17721034586429596, 0.011282781139016151, -0.07797084748744965, 0.9999712705612183, -0.09941016882658005, -0.10231781005859375, 1.487548828125, 1.257568359375, 0.1398162841796875, 1.2568359375
326228, 0.022848451510071754, -0.036690495908260345, 4.4888798583997414e-05, 0.008180646225810051, -0.0020649381913244724, -0.04260183870792389, 0.01140731293708086, -0.0035976541694253683, -0.04918598756194115, -0.035674963146448135, 0.11890005320310593, 0.23793742060661316, -2.151364434885622, -6.867763877895072, 12.44623681436428, 9362.0, 20971.0, 35388.0, 9362.0, 7.973554611206055, -0.17635776102542877, -0.14853815734386444, -0.17721034586429596, 0.011282781139016151, -0.07797084748744965, 0.9999712705612183, -0.09941016882658005, -0.10231781005859375, 1.487548828125, 1.257568359375, 0.1398162841796875, 1.260498046875
326238, 0.022569896653294563, -0.0378558374941349, 0.0007670973427593708, 0.008180646225810051, -0.0020649381913244724, -0.04260183870792389, 0.01140731293708086, -0.0035976541694253683, -0.04918598756194115, -0.035354580730199814, 0.11887535452842712, 0.23889818787574768, -1.5770541427242397, -4.8643865427578135, 12.273333500770805, 9362.0, 20971.0, 35388.0, 9362.0, 7.973554611206055, -0.17635776102542877, -0.14853815734386444, -0.17721034586429596, 0.011282781139016151, -0.07797084748744965, 0.9999712705612183, -0.09941016882658005, -0.10231781005859375, 1.487548828125, 1.257568359375, 0.1398162841796875, 1.25830078125
326258, 0.02204667031764984, -0.037857767194509506, 0.0026502821128815413, 0.008642232976853848, -0.0022120282519608736, -0.04459045082330704, 0.011668158695101738, -0.00375577574595809, -0.050437960773706436, -0.03569320961833, 0.11889352649450302, 0.2378499060869217, -2.2025310743558317, -7.02236591908769, 12.468124495301407, 9362.0, 20971.0, 35388.0, 9362.0, 7.973554611206055, 0.07350502163171768, 0.08278592675924301, 0.256560355424881, 0.011282781139016151, -0.07797084748744965, 0.9999712705612183, -0.09941016882658005, -0.10231781005859375, 1.487548828125, 1.142578125, 0.8070068359375, 1.257568359375
326288, 0.021524669602513313, -0.04135266691446304, 0.007613992318511009, 0.008642232976853848, -0.0022120282519608736, -0.04459045082330704, 0.011668158695101738, -0.00375577574595809, -0.050437960773706436, -0.03567864000797272, 0.11887834966182709, 0.23789602518081665, -2.1657779540454105, -6.991906897829182, 12.44770180989662, 9362.0, 20971.0, 35388.0, 9362.0, 7.973554611206055, 0.1790229082107544, -0.04614810645580292, 0.3125384747982025, 0.011282781139016151, -0.07797084748744965, 0.9999712705612183, -0.1740153729915619, -0.030637741088867188, 1.493408203125, 1.142578125, 0.8070068359375, 1.2568359375
326298, 0.021597888320684433, -0.041963543742895126, 0.009671582840383053, 0.008642232976853848, -0.0022120282519608736, -0.04459045082330704, 0.011668158695101738, -0.00375577574595809, -0.050437960773706436, -0.035661254078149796, 0.11888575553894043, 0.23792129755020142, -2.129740923240688, -6.855697568668319, 12.43434820147072, 9362.0, 20971.0, 35388.0, 9362.0, 7.973554611206055, 0.21658486127853394, 0.12409918755292892, -0.11323612183332443, 0.011282781139016151, -0.07797084748744965, 0.9999712705612183, -0.1740153729915619, -0.030637741088867188, 1.493408203125, 1.142578125, 0.8070068359375, 1.260498046875
326318, 0.023090722039341927, -0.04317259043455124, 0.010562417097389698, 0.009354082867503166, -0.0024442127905786037, -0.04768100753426552, 0.01207165140658617, -0.003982484806329012, -0.052152492105960846, -0.035672590136528015, 0.11888903379440308, 0.23786981403827667, -2.176000550603719, -7.076206775394212, 12.425292705387541, 9362.0, 20971.0, 35388.0, 9362.0, 7.973554611206055, 0.024920424446463585, 0.3953874409198761, -0.02392742969095707, 0.011282781139016151, -0.07797084748744965, 0.9999712705612183, -0.1740153729915619, -0.030637741088867188, 1.493408203125, 1.142578125, 0.8070068359375, 1.260498046875
326328, 0.02364710345864296, -0.04559343680739403, 0.009499607607722282, 0.009475158527493477, -0.0024842298589646816, -0.048203710466623306, 0.012143555097281933, -0.004020943306386471, -0.05238786339759827, -0.035360757261514664, 0.11887496709823608, 0.23887744545936584, -1.640414922208731, -4.705413765173176, 12.30383639149327, 9362.0, 20971.0, 35388.0, 9362.0, 7.973554611206055, -0.13324663043022156, 0.01996029168367386, 0.25938448309898376, 0.011282781139016151, -0.07797084748744965, 0.9999712705612183, -0.1740153729915619, -0.030637741088867188, 1.493408203125, 1.319091796875, 0.0279998779296875, 1.260498046875
326338, 0.022382736206054688, -0.045102737843990326, 0.011047140695154667, 0.009596962481737137, -0.002524635987356305, -0.04872971773147583, 0.012217139825224876, -0.0040602898225188255, -0.05281335860490799, -0.0356731042265892, 0.11888772249221802, 0.23794758319854736, -2.0730660489040753, -7.060289207020048, 12.432988661537426, 9362.0, 20971.0, 35388.0, 9362.0, 7.973554611206055, -0.21499133110046387, -0.046152979135513306, -0.16851963102817535, 0.011282781139016151, -0.07797084748744965, 0.9999712705612183, -0.1740153729915619, -0.030637741088867188, 1.493408203125, 1.319091796875, 0.0279998779296875, 1.259033203125
326378, 0.02045551687479019, -0.046810660511255264, 0.008201143704354763, 0.010091833770275116, -0.002690129680559039, -0.05086169391870499, 0.012525119818747044, -0.004208594094961882, -0.05378211662173271, -0.03565908968448639, 0.11891151964664459, 0.23796941339969635, -2.1534609734851786, -6.658309255484511, 12.446093206359409, 9362.0, 20971.0, 35388.0, 9362.0, 7.973554611206055, 0.15850375592708588, -0.15537825226783752, -0.3535054326057434, 0.011282781139016151, -0.07797084748744965, 0.9999712705612183, -0.1740153729915619, -0.030637741088867188, 1.493408203125, 1.12939453125, 0.9347991943359375, 1.259033203125
326388, 0.02118550054728985, -0.047692425549030304, 0.005873424466699362, 0.010217467322945595, -0.0027323905378580093, -0.051400650292634964, 0.012601638212800026, -0.004243592265993357, -0.05400862917304039, -0.03565286844968796, 0.11890362948179245, 0.23803231120109558, -2.0836522038428305, -6.549575204694833, 12.444802194310501, 9362.0, 20971.0, 35388.0, 9362.0, 7.973554611206055, 0.0491950698196888, 0.23532292246818542, 0.32853853702545166, 0.011282781139016151, -0.07797084748744965, 0.9999712705612183, -0.1740153729915619, -0.030637741088867188, 1.493408203125, 1.12939453125, 0.9347991943359375, 1.257568359375
326398, 0.0216488279402256, -0.05058673024177551, 0.009001302532851696, 0.010217467322945595, -0.0027323905378580093, -0.051400650292634964, 0.012601638212800026, -0.004243592265993357, -0.05400862917304039, -0.035667914897203445, 0.11887820810079575, 0.23787829279899597, -2.143468165423033, -7.052551615552915, 12.445131377601546, 9362.0, 20971.0, 35388.0, 9362.0, 7.973554611206055, -0.02594137005507946, 0.07195082306861877, 0.06826673448085785, 0.011282781139016151, -0.07797084748744965, 0.9999712705612183, -0.1740153729915619, -0.030637741088867188, 1.493408203125, 1.12939453125, 0.9347991943359375, 1.259033203125
326408, 0.021921221166849136, -0.052159685641527176, 0.010135523974895477, 0.010471107438206673, -0.002817967440932989, -0.05248461291193962, 0.01276309136301279, -0.0043147108517587185, -0.05442674830555916, -0.03536375239491463, 0.11886340379714966, 0.23889990150928497, -1.5718382746348927, -4.725840802235211, 12.268227289640139, 9362.0, 20971.0, 35388.0, 9362.0, 7.973554611206055, 0.025708738714456558, -0.1848890334367752, 0.03217320889234543, 0.011282781139016151, -0.07797084748744965, 0.9999712705612183, -0.1740153729915619, -0.030637741088867188, 1.493408203125, 1.12939453125, 0.9347991943359375, 1.2568359375
326428, 0.022397173568606377, -0.05221463367342949, 0.010971836745738983, 0.010728110559284687, -0.0029050030279904604, -0.05357843637466431, 0.012938492931425571, -0.004389056004583836, -0.05500722676515579, -0.035343289375305176, 0.11887368559837341, 0.23895719647407532, -1.5754842009031418, -4.468464495257166, 12.278884786058399, 9362.0, 20971.0, 35388.0, 9362.0, 7.973554611206055, -0.053171370178461075, 0.07865190505981445, 0.1084742322564125, 0.011282781139016151, -0.07797084748744965, 0.9999712705612183, -0.1740153729915619, -0.030637741088867188, 1.493408203125, 1.13232421875, 0.9053192138671875, 1.2568359375
326438, 0.02279089018702507, -0.05292387306690216, 0.010486723855137825, 0.010728110559284687, -0.0029050030279904604, -0.05357843637466431, 0.012938492931425571, -0.004389056004583836, -0.05500722676515579, -0.03567018359899521, 0.11888536065816879, 0.23790816962718964, -2.1352791559100917, -7.141841634326909, 12.432109342148195, 9362.0, 20971.0, 35388.0, 9362.0, 7.973554611206055, 0.15845215320587158, -0.3841208517551422, -0.10066192597150803, 0.011282781139016151, -0.07797084748744965, 0.9999712705612183, -0.1740153729915619, -0.030637741088867188, 1.493408203125, 1.13232421875, 0.9053192138671875, 1.259033203125
326448, 0.023702364414930344, -0.05024339631199837, 0.00891075935214758, 0.010988670401275158, -0.002993537811562419, -0.054684605449438095, 0.013117318041622639, -0.004464792087674141, -0.05556917190551758, -0.03536415100097656, 0.11887849122285843, 0.23892498016357422, -1.5998337643288314, -4.590611921755226, 12.28378377490639, 9362.0, 20971.0, 35388.0, 9362.0, 7.973554611206055, -0.10385732352733612, -0.33756715059280396, -0.10110416263341904, 0.011282781139016151, -0.07797084748744965, 0.9999712705612183, -0.1740153729915619, -0.030637741088867188, 1.493408203125, 1.121337890625, 1.0191802978515625, 1.259033203125
326458, 0.023042472079396248, -0.047593336552381516, 0.008256269618868828, 0.010988670401275158, -0.002993537811562419, -0.054684605449438095, 0.013117318041622639, -0.004464792087674141, -0.05556917190551758, -0.03567136079072952, 0.118879035115242, 0.23785103857517242, -2.152243050894196, -7.207592468531914, 12.447603050266572, 9362.0, 20971.0, 35388.0, 9362.0, 7.973554611206055, -0.10385732352733612, -0.33756715059280396, -0.10110416263341904, 0.011282781139016151, -0.07797084748744965, 0.9999712705612183, -0.1740153729915619, -0.030637741088867188, 1.493408203125, 1.121337890625, 1.0191802978515625, 1.2568359375
326498, 0.02206706814467907, -0.05149184539914131, 0.008828284218907356, 0.011520310305058956, -0.003175285877659917, -0.05693012848496437, 0.013458901084959507, -0.004622207023203373, -0.05671250447630882, -0.035654280334711075, 0.11889136582612991, 0.2379503846168518, -2.1113699228891485, -6.958397585335291, 12.438464827377844, 9362.0, 20971.0, 35388.0, 9362.0, 7.973554611206055, 0.2541474997997284, 0.23641864955425262, -0.12996727228164673, 0.011282781139016151, -0.07797084748744965, 0.9999712705612183, -0.1740153729915619, -0.030637741088867188, 1.493408203125, 1.333740234375, 0.0189361572265625, 1.259033203125
326508, 0.022152716293931007, -0.052343059331178665, 0.008407946676015854, 0.011520310305058956, -0.003175285877659917, -0.05693012848496437, 0.013458901084959507, -0.004622207023203373, -0.05671250447630882, -0.03563722223043442, 0.11888793855905533, 0.23796048760414124, -2.1336974254948826, -6.851691953256449, 12.433653278263284, 9362.0, 20971.0, 35388.0, 9362.0, 7.973554611206055, -0.03603780269622803, -0.2272295355796814, -0.1911841183900833, 0.011282781139016151, -0.07797084748744965, 0.9999712705612183, -0.1740153729915619, -0.030637741088867188, 1.493408203125, 1.333740234375, 0.0189361572265625, 1.259765625
326518, 0.02224467508494854, -0.05123018100857735, 0.007777317892760038, 0.011520310305058956, -0.003175285877659917, -0.05693012848496437, 0.013458901084959507, -0.004622207023203373, -0.05671250447630882, -0.03564491868019104, 0.11888661235570908, 0.23797330260276794, -2.09674186991693, -6.868729090407612, 12.417609466580174, 9362.0, 20971.0, 35388.0, 9362.0, 7.973554611206055, -0.03603780269622803, -0.2272295355796814, -0.1911841183900833, 0.011282781139016151, -0.07797084748744965, 0.9999712705612183, -0.1740153729915619, -0.030637741088867188, 1.493408203125, 1.333740234375, 0.0189361572265625, 1.261962890625
326528, 0.0209374837577343, -0.04964388906955719, 0.008053452707827091, 0.011520310305058956, -0.003175285877659917, -0.05693012848496437, 0.013458901084959507, -0.004622207023203373, -0.05671250447630882, -0.035353884100914, 0.11888757348060608, 0.2389436513185501, -1.608044789199205, -4.651914089748402, 12.273027272615733, 9362.0, 20971.0, 35388.0, 9362.0, 7.973554611206055, -0.19450844824314117, -0.4103659689426422, -0.021550053730607033, 0.011282781139016151, -0.07797084748744965, 0.9999712705612183, -0.1740153729915619, -0.030637741088867188, 1.493408203125, 1.333740234375, 0.0189361572265625, 1.261962890625
326598, 0.02201092429459095, -0.046618927270174026, 0.007524602580815554, 0.01234322041273117, -0.0034592722076922655, -0.06037759408354759, 0.013975430279970169, -0.004844204522669315, -0.05801747739315033, -0.03566660359501839, 0.1188906654715538, 0.23792290687561035, -2.169101083691697, -6.740706940705536, 12.432706019983096, 9362.0, 20971.0, 35388.0, 9362.0, 7.973554611206055, -0.15164263546466827, 0.20721572637557983, -0.17704564332962036, 0.011282781139016151, -0.07797084748744965, 0.9999712705612183, -0.1740153729915619, -0.030637741088867188, 1.493408203125, 1.13232421875, 0.9053192138671875, 1.257568359375
326618, 0.020658571273088455, -0.046727996319532394, 0.006490885745733976, 0.013340320438146591, -0.0038062171079218388, -0.06450517475605011, 0.014513806439936161, -0.005075789522379637, -0.060070451349020004, -0.03569497913122177, 0.11888213455677032, 0.237846240401268, -2.1578916824376524, -7.118812282253202, 12.454388714532564, 9362.0, 20971.0, 35388.0, 9362.0, 7.973554611206055, -0.047883015125989914, -0.03346606343984604, 0.0304989293217659, 0.011282781139016151, -0.07797084748744965, 0.9999712705612183, -0.1740153729915619, -0.030637741088867188, 1.493408203125, 1.125732421875, 0.9725341796875, 1.257568359375
326628, 0.020613612607121468, -0.045149996876716614, 0.004839895758777857, 0.013340320438146591, -0.0038062171079218388, -0.06450517475605011, 0.014513806439936161, -0.005075789522379637, -0.060070451349020004, -0.03538476303219795, 0.11888382583856583, 0.23887163400650024, -1.6388528673937277, -4.646910219864395, 12.299650207915533, 9362.0, 20971.0, 35388.0, 9362.0, 7.973554611206055, -0.05101388692855835, -0.033337268978357315, 0.04837518557906151, 0.011282781139016151, -0.07797084748744965, 0.9999712705612183, -0.1740153729915619, -0.030637741088867188, 1.493408203125, 1.125732421875, 0.9725341796875, 1.256103515625
326638, 0.020019613206386566, -0.044542353600263596, 0.005341161508113146, 0.013340320438146591, -0.0038062171079218388, -0.06450517475605011, 0.014513806439936161, -0.005075789522379637, -0.060070451349020004, -0.03537542372941971, 0.11888567358255386, 0.23888924717903137, -1.6497095089943767, -4.673727785629239, 12.30094405481379, 9362.0, 20971.0, 35388.0, 9362.0, 7.973554611206055, -0.17345303297042847, -0.11055696755647659, 0.08760052919387817, 0.011282781139016151, -0.07797084748744965, 0.9999712705612183, -0.1740153729915619, -0.030637741088867188, 1.493408203125, 1.125732421875, 0.9725341796875, 1.259765625
