timeTick, roll, pitch, yaw, stateX, stateY, stateZ, stateVX, stateVY, stateVZ, otX0, otY0, otZ0, otRoll0, otPitch0, otYaw0, left wing, pitch motor, yaw motor, right wing, voltage, roll rate, pitch rate, yaw rate, A_x, A_y, A_z, current, i_raw, v_raw, airflow_voltage, airflow_speed, pot_Pitch
24281, 1.467792272567749, -6.464854717254639, 1.4317272901535034, 0, 0, 0, 0, 0, 0, -0.018660778179764748, 0.11781854927539825, 0.24078023433685303, -1.5930838420714977, 3.3470974217235607, 0.9610476216645545, 0, 0, 0, 0, 0, 0, 0, 0, 0, 0, 0, 0, 0, 0, 0, 0, 0
24291, 1.4689435958862305, -6.464375019073486, 1.432944655418396, -0.00019593922479543835, 3.950987957068719e-05, -2.0898635387420654, 0.0012571377446874976, -0.0002514826483093202, -0.18515674769878387, -0.018683915957808495, 0.11784656345844269, 0.24084748327732086, -1.5674298903054222, 3.423701236865071, 1.0084415604240025, 9362.0, 27524.0, 35388.0, 9362.0, 8.013224601745605, -0.19221891462802887, 0.2135593742132187, 0.17697758972644806, 0, 0, 0, 0, 0, 0, 0, 0, 0
24301, 1.4687223434448242, -6.46772575378418, 1.433651089668274, -0.0001280814758501947, 2.5849016310530715e-05, -2.0917203426361084, 0.012314379215240479, -0.002480553463101387, -0.1861918568611145, -0.018666643649339676, 0.1178317666053772, 0.24075005948543549, -1.6514904076802517, 3.280548754043707, 0.9878830778520735, 9362.0, 27524.0, 35388.0, 9362.0, 8.013224601745605, 0.045685652643442154, 0.1937987357378006, 0.3942999243736267, 0.005771583877503872, -0.07700420171022415, 0.9972811937332153, -0.10086528956890106, -0.1291980743408203, 1.4853515625, 1.28173828125, 0.0802001953125, 1.4208984375
24311, 1.468232274055481, -6.468135833740234, 1.4354007244110107, 5.05078787682578e-05, -1.0125620974577032e-05, -2.0935862064361572, 0.023403557017445564, -0.004714030772447586, -0.18699757754802704, -0.018680278211832047, 0.11784060299396515, 0.24076779186725616, -1.6162855683238455, 3.3734681059705167, 0.9800961689143994, 9362.0, 27524.0, 35388.0, 9362.0, 8.013224601745605, 0.2832133173942566, -0.013378458097577095, 0.2697283923625946, 0.004311026073992252, -0.0745992660522461, 0.9977471232414246, -0.10061529278755188, -0.08439826965332031, 1.489013671875, 1.2744140625, 0.0959014892578125, 1.41650390625
24321, 1.4698235988616943, -6.468239784240723, 1.4377881288528442, 0.00033987429924309254, -6.840519927209243e-05, -2.095461368560791, 0.03446980193257332, -0.006941432133316994, -0.1880112886428833, -0.01866450160741806, 0.11782503873109818, 0.24075788259506226, -1.6327366493063176, 3.1630894080687995, 0.9520448513930246, 9362.0, 27524.0, 35388.0, 9362.0, 8.013224601745605, -0.09952051192522049, 0.2621009945869446, 0.04382111132144928, 0.003593430621549487, -0.07384436577558517, 0.9958377480506897, -0.09388887137174606, -0.10231781005859375, 1.487548828125, 1.27880859375, 0.086212158203125, 1.417236328125
24331, 1.470179796218872, -6.470503330230713, 1.4383022785186768, 0.000739903305657208, -0.00014896973152644932, -2.097346544265747, 0.045535966753959656, -0.009171376004815102, -0.18902814388275146, -0.01868569478392601, 0.11783013492822647, 0.24078238010406494, -1.5876566659039328, 3.4147981541435115, 0.9785215013848765, 9362.0, 27524.0, 35388.0, 9362.0, 8.013224601745605, 0.06471213698387146, 0.1453760266304016, -0.19877775013446808, 0.0037237023934721947, -0.07584924250841141, 0.9958985447883606, -0.0944385826587677, -0.08439826965332031, 1.489013671875, 1.278076171875, 0.087799072265625, 1.418701171875
24341, 1.4703490734100342, -6.47145414352417, 1.438387155532837, 0.001250590430572629, -0.00025183113757520914, -2.0992422103881836, 0.056601427495479584, -0.011400890536606312, -0.1900852620601654, -0.01865692064166069, 0.11782883107662201, 0.24086281657218933, -1.5776933448258674, 3.4846710185163374, 0.9741831404097313, 9362.0, 27524.0, 35388.0, 9362.0, 8.013224601745605, 0.08140344172716141, -0.3320505917072296, -0.31406790018081665, 0.002357146702706814, -0.07523389160633087, 0.9961863160133362, -0.09554361552000046, -0.10231781005859375, 1.487548828125, 1.275146484375, 0.09429931640625, 1.39013671875
24351, 1.4707597494125366, -6.471217632293701, 1.4365588426589966, 0.001871929969638586, -0.0003769868053495884, -2.1011483669281006, 0.0676664263010025, -0.013630597852170467, -0.19116036593914032, -0.01868041791021824, 0.1178140863776207, 0.2408541738986969, -1.5817043841218879, 3.5151135581613744, 0.9848497292817593, 9362.0, 27524.0, 35388.0, 9362.0, 8.013224601745605, 0.047746382653713226, -0.08948173373937607, 0.036463797092437744, 0.0043851519003510475, -0.07595624029636383, 0.9959121346473694, -0.09832139313220978, -0.1291980743408203, 1.4853515625, 1.2861328125, 0.0716094970703125, 1.418701171875
24361, 1.4710029363632202, -6.471936225891113, 1.4373230934143066, 0.0026039464864879847, -0.0005244507919996977, -2.103065013885498, 0.07873691618442535, -0.015862049534916878, -0.1921839863061905, -0.01865960657596588, 0.1178329586982727, 0.24080504477024078, -1.595596001280589, 3.4295627055407465, 0.9613108486052595, 9362.0, 27524.0, 35388.0, 9362.0, 8.013224601745605, 0.021638929843902588, 0.15128472447395325, 0.014235017821192741, 0.003311726963147521, -0.07422792911529541, 0.9956608414649963, -0.09532514959573746, -0.09335899353027344, 1.48828125, 1.272216796875, 0.1009979248046875, 1.415771484375
24371, 1.4710601568222046, -6.471551418304443, 1.436956763267517, 0.003446564543992281, -0.000694208312779665, -2.1049928665161133, 0.08978667855262756, -0.018089525401592255, -0.19340024888515472, -0.018652675673365593, 0.11783715337514877, 0.24092698097229004, -1.5647300873582564, 3.744986827029237, 0.975839741652909, 9362.0, 27524.0, 35388.0, 9362.0, 8.013224601745605, 0.0387379415333271, -0.035967860370874405, -0.060908447951078415, 0.004433369729667902, -0.07465292513370514, 0.9939896464347839, -0.09708395600318909, -0.14711761474609375, 1.48388671875, 1.28466796875, 0.07440185546875, 1.420166015625
24381, 1.4704515933990479, -6.471271991729736, 1.4349548816680908, 0.004399765748530626, -0.0008862594841048121, -2.1069321632385254, 0.10085351020097733, -0.020321089774370193, -0.19446028769016266, -0.018629299476742744, 0.11781705170869827, 0.24087291955947876, -1.5532884033643646, 3.517809616060248, 0.9344340847528352, 9362.0, 27524.0, 35388.0, 9362.0, 8.013224601745605, 0.1930999457836151, 0.07900970429182053, 0.08368347585201263, 0.004068759735673666, -0.0752357617020607, 0.9978380799293518, -0.09812337905168533, -0.09335899353027344, 1.48828125, 1.278076171875, 0.087799072265625, 1.417236328125
24391, 1.4707512855529785, -6.471410751342773, 1.4357796907424927, 0.0054637896828353405, -0.0011006547138094902, -2.1088807582855225, 0.1119513139128685, -0.02255781553685665, -0.19524450600147247, -0.0187124852091074, 0.11784153431653976, 0.24067462980747223, -1.6592690286534517, 3.1011572447178253, 1.0082049110807172, 9362.0, 27524.0, 35388.0, 9362.0, 8.013224601745605, 0.2102416455745697, 0.23793567717075348, -0.11249334365129471, 0.003178167389705777, -0.07561007887125015, 0.9984058141708374, -0.09020532667636871, -0.12023735046386719, 1.486083984375, 1.209228515625, 0.3337554931640625, 1.41943359375
24401, 1.4718830585479736, -6.472707748413086, 1.4333488941192627, 0.0066386195831000805, -0.001337383990176022, -2.1108386516571045, 0.12301450222730637, -0.0247885100543499, -0.19633378088474274, -0.018678797408938408, 0.11782754957675934, 0.2408335953950882, -1.6271800708718305, 3.31100514509464, 0.996888676319791, 9362.0, 27524.0, 35388.0, 9362.0, 8.013224601745605, -0.14050213992595673, 0.36642903089523315, -0.035652440041303635, 0.003129177261143923, -0.07436216622591019, 0.9941141605377197, -0.09411199390888214, -0.07543754577636719, 1.48974609375, 1.210693359375, 0.326202392578125, 1.417236328125
24411, 1.4717763662338257, -6.473898887634277, 1.4321353435516357, 0.007924094796180725, -0.0015964324120432138, -2.112807512283325, 0.13408039510250092, -0.027021411806344986, -0.19741883873939514, -0.01864670030772686, 0.11782672256231308, 0.24085639417171478, -1.5910683991265833, 3.528927166772661, 0.9559480925581986, 9362.0, 27524.0, 35388.0, 9362.0, 8.013224601745605, 0.3196432590484619, -0.14038822054862976, 0.25219815969467163, 0.005500466097146273, -0.0741715058684349, 0.9968027472496033, -0.09549851715564728, -0.11127853393554688, 1.48681640625, 1.263427734375, 0.1233062744140625, 1.417236328125
24421, 1.4731380939483643, -6.472061634063721, 1.434034824371338, 0.00932035967707634, -0.0018778343219310045, -2.114786148071289, 0.1451726108789444, -0.0292586050927639, -0.19829149544239044, -0.018662240356206894, 0.11783792078495026, 0.24084758758544922, -1.6104505727568537, 3.430779175625929, 0.9775178537347448, 9362.0, 27524.0, 35388.0, 9362.0, 8.013224601745605, 0.017466504126787186, -0.16934670507907867, 0.059012867510318756, 0.0033542481251060963, -0.07745233178138733, 0.9976043701171875, -0.10051088780164719, -0.12023735046386719, 1.486083984375, 1.278076171875, 0.087799072265625, 1.41650390625
24431, 1.4731367826461792, -6.469805717468262, 1.4343310594558716, 0.010827520862221718, -0.002181616146117449, -2.1167736053466797, 0.15625962615013123, -0.031497690826654434, -0.19918282330036163, -0.01865549385547638, 0.11783284693956375, 0.24103236198425293, -1.5133727102093764, 3.848479423319361, 0.9772320910891226, 9362.0, 27524.0, 35388.0, 9362.0, 8.013224601745605, 0.0270148403942585, -0.4932492673397064, 0.18450407683849335, 0.003992728888988495, -0.07653792202472687, 0.9983222484588623, -0.10195367783308029, -0.10231781005859375, 1.487548828125, 1.264892578125, 0.119354248046875, 1.41943359375
24441, 1.4729351997375488, -6.465949535369873, 1.4346287250518799, 0.012445549480617046, -0.0025077923201024532, -2.118769645690918, 0.1673460751771927, -0.03373746573925018, -0.2000446915626526, -0.018707504495978355, 0.1178341954946518, 0.24077197909355164, -1.6031424006756254, 3.308433776249302, 1.0161072285510626, 9362.0, 27524.0, 35388.0, 9362.0, 8.013224601745605, 0.07623281329870224, 0.10033098608255386, -0.24129845201969147, 0.003569619031623006, -0.07337511330842972, 0.996114194393158, -0.10211749374866486, -0.10231781005859375, 1.487548828125, 1.253173828125, 0.15313720703125, 1.415771484375
24451, 1.4732239246368408, -6.46518611907959, 1.4314041137695312, 0.014174222946166992, -0.0028563272207975388, -2.1207759380340576, 0.1783885806798935, -0.035970158874988556, -0.20123371481895447, -0.018667688593268394, 0.11785181611776352, 0.24085566401481628, -1.594792308817763, 3.415418706271595, 0.9850989495866359, 9362.0, 27524.0, 35388.0, 9362.0, 8.013224601745605, -0.06273926794528961, 0.10832564532756805, -0.04913448914885521, 0.003689632285386324, -0.07273681461811066, 0.9941638708114624, -0.10532417893409729, -0.09335899353027344, 1.48828125, 1.26416015625, 0.121337890625, 1.417236328125
24461, 1.4729324579238892, -6.465973377227783, 1.4322868585586548, 0.01601337641477585, -0.0032272073440253735, -2.122793674468994, 0.1894422322511673, -0.03820573166012764, -0.20231342315673828, -0.018686367198824883, 0.11785074323415756, 0.24100390076637268, -1.500531774116756, 3.786285339137237, 1.0170643092944975, 9362.0, 27524.0, 35388.0, 9362.0, 8.013224601745605, -0.012294415384531021, 0.17006637156009674, 0.14446423947811127, 0.004612280055880547, -0.0731390044093132, 0.9967494606971741, -0.10791642218828201, -0.1291980743408203, 1.4853515625, 1.2626953125, 0.1252593994140625, 1.418701171875
24471, 1.4730497598648071, -6.467460632324219, 1.4322437047958374, 0.017963122576475143, -0.003620449686422944, -2.124821662902832, 0.2005070149898529, -0.04044274613261223, -0.2033073753118515, -0.018668530508875847, 0.11783472448587418, 0.2408691644668579, -1.566385421116851, 3.4918216849056307, 0.9815733888647528, 9362.0, 27524.0, 35388.0, 9362.0, 8.013224601745605, 0.06463875621557236, 0.20443759858608246, 0.24786873161792755, 0.00364898843690753, -0.07550140470266342, 0.9960552453994751, -0.10965294390916824, -0.14711761474609375, 1.48388671875, 1.257568359375, 0.1398162841796875, 1.38720703125
24481, 1.473557472229004, -6.4686598777771, 1.4333806037902832, 0.02002354897558689, -0.0040360670536756516, -2.126859426498413, 0.21157826483249664, -0.04268047958612442, -0.20426754653453827, -0.018682848662137985, 0.11785101890563965, 0.24089884757995605, -1.5403285375578049, 3.5868183269434155, 0.997407930865617, 9362.0, 27524.0, 35388.0, 9362.0, 8.013224601745605, -0.0966920256614685, 0.20491932332515717, 0.0442059226334095, 0.003738625207915902, -0.07494383305311203, 0.997806966304779, -0.09823025017976761, -0.05751800537109375, 1.4912109375, 1.254638671875, 0.1486053466796875, 1.415771484375
24491, 1.4735305309295654, -6.471004486083984, 1.435880422592163, 0.022194787859916687, -0.004474082961678505, -2.128906011581421, 0.22266976535320282, -0.04492221027612686, -0.20506899058818817, -0.018659323453903198, 0.11782395839691162, 0.24086003005504608, -1.5663046510742893, 3.4417088923146935, 0.9754402664094455, 9362.0, 27524.0, 35388.0, 9362.0, 8.013224601745605, 0.2482687085866928, 0.11591923981904984, -0.11861680448055267, 0.0037166208494454622, -0.0732908695936203, 0.9981863498687744, -0.09356124699115753, -0.09335899353027344, 1.48828125, 1.2509765625, 0.1600799560546875, 1.41796875
24501, 1.473948359489441, -6.470110893249512, 1.4335825443267822, 0.02447693422436714, -0.004934506956487894, -2.1309609413146973, 0.23375935852527618, -0.04716304689645767, -0.20592153072357178, -0.0186688881367445, 0.11783929914236069, 0.24086527526378632, -1.5515158332568488, 3.535838675966204, 0.9975998267422787, 9362.0, 27524.0, 35388.0, 9362.0, 8.013224601745605, 0.051799874752759933, 0.44819197058677673, 0.08992055803537369, 0.005059493239969015, -0.07426412403583527, 0.9974413514137268, -0.09608826786279678, -0.12023735046386719, 1.486083984375, 1.31396484375, 0.0325469970703125, 1.4208984375
24511, 1.4749430418014526, -6.474633693695068, 1.434687614440918, 0.026869822293519974, -0.0054173157550394535, -2.133025646209717, 0.24481812119483948, -0.049398522824048996, -0.20703159272670746, -0.018659865483641624, 0.11782604455947876, 0.24088716506958008, -1.555846505148999, 3.511353517733511, 0.962276480875177, 9362.0, 27524.0, 35388.0, 9362.0, 8.013224601745605, -0.022383177652955055, 0.3690047860145569, 0.3116343319416046, 0.004218283109366894, -0.07395615428686142, 0.993602454662323, -0.10104220360517502, -0.11127853393554688, 1.48681640625, 1.3212890625, 0.026214599609375, 1.418701171875
24521, 1.4753644466400146, -6.47641658782959, 1.4371789693832397, 0.02937329187989235, -0.005922476761043072, -2.135101795196533, 0.25587597489356995, -0.051633238792419434, -0.2082190364599228, -0.018648704513907433, 0.11784907430410385, 0.2408677041530609, -1.5579476109690569, 3.5010351373155686, 0.9569603390582956, 9362.0, 27524.0, 35388.0, 9362.0, 8.013224601745605, -0.074940524995327, 0.20496827363967896, 0.06594300270080566, 0.0050197262316942215, -0.07283554971218109, 0.9954847097396851, -0.12507645785808563, -0.13815879821777344, 1.484619140625, 1.279541015625, 0.0847015380859375, 1.417236328125
24531, 1.475027322769165, -6.4773736000061035, 1.4372551441192627, 0.031987402588129044, -0.0064499955624341965, -2.1371893882751465, 0.26694637537002563, -0.05387049540877342, -0.20932312309741974, -0.018678881227970123, 0.11782464385032654, 0.24084512889385223, -1.6124899003528406, 3.4394522629085884, 0.9684856186447608, 9362.0, 27524.0, 35388.0, 9362.0, 8.013224601745605, 0.16137312352657318, 0.19259822368621826, 0.25984519720077515, 0.0047387778759002686, -0.07409349083900452, 0.9955928921699524, -0.11199209094047546, -0.12023735046386719, 1.486083984375, 1.281005859375, 0.0816650390625, 1.39892578125
24541, 1.4743226766586304, -6.477613925933838, 1.438621997833252, 0.0347122997045517, -0.006999898701906204, -2.1392874717712402, 0.27803319692611694, -0.05610986426472664, -0.2102982997894287, -0.018675554543733597, 0.1178143173456192, 0.2409859150648117, -1.507641997829773, 3.8440301843383224, 1.0084279828289844, 9362.0, 27524.0, 35388.0, 9362.0, 8.013224601745605, 0.12575404345989227, 0.2054332047700882, -0.5504566431045532, 0.0032861437648534775, -0.07243118435144424, 0.9964393973350525, -0.10697638243436813, -0.05751800537109375, 1.4912109375, 1.285400390625, 0.0730438232421875, 1.417236328125
24551, 1.4750663042068481, -6.48017692565918, 1.4356281757354736, 0.037548042833805084, -0.007572182919830084, -2.1413955688476562, 0.2891152799129486, -0.05834759771823883, -0.21131737530231476, -0.01863577775657177, 0.11782222241163254, 0.2408798784017563, -1.5622413001590671, 3.4327591222008778, 0.9433034198934667, 9362.0, 27524.0, 35388.0, 9362.0, 8.013224601745605, -0.02987601049244404, 0.6167017817497253, 0.2006492018699646, 0.002856481121852994, -0.07302943617105484, 0.9963948726654053, -0.1056254580616951, -0.10231781005859375, 1.487548828125, 1.282470703125, 0.0786590576171875, 1.41943359375
24561, 1.4763070344924927, -6.483679294586182, 1.4360721111297607, 0.04049457982182503, -0.008166843093931675, -2.1435141563415527, 0.3001919984817505, -0.0605844222009182, -0.21242259442806244, -0.01866551674902439, 0.11783698946237564, 0.24092257022857666, -1.519150729414686, 3.683002728823965, 0.9817845488729617, 9362.0, 27524.0, 35388.0, 9362.0, 8.013224601745605, -0.003960035275667906, -0.2268398404121399, -0.16642576456069946, 0.0028399829752743244, -0.07507425546646118, 0.9952638745307922, -0.1038302332162857, -0.12023735046386719, 1.486083984375, 1.27880859375, 0.086212158203125, 1.417236328125
24611, 1.4752612113952637, -6.480956554412842, 1.4330328702926636, 0.04355192184448242, -0.008783883415162563, -2.145643711090088, 0.31127673387527466, -0.0628238171339035, -0.21351036429405212, -0.018674975261092186, 0.1178288534283638, 0.24081003665924072, -1.599073404621278, 3.400281135392106, 0.9764829555709365, 9362.0, 27524.0, 35388.0, 9362.0, 8.013224601745605, -0.13684499263763428, 0.20631936192512512, 0.04776335880160332, 0.004932477604597807, -0.07503563165664673, 0.9969184994697571, -0.10049907118082047, -0.09335899353027344, 1.48828125, 1.271484375, 0.1027679443359375, 1.41943359375
24641, 1.476049542427063, -6.485647201538086, 1.431403398513794, 0.06460433453321457, -0.013033312745392323, -2.158848285675049, 0.37897607684135437, -0.07650209218263626, -0.21932807564735413, -0.01865728199481964, 0.11782783269882202, 0.24082595109939575, -1.6017197014014748, 3.3796707657069476, 0.9472590525590593, 9362.0, 27524.0, 35388.0, 9362.0, 8.013224601745605, -0.06589541584253311, -0.31029635667800903, -0.07041192799806595, 0.005744851194322109, -0.0743599385023117, 0.9969174861907959, -0.09250125288963318, -0.13815879821777344, 1.484619140625, 1.20849609375, 0.3375701904296875, 1.41943359375
24681, 1.4763363599777222, -6.487346172332764, 1.4260960817337036, 0.08065178990364075, -0.016272876411676407, -2.1676976680755615, 0.4234035909175873, -0.08547677099704742, -0.22309239208698273, -0.01869155652821064, 0.11784511059522629, 0.24102318286895752, -1.496204092308744, 3.9667707916846098, 1.028596840209521, 9362.0, 27524.0, 35388.0, 9362.0, 8.013224601745605, 0.14122724533081055, 0.09739271551370621, -0.15543094277381897, 0.004359399899840355, -0.07322345674037933, 0.9958727359771729, -0.09742254763841629, -0.09335899353027344, 1.48828125, 1.285400390625, 0.0730438232421875, 1.418701171875
24701, 1.476015567779541, -6.4881062507629395, 1.4220893383026123, 0.08934181183576584, -0.01802724227309227, -2.172179937362671, 0.44559037685394287, -0.08995947986841202, -0.2252112776041031, -0.018684396520256996, 0.11783596873283386, 0.24075612425804138, -1.65223887652296, 3.2397132861230205, 0.9997579990034627, 9362.0, 27524.0, 35388.0, 9362.0, 8.013224601745605, -0.09058494120836258, 0.28855282068252563, -0.16401837766170502, 0.004359399899840355, -0.07322345674037933, 0.9958727359771729, -0.10129430145025253, -0.09335899353027344, 1.48828125, 1.276611328125, 0.0910186767578125, 1.418701171875
24711, 1.475587010383606, -6.490511417388916, 1.4210113286972046, 0.09847551584243774, -0.0198713019490242, -2.1767051219940186, 0.4677828252315521, -0.09444619715213776, -0.22730912268161774, -0.018649792298674583, 0.11782020330429077, 0.24093852937221527, -1.5651495153777715, 3.705494821740899, 0.959471191215042, 9362.0, 27524.0, 35388.0, 9362.0, 8.013224601745605, -0.09058494120836258, 0.28855282068252563, -0.16401837766170502, 0.004359399899840355, -0.07322345674037933, 0.9958727359771729, -0.10129430145025253, -0.09335899353027344, 1.48828125, 1.281005859375, 0.0816650390625, 1.41796875
24721, 1.4754176139831543, -6.490499019622803, 1.4196439981460571, 0.10320891439914703, -0.02082698605954647, -2.178982734680176, 0.4788970649242401, -0.0966908261179924, -0.22823457419872284, -0.018668536096811295, 0.11783641576766968, 0.2409147173166275, -1.5298331960737304, 3.5677033525721527, 1.0079817840560334, 9362.0, 27524.0, 35388.0, 9362.0, 8.013224601745605, -0.09058494120836258, 0.28855282068252563, -0.16401837766170502, 0.004359399899840355, -0.07322345674037933, 0.9958727359771729, -0.10021033883094788, -0.07543754577636719, 1.48974609375, 1.281005859375, 0.0816650390625, 1.41796875
24751, 1.476860523223877, -6.491734981536865, 1.4189523458480835, 0.11807548999786377, -0.02382866106927395, -2.185875654220581, 0.5122154355049133, -0.10342336446046829, -0.23124560713768005, -0.01867658458650112, 0.11782970279455185, 0.2407301664352417, -1.671036907593351, 3.211532534145647, 0.9900838721844829, 9362.0, 27524.0, 35388.0, 9362.0, 8.013224601745605, -0.09058494120836258, 0.28855282068252563, -0.16401837766170502, 0.0018849271582439542, -0.07496558874845505, 0.9963632822036743, -0.1040443629026413, -0.15607833862304688, 1.483154296875, 1.260498046875, 0.1313934326171875, 1.3857421875
24761, 1.4761320352554321, -6.493272304534912, 1.4196091890335083, 0.12325309216976166, -0.02487410232424736, -2.1881940364837646, 0.5233045220375061, -0.10566463321447372, -0.2324097901582718, -0.018671417608857155, 0.11782348155975342, 0.24095596373081207, -1.5389770579306952, 3.8183892524782266, 1.0208791519844147, 9362.0, 27524.0, 35388.0, 9362.0, 8.013224601745605, -0.09058494120836258, 0.28855282068252563, -0.16401837766170502, 0.0018849271582439542, -0.07496558874845505, 0.9963632822036743, -0.1040443629026413, -0.15607833862304688, 1.483154296875, 1.317626953125, 0.0291900634765625, 1.41796875
24861, 1.4769023656845093, -6.493252277374268, 1.4156635999679565, 0.18113264441490173, -0.03656132146716118, -2.2119851112365723, 0.6343792676925659, -0.12810343503952026, -0.24257437884807587, -0.01866302452981472, 0.11782437562942505, 0.24086357653141022, -1.5561582434712349, 3.4977359578134326, 0.9584778263224404, 9362.0, 27524.0, 35388.0, 9362.0, 8.013224601745605, 0.008970946073532104, 0.0735403299331665, -0.35912060737609863, 0.002882909495383501, -0.07415572553873062, 0.9974738955497742, -0.08689959347248077, -0.05751800537109375, 1.4912109375, 1.2041015625, 0.3609771728515625, 1.420166015625
24871, 1.4766018390655518, -6.492703914642334, 1.414611577987671, 0.18113264441490173, -0.03656132146716118, -2.2119851112365723, 0.6343792676925659, -0.12810343503952026, -0.24257437884807587, -0.018702903762459755, 0.1178380623459816, 0.24096113443374634, -1.5165116862568637, 3.7351856583336485, 1.0131646158211038, 9362.0, 27524.0, 35388.0, 9362.0, 8.013224601745605, 0.008970946073532104, 0.0735403299331665, -0.35912060737609863, 0.002882909495383501, -0.07415572553873062, 0.9974738955497742, -0.08650895208120346, -0.06647872924804688, 1.490478515625, 1.2041015625, 0.3609771728515625, 1.417236328125
24891, 1.4759817123413086, -6.495609760284424, 1.4148701429367065, 0.19404254853725433, -0.039168331772089005, -2.216855525970459, 0.6566095352172852, -0.13259689509868622, -0.24448345601558685, -0.018682332709431648, 0.11785358935594559, 0.24083365499973297, -1.6118251275395832, 3.4229045861475242, 1.0087692462071745, 9362.0, 27524.0, 35388.0, 9362.0, 8.013224601745605, 0.008970946073532104, 0.0735403299331665, -0.35912060737609863, 0.004919075407087803, -0.07501605153083801, 0.9980475306510925, -0.08419980108737946, -0.1291980743408203, 1.4853515625, 1.2099609375, 0.329986572265625, 1.450927734375
24901, 1.4767159223556519, -6.49948787689209, 1.4178588390350342, 0.19404254853725433, -0.039168331772089005, -2.216855525970459, 0.6566095352172852, -0.13259689509868622, -0.24448345601558685, -0.018683940172195435, 0.11784671992063522, 0.2407996952533722, -1.5713629169831689, 3.29468325254183, 1.0082265315072125, 9362.0, 27524.0, 35388.0, 9362.0, 8.013224601745605, 0.008970946073532104, 0.0735403299331665, -0.35912060737609863, 0.005600477568805218, -0.0728682279586792, 0.9981886744499207, -0.08419980108737946, -0.1291980743408203, 1.4853515625, 1.215087890625, 0.3043060302734375, 1.41943359375
24911, 1.478299856185913, -6.501168727874756, 1.4196772575378418, 0.19404254853725433, -0.039168331772089005, -2.216855525970459, 0.6566095352172852, -0.13259689509868622, -0.24448345601558685, -0.018690330907702446, 0.11783108115196228, 0.2408224493265152, -1.5960450331229334, 3.392697232722213, 0.9853740506041896, 9362.0, 27524.0, 35388.0, 9362.0, 8.013224601745605, 0.008970946073532104, 0.0735403299331665, -0.35912060737609863, 0.005600477568805218, -0.0728682279586792, 0.9981886744499207, -0.07894229143857956, -0.07543754577636719, 1.48974609375, 1.215087890625, 0.3043060302734375, 1.41796875
24921, 1.4788329601287842, -6.503001689910889, 1.420968770980835, 0.19404254853725433, -0.039168331772089005, -2.216855525970459, 0.6566095352172852, -0.13259689509868622, -0.24448345601558685, -0.018672127276659012, 0.11782873421907425, 0.2407962828874588, -1.6491828365595387, 3.38519393512604, 1.0054918457625421, 9362.0, 27524.0, 35388.0, 9362.0, 8.013224601745605, 0.008970946073532104, 0.0735403299331665, -0.35912060737609863, 0.005600477568805218, -0.0728682279586792, 0.9981886744499207, -0.08122027665376663, -0.12023735046386719, 1.486083984375, 1.210693359375, 0.326202392578125, 1.42236328125
24981, 1.4776948690414429, -6.50213623046875, 1.42836594581604, 0.25764408707618713, -0.05201209709048271, -2.239237070083618, 0.7567393183708191, -0.15281496942043304, -0.2532409131526947, -0.018658006563782692, 0.11784172803163528, 0.24092742800712585, -1.5491848132510682, 3.6184575505135115, 0.9711290531443743, 9362.0, 27524.0, 35388.0, 9362.0, 8.013224601745605, 0.024302950128912926, 0.4097895324230194, 0.04259676858782768, 0.005031832028180361, -0.07547221332788467, 0.9993739128112793, -0.08017373085021973, -0.13815879821777344, 1.484619140625, 1.271484375, 0.1027679443359375, 1.420166015625
24991, 1.4770853519439697, -6.500576496124268, 1.4292889833450317, 0.25764408707618713, -0.05201209709048271, -2.239237070083618, 0.7567393183708191, -0.15281496942043304, -0.2532409131526947, -0.018659796565771103, 0.11782893538475037, 0.24084515869617462, -1.5911449944868068, 3.3812409039549607, 0.9757932152425834, 9362.0, 27524.0, 35388.0, 9362.0, 8.013224601745605, 0.024302950128912926, 0.4097895324230194, 0.04259676858782768, 0.005031832028180361, -0.07547221332788467, 0.9993739128112793, -0.08130564540624619, -0.11127853393554688, 1.48681640625, 1.28466796875, 0.07440185546875, 1.421630859375
25001, 1.4758166074752808, -6.500693321228027, 1.4285259246826172, 0.2808479368686676, -0.05669776350259781, -2.2468698024749756, 0.7901664972305298, -0.15955853462219238, -0.2557542026042938, -0.018670465797185898, 0.11782515048980713, 0.2409222424030304, -1.5300746994060885, 3.568909024453177, 0.9858261143784526, 9362.0, 27524.0, 35388.0, 9362.0, 8.013224601745605, 0.024302950128912926, 0.4097895324230194, 0.04259676858782768, 0.005031832028180361, -0.07547221332788467, 0.9993739128112793, -0.08489248901605606, -0.09335899353027344, 1.48828125, 1.28466796875, 0.07440185546875, 1.414306640625
25021, 1.475524663925171, -6.504151821136475, 1.4295010566711426, 0.29687371850013733, -0.05993375927209854, -2.252005100250244, 0.8124184608459473, -0.16404178738594055, -0.25772491097450256, -0.018656514585018158, 0.11782684177160263, 0.2408921718597412, -1.5854979449140483, 3.5917335092290443, 0.9687602579892989, 9362.0, 27524.0, 35388.0, 9362.0, 8.013224601745605, 0.0604843944311142, 0.1855378895998001, 0.035744402557611465, 0.0038979172240942717, -0.07644480466842651, 0.9973125457763672, -0.08424795418977737, -0.08439826965332031, 1.489013671875, 1.32275390625, 0.0251312255859375, 1.4208984375
25051, 1.473013997077942, -6.501418590545654, 1.4277805089950562, 0.32174745202064514, -0.06495584547519684, -2.2597787380218506, 0.8458209037780762, -0.17076097428798676, -0.2605818808078766, -0.018702536821365356, 0.11782828718423843, 0.24086271226406097, -1.5784522017308253, 3.530157876847568, 1.0103087221943272, 9362.0, 27524.0, 35388.0, 9362.0, 8.013224601745605, 0.08649292588233948, -0.1226520836353302, -0.15604718029499054, 0.004562460817396641, -0.07503224909305573, 0.9962558150291443, -0.09035162627696991, -0.08439826965332031, 1.489013671875, 1.2802734375, 0.0831756591796875, 1.41796875
25081, 1.4726028442382812, -6.5041093826293945, 1.4225218296051025, 0.32174745202064514, -0.06495584547519684, -2.2597787380218506, 0.8458209037780762, -0.17076097428798676, -0.2605818808078766, -0.01866714097559452, 0.1178293377161026, 0.24078607559204102, -1.614769099690399, 3.301699500420739, 0.982931419390575, 9362.0, 27524.0, 35388.0, 9362.0, 8.013224601745605, -0.1766010969877243, -0.14058351516723633, -0.03799714893102646, 0.0017320552142336965, -0.07617828249931335, 0.9959264993667603, -0.0807270035147667, -0.10231781005859375, 1.487548828125, 1.212158203125, 0.3188018798828125, 1.41796875
25091, 1.4733772277832031, -6.50559663772583, 1.4245355129241943, 0.3564704358577728, -0.071965292096138, -2.270282745361328, 0.8903220891952515, -0.17970843613147736, -0.26472294330596924, -0.018668193370103836, 0.11783753335475922, 0.24060511589050293, -1.6951194344401042, 2.917777780606258, 0.9539418111737333, 9362.0, 27524.0, 35388.0, 9362.0, 8.013224601745605, -0.1766010969877243, -0.14058351516723633, -0.03799714893102646, 0.0017320552142336965, -0.07617828249931335, 0.9959264993667603, -0.0807270035147667, -0.10231781005859375, 1.487548828125, 1.2041015625, 0.3609771728515625, 1.418701171875
25111, 1.472847580909729, -6.5009989738464355, 1.4240775108337402, 0.3654293715953827, -0.0737735778093338, -2.2729344367980957, 0.9014668464660645, -0.18194898962974548, -0.26560917496681213, -0.018691016361117363, 0.11783649027347565, 0.24088029563426971, -1.513233092791294, 3.4831864183961443, 1.0280485937283765, 9362.0, 27524.0, 35388.0, 9362.0, 8.013224601745605, -0.16383880376815796, 0.19114407896995544, 0.43546634912490845, 0.0017320552142336965, -0.07617828249931335, 0.9959264993667603, -0.15939196944236755, -0.10231781005859375, 1.487548828125, 1.2685546875, 0.1099395751953125, 1.4150390625
25171, 1.4691648483276367, -6.497072696685791, 1.4254299402236938, 0.3836815655231476, -0.07745739817619324, -2.2782630920410156, 0.9237490892410278, -0.18643131852149963, -0.2673003375530243, -0.018637225031852722, 0.11783552914857864, 0.2408556491136551, -1.6049426273509646, 3.375197447440314, 0.9874778790563858, 9362.0, 27524.0, 35388.0, 9362.0, 8.013224601745605, -0.06647238880395889, -0.16555123031139374, 0.2457648515701294, 0.0038002883084118366, -0.0741400495171547, 1.000058650970459, -0.17341335117816925, -0.8997554779052734, 1.42236328125, 1.29638671875, 0.0542755126953125, 1.42236328125
25181, 1.4677104949951172, -6.497702121734619, 1.4261583089828491, 0.3836815655231476, -0.07745739817619324, -2.2782630920410156, 0.9237490892410278, -0.18643131852149963, -0.2673003375530243, -0.0186768751591444, 0.11782221496105194, 0.2406069040298462, -1.6967477152555692, 2.8475023183291626, 0.9597927322723844, 9362.0, 27524.0, 35388.0, 9362.0, 8.013224601745605, -0.06647238880395889, -0.16555123031139374, 0.2457648515701294, 0.0038002883084118366, -0.0741400495171547, 1.000058650970459, -0.15978817641735077, -0.08439826965332031, 1.489013671875, 1.30517578125, 0.0422515869140625, 1.418701171875
25211, 1.469004511833191, -6.493515968322754, 1.4245747327804565, 0.46114903688430786, -0.09308838844299316, -2.2998878955841064, 1.0129164457321167, -0.20433026552200317, -0.27341970801353455, -0.01865978166460991, 0.11785051971673965, 0.24091625213623047, -1.5408545548577148, 3.522228409976208, 0.9703880498642239, 9362.0, 27524.0, 35388.0, 9362.0, 8.013224601745605, -0.06647238880395889, -0.16555123031139374, 0.2457648515701294, 0.0038002883084118366, -0.0741400495171547, 1.000058650970459, -0.12540403008460999, -0.11127853393554688, 1.48681640625, 1.30810546875, 0.0388031005859375, 1.418701171875
25221, 1.4684419631958008, -6.493194580078125, 1.4277807474136353, 0.4816296100616455, -0.09721961617469788, -2.305375814437866, 1.0351390838623047, -0.2087913602590561, -0.27540823817253113, -0.01864778995513916, 0.11783364415168762, 0.24089506268501282, -1.5864491321218224, 3.66070842150458, 0.9895271505636859, 9362.0, 27524.0, 35388.0, 9362.0, 8.013224601745605, -0.06647238880395889, -0.16555123031139374, 0.2457648515701294, 0.0038002883084118366, -0.0741400495171547, 1.000058650970459, -0.12540403008460999, -0.11127853393554688, 1.48681640625, 1.30810546875, 0.0388031005859375, 1.42236328125
25241, 1.468937873840332, -6.491153717041016, 1.4289906024932861, 0.4816296100616455, -0.09721961617469788, -2.305375814437866, 1.0351390838623047, -0.2087913602590561, -0.27540823817253113, -0.018656643107533455, 0.11784908175468445, 0.2409147471189499, -1.558096375141438, 3.7211671418940853, 0.9747309378693632, 9362.0, 27524.0, 35388.0, 9362.0, 8.013224601745605, -0.07959751039743423, -0.20779703557491302, 0.09186790138483047, 0.0038002883084118366, -0.0741400495171547, 1.000058650970459, -0.1257001757621765, -0.1739978790283203, 1.481689453125, 1.260498046875, 0.1313934326171875, 1.42236328125
25251, 1.4683129787445068, -6.493385314941406, 1.429190754890442, 0.5131840705871582, -0.10358377546072006, -2.3136799335479736, 1.0685014724731445, -0.2154882550239563, -0.2781106233596802, -0.018665282055735588, 0.11783900111913681, 0.24089644849300385, -1.5733647450047346, 3.5991350450042034, 0.9898403468976626, 9362.0, 27524.0, 35388.0, 9362.0, 8.013224601745605, -0.05503217503428459, 0.23449169099330902, -0.20048753917217255, 0.004458712413907051, -0.07338660210371017, 0.997997522354126, -0.1257001757621765, -0.1739978790283203, 1.481689453125, 1.260498046875, 0.1313934326171875, 1.42236328125
25271, 1.4688465595245361, -6.496901988983154, 1.42879319190979, 0.523924708366394, -0.10574980825185776, -2.3164656162261963, 1.079622507095337, -0.21771910786628723, -0.27902084589004517, -0.01867595873773098, 0.11783841252326965, 0.24084605276584625, -1.5787851081003164, 3.426993711905766, 0.9890646566011142, 9362.0, 27524.0, 35388.0, 9362.0, 8.013224601745605, 0.006798920221626759, 0.0888025313615799, 0.31231212615966797, 0.004208700265735388, -0.0747494250535965, 0.9942795038223267, -0.1257001757621765, -0.1739978790283203, 1.481689453125, 1.25830078125, 0.137664794921875, 1.42236328125
25291, 1.4702343940734863, -6.5035810470581055, 1.4307478666305542, 0.5457392334938049, -0.11014870554208755, -2.322068214416504, 1.1018285751342773, -0.22217093408107758, -0.28125372529029846, -0.018677636981010437, 0.11783232539892197, 0.24081434309482574, -1.623018812272166, 3.447509830123778, 0.992728689419953, 9362.0, 27524.0, 35388.0, 9362.0, 8.013224601745605, 0.20848965644836426, 0.4649687111377716, 0.09445793926715851, 0.003521607955917716, -0.07444068044424057, 0.9957790374755859, -0.1257001757621765, -0.1739978790283203, 1.481689453125, 1.273681640625, 0.0975494384765625, 1.42236328125
25301, 1.4711401462554932, -6.503885269165039, 1.4306751489639282, 0.5457392334938049, -0.11014870554208755, -2.322068214416504, 1.1018285751342773, -0.22217093408107758, -0.28125372529029846, -0.018662631511688232, 0.11783437430858612, 0.24089661240577698, -1.5692087576025209, 3.598107329846272, 0.9813304664032216, 9362.0, 27524.0, 35388.0, 9362.0, 8.013224601745605, 0.20848965644836426, 0.4649687111377716, 0.09445793926715851, 0.003521607955917716, -0.07444068044424057, 0.9957790374755859, -0.10512162744998932, -0.12023735046386719, 1.486083984375, 1.25830078125, 0.137664794921875, 1.41796875
25331, 1.4708285331726074, -6.503895282745361, 1.4284688234329224, 0.5792952179908752, -0.11691427230834961, -2.3305466175079346, 1.1352505683898926, -0.2288721352815628, -0.2838757336139679, -0.01867881789803505, 0.1178286150097847, 0.24090519547462463, -1.5564192364592278, 3.647665220853469, 0.9653337441167962, 9362.0, 27524.0, 35388.0, 9362.0, 8.013224601745605, -0.057918746024370193, -0.3350455164909363, -0.04196900501847267, 0.004565340932458639, -0.07470963895320892, 0.997579038143158, -0.10825280845165253, -0.1739978790283203, 1.481689453125, 1.2626953125, 0.1252593994140625, 1.421630859375
25341, 1.4699132442474365, -6.504956245422363, 1.4285203218460083, 0.5792952179908752, -0.11691427230834961, -2.3305466175079346, 1.1352505683898926, -0.2288721352815628, -0.2838757336139679, -0.018652090802788734, 0.11782847344875336, 0.24083198606967926, -1.5636925984004413, 3.404580150127913, 0.9834201693329407, 9362.0, 27524.0, 35388.0, 9362.0, 8.013224601745605, -0.057918746024370193, -0.3350455164909363, -0.04196900501847267, 0.004565340932458639, -0.07470963895320892, 0.997579038143158, -0.1045202687382698, -0.1739978790283203, 1.481689453125, 1.2509765625, 0.1600799560546875, 1.421630859375
25351, 1.470481514930725, -6.504684925079346, 1.427082896232605, 0.6255975365638733, -0.12624815106391907, -2.3419644832611084, 1.1798465251922607, -0.2378164380788803, -0.2872031331062317, -0.018703166395425797, 0.1178361028432846, 0.24072887003421783, -1.6481784416608556, 3.27993205048719, 0.994928071960636, 9362.0, 27524.0, 35388.0, 9362.0, 8.013224601745605, -0.057918746024370193, -0.3350455164909363, -0.04196900501847267, 0.004565340932458639, -0.07470963895320892, 0.997579038143158, -0.1045202687382698, -0.1739978790283203, 1.481689453125, 1.2509765625, 0.1600799560546875, 1.4208984375
25411, 1.4707280397415161, -6.510478973388672, 1.4280422925949097, 0.6859822869300842, -0.1384180635213852, -2.3564414978027344, 1.2355717420578003, -0.24898609519004822, -0.29170072078704834, -0.018670009449124336, 0.11782937496900558, 0.24077275395393372, -1.6031982088486023, 3.3910332802007304, 0.9688818379247096, 9362.0, 27524.0, 35388.0, 9362.0, 8.013224601745605, 0.0906648263335228, -0.20540639758110046, -0.024079233407974243, 0.005406373180449009, -0.07340382039546967, 0.9989585876464844, -0.09916181117296219, -0.08439826965332031, 1.489013671875, 1.3037109375, 0.04412841796875, 1.420166015625
25421, 1.471431851387024, -6.5119404792785645, 1.4306520223617554, 0.6859822869300842, -0.1384180635213852, -2.3564414978027344, 1.2355717420578003, -0.24898609519004822, -0.29170072078704834, -0.018682057037949562, 0.11782553791999817, 0.24078135192394257, -1.6294795172456216, 3.2686269785396576, 0.9771724011651087, 9362.0, 27524.0, 35388.0, 9362.0, 8.013224601745605, -0.1326223462820053, -0.06523249298334122, 0.24300983548164368, 0.005406373180449009, -0.07340382039546967, 0.9989585876464844, -0.10296331346035004, -0.15607833862304688, 1.483154296875, 1.301513671875, 0.046966552734375, 1.420166015625
25461, 1.4710806608200073, -6.512484073638916, 1.4350253343582153, 0.7362978458404541, -0.14855638146400452, -2.3681769371032715, 1.28019118309021, -0.2579245865345001, -0.2952420711517334, -0.018635164946317673, 0.11784099042415619, 0.2408330738544464, -1.5922975894043272, 3.471854048788799, 0.9201393572460776, 9362.0, 27524.0, 35388.0, 9362.0, 8.013224601745605, -0.0881216824054718, -0.13621476292610168, -0.07413548976182938, 0.004805527161806822, -0.07523099333047867, 0.9972344040870667, -0.10296331346035004, -0.15607833862304688, 1.483154296875, 1.234130859375, 0.2203521728515625, 1.421630859375
25471, 1.4711315631866455, -6.510593414306641, 1.4367320537567139, 0.7362978458404541, -0.14855638146400452, -2.3681769371032715, 1.28019118309021, -0.2579245865345001, -0.2952420711517334, -0.01866697520017624, 0.11784219741821289, 0.24081683158874512, -1.5623339688318107, 3.392906276371235, 0.9703588438170128, 9362.0, 27524.0, 35388.0, 9362.0, 8.013224601745605, -0.0881216824054718, -0.13621476292610168, -0.07413548976182938, 0.004805527161806822, -0.07523099333047867, 0.9972344040870667, -0.17182984948158264, -0.11127853393554688, 1.48681640625, 1.27001953125, 0.10626220703125, 1.421630859375
25491, 1.4747902154922485, -6.51261043548584, 1.4371119737625122, 0.7362978458404541, -0.14855638146400452, -2.3681769371032715, 1.28019118309021, -0.2579245865345001, -0.2952420711517334, -0.01864001527428627, 0.11781800538301468, 0.24096959829330444, -1.4829695723035223, 3.7283884085932186, 0.9584068844889653, 9362.0, 27524.0, 35388.0, 9362.0, 8.013224601745605, 0.13151739537715912, -0.11894360184669495, 0.05189084634184837, 0.004890676122158766, -0.07579290866851807, 0.9994826912879944, -0.15001773834228516, -0.1291980743408203, 1.4853515625, 1.283203125, 0.0772247314453125, 1.421630859375
25501, 1.4744508266448975, -6.514710903167725, 1.4364643096923828, 0.7362978458404541, -0.14855638146400452, -2.3681769371032715, 1.28019118309021, -0.2579245865345001, -0.2952420711517334, -0.0186721533536911, 0.11782464385032654, 0.24080580472946167, -1.5866160190074101, 3.2840484082071555, 0.9851816341172411, 9362.0, 27524.0, 35388.0, 9362.0, 8.013224601745605, 0.13151739537715912, -0.11894360184669495, 0.05189084634184837, 0.003643333213403821, -0.07716609537601471, 0.9973101615905762, -0.15001773834228516, -0.1291980743408203, 1.4853515625, 1.282470703125, 0.0786590576171875, 1.4208984375
25521, 1.4747663736343384, -6.515744209289551, 1.4373143911361694, 0.7362978458404541, -0.14855638146400452, -2.3681769371032715, 1.28019118309021, -0.2579245865345001, -0.2952420711517334, -0.018667899072170258, 0.11783578991889954, 0.24097488820552826, -1.4881315351554443, 3.671841236136885, 0.9963255543745219, 9362.0, 27524.0, 35388.0, 9362.0, 8.013224601745605, 0.13151739537715912, -0.11894360184669495, 0.05189084634184837, 0.003426828421652317, -0.07680349051952362, 0.9973191022872925, -0.12395523488521576, -0.03959846496582031, 1.49267578125, 1.27587890625, 0.092620849609375, 1.418701171875
25531, 1.4751368761062622, -6.514872074127197, 1.4368977546691895, 0.842282235622406, -0.16990531980991364, -2.392090320587158, 1.369422197341919, -0.2758086919784546, -0.3026004731655121, -0.01868005283176899, 0.11783717572689056, 0.24089987576007843, -1.5548592160665813, 3.594606170166287, 0.978514524516109, 9362.0, 27524.0, 35388.0, 9362.0, 8.013224601745605, 0.13151739537715912, -0.11894360184669495, 0.05189084634184837, 0.003426828421652317, -0.07680349051952362, 0.9973191022872925, -0.12395523488521576, -0.03959846496582031, 1.49267578125, 1.27587890625, 0.092620849609375, 1.423095703125
25541, 1.4743547439575195, -6.513831615447998, 1.4395787715911865, 0.842282235622406, -0.16990531980991364, -2.392090320587158, 1.369422197341919, -0.2758086919784546, -0.3026004731655121, -0.01868678256869316, 0.1178310215473175, 0.24077187478542328, -1.642159163279342, 3.425766231606957, 0.9920935622621861, 9362.0, 27524.0, 35388.0, 9362.0, 8.013224601745605, 0.13151739537715912, -0.11894360184669495, 0.05189084634184837, 0.003426828421652317, -0.07680349051952362, 0.9973191022872925, -0.17837047576904297, -2.6379880905151367, 1.2802734375, 1.27880859375, 0.086212158203125, 1.423095703125
25581, 1.4733690023422241, -6.518343448638916, 1.4433754682540894, 0.8979520797729492, -0.18111684918403625, -2.4042646884918213, 1.4140605926513672, -0.2847624719142914, -0.3062395453453064, -0.018640097230672836, 0.11781734973192215, 0.2409508228302002, -1.5211243390013298, 3.64759987062331, 0.9637502639170532, 9362.0, 27524.0, 35388.0, 9362.0, 8.013224601745605, 0.020898152142763138, -0.37242591381073, -0.0671858862042427, 0.0035273071844130754, -0.07676553726196289, 0.9964143633842468, -0.13160763680934906, -0.06647872924804688, 1.490478515625, 1.261962890625, 0.127288818359375, 1.423095703125
25591, 1.4719107151031494, -6.5199384689331055, 1.4446674585342407, 0.8979520797729492, -0.18111684918403625, -2.4042646884918213, 1.4140605926513672, -0.2847624719142914, -0.3062395453453064, -0.01865370385348797, 0.11784783750772476, 0.24085159599781036, -1.5925110045882485, 3.4974077912727637, 0.988742944367672, 9362.0, 27524.0, 35388.0, 9362.0, 8.013224601745605, -0.07153400778770447, -0.1350007951259613, -0.062289971858263016, 0.0035273071844130754, -0.07676553726196289, 0.9964143633842468, -0.12309305369853973, -0.1291980743408203, 1.4853515625, 1.25830078125, 0.137664794921875, 1.423095703125
25601, 1.4722539186477661, -6.517373561859131, 1.4440388679504395, 0.940875768661499, -0.18976017832756042, -2.4134979248046875, 1.4475204944610596, -0.29145926237106323, -0.3093205690383911, -0.01863887533545494, 0.11783900111913681, 0.24092203378677368, -1.5216176994720572, 3.5970937932229106, 0.9688273438805185, 9362.0, 27524.0, 35388.0, 9362.0, 8.013224601745605, -0.07153400778770447, -0.1350007951259613, -0.062289971858263016, 0.0035273071844130754, -0.07676553726196289, 0.9964143633842468, -0.12309305369853973, -0.1291980743408203, 1.4853515625, 1.26708984375, 0.1136474609375, 1.41796875
25631, 1.4705690145492554, -6.5132365226745605, 1.444016695022583, 0.9848030805587769, -0.1986043006181717, -2.422825336456299, 1.4809683561325073, -0.2981511354446411, -0.3124368488788605, -0.018680619075894356, 0.11784320324659348, 0.2408226877450943, -1.6235049161613306, 3.5391772459307163, 0.9762042877777148, 9362.0, 27524.0, 35388.0, 9362.0, 8.013224601745605, -0.005949085112661123, -0.18255552649497986, -0.10878273099660873, 0.004852127283811569, -0.07468025386333466, 0.9966953992843628, -0.11449170857667923, -0.07543754577636719, 1.48974609375, 1.257568359375, 0.1398162841796875, 1.440673828125
25641, 1.4701944589614868, -6.512469291687012, 1.4455955028533936, 0.9848030805587769, -0.1986043006181717, -2.422825336456299, 1.4809683561325073, -0.2981511354446411, -0.3124368488788605, -0.018652483820915222, 0.11783301085233688, 0.2408677190542221, -1.583701333082498, 3.397855561223679, 0.9876723790990817, 9362.0, 27524.0, 35388.0, 9362.0, 8.013224601745605, -0.005949085112661123, -0.18255552649497986, -0.10878273099660873, 0.004852127283811569, -0.07468025386333466, 0.9966953992843628, -0.10356730222702026, 0.014162063598632812, 1.4970703125, 1.276611328125, 0.0910186767578125, 1.41943359375
25651, 1.470093846321106, -6.509178161621094, 1.445845365524292, 0.9848030805587769, -0.1986043006181717, -2.422825336456299, 1.4809683561325073, -0.2981511354446411, -0.3124368488788605, -0.01865306869149208, 0.11782404780387878, 0.24095025658607483, -1.4971378236890969, 3.770622324325899, 0.953516602656091, 9362.0, 27524.0, 35388.0, 9362.0, 8.013224601745605, -0.005949085112661123, -0.18255552649497986, -0.10878273099660873, 0.004852127283811569, -0.07468025386333466, 0.9966953992843628, -0.10346511006355286, -0.07543754577636719, 1.48974609375, 1.260498046875, 0.1313934326171875, 1.421630859375
25681, 1.4710832834243774, -6.511094570159912, 1.4455418586730957, 1.060245394706726, -0.2137906551361084, -2.438566207885742, 1.5367120504379272, -0.30930036306381226, -0.3171793818473816, -0.018664216622710228, 0.11784349381923676, 0.2408585250377655, -1.5454890752208759, 3.4823854104053282, 0.988808377056576, 9362.0, 27524.0, 35388.0, 9362.0, 8.013224601745605, 0.0512431263923645, 0.3552979826927185, 0.06452576071023941, 0.004389770794659853, -0.0766696184873581, 0.9961556196212769, -0.10270251333713531, -0.11127853393554688, 1.48681640625, 1.259033203125, 0.135589599609375, 1.421630859375
25711, 1.471090316772461, -6.5128560066223145, 1.4457194805145264, 1.1068476438522339, -0.22316987812519073, -2.4481308460235596, 1.5700960159301758, -0.315979540348053, -0.32053518295288086, -0.018627451732754707, 0.11781924217939377, 0.24091151356697083, -1.5676033614351303, 3.609206948891938, 0.9471256452147621, 9362.0, 27524.0, 35388.0, 9362.0, 8.013224601745605, -0.00628401106223464, 0.04386303946375847, -0.026103703305125237, 0.003815875854343176, -0.07664190977811813, 0.995771586894989, -0.1023525521159172, -0.07543754577636719, 1.48974609375, 1.25830078125, 0.137664794921875, 1.420166015625
25761, 1.4724467992782593, -6.518560886383057, 1.4480124711990356, 1.1705420017242432, -0.23598712682724, -2.4610424041748047, 1.6146223545074463, -0.32488155364990234, -0.32510173320770264, -0.018660839647054672, 0.11781139671802521, 0.2409987449645996, -1.4696043258090619, 3.8313046161741795, 0.9809300315982394, 9362.0, 27524.0, 35388.0, 9362.0, 8.013224601745605, 0.12294686585664749, 0.3619177043437958, -0.02016819640994072, 0.0024755753111094236, -0.07431405037641525, 0.9963884353637695, -0.09849891811609268, -0.08439826965332031, 1.489013671875, 1.314697265625, 0.0319061279296875, 1.417236328125
25771, 1.471795916557312, -6.518912315368652, 1.4481414556503296, 1.2030575275421143, -0.24252939224243164, -2.4675629138946533, 1.636937141418457, -0.3293445110321045, -0.32697024941444397, -0.018679097294807434, 0.11782717704772949, 0.24089784920215607, -1.5215345795809367, 3.434268901407677, 0.9877900936070773, 9362.0, 27524.0, 35388.0, 9362.0, 8.013224601745605, 0.12294686585664749, 0.3619177043437958, -0.02016819640994072, 0.0024755753111094236, -0.07431405037641525, 0.9963884353637695, -0.09849891811609268, -0.08439826965332031, 1.489013671875, 1.3125, 0.034027099609375, 1.417236328125
25781, 1.4717497825622559, -6.518729209899902, 1.4459221363067627, 1.2030575275421143, -0.24252939224243164, -2.4675629138946533, 1.636937141418457, -0.3293445110321045, -0.32697024941444397, -0.018680334091186523, 0.11783859133720398, 0.24088750779628754, -1.587499627070017, 3.6222727045690135, 0.998491427925794, 9362.0, 27524.0, 35388.0, 9362.0, 8.013224601745605, 0.12294686585664749, 0.3619177043437958, -0.02016819640994072, 0.0024755753111094236, -0.07431405037641525, 0.9963884353637695, -0.09698767960071564, -0.08439826965332031, 1.489013671875, 1.31103515625, 0.0355682373046875, 1.38720703125
25831, 1.47341787815094, -6.513635158538818, 1.4449366331100464, 1.269426941871643, -0.25588151812553406, -2.480726480484009, 1.6815403699874878, -0.33826345205307007, -0.33114033937454224, -0.018629353493452072, 0.11782193183898926, 0.24088968336582184, -1.57867183279376, 3.5740830089288522, 0.9250120895814865, 9362.0, 27524.0, 35388.0, 9362.0, 8.013224601745605, -0.10171615332365036, -0.15150967240333557, 0.25224360823631287, 0.003642753465101123, -0.07631561905145645, 0.9953357577323914, -0.10435988754034042, -0.12023735046386719, 1.486083984375, 1.291259765625, 0.0625457763671875, 1.417236328125
25871, 1.4713786840438843, -6.509663105010986, 1.4427900314331055, 1.3203761577606201, -0.2661301791667938, -2.4906952381134033, 1.7150412797927856, -0.34497401118278503, -0.33366405963897705, -0.01866261661052704, 0.11782833188772202, 0.24087877571582794, -1.5432249387352233, 3.469142806672437, 0.9906724408213538, 9362.0, 27524.0, 35388.0, 9362.0, 8.013224601745605, -0.16419026255607605, -0.017570896074175835, 0.17670948803424835, 0.003219841979444027, -0.07474689930677414, 0.996375560760498, -0.10681670159101486, -0.1291980743408203, 1.4853515625, 1.2685546875, 0.1099395751953125, 1.41650390625
25881, 1.4706170558929443, -6.508832931518555, 1.4420032501220703, 1.3203761577606201, -0.2661301791667938, -2.4906952381134033, 1.7150412797927856, -0.34497401118278503, -0.33366405963897705, -0.018690792843699455, 0.11781184375286102, 0.2407253235578537, -1.6036048011751671, 3.1401651920330664, 0.9946025893133081, 9362.0, 27524.0, 35388.0, 9362.0, 8.013224601745605, -0.16419026255607605, -0.017570896074175835, 0.17670948803424835, 0.003219841979444027, -0.07474689930677414, 0.996375560760498, -0.10575076192617416, -0.1291980743408203, 1.4853515625, 1.27880859375, 0.086212158203125, 1.418701171875
25901, 1.4705722332000732, -6.508462905883789, 1.441463828086853, 1.4075210094451904, -0.283657968044281, -2.5075037479400635, 1.770744800567627, -0.3561331033706665, -0.3387363851070404, -0.018681488931179047, 0.11781966686248779, 0.24091987311840057, -1.5144105413426465, 3.6308838384568958, 0.9856316538005055, 9362.0, 27524.0, 35388.0, 9362.0, 8.013224601745605, -0.04222884029150009, -0.2560528516769409, -0.13215744495391846, 0.00213667587377131, -0.07176217436790466, 0.9978905916213989, -0.10575076192617416, -0.1291980743408203, 1.4853515625, 1.275146484375, 0.09429931640625, 1.418701171875
25951, 1.473500370979309, -6.510440349578857, 1.4404405355453491, 1.4974510669708252, -0.3017435073852539, -2.524559736251831, 1.8264156579971313, -0.3672832250595093, -0.34385401010513306, -0.01865300163626671, 0.11783479899168015, 0.24100986123085022, -1.484167634722749, 3.747179019316917, 0.9770747828878646, 9362.0, 27524.0, 35388.0, 9362.0, 8.013224601745605, -0.02528534270823002, -0.253553569316864, -0.04859210550785065, 0.004421435762196779, -0.07676921039819717, 0.9979537725448608, -0.10575076192617416, -0.1291980743408203, 1.4853515625, 1.330078125, 0.0206298828125, 1.417236328125
25971, 1.4739344120025635, -6.510768413543701, 1.4405548572540283, 1.4974510669708252, -0.3017435073852539, -2.524559736251831, 1.8264156579971313, -0.3672832250595093, -0.34385401010513306, -0.018671797588467598, 0.11782127618789673, 0.24088023602962494, -1.5233789917417566, 3.486496416777186, 0.9899474665597559, 9362.0, 27524.0, 35388.0, 9362.0, 8.013224601745605, -0.02528534270823002, -0.253553569316864, -0.04859210550785065, 0.00320051540620625, -0.07441181689500809, 0.9970174431800842, -0.09827262908220291, -0.10231781005859375, 1.487548828125, 1.311767578125, 0.0348052978515625, 1.414306640625
25991, 1.4744983911514282, -6.510565757751465, 1.4404714107513428, 1.4974510669708252, -0.3017435073852539, -2.524559736251831, 1.8264156579971313, -0.3672832250595093, -0.34385401010513306, -0.018671339377760887, 0.11782492697238922, 0.2408418357372284, -1.5850837749799653, 3.4626050706217484, 0.9886846424752289, 9362.0, 27524.0, 35388.0, 9362.0, 8.013224601745605, -0.02018383890390396, 0.13514605164527893, 0.15760760009288788, 0.00320051540620625, -0.07441181689500809, 0.9970174431800842, -0.09726861119270325, -0.08439826965332031, 1.489013671875, 1.2861328125, 0.0716094970703125, 1.42236328125
26001, 1.4757022857666016, -6.512120246887207, 1.4422276020050049, 1.4974510669708252, -0.3017435073852539, -2.524559736251831, 1.8264156579971313, -0.3672832250595093, -0.34385401010513306, -0.018694335594773293, 0.1178395226597786, 0.2408602386713028, -1.5544761261858993, 3.429834606132971, 1.0186528959881433, 9362.0, 27524.0, 35388.0, 9362.0, 8.013224601745605, -0.02018383890390396, 0.13514605164527893, 0.15760760009288788, 0.00320051540620625, -0.07441181689500809, 0.9970174431800842, -0.09207919239997864, -0.07543754577636719, 1.48974609375, 1.272216796875, 0.1009979248046875, 1.42236328125
26031, 1.4740418195724487, -6.514370918273926, 1.4400744438171387, 1.6663458347320557, -0.33570510149002075, -2.555863857269287, 1.926766276359558, -0.38741686940193176, -0.35219746828079224, -0.018624208867549896, 0.11783143877983093, 0.2410205900669098, -1.5292487775595822, 3.9669147563363936, 0.9558526828211874, 9362.0, 27524.0, 35388.0, 9362.0, 8.013224601745605, -0.009448783472180367, 0.07138329744338989, 0.16164208948612213, 0.003360078204423189, -0.0731048509478569, 0.998836100101471, -0.09635571390390396, -0.12023735046386719, 1.486083984375, 1.2802734375, 0.0831756591796875, 1.421630859375
26071, 1.4742733240127563, -6.521261692047119, 1.442155122756958, 1.7246510982513428, -0.3474283516407013, -2.5664687156677246, 1.9602608680725098, -0.3941345810890198, -0.35475456714630127, -0.018674232065677643, 0.1178235113620758, 0.24073734879493713, -1.5969268077729168, 3.205694716937927, 0.978793522635652, 9362.0, 27524.0, 35388.0, 9362.0, 8.013224601745605, -0.13807667791843414, 0.4344766139984131, 0.029288260266184807, 0.005276280455291271, -0.07542671263217926, 0.9968026876449585, -0.09635571390390396, -0.12023735046386719, 1.486083984375, 1.28466796875, 0.07440185546875, 1.41796875
26111, 1.4752389192581177, -6.526832580566406, 1.4442095756530762, 1.8039544820785522, -0.36337268352508545, -2.58073353767395, 2.004909038543701, -0.4030816853046417, -0.35857293009757996, -0.01864091493189335, 0.11783693730831146, 0.24086929857730865, -1.542027243046562, 3.442610786575443, 0.9621082499202193, 9362.0, 27524.0, 35388.0, 9362.0, 8.013224601745605, -0.07661621272563934, 0.41489753127098083, -0.019163861870765686, 0.0016201856778934598, -0.07530782371759415, 0.9975429773330688, -0.09635571390390396, -0.12023735046386719, 1.486083984375, 1.28466796875, 0.07440185546875, 1.421630859375
26121, 1.4745018482208252, -6.525650978088379, 1.4437925815582275, 1.8039544820785522, -0.36337268352508545, -2.58073353767395, 2.004909038543701, -0.4030816853046417, -0.35857293009757996, -0.018686925992369652, 0.11783485114574432, 0.24076682329177856, -1.6044680192563274, 3.1888827505409267, 0.981567514123606, 9362.0, 27524.0, 35388.0, 9362.0, 8.013224601745605, -0.07661621272563934, 0.41489753127098083, -0.019163861870765686, 0.0025488967075943947, -0.07665137946605682, 0.9993311762809753, -0.09635571390390396, -0.12023735046386719, 1.486083984375, 1.31103515625, 0.0355682373046875, 1.41650390625
26151, 1.4757497310638428, -6.523956775665283, 1.4456915855407715, 1.9055970907211304, -0.3838067054748535, -2.5987741947174072, 2.0607872009277344, -0.41427329182624817, -0.3631534278392792, -0.018657460808753967, 0.11784262210130692, 0.24088552594184875, -1.5882299862369191, 3.4836792040622697, 0.9923076270997666, 9362.0, 27524.0, 35388.0, 9362.0, 8.013224601745605, 0.1384516805410385, -0.49499523639678955, -0.05984341725707054, 0.0034042838960886, -0.07601319998502731, 0.995724618434906, -0.09719672054052353, -0.1650371551513672, 1.482421875, 1.28466796875, 0.07440185546875, 1.41943359375
26181, 1.476196527481079, -6.524456024169922, 1.4431366920471191, 1.9679235219955444, -0.3963356018066406, -2.609710216522217, 2.0943238735198975, -0.42099079489707947, -0.3657998740673065, -0.018682122230529785, 0.11782904714345932, 0.24078883230686188, -1.5758965854959115, 3.3582545864069573, 0.9759237418509653, 9362.0, 27524.0, 35388.0, 9362.0, 8.013224601745605, 0.06589843332767487, 0.011820204555988312, -0.1195874959230423, 0.0043815867975354195, -0.07487417757511139, 0.9991474747657776, -0.09719672054052353, -0.1650371551513672, 1.482421875, 1.283935546875, 0.075897216796875, 1.41943359375
26221, 1.4749531745910645, -6.5242791175842285, 1.4414703845977783, 2.05259108543396, -0.4133545458316803, -2.6244091987609863, 2.1390371322631836, -0.4299525320529938, -0.36932849884033203, -0.018711812794208527, 0.11784538626670837, 0.2407730221748352, -1.634871569123826, 3.4662324195488736, 0.9936006554595941, 9362.0, 27524.0, 35388.0, 9362.0, 8.013224601745605, -0.08983829617500305, 0.13565048575401306, -0.06348131597042084, 0.004132243804633617, -0.07751370966434479, 0.9974063038825989, -0.10087522119283676, -0.05751800537109375, 1.4912109375, 1.27880859375, 0.086212158203125, 1.417236328125
26251, 1.4748021364212036, -6.52358865737915, 1.4419466257095337, 2.0740373134613037, -0.4176652729511261, -2.6281073093414307, 2.150212049484253, -0.43219125270843506, -0.37028881907463074, -0.018662458285689354, 0.11783342808485031, 0.24099469184875488, -1.4695197072654378, 3.805075341205196, 0.9880411887936249, 9362.0, 27524.0, 35388.0, 9362.0, 8.013224601745605, -0.15540015697479248, -0.004951615817844868, 0.23065531253814697, 0.005771886557340622, -0.07622140645980835, 0.9955875277519226, -0.10087522119283676, -0.05751800537109375, 1.4912109375, 1.207763671875, 0.341400146484375, 1.417236328125
