timeTick, roll, pitch, yaw, stateX, stateY, stateZ, stateVX, stateVY, stateVZ, otX0, otY0, otZ0, otRoll0, otPitch0, otYaw0, left wing, pitch motor, yaw motor, right wing, voltage, roll rate, pitch rate, yaw rate, A_x, A_y, A_z, current, i_raw, v_raw, airflow_voltage, airflow_speed, pot_Pitch
522563, 0.04306858777999878, -0.13631337881088257, 0.05527584254741669, 0, 0, 0, 0, 0, 0, 0.0038316575810313225, 0.10998120158910751, 0.24071119725704193, -1.5756972704232137, 1.2043506255378134, -16.320807987439483, 0, 0, 0, 0, 0, 0, 0, 0, 0, 0, 0, 0, 0, 0, 0, 0, 0
522573, 0.04271213337779045, -0.13622330129146576, 0.056579310446977615, 0.027455730363726616, -0.005511548835784197, -0.03207298368215561, 0.03337479755282402, -0.007303345948457718, -0.027789795771241188, 0.003826717846095562, 0.10997887700796127, 0.24072067439556122, -1.5724982712971056, 1.282556160998297, -16.308828346194357, 9362.0, 38010.0, 35388.0, 9362.0, 8.231406211853027, 0, 0, 0, 0, 0, 0, 0, 0, 0, 0, 0, 0
522583, 0.04276037961244583, -0.13634774088859558, 0.0566231794655323, 0.027790643274784088, -0.005584946367889643, -0.03235140070319176, 0.033607859164476395, -0.007376168388873339, -0.02789309062063694, 0.003818290773779154, 0.10998571664094925, 0.24067866802215576, -1.5747005758338986, 1.277345706204784, -16.30521990319844, 9362.0, 38010.0, 35388.0, 9362.0, 8.231406211853027, 0.21706649661064148, 0.1466779261827469, -0.04419977590441704, -0.006286983378231525, -0.06922192126512527, 0.9970208406448364, -0.12652242183685303, -0.13815879821777344, 1.484619140625, 1.318359375, 0.028656005859375, 0
522593, 0.04283759370446205, -0.1377498060464859, 0.05595695599913597, 0.02812788635492325, -0.005659071728587151, -0.032631706446409225, 0.03384072333574295, -0.007448947988450527, -0.0281679630279541, 0.0038125026039779186, 0.10996423661708832, 0.24072153866291046, -1.556658356222999, 1.2195264933883152, -16.302756540508295, 9362.0, 38010.0, 35388.0, 9362.0, 8.231406211853027, 0.10225600749254227, 0.08427165448665619, -0.09037672728300095, -0.0048042587004601955, -0.0679372251033783, 0.9980995655059814, -0.1276891827583313, -0.07543754577636719, 1.48974609375, 1.314697265625, 0.0319061279296875, 1.689697265625
522603, 0.04350794106721878, -0.13789775967597961, 0.05549025535583496, 0.028467470780014992, -0.005733926314860582, -0.0329141803085804, 0.0340762585401535, -0.007521944586187601, -0.028326595202088356, 0.0038137107621878386, 0.10998615622520447, 0.2406785935163498, -1.5689214892830594, 1.25762429149961, -16.31182495200936, 9362.0, 38010.0, 35388.0, 9362.0, 8.231406211853027, -0.06291411817073822, -0.0987713560461998, -0.1141933798789978, -0.003556994954124093, -0.06679817289113998, 0.9991496205329895, -0.1314150094985962, -0.1650371551513672, 1.482421875, 1.317626953125, 0.0291900634765625, 1.69189453125
522613, 0.04364665225148201, -0.13794714212417603, 0.054926272481679916, 0.02880941331386566, -0.00580951664596796, -0.03319786116480827, 0.034312233328819275, -0.007596148177981377, -0.02840939164161682, 0.003788576927036047, 0.10997944325208664, 0.2406754195690155, -1.5699067952145263, 1.2287867495554963, -16.2838272870145, 9362.0, 38010.0, 35388.0, 9362.0, 8.231406211853027, -0.09490720182657242, 0.0864482894539833, 0.051632486283779144, -0.003590255044400692, -0.06902679055929184, 0.9992110729217529, -0.1333305388689041, -0.20087814331054688, 1.4794921875, 1.38720703125, 0.0291900634765625, 1.694091796875
522623, 0.0437275730073452, -0.13974629342556, 0.05461509898304939, 0.029153715819120407, -0.005885850638151169, -0.033482231199741364, 0.03454836085438728, -0.0076706125400960445, -0.02846396155655384, 0.0038057249039411545, 0.1099943220615387, 0.24073505401611328, -1.5614948948769234, 1.2291560377001929, -16.31969716810316, 9362.0, 38010.0, 35388.0, 9362.0, 8.231406211853027, 0.00884256325662136, 0.11786728352308273, 0.23166698217391968, -0.00283705722540617, -0.06891369074583054, 1.0011281967163086, -0.12736035883426666, -0.10231781005859375, 1.487548828125, 1.469970703125, 0.1386566162109375, 1.692626953125
522633, 0.04376604035496712, -0.14102260768413544, 0.05694756656885147, 0.02950039692223072, -0.005962930154055357, -0.03376665711402893, 0.03478781506419182, -0.0077452766709029675, -0.02842053957283497, 0.003817778080701828, 0.10998337715864182, 0.24074099957942963, -1.5799302225954754, 1.2456973329525738, -16.302848926219447, 9362.0, 38010.0, 35388.0, 9362.0, 8.231406211853027, -0.04782002046704292, -0.05991316959261894, 0.09160131961107254, -0.005143722053617239, -0.06705047190189362, 0.9999741315841675, -0.1233084499835968, -0.08439826965332031, 1.489013671875, 1.4150390625, 0.05596923828125, 1.692626953125
522643, 0.0445500947535038, -0.14059680700302124, 0.05793481692671776, 0.02984948270022869, -0.0060407561250030994, -0.03405105322599411, 0.035029247403144836, -0.007819936610758305, -0.02845834754407406, 0.0038030873984098434, 0.109974704682827, 0.24069125950336456, -1.5696479850425074, 1.2718657530726318, -16.30761598275033, 9362.0, 38010.0, 35388.0, 9362.0, 8.231406211853027, -0.1421523541212082, -0.17313776910305023, 0.10725327581167221, -0.003216249169781804, -0.06810809671878815, 0.9986435174942017, -0.11928758770227432, -0.08439826965332031, 1.489013671875, 1.41796875, 0.05950927734375, 1.6904296875
522653, 0.044799044728279114, -0.13930964469909668, 0.05811615660786629, 0.030200978741049767, -0.006119335535913706, -0.03433602675795555, 0.03526986017823219, -0.007895909249782562, -0.02853570319712162, 0.0037964200600981712, 0.10997607558965683, 0.24068817496299744, -1.5532864549399783, 1.2388418928507008, -16.297355860560273, 9362.0, 38010.0, 35388.0, 9362.0, 8.231406211853027, -0.10388407856225967, 0.3725290298461914, 0.03063995949923992, -0.0021262471564114094, -0.06810767203569412, 1.000354290008545, -0.1166362389922142, -0.04855918884277344, 1.491943359375, 1.405517578125, 0.0454254150390625, 1.69189453125
522663, 0.04359716549515724, -0.14195683598518372, 0.058388449251651764, 0.030554870143532753, -0.006198676768690348, -0.034621454775333405, 0.035508424043655396, -0.007972360588610172, -0.028549328446388245, 0.003820959944278002, 0.10997603088617325, 0.2407275140285492, -1.5637727039776381, 1.236266932648448, -16.318441795750758, 9362.0, 38010.0, 35388.0, 9362.0, 8.231406211853027, 0.12816350162029266, -0.0349612794816494, -0.1481894850730896, -0.003919034730643034, -0.06457971036434174, 0.9966626763343811, -0.11503573507070541, -0.06647872924804688, 1.490478515625, 1.417236328125, 0.058624267578125, 1.692626953125
522673, 0.04547302424907684, -0.14322516322135925, 0.05838736891746521, 0.030911166220903397, -0.0062787714414298534, -0.034908395260572433, 0.03575083613395691, -0.008046530187129974, -0.028838271275162697, 0.0038034552708268166, 0.1099749505519867, 0.24072209000587463, -1.5685483538412397, 1.2649292044621063, -16.318463692196207, 9362.0, 38010.0, 35388.0, 9362.0, 8.231406211853027, -0.05503161996603012, 0.21492740511894226, -0.24796901643276215, -0.005173171404749155, -0.06799200177192688, 0.9989389181137085, -0.11420039087533951, -0.08439826965332031, 1.489013671875, 1.41064453125, 0.0509490966796875, 1.695556640625
522683, 0.04466739296913147, -0.14388634264469147, 0.05767916887998581, 0.031269900500774384, -0.006359624210745096, -0.03519751876592636, 0.03599576652050018, -0.008124025538563728, -0.028985723853111267, 0.00383619568310678, 0.10998932272195816, 0.2407175898551941, -1.5824535363606058, 1.2406052523108144, -16.330217194267952, 9362.0, 38010.0, 35388.0, 9362.0, 8.231406211853027, -0.09489312022924423, 0.3191356360912323, 0.4798296093940735, -0.004815042484551668, -0.06929384171962738, 0.9971413612365723, -0.11592201888561249, -0.12023735046386719, 1.486083984375, 1.32861328125, 0.0214385986328125, 1.692626953125
522693, 0.04466095566749573, -0.1450529545545578, 0.05903935059905052, 0.03163108602166176, -0.006441244389861822, -0.03548877313733101, 0.036241497844457626, -0.008200033567845821, -0.02926473133265972, 0.0038066182751208544, 0.10999210178852081, 0.24069559574127197, -1.5772336430820457, 1.227227193537999, -16.30506188056249, 9362.0, 38010.0, 35388.0, 9362.0, 8.231406211853027, -0.23073285818099976, -0.09180403500795364, -0.11714785546064377, -0.005626121070235968, -0.06881532818078995, 0.9980518221855164, -0.11853374540805817, -0.07543754577636719, 1.48974609375, 1.32568359375, 0.0232086181640625, 1.6962890625
522703, 0.043527886271476746, -0.14431193470954895, 0.06025191769003868, 0.031994741410017014, -0.006523624993860722, -0.035782475024461746, 0.036489397287368774, -0.008276079781353474, -0.029474947601556778, 0.003805779619142413, 0.10997883230447769, 0.24068625271320343, -1.6257970592549444, 1.27257742180862, -16.312533772433692, 9362.0, 38010.0, 35388.0, 9362.0, 8.231406211853027, 0.03821214661002159, 0.12128770351409912, 0.04516298696398735, -0.004736962728202343, -0.06923148036003113, 0.9973798394203186, -0.11568663269281387, -0.11127853393554688, 1.48681640625, 1.322021484375, 0.0257415771484375, 1.692626953125
522713, 0.0429326631128788, -0.1444847136735916, 0.06148381903767586, 0.03236086666584015, -0.006606756243854761, -0.03607853129506111, 0.0367359034717083, -0.008350146934390068, -0.02973591350018978, 0.0038117230869829655, 0.10998968780040741, 0.2407112419605255, -1.5408715291890767, 1.2610402547819888, -16.3359445730218, 9362.0, 38010.0, 35388.0, 9362.0, 8.231406211853027, 0.12352649122476578, -0.13946019113063812, 0.2946791648864746, -0.005689443089067936, -0.06968370825052261, 0.9978882074356079, -0.11926562339067459, -0.12023735046386719, 1.486083984375, 1.3095703125, 0.037139892578125, 1.692626953125
522723, 0.04237052798271179, -0.1441333144903183, 0.06358731538057327, 0.032729461789131165, -0.006690623238682747, -0.03637702390551567, 0.03698280081152916, -0.008423213846981525, -0.029962563887238503, 0.003806107910349965, 0.10997550934553146, 0.24071437120437622, -1.5552622342055282, 1.2287983927233768, -16.327649182432893, 9362.0, 38010.0, 35388.0, 9362.0, 8.231406211853027, 0.056234363466501236, 0.27016523480415344, 0.06439822167158127, -0.0056141093373298645, -0.06676749140024185, 0.9978249669075012, -0.12289942055940628, -0.1291980743408203, 1.4853515625, 1.33740234375, 0.0175323486328125, 1.691162109375
522733, 0.04288318380713463, -0.1458752304315567, 0.0645105168223381, 0.03310052305459976, -0.006775216199457645, -0.03667760640382767, 0.03722917661070824, -0.008495339192450047, -0.03015350177884102, 0.00381277222186327, 0.10997997969388962, 0.2407195121049881, -1.576880482667376, 1.296567389401929, -16.322832470650745, 9362.0, 38010.0, 35388.0, 9362.0, 8.231406211853027, -0.15678714215755463, -0.16998104751110077, -0.09776239842176437, -0.003704403294250369, -0.0663992241024971, 0.9992430210113525, -0.12126868218183517, -0.09335899353027344, 1.48828125, 1.38134765625, 0.025177001953125, 1.6962890625
522743, 0.04212915152311325, -0.14577411115169525, 0.06375154107809067, 0.033474065363407135, -0.006860535126179457, -0.036979299038648605, 0.037478942424058914, -0.008568461053073406, -0.030184544622898102, 0.003810330294072628, 0.10997144132852554, 0.24077144265174866, -1.5277946938757008, 1.2070399178050195, -16.313303164495398, 9362.0, 38010.0, 35388.0, 9362.0, 8.231406211853027, 0.02812587283551693, 0.17925022542476654, 0.11810155212879181, -0.003873210633173585, -0.0677681490778923, 1.000617504119873, -0.1202651709318161, -0.08439826965332031, 1.489013671875, 1.31396484375, 0.0325469970703125, 1.6875
522753, 0.04248794540762901, -0.14845682680606842, 0.06448826938867569, 0.03385010361671448, -0.006946579087525606, -0.03728100284934044, 0.0377286896109581, -0.008640334010124207, -0.030155804008245468, 0.0038136206567287445, 0.10998447239398956, 0.2406810075044632, -1.5757423561825534, 1.271545234154047, -16.319593983279518, 9362.0, 38010.0, 35388.0, 9362.0, 8.231406211853027, -0.017681444063782692, -0.44456297159194946, -0.09303970634937286, -0.004211342893540859, -0.06730632483959198, 0.9982905983924866, -0.12009141594171524, -0.18295860290527344, 1.48095703125, 1.31396484375, 0.0325469970703125, 1.69775390625
522763, 0.04337043687701225, -0.14661280810832977, 0.06298580765724182, 0.03422866016626358, -0.007033344358205795, -0.037583351135253906, 0.03798254579305649, -0.008712681010365486, -0.03031352534890175, 0.0038122606929391623, 0.10999880731105804, 0.24076305329799652, -1.5866983684684381, 1.277603818784229, -16.327365241048533, 9362.0, 38010.0, 35388.0, 9362.0, 8.231406211853027, -0.045120079070329666, 0.09226839989423752, -0.10091858357191086, -0.003689949167892337, -0.0678127333521843, 0.997953474521637, -0.11727424710988998, -0.14711761474609375, 1.48388671875, 1.320556640625, 0.02685546875, 1.693359375
522773, 0.04341704770922661, -0.14752335846424103, 0.06471814960241318, 0.03460973873734474, -0.00712084025144577, -0.037887588143348694, 0.038233090192079544, -0.008786489255726337, -0.03053341619670391, 0.003794979304075241, 0.10997805744409561, 0.24073347449302673, -1.564447375294483, 1.268771047358598, -16.304998829430662, 9362.0, 38010.0, 35388.0, 9362.0, 8.231406211853027, -0.06841658800840378, 0.2476850301027298, -0.14457325637340546, -0.0044277929700911045, -0.0690457746386528, 0.9977996945381165, -0.11790669709444046, -0.10231781005859375, 1.487548828125, 1.31982421875, 0.0273590087890625, 1.689697265625
522783, 0.04312464967370033, -0.14807863533496857, 0.06448958814144135, 0.034993331879377365, -0.007209074683487415, -0.0381937250494957, 0.038485344499349594, -0.008860423229634762, -0.03069356083869934, 0.003820143174380064, 0.10999472439289093, 0.24072375893592834, -1.5934341648975308, 1.291467328130551, -16.32041997330649, 9362.0, 38010.0, 35388.0, 9362.0, 8.231406211853027, -0.0021992449183017015, 0.06478764116764069, -0.011118896305561066, -0.003814202267676592, -0.06870272755622864, 0.9991714358329773, -0.11765332520008087, -0.11127853393554688, 1.48681640625, 1.332275390625, 0.019561767578125, 1.69482421875
522793, 0.04295974597334862, -0.1484140157699585, 0.0647038146853447, 0.035379454493522644, -0.007298046723008156, -0.038500841706991196, 0.03873887285590172, -0.00893394649028778, -0.030729224905371666, 0.0038076024502515793, 0.10998598486185074, 0.2407461404800415, -1.5457722973491752, 1.279625741249447, -16.31338175077797, 9362.0, 38010.0, 35388.0, 9362.0, 8.231406211853027, -0.11234597861766815, -0.11189471185207367, 0.09894922375679016, -0.003348327474668622, -0.06774716079235077, 1.000491738319397, -0.12216528505086899, -0.20087814331054688, 1.4794921875, 1.31689453125, 0.0298919677734375, 1.69189453125
522803, 0.042362701147794724, -0.14905856549739838, 0.06497986614704132, 0.035768114030361176, -0.007387752644717693, -0.03880828619003296, 0.038992989808321, -0.00900719128549099, -0.030759017914533615, 0.00381611380726099, 0.10998906940221786, 0.24073393642902374, -1.5979846931642265, 1.2142148792168825, -16.325661923850344, 9362.0, 38010.0, 35388.0, 9362.0, 8.231406211853027, -0.05184174329042435, 0.06057874113321304, 0.08772703260183334, -0.002972334623336792, -0.06881572306156158, 0.9981476664543152, -0.12384620308876038, -0.1291980743408203, 1.4853515625, 1.31982421875, 0.0273590087890625, 1.694091796875
522813, 0.04243941977620125, -0.14974971115589142, 0.06670581549406052, 0.036159317940473557, -0.007478185463696718, -0.039116572588682175, 0.039247915148735046, -0.009079322218894958, -0.030897757038474083, 0.0037958489265292883, 0.10998882353305817, 0.24073156714439392, -1.547389794948984, 1.2270785008122118, -16.322574851461113, 9362.0, 38010.0, 35388.0, 9362.0, 8.231406211853027, -0.10882839560508728, -0.1780516654253006, 0.043747495859861374, -0.0037912079133093357, -0.06889484822750092, 1.0014342069625854, -0.12046936899423599, -0.12023735046386719, 1.486083984375, 1.316162109375, 0.030517578125, 1.6904296875
522823, 0.04192725196480751, -0.14701595902442932, 0.06697002798318863, 0.03655308112502098, -0.007569340988993645, -0.03942501172423363, 0.03950467333197594, -0.009151765145361423, -0.03078935109078884, 0.0038041563238948584, 0.10998043417930603, 0.24069856107234955, -1.5669322352181208, 1.2930906699897662, -16.30388309389583, 9362.0, 38010.0, 35388.0, 9362.0, 8.231406211853027, 0.02502160333096981, -0.21182692050933838, 0.07408440858125687, -0.004161249380558729, -0.06869823485612869, 1.0001389980316162, -0.12038573622703552, -0.14711761474609375, 1.48388671875, 1.2744140625, 0.0959014892578125, 1.693359375
522833, 0.04151970148086548, -0.14528407156467438, 0.0680387020111084, 0.036949388682842255, -0.007661216426640749, -0.03973275050520897, 0.03975655883550644, -0.009223275817930698, -0.030758315697312355, 0.0037970258854329586, 0.10997086763381958, 0.24070532619953156, -1.5903880800964938, 1.267366365273432, -16.30398614763537, 9362.0, 38010.0, 35388.0, 9362.0, 8.231406211853027, -0.16175317764282227, 0.020808273926377296, 0.11105164140462875, -0.0056211515329778194, -0.06769837439060211, 1.0012954473495483, -0.12012878060340881, -0.10231781005859375, 1.487548828125, 1.487548828125, 0.1712188720703125, 1.69482421875
522843, 0.04133737087249756, -0.14378702640533447, 0.06697829067707062, 0.037348199635744095, -0.0077538033947348595, -0.04003987833857536, 0.04000562056899071, -0.009294139221310616, -0.03066660836338997, 0.0038160085678100586, 0.10999155044555664, 0.24072982370853424, -1.5709992702291713, 1.2271686478346453, -16.31379671692181, 9362.0, 38010.0, 35388.0, 9362.0, 8.231406211853027, 0.1511634737253189, -0.2864769995212555, -0.26370739936828613, -0.0046653151512146, -0.0691199004650116, 0.9988431334495544, -0.12399180978536606, -0.1291980743408203, 1.4853515625, 1.493408203125, 0.1825714111328125, 1.693359375
522853, 0.041995979845523834, -0.14192363619804382, 0.0647992417216301, 0.037348199635744095, -0.0077538033947348595, -0.04003987833857536, 0.04000562056899071, -0.009294139221310616, -0.03066660836338997, 0.0038114399649202824, 0.10997489839792252, 0.24067291617393494, -1.5854347053048463, 1.2646907747505054, -16.315166355325275, 9362.0, 38010.0, 35388.0, 9362.0, 8.231406211853027, 0.1511634737253189, -0.2864769995212555, -0.26370739936828613, -0.001964378170669079, -0.06891293823719025, 0.9979513883590698, -0.1190197765827179, -0.08439826965332031, 1.489013671875, 1.493408203125, 0.1825714111328125, 1.693359375
522873, 0.04185827821493149, -0.14321595430374146, 0.06447654962539673, 0.03855937346816063, -0.008035815320909023, -0.04096781462430954, 0.04073833301663399, -0.009507029317319393, -0.03134623169898987, 0.003808428067713976, 0.10997553169727325, 0.2407355010509491, -1.5556175477054868, 1.2311211563533675, -16.31108971758886, 9362.0, 38010.0, 35388.0, 9362.0, 8.231406211853027, 0.05748455971479416, 0.18344493210315704, 0.1756529062986374, -0.004152832552790642, -0.06895724684000015, 0.996304988861084, -0.1190197765827179, -0.08439826965332031, 1.489013671875, 1.45458984375, 0.11224365234375, 1.693359375
522893, 0.04360995441675186, -0.14368639886379242, 0.0643664300441742, 0.03855937346816063, -0.008035815320909023, -0.04096781462430954, 0.04073833301663399, -0.009507029317319393, -0.03134623169898987, 0.003806313266977668, 0.10998434573411942, 0.24069646000862122, -1.5632974064968586, 1.240677458496009, -16.310419698809383, 9362.0, 38010.0, 35388.0, 9362.0, 8.231406211853027, 0.017530830577015877, -0.10255497694015503, -0.20066414773464203, -0.004416229203343391, -0.0680970773100853, 0.9999411106109619, -0.11775074899196625, -0.11127853393554688, 1.48681640625, 1.496337890625, 0.1883087158203125, 1.693359375
522903, 0.04414751008152962, -0.14533205330371857, 0.06378240138292313, 0.03855937346816063, -0.008035815320909023, -0.04096781462430954, 0.04073833301663399, -0.009507029317319393, -0.03134623169898987, 0.0038079924415796995, 0.10997051745653152, 0.24071522057056427, -1.5739699872837867, 1.2885175536855513, -16.325149519623366, 9362.0, 38010.0, 35388.0, 9362.0, 8.231406211853027, -0.07397281378507614, 0.17543034255504608, 0.059550318866968155, -0.004416229203343391, -0.0680970773100853, 0.9999411106109619, -0.11729755252599716, -0.06647872924804688, 1.490478515625, 1.496337890625, 0.1883087158203125, 1.693359375
522963, 0.04599345847964287, -0.14793197810649872, 0.0625099390745163, 0.041048161685466766, -0.00861941184848547, -0.04285789653658867, 0.0422288253903389, -0.00995091162621975, -0.03173074871301651, 0.0038135158829391003, 0.10997562110424042, 0.24071620404720306, -1.5432203418137225, 1.2534859779414376, -16.32773739436357, 9362.0, 38010.0, 35388.0, 9362.0, 8.231406211853027, 0.00751152029260993, -0.14286547899246216, -0.04615359008312225, -0.0036828462034463882, -0.06753762066364288, 1.000494360923767, -0.11250430345535278, -0.10231781005859375, 1.487548828125, 1.4970703125, 0.18975830078125, 1.693359375
522973, 0.045683011412620544, -0.14621268212795258, 0.06276769936084747, 0.041048161685466766, -0.00861941184848547, -0.04285789653658867, 0.0422288253903389, -0.00995091162621975, -0.03173074871301651, 0.0037961313501000404, 0.10998397320508957, 0.24067720770835876, -1.56160381005027, 1.2592976621382377, -16.30638560311141, 9362.0, 38010.0, 35388.0, 9362.0, 8.231406211853027, 0.2529172897338867, -0.37062138319015503, 0.019595149904489517, -0.0036828462034463882, -0.06753762066364288, 1.000494360923767, -0.11743538081645966, -0.11127853393554688, 1.48681640625, 1.4970703125, 0.18975830078125, 1.693359375
522993, 0.046173661947250366, -0.14474482834339142, 0.06365905702114105, 0.04362727329134941, -0.009230125695466995, -0.04478547349572182, 0.04373805969953537, -0.010411448776721954, -0.032250069081783295, 0.0038158539682626724, 0.10999073088169098, 0.24071474373340607, -1.5990587832701806, 1.249714841161449, -16.32021906039076, 9362.0, 38010.0, 35388.0, 9362.0, 8.231406211853027, 0.2529172897338867, -0.37062138319015503, 0.019595149904489517, -0.005529941525310278, -0.06810397654771805, 0.9988850951194763, -0.11971465498209, -0.15607833862304688, 1.483154296875, 1.494140625, 0.183990478515625, 1.693359375
523033, 0.04884186387062073, -0.15016323328018188, 0.06534184515476227, 0.04495061933994293, -0.009546032175421715, -0.045758407562971115, 0.04448805749416351, -0.010649867355823517, -0.032608579844236374, 0.003824719926342368, 0.10998430103063583, 0.240718275308609, -1.558013055366176, 1.2117927366816446, -16.314488402086678, 9362.0, 38010.0, 35388.0, 9362.0, 8.231406211853027, 0.004700750578194857, 0.19564491510391235, 0.1256384700536728, -0.0023779268376529217, -0.06732959300279617, 0.9985648989677429, -0.12149132043123245, -0.13815879821777344, 1.484619140625, 1.491943359375, 0.179656982421875, 1.693359375
523073, 0.050256431102752686, -0.1558418571949005, 0.06752459704875946, 0.04720725491642952, -0.010088914074003696, -0.04740297049283981, 0.045787204056978226, -0.011068262159824371, -0.033311840146780014, 0.0038116206414997578, 0.10999169945716858, 0.24066008627414703, -1.58467313090719, 1.3025072406875324, -16.325366186054907, 9362.0, 38010.0, 35388.0, 9362.0, 8.231406211853027, -0.0018613942665979266, -0.016917981207370758, 0.27310219407081604, -0.004870021715760231, -0.06980917602777481, 0.9967747926712036, -0.11346428841352463, -0.08439826965332031, 1.489013671875, 1.491943359375, 0.179656982421875, 1.693359375
523083, 0.05172223597764969, -0.15917429327964783, 0.06913118809461594, 0.04720725491642952, -0.010088914074003696, -0.04740297049283981, 0.045787204056978226, -0.011068262159824371, -0.033311840146780014, 0.0038198286201804876, 0.10997481644153595, 0.24074627459049225, -1.5190410407426154, 1.1911644791742617, -16.308368291094837, 9362.0, 38010.0, 35388.0, 9362.0, 8.231406211853027, -0.1331174522638321, 0.09614308178424835, -0.12355359643697739, -0.004870021715760231, -0.06980917602777481, 0.9967747926712036, -0.11659448593854904, -0.11127853393554688, 1.48681640625, 1.491943359375, 0.179656982421875, 1.693359375
523093, 0.05108482763171196, -0.15849469602108002, 0.06922198086977005, 0.04720725491642952, -0.010088914074003696, -0.04740297049283981, 0.045787204056978226, -0.011068262159824371, -0.033311840146780014, 0.003823864972218871, 0.10998523980379105, 0.2407199740409851, -1.587522914721247, 1.23372776859145, -16.319210533058545, 9362.0, 38010.0, 35388.0, 9362.0, 8.231406211853027, 0.09510902315378189, -0.0927896499633789, -0.1870245486497879, -0.004870021715760231, -0.06980917602777481, 0.9967747926712036, -0.11659448593854904, -0.11127853393554688, 1.48681640625, 1.319091796875, 0.0279998779296875, 1.693359375
523103, 0.05142320320010185, -0.15846195816993713, 0.0692724958062172, 0.04720725491642952, -0.010088914074003696, -0.04740297049283981, 0.045787204056978226, -0.011068262159824371, -0.033311840146780014, 0.0038306599017232656, 0.10999639332294464, 0.24073074758052826, -1.5616446582665637, 1.2033214088955333, -16.329809402438926, 9362.0, 38010.0, 35388.0, 9362.0, 8.231406211853027, -0.15307676792144775, 0.006133371032774448, -0.006024372763931751, -0.004870021715760231, -0.06980917602777481, 0.9967747926712036, -0.11918311566114426, -0.15607833862304688, 1.483154296875, 1.319091796875, 0.0279998779296875, 1.693359375
523113, 0.05138058587908745, -0.1598484218120575, 0.06873048096895218, 0.04720725491642952, -0.010088914074003696, -0.04740297049283981, 0.045787204056978226, -0.011068262159824371, -0.033311840146780014, 0.0038120094686746597, 0.10997618734836578, 0.24067430198192596, -1.578958378254501, 1.23673746023195, -16.311030407244875, 9362.0, 38010.0, 35388.0, 9362.0, 8.231406211853027, -0.06554235517978668, -0.028719225898385048, -0.23978842794895172, -0.002770551946014166, -0.07026220858097076, 0.9973560571670532, -0.11918311566114426, -0.15607833862304688, 1.483154296875, 1.320556640625, 0.02685546875, 1.693359375
523143, 0.051405154168605804, -0.16083693504333496, 0.06727474182844162, 0.05047858878970146, -0.010885012336075306, -0.0497833751142025, 0.04768802225589752, -0.01167922094464302, -0.03453592583537102, 0.003840383840724826, 0.10997798293828964, 0.24070364236831665, -1.607812130061608, 1.2828844849091467, -16.325445459179516, 9362.0, 38010.0, 35388.0, 9362.0, 8.231406211853027, -0.06554235517978668, -0.028719225898385048, -0.23978842794895172, -0.0012699294602498412, -0.067454993724823, 0.9986189603805542, -0.11918311566114426, -0.15607833862304688, 1.483154296875, 1.32275390625, 0.0251312255859375, 1.693359375
523153, 0.05169012024998665, -0.15926064550876617, 0.06682045012712479, 0.05047858878970146, -0.010885012336075306, -0.0497833751142025, 0.04768802225589752, -0.01167922094464302, -0.03453592583537102, 0.003835827112197876, 0.10998999327421188, 0.24069663882255554, -1.5683518015920161, 1.2416144835657974, -16.327145190951224, 9362.0, 38010.0, 35388.0, 9362.0, 8.231406211853027, -0.007438020780682564, 0.16171330213546753, 0.24206745624542236, -0.0012699294602498412, -0.067454993724823, 0.9986189603805542, -0.12202660739421844, -0.12023735046386719, 1.486083984375, 1.32275390625, 0.0251312255859375, 1.693359375
523213, 0.05316175892949104, -0.16761340200901031, 0.0642254650592804, 0.052408114075660706, -0.011359189637005329, -0.051174938678741455, 0.04879416525363922, -0.012027495540678501, -0.03494357690215111, 0.0038227348122745752, 0.10997569561004639, 0.240708589553833, -1.616706528785853, 1.2033246988343649, -16.315389926464352, 9362.0, 38010.0, 35388.0, 9362.0, 8.231406211853027, 0.3635699152946472, -0.02739345096051693, -0.19245842099189758, -0.003502181265503168, -0.07067963480949402, 0.9996389746665955, -0.12327638268470764, -0.1291980743408203, 1.4853515625, 1.317626953125, 0.0291900634765625, 1.693359375
523233, 0.05453654006123543, -0.16863735020160675, 0.0655304491519928, 0.054883234202861786, -0.011971643194556236, -0.05293396860361099, 0.05021686851978302, -0.012475996278226376, -0.03569525480270386, 0.003813582006841898, 0.10997241735458374, 0.24071136116981506, -1.548619457964485, 1.267328403708774, -16.308746322544835, 9362.0, 38010.0, 35388.0, 9362.0, 8.231406211853027, 0.3635699152946472, -0.02739345096051693, -0.19245842099189758, -0.005521489307284355, -0.06705576181411743, 1.0002520084381104, -0.12327638268470764, -0.1291980743408203, 1.4853515625, 1.311767578125, 0.0348052978515625, 1.693359375
523263, 0.05587538704276085, -0.1720932126045227, 0.06874252110719681, 0.05640275776386261, -0.012350151315331459, -0.05400438234210014, 0.05108693987131119, -0.012759176082909107, -0.03567830100655556, 0.0038252174854278564, 0.10998643189668655, 0.24071437120437622, -1.5784209329290635, 1.212321175971681, -16.313597740214316, 9362.0, 38010.0, 35388.0, 9362.0, 8.231406211853027, 0.13627967238426208, 0.3238893151283264, 0.22210820019245148, -0.004857530351728201, -0.06626896560192108, 0.9995224475860596, -0.1202002465724945, -0.11127853393554688, 1.48681640625, 1.32421875, 0.024139404296875, 1.693359375
523273, 0.056545358151197433, -0.1721888780593872, 0.06901750713586807, 0.05640275776386261, -0.012350151315331459, -0.05400438234210014, 0.05108693987131119, -0.012759176082909107, -0.03567830100655556, 0.0038015535101294518, 0.1099756583571434, 0.24070869386196136, -1.5834467291998513, 1.2323976496716966, -16.318378505169033, 9362.0, 38010.0, 35388.0, 9362.0, 8.231406211853027, 0.004442743957042694, -0.13047389686107635, -0.03404013440012932, -0.004857530351728201, -0.06626896560192108, 0.9995224475860596, -0.11736951768398285, -0.07543754577636719, 1.48974609375, 1.32421875, 0.024139404296875, 1.693359375
523283, 0.05599059909582138, -0.17234230041503906, 0.06948281079530716, 0.05640275776386261, -0.012350151315331459, -0.05400438234210014, 0.05108693987131119, -0.012759176082909107, -0.03567830100655556, 0.003818010212853551, 0.10998459160327911, 0.24072334170341492, -1.5506179881925375, 1.1966473020936519, -16.312647077564012, 9362.0, 38010.0, 35388.0, 9362.0, 8.231406211853027, -0.13060559332370758, 0.05994401127099991, 0.019229182973504066, -0.004857530351728201, -0.06626896560192108, 0.9995224475860596, -0.11768023669719696, -0.14711761474609375, 1.48388671875, 1.32421875, 0.024139404296875, 1.693359375
523313, 0.05795251205563545, -0.17394328117370605, 0.06954342871904373, 0.05899394676089287, -0.013000061735510826, -0.05579596012830734, 0.05256085470318794, -0.013238477520644665, -0.03600131720304489, 0.0038110362365841866, 0.10997434705495834, 0.2407175898551941, -1.5572228344921042, 1.2056276672844035, -16.3071846966592, 9362.0, 38010.0, 35388.0, 9362.0, 8.231406211853027, 0.10717899352312088, 0.2535962164402008, 0.1109107956290245, -0.004857530351728201, -0.06626896560192108, 0.9995224475860596, -0.11749108880758286, -0.08439826965332031, 1.489013671875, 1.32421875, 0.024139404296875, 1.693359375
523333, 0.05700945109128952, -0.1738670915365219, 0.06934786587953568, 0.06005111709237099, -0.013266808353364468, -0.05651500076055527, 0.05315564200282097, -0.013436057604849339, -0.035898175090551376, 0.0038075775373727083, 0.10997537523508072, 0.2406833916902542, -1.552256914182128, 1.226692764286497, -16.315256157530925, 9362.0, 38010.0, 35388.0, 9362.0, 8.231406211853027, -0.10737621784210205, 0.05215096101164818, -0.011238097213208675, -0.004857530351728201, -0.06626896560192108, 0.9995224475860596, -0.11939414590597153, -0.15607833862304688, 1.483154296875, 1.32421875, 0.024139404296875, 1.693359375
523383, 0.05610388517379761, -0.1741001456975937, 0.07247792184352875, 0.06274627894163132, -0.013950776308774948, -0.058332085609436035, 0.054653190076351166, -0.013921316713094711, -0.036859069019556046, 0.003804691368713975, 0.10998552292585373, 0.24070534110069275, -1.5753374280239847, 1.2545689137893987, -16.32590507724298, 9362.0, 38010.0, 35388.0, 9362.0, 8.231406211853027, -0.10737621784210205, 0.05215096101164818, -0.011238097213208675, -0.0034413072280585766, -0.07027039676904678, 0.9977466464042664, -0.11809480935335159, -0.09335899353027344, 1.48828125, 1.323486328125, 0.024688720703125, 1.693359375
523393, 0.056542228907346725, -0.17515310645103455, 0.07334262132644653, 0.06274627894163132, -0.013950776308774948, -0.058332085609436035, 0.054653190076351166, -0.013921316713094711, -0.036859069019556046, 0.0038187296595424414, 0.10996522754430771, 0.240718275308609, -1.5271884553883992, 1.1951716239118753, -16.323602794945177, 9362.0, 38010.0, 35388.0, 9362.0, 8.231406211853027, -0.10737621784210205, 0.05215096101164818, -0.011238097213208675, -0.003178179496899247, -0.06843724846839905, 0.9968164563179016, -0.11809480935335159, -0.09335899353027344, 1.48828125, 1.323486328125, 0.024688720703125, 1.693359375
523403, 0.05637061595916748, -0.17603017389774323, 0.07415501773357391, 0.06274627894163132, -0.013950776308774948, -0.058332085609436035, 0.054653190076351166, -0.013921316713094711, -0.036859069019556046, 0.0038274298422038555, 0.10999412089586258, 0.24071577191352844, -1.5581634879885657, 1.2579933128796483, -16.332665916205585, 9362.0, 38010.0, 35388.0, 9362.0, 8.231406211853027, -0.21637941896915436, 0.09930729120969772, 0.12289047241210938, -0.003178179496899247, -0.06843724846839905, 0.9968164563179016, -0.11809480935335159, -0.09335899353027344, 1.48828125, 1.323486328125, 0.024688720703125, 1.693359375
523433, 0.055596645921468735, -0.17434434592723846, 0.07333123683929443, 0.0655163824558258, -0.014658793807029724, -0.06020066514611244, 0.056155115365982056, -0.01439777109771967, -0.03797043487429619, 0.0037946184165775776, 0.10997878760099411, 0.240718811750412, -1.559639957610662, 1.249468952523074, -16.30161859544985, 9362.0, 38010.0, 35388.0, 9362.0, 8.231406211853027, -0.21637941896915436, 0.09930729120969772, 0.12289047241210938, -0.004045094829052687, -0.07047155499458313, 0.9967761635780334, -0.11410955339670181, -0.10231781005859375, 1.487548828125, 1.323486328125, 0.024688720703125, 1.693359375
523443, 0.05481665953993797, -0.17456217110157013, 0.07223684340715408, 0.0655163824558258, -0.014658793807029724, -0.06020066514611244, 0.056155115365982056, -0.01439777109771967, -0.03797043487429619, 0.0038236603140830994, 0.10999452322721481, 0.2407207041978836, -1.608373848127315, 1.282018293577579, -16.320305787258274, 9362.0, 38010.0, 35388.0, 9362.0, 8.231406211853027, -0.21637941896915436, 0.09930729120969772, 0.12289047241210938, -0.002732447348535061, -0.06884579360485077, 1.000201940536499, -0.11410955339670181, -0.10231781005859375, 1.487548828125, 1.323486328125, 0.024688720703125, 1.693359375
523493, 0.05048786476254463, -0.17501123249530792, 0.07589399814605713, 0.06836144626140594, -0.015390301123261452, -0.06211000308394432, 0.05765151605010033, -0.014856712892651558, -0.03846029192209244, 0.0038340273313224316, 0.10997143387794495, 0.24071495234966278, -1.5637190258613234, 1.2212210965325312, -16.32080146927441, 9362.0, 38010.0, 35388.0, 9362.0, 8.231406211853027, 0.08895915001630783, 0.08368273079395294, -0.16379480063915253, -0.004198689479380846, -0.06922439485788345, 0.9998489022254944, -0.11610900610685349, -0.1291980743408203, 1.4853515625, 1.490478515625, 0.1768646240234375, 1.693359375
523503, 0.05094976723194122, -0.17710953950881958, 0.07531872391700745, 0.06836144626140594, -0.015390301123261452, -0.06211000308394432, 0.05765151605010033, -0.014856712892651558, -0.03846029192209244, 0.0038111135363578796, 0.10997510701417923, 0.2407051920890808, -1.5660562511984228, 1.2086863698263528, -16.304041842462162, 9362.0, 38010.0, 35388.0, 9362.0, 8.231406211853027, 0.0983261913061142, -0.006910959258675575, 0.009353839792311192, -0.004198689479380846, -0.06922439485788345, 0.9998489022254944, -0.11610900610685349, -0.1291980743408203, 1.4853515625, 1.490478515625, 0.1768646240234375, 1.693359375
523553, 0.05118221044540405, -0.1797383725643158, 0.07184571772813797, 0.07247097790241241, -0.016451584175229073, -0.06484463065862656, 0.059772226959466934, -0.015463409014046192, -0.039705242961645126, 0.003827046835795045, 0.10998962819576263, 0.2407110631465912, -1.5646966887843416, 1.2444325166810302, -16.31319480403935, 9362.0, 38010.0, 35388.0, 9362.0, 8.231406211853027, 0.0983261913061142, -0.006910959258675575, 0.009353839792311192, -0.003273715963587165, -0.06743746995925903, 0.9983975291252136, -0.12301497906446457, -0.12023735046386719, 1.486083984375, 1.489013671875, 0.174041748046875, 1.693359375
523563, 0.05239380523562431, -0.18238773941993713, 0.07183419913053513, 0.07247097790241241, -0.016451584175229073, -0.06484463065862656, 0.059772226959466934, -0.015463409014046192, -0.039705242961645126, 0.0038222314324229956, 0.10998843610286713, 0.2406931072473526, -1.5661467309805621, 1.2034106430644442, -16.33416905967935, 9362.0, 38010.0, 35388.0, 9362.0, 8.231406211853027, 0.0983261913061142, -0.006910959258675575, 0.009353839792311192, -0.0035980669781565666, -0.07019562274217606, 0.9994811415672302, -0.12301497906446457, -0.12023735046386719, 1.486083984375, 1.489013671875, 0.174041748046875, 1.693359375
523573, 0.05289194732904434, -0.17925626039505005, 0.07377269864082336, 0.07247097790241241, -0.016451584175229073, -0.06484463065862656, 0.059772226959466934, -0.015463409014046192, -0.039705242961645126, 0.003820293117314577, 0.10999096930027008, 0.24067823588848114, -1.6112426327097054, 1.248988782996662, -16.30625674460294, 9362.0, 38010.0, 35388.0, 9362.0, 8.231406211853027, 0.0983261913061142, -0.006910959258675575, 0.009353839792311192, -0.0039836042560637, -0.06935472786426544, 0.9989437460899353, -0.12301497906446457, -0.12023735046386719, 1.486083984375, 1.489013671875, 0.174041748046875, 1.693359375
523593, 0.05261196568608284, -0.181853786110878, 0.07316397875547409, 0.07488657534122467, -0.01707719825208187, -0.06643850356340408, 0.06100637465715408, -0.015818554908037186, -0.04002977907657623, 0.003799405414611101, 0.10997659713029861, 0.24071022868156433, -1.575321920139518, 1.255185451582122, -16.311122882887023, 9362.0, 38010.0, 35388.0, 9362.0, 8.231406211853027, 0.0983261913061142, -0.006910959258675575, 0.009353839792311192, -0.0033628682140260935, -0.06764239072799683, 0.9989138245582581, -0.12301497906446457, -0.12023735046386719, 1.486083984375, 1.49560546875, 0.1868743896484375, 1.693359375
523613, 0.05203184485435486, -0.18243367969989777, 0.07264465093612671, 0.07617455720901489, -0.017411353066563606, -0.06728102266788483, 0.06165727972984314, -0.016004515811800957, -0.04024629294872284, 0.0038243362214416265, 0.10998667031526566, 0.24070698022842407, -1.5846869742638887, 1.266124379790881, -16.317273610905637, 9362.0, 38010.0, 35388.0, 9362.0, 8.231406211853027, 0.0983261913061142, -0.006910959258675575, 0.009353839792311192, -0.00391181418672204, -0.067076176404953, 0.9990462064743042, -0.12301497906446457, -0.12023735046386719, 1.486083984375, 1.49560546875, 0.1868743896484375, 1.692626953125
523623, 0.05277283489704132, -0.18280920386314392, 0.07061418145895004, 0.07617455720901489, -0.017411353066563606, -0.06728102266788483, 0.06165727972984314, -0.016004515811800957, -0.04024629294872284, 0.0038315909914672375, 0.10998418927192688, 0.24068911373615265, -1.582324280994778, 1.2476322949615337, -16.317876960119072, 9362.0, 38010.0, 35388.0, 9362.0, 8.231406211853027, 0.017499461770057678, -0.3124905526638031, -0.12157116085290909, -0.00391181418672204, -0.067076176404953, 0.9990462064743042, -0.12301497906446457, -0.12023735046386719, 1.486083984375, 1.49560546875, 0.1868743896484375, 1.692626953125
523633, 0.052985407412052155, -0.17998415231704712, 0.06934040039777756, 0.07617455720901489, -0.017411353066563606, -0.06728102266788483, 0.06165727972984314, -0.016004515811800957, -0.04024629294872284, 0.003812013193964958, 0.10999231040477753, 0.24070943892002106, -1.5859669620192158, 1.2253849523054612, -16.315613637230175, 9362.0, 38010.0, 35388.0, 9362.0, 8.231406211853027, 0.17151883244514465, -0.17083987593650818, -0.019624918699264526, -0.00391181418672204, -0.067076176404953, 0.9990462064743042, -0.1205749437212944, -0.14711761474609375, 1.48388671875, 1.49560546875, 0.1868743896484375, 1.692626953125
523643, 0.054260607808828354, -0.18105396628379822, 0.07076147198677063, 0.07617455720901489, -0.017411353066563606, -0.06728102266788483, 0.06165727972984314, -0.016004515811800957, -0.04024629294872284, 0.003820774145424366, 0.10999216884374619, 0.24070096015930176, -1.578997866846556, 1.2535747253829754, -16.324321979397812, 9362.0, 38010.0, 35388.0, 9362.0, 8.231406211853027, 0.10785087198019028, 0.34134402871131897, 0.24155089259147644, -0.00391181418672204, -0.067076176404953, 0.9990462064743042, -0.1205749437212944, -0.14711761474609375, 1.48388671875, 1.49560546875, 0.1868743896484375, 1.692626953125
523663, 0.05476384982466698, -0.18645156919956207, 0.07232639193534851, 0.07929632067680359, -0.018222810700535774, -0.06931161880493164, 0.0632147341966629, -0.016457805410027504, -0.0410911962389946, 0.0038115817587822676, 0.10998573899269104, 0.2406916320323944, -1.555389295146807, 1.2562174201680136, -16.317438521802686, 9362.0, 38010.0, 35388.0, 9362.0, 8.231406211853027, 0.10785087198019028, 0.34134402871131897, 0.24155089259147644, -0.0035516556818038225, -0.06892076134681702, 0.9994189143180847, -0.11939777433872223, -0.1291980743408203, 1.4853515625, 1.49560546875, 0.1868743896484375, 1.692626953125
523683, 0.05361839011311531, -0.19013632833957672, 0.07080144435167313, 0.07929632067680359, -0.018222810700535774, -0.06931161880493164, 0.0632147341966629, -0.016457805410027504, -0.0410911962389946, 0.003808402456343174, 0.10997525602579117, 0.2407187670469284, -1.5693084062504277, 1.256208804542041, -16.30037090060242, 9362.0, 38010.0, 35388.0, 9362.0, 8.231406211853027, -0.07656052708625793, 0.1866394281387329, 0.1798953115940094, -0.00470512080937624, -0.06801045686006546, 0.9999713897705078, -0.11939777433872223, -0.1291980743408203, 1.4853515625, 1.465576171875, 0.130889892578125, 1.692626953125
523693, 0.05338785797357559, -0.19350729882717133, 0.07330799847841263, 0.07929632067680359, -0.018222810700535774, -0.06931161880493164, 0.0632147341966629, -0.016457805410027504, -0.0410911962389946, 0.003793447744101286, 0.10999061912298203, 0.24069376289844513, -1.5528800723252794, 1.2045453746455337, -16.30958828674907, 9362.0, 38010.0, 35388.0, 9362.0, 8.231406211853027, -0.14776121079921722, 0.13837875425815582, -0.03700167313218117, -0.00470512080937624, -0.06801045686006546, 0.9999713897705078, -0.11811055988073349, -0.12023735046386719, 1.486083984375, 1.465576171875, 0.130889892578125, 1.692626953125
523713, 0.05347849428653717, -0.19609598815441132, 0.07316145300865173, 0.0824974775314331, -0.01905721426010132, -0.07137476652860641, 0.06484899669885635, -0.016915107145905495, -0.04147130250930786, 0.003814722178503871, 0.10998869687318802, 0.2406829595565796, -1.5907492526849156, 1.268594045163212, -16.310970265793866, 9362.0, 38010.0, 35388.0, 9362.0, 8.231406211853027, 0.21715857088565826, -0.13747794926166534, 0.04465069994330406, -0.003192725358530879, -0.0666191577911377, 0.9989765286445618, -0.11735102534294128, -0.09335899353027344, 1.48828125, 1.465576171875, 0.130889892578125, 1.692626953125
523743, 0.05450005084276199, -0.2003084272146225, 0.07561995834112167, 0.08445806801319122, -0.019568782299757004, -0.07262066006660461, 0.06585871428251266, -0.017190048471093178, -0.04161648452281952, 0.003819536417722702, 0.10999643802642822, 0.24069923162460327, -1.598557525124476, 1.2646379393891038, -16.30080884446273, 9362.0, 38010.0, 35388.0, 9362.0, 8.231406211853027, 0.09624042361974716, 0.46382033824920654, 0.31781917810440063, -0.004983135964721441, -0.07054013758897781, 1.0003165006637573, -0.11820442229509354, -0.12023735046386719, 1.486083984375, 1.465576171875, 0.130889892578125, 1.692626953125
523793, 0.054032210260629654, -0.20332452654838562, 0.07773718982934952, 0.08779416978359222, -0.02043987438082695, -0.07472337037324905, 0.06759084016084671, -0.017652219161391258, -0.04251755774021149, 0.0038223022129386663, 0.10998088121414185, 0.24070197343826294, -1.5579654018911315, 1.2423233323260945, -16.334833892654384, 9362.0, 38010.0, 35388.0, 9362.0, 8.231406211853027, 0.09624042361974716, 0.46382033824920654, 0.31781917810440063, -0.0031134081073105335, -0.0681656152009964, 0.9975995421409607, -0.10970089584589005, -0.09335899353027344, 1.48828125, 1.497802734375, 0.19122314453125, 1.692626953125
523803, 0.053659915924072266, -0.20080919563770294, 0.07721467316150665, 0.08779416978359222, -0.02043987438082695, -0.07472337037324905, 0.06759084016084671, -0.017652219161391258, -0.04251755774021149, 0.003815425792708993, 0.10999733209609985, 0.24070684611797333, -1.6147275912187165, 1.2897236282383062, -16.306913168030643, 9362.0, 38010.0, 35388.0, 9362.0, 8.231406211853027, 0.05624966695904732, 0.14635202288627625, 0.05550670251250267, -0.0031134081073105335, -0.0681656152009964, 0.9975995421409607, -0.11433776468038559, -0.14711761474609375, 1.48388671875, 1.497802734375, 0.19122314453125, 1.692626953125
523813, 0.053834401071071625, -0.20323266088962555, 0.0773717612028122, 0.08779416978359222, -0.02043987438082695, -0.07472337037324905, 0.06759084016084671, -0.017652219161391258, -0.04251755774021149, 0.003817727090790868, 0.10997025668621063, 0.24070881307125092, -1.5900118879597611, 1.2200613283096402, -16.304707110091066, 9362.0, 38010.0, 35388.0, 9362.0, 8.231406211853027, -0.20765447616577148, -0.07109236717224121, 0.007521037477999926, -0.0031134081073105335, -0.0681656152009964, 0.9975995421409607, -0.10994686931371689, -0.08439826965332031, 1.489013671875, 1.497802734375, 0.19122314453125, 1.692626953125
523853, 0.05394723638892174, -0.2065705955028534, 0.07836570590734482, 0.091217041015625, -0.02133394032716751, -0.07686362415552139, 0.06932821124792099, -0.018110688775777817, -0.043115533888339996, 0.0038304277695715427, 0.10999754071235657, 0.24070823192596436, -1.566373612220742, 1.1996932908124336, -16.3090849397177, 9362.0, 38010.0, 35388.0, 9362.0, 8.231406211853027, 0.23401212692260742, 0.15486586093902588, -0.06611016392707825, -0.004033820237964392, -0.06940974295139313, 0.9983457922935486, -0.10994686931371689, -0.08439826965332031, 1.489013671875, 1.421630859375, 0.0640716552734375, 1.692626953125
523873, 0.056692175567150116, -0.20921270549297333, 0.07622384279966354, 0.091217041015625, -0.02133394032716751, -0.07686362415552139, 0.06932821124792099, -0.018110688775777817, -0.043115533888339996, 0.003819892415776849, 0.10997632890939713, 0.24067087471485138, -1.5445192806766135, 1.2051398247414227, -16.31255222859961, 9362.0, 38010.0, 35388.0, 9362.0, 8.231406211853027, 0.09046456217765808, -0.030462542548775673, -0.1513722836971283, -0.0027076350525021553, -0.06741460412740707, 1.0000152587890625, -0.10287387669086456, -0.05751800537109375, 1.4912109375, 1.42236328125, 0.0649566650390625, 1.692626953125
523883, 0.05695442482829094, -0.2126086950302124, 0.07751687616109848, 0.091217041015625, -0.02133394032716751, -0.07686362415552139, 0.06932821124792099, -0.018110688775777817, -0.043115533888339996, 0.0038448465056717396, 0.10998456180095673, 0.24070081114768982, -1.5831900696577539, 1.258371364937318, -16.318556516406247, 9362.0, 38010.0, 35388.0, 9362.0, 8.231406211853027, 0.13175679743289948, 0.10903658717870712, -0.032057538628578186, -0.0027076350525021553, -0.06741460412740707, 1.0000152587890625, -0.10287387669086456, -0.05751800537109375, 1.4912109375, 1.42236328125, 0.0649566650390625, 1.692626953125
523933, 0.06014182046055794, -0.2155994474887848, 0.07873576879501343, 0.09760148078203201, -0.023002227768301964, -0.08079084008932114, 0.07257580757141113, -0.01897759549319744, -0.044196028262376785, 0.003840940073132515, 0.10999586433172226, 0.24070042371749878, -1.5626231911000679, 1.2001289854968036, -16.310624368106158, 9362.0, 38010.0, 35388.0, 9362.0, 8.231406211853027, 0.08813870698213577, -0.152478888630867, 0.4440840184688568, -0.005185576155781746, -0.06855640560388565, 0.9989609122276306, -0.10152803361415863, -0.06647872924804688, 1.490478515625, 1.42236328125, 0.0649566650390625, 1.692626953125
523943, 0.059581924229860306, -0.21476787328720093, 0.07704261690378189, 0.09760148078203201, -0.023002227768301964, -0.08079084008932114, 0.07257580757141113, -0.01897759549319744, -0.044196028262376785, 0.0038441643118858337, 0.1099974736571312, 0.24071548879146576, -1.5582778769012255, 1.2397926132741475, -16.316922147045048, 9362.0, 38010.0, 35388.0, 9362.0, 8.231406211853027, 0.08813870698213577, -0.152478888630867, 0.4440840184688568, -0.0020612571388483047, -0.0675530955195427, 0.9990281462669373, -0.10099950432777405, -0.03959846496582031, 1.49267578125, 1.42236328125, 0.0649566650390625, 1.692626953125
523973, 0.060692865401506424, -0.21199217438697815, 0.07564690709114075, 0.09760148078203201, -0.023002227768301964, -0.08079084008932114, 0.07257580757141113, -0.01897759549319744, -0.044196028262376785, 0.003842423902824521, 0.10998396575450897, 0.24069418013095856, -1.588853716824123, 1.2640486001087368, -16.301857901020956, 9362.0, 38010.0, 35388.0, 9362.0, 8.231406211853027, -0.031374938786029816, -0.1616119146347046, -0.12865030765533447, -0.0030943709425628185, -0.06925669312477112, 1.001503825187683, -0.10099950432777405, -0.03959846496582031, 1.49267578125, 1.412109375, 0.0526123046875, 1.692626953125
523993, 0.060351960361003876, -0.21355733275413513, 0.07561641186475754, 0.09760148078203201, -0.023002227768301964, -0.08079084008932114, 0.07257580757141113, -0.01897759549319744, -0.044196028262376785, 0.0038587828166782856, 0.10998209565877914, 0.24068452417850494, -1.6082902947606716, 1.2700415733501131, -16.332091065991257, 9362.0, 38010.0, 35388.0, 9362.0, 8.231406211853027, -0.013750949874520302, 0.1997859627008438, 0.3106401860713959, -0.0030943709425628185, -0.06925669312477112, 1.001503825187683, -0.10099950432777405, -0.03959846496582031, 1.49267578125, 1.491943359375, 0.179656982421875, 1.692626953125
524003, 0.061544984579086304, -0.21489660441875458, 0.07662887126207352, 0.09760148078203201, -0.023002227768301964, -0.08079084008932114, 0.07257580757141113, -0.01897759549319744, -0.044196028262376785, 0.0038189319893717766, 0.1099858433008194, 0.24067692458629608, -1.5667720466767903, 1.3075277100416827, -16.304951854071717, 9362.0, 38010.0, 35388.0, 9362.0, 8.231406211853027, -0.013750949874520302, 0.1997859627008438, 0.3106401860713959, -0.0030943709425628185, -0.06925669312477112, 1.001503825187683, -0.12221474200487137, -0.1650371551513672, 1.482421875, 1.491943359375, 0.179656982421875, 1.692626953125
524013, 0.062114883214235306, -0.2151300460100174, 0.07862605899572372, 0.09760148078203201, -0.023002227768301964, -0.08079084008932114, 0.07257580757141113, -0.01897759549319744, -0.044196028262376785, 0.0038262668531388044, 0.10998234152793884, 0.2406824827194214, -1.5526363632404745, 1.2076573707440446, -16.316725671401986, 9362.0, 38010.0, 35388.0, 9362.0, 8.231406211853027, -0.13132090866565704, -0.33346039056777954, -0.13617046177387238, -0.0030943709425628185, -0.06925669312477112, 1.001503825187683, -0.12162768840789795, -0.11127853393554688, 1.48681640625, 1.491943359375, 0.179656982421875, 1.692626953125
524033, 0.06192445382475853, -0.21505795419216156, 0.07799196988344193, 0.09760148078203201, -0.023002227768301964, -0.08079084008932114, 0.07257580757141113, -0.01897759549319744, -0.044196028262376785, 0.003846646286547184, 0.10999087989330292, 0.24069243669509888, -1.5694404801179749, 1.2610398082931908, -16.318027296983633, 9362.0, 38010.0, 35388.0, 9362.0, 8.231406211853027, -0.13132090866565704, -0.33346039056777954, -0.13617046177387238, -0.0028048227541148663, -0.06829384714365005, 1.0005812644958496, -0.12162768840789795, -0.11127853393554688, 1.48681640625, 1.3154296875, 0.03118896484375, 1.692626953125
524063, 0.06437642127275467, -0.21631166338920593, 0.07633161544799805, 0.10657409578561783, -0.02535341866314411, -0.08611556142568588, 0.076970674097538, -0.020220784470438957, -0.044824689626693726, 0.0038173282518982887, 0.10997471213340759, 0.24064894020557404, -1.598785785649916, 1.2694546441370278, -16.313622495755553, 9362.0, 38010.0, 35388.0, 9362.0, 8.231406211853027, -0.09898605942726135, 0.0905761569738388, 0.020615292713046074, -0.0037500059697777033, -0.0661221370100975, 0.9972506165504456, -0.0936015248298645, -0.11127853393554688, 1.48681640625, 1.4091796875, 0.04937744140625, 1.692626953125
524073, 0.06451291590929031, -0.21473576128482819, 0.07627645879983902, 0.10657409578561783, -0.02535341866314411, -0.08611556142568588, 0.076970674097538, -0.020220784470438957, -0.044824689626693726, 0.003811829723417759, 0.10998809337615967, 0.24066893756389618, -1.5823970090759674, 1.269604878237942, -16.310723609470653, 9362.0, 38010.0, 35388.0, 9362.0, 8.231406211853027, -0.09898605942726135, 0.0905761569738388, 0.020615292713046074, -0.003023135708644986, -0.06747441738843918, 0.998524010181427, -0.0936015248298645, -0.11127853393554688, 1.48681640625, 1.28466796875, 0.07440185546875, 1.692626953125
524103, 0.06558942049741745, -0.21832390129566193, 0.07721854746341705, 0.11046867817640305, -0.026378100737929344, -0.08837462961673737, 0.07881705462932587, -0.02077108435332775, -0.04540639743208885, 0.003835858777165413, 0.10997714847326279, 0.24067024886608124, -1.6056887711802863, 1.2581143583332448, -16.294584679809923, 9362.0, 38010.0, 35388.0, 9362.0, 8.231406211853027, -0.05505518242716789, 0.2723003625869751, -0.12312637269496918, -0.004529411438852549, -0.06837884336709976, 0.99937903881073, -0.10102630406618118, -0.06647872924804688, 1.490478515625, 1.464111328125, 0.1283111572265625, 1.692626953125
524123, 0.06667536497116089, -0.2178068608045578, 0.07897232472896576, 0.11046867817640305, -0.026378100737929344, -0.08837462961673737, 0.07881705462932587, -0.02077108435332775, -0.04540639743208885, 0.0038241352885961533, 0.10999004542827606, 0.24067983031272888, -1.6213579192646916, 1.285487715914229, -16.31864053550093, 9362.0, 38010.0, 35388.0, 9362.0, 8.231406211853027, -0.10396958887577057, 0.06636203825473785, -0.015787137672305107, -0.004529411438852549, -0.06837884336709976, 0.99937903881073, -0.10563056170940399, -0.12023735046386719, 1.486083984375, 1.464111328125, 0.1283111572265625, 1.692626953125
524153, 0.06607779115438461, -0.21902157366275787, 0.08016135543584824, 0.11445614695549011, -0.02743072435259819, -0.090666264295578, 0.08068134635686874, -0.021334443241357803, -0.04624128341674805, 0.003831122536212206, 0.10997308045625687, 0.24071213603019714, -1.6059457930879688, 1.3097970298347548, -16.319775428033523, 9362.0, 38010.0, 35388.0, 9362.0, 8.231406211853027, -0.10396958887577057, 0.06636203825473785, -0.015787137672305107, -0.004094837233424187, -0.07033241540193558, 0.9990689158439636, -0.10563056170940399, -0.12023735046386719, 1.486083984375, 1.464111328125, 0.1283111572265625, 1.692626953125
524163, 0.06739223748445511, -0.22414050996303558, 0.08076369762420654, 0.11445614695549011, -0.02743072435259819, -0.090666264295578, 0.08068134635686874, -0.021334443241357803, -0.04624128341674805, 0.003833203110843897, 0.10998944938182831, 0.24070881307125092, -1.5642570100409618, 1.2638730119495563, -16.322252188889127, 9362.0, 38010.0, 35388.0, 9362.0, 8.231406211853027, -0.10396958887577057, 0.06636203825473785, -0.015787137672305107, -0.0049749575555324554, -0.06613998860120773, 0.999742329120636, -0.10563056170940399, -0.12023735046386719, 1.486083984375, 1.464111328125, 0.1283111572265625, 1.692626953125
524283, 0.06871780008077621, -0.22887223958969116, 0.07772303372621536, 0.1252676397562027, -0.030301891267299652, -0.09678889811038971, 0.08566024899482727, -0.02283865585923195, -0.048134781420230865, 0.0038107773289084435, 0.10998816043138504, 0.2407059371471405, -1.5748629220339534, 1.2343043724820575, -16.312340263173148, 9362.0, 38010.0, 35388.0, 9362.0, 8.231406211853027, 0.20430724322795868, -0.12665662169456482, -0.26710328459739685, -0.0031642657704651356, -0.06849196553230286, 0.9992763996124268, -0.09607571363449097, -0.11127853393554688, 1.48681640625, 1.41357421875, 0.0542449951171875, 1.692626953125
524293, 0.0687280222773552, -0.2282172590494156, 0.07686731219291687, 0.1252676397562027, -0.030301891267299652, -0.09678889811038971, 0.08566024899482727, -0.02283865585923195, -0.048134781420230865, 0.003828759305179119, 0.10999767482280731, 0.24069777131080627, -1.5949480492770258, 1.2640178896250518, -16.31869286076983, 9362.0, 38010.0, 35388.0, 9362.0, 8.231406211853027, -0.21904867887496948, 0.09752257168292999, 0.23259630799293518, -0.0031642657704651356, -0.06849196553230286, 0.9992763996124268, -0.10173936933279037, -0.08439826965332031, 1.489013671875, 1.41357421875, 0.0542449951171875, 1.692626953125
524303, 0.0680738314986229, -0.23182803392410278, 0.07844266295433044, 0.1252676397562027, -0.030301891267299652, -0.09678889811038971, 0.08566024899482727, -0.02283865585923195, -0.048134781420230865, 0.003824040060862899, 0.1099737361073494, 0.24069522321224213, -1.5766358055116307, 1.242186335485485, -16.31249515378342, 9362.0, 38010.0, 35388.0, 9362.0, 8.231406211853027, -0.14856988191604614, 0.25579917430877686, 0.2779812216758728, -0.0031642657704651356, -0.06849196553230286, 0.9992763996124268, -0.10438323765993118, -0.1650371551513672, 1.482421875, 1.41357421875, 0.0542449951171875, 1.692626953125
524313, 0.0676264762878418, -0.23254436254501343, 0.0802001804113388, 0.1252676397562027, -0.030301891267299652, -0.09678889811038971, 0.08566024899482727, -0.02283865585923195, -0.048134781420230865, 0.0038396334275603294, 0.10999062657356262, 0.24070534110069275, -1.5787447015235199, 1.2366684390710816, -16.314509395741, 9362.0, 38010.0, 35388.0, 9362.0, 8.231406211853027, -0.06836510449647903, -0.019784370437264442, -0.08479876816272736, -0.0031642657704651356, -0.06849196553230286, 0.9992763996124268, -0.10438323765993118, -0.1650371551513672, 1.482421875, 1.41357421875, 0.0542449951171875, 1.692626953125
524343, 0.0676308274269104, -0.23563796281814575, 0.0804063230752945, 0.1252676397562027, -0.030301891267299652, -0.09678889811038971, 0.08566024899482727, -0.02283865585923195, -0.048134781420230865, 0.00383972586132586, 0.10998127609491348, 0.24070370197296143, -1.551829774134832, 1.2102392293601554, -16.322039006859992, 9362.0, 38010.0, 35388.0, 9362.0, 8.231406211853027, -0.08021954447031021, 0.05014336481690407, 0.201608806848526, -0.002261466346681118, -0.06764768064022064, 0.9995609521865845, -0.10438323765993118, -0.1650371551513672, 1.482421875, 1.41357421875, 0.0542449951171875, 1.6904296875
524403, 0.06694373488426208, -0.23827748000621796, 0.08186588436365128, 0.13313747942447662, -0.03240446001291275, -0.1011422649025917, 0.08925019204616547, -0.023880936205387115, -0.04868131875991821, 0.0038240300491452217, 0.10997336357831955, 0.2406812459230423, -1.5639697937157302, 1.242647100983561, -16.316939904934447, 9362.0, 38010.0, 35388.0, 9362.0, 8.231406211853027, 0.033463310450315475, 0.30180057883262634, 0.05812430381774902, -0.002607807284221053, -0.06982707977294922, 0.9987319707870483, -0.11221568286418915, -0.09335899353027344, 1.48828125, 1.418701171875, 0.0603485107421875, 1.6904296875
524413, 0.06670829653739929, -0.23877790570259094, 0.0826367735862732, 0.13313747942447662, -0.03240446001291275, -0.1011422649025917, 0.08925019204616547, -0.023880936205387115, -0.04868131875991821, 0.003812581766396761, 0.10998216271400452, 0.24067169427871704, -1.5654673538322095, 1.230382897103425, -16.3309754285699, 9362.0, 38010.0, 35388.0, 9362.0, 8.231406211853027, 0.22881728410720825, 0.1302415281534195, 0.153422012925148, -0.002607807284221053, -0.06982707977294922, 0.9987319707870483, -0.11006256192922592, -0.06647872924804688, 1.490478515625, 1.418701171875, 0.0603485107421875, 1.6904296875
