timeTick, roll, pitch, yaw, stateX, stateY, stateZ, stateVX, stateVY, stateVZ, otX0, otY0, otZ0, otRoll0, otPitch0, otYaw0, left wing, pitch motor, yaw motor, right wing, voltage, roll rate, pitch rate, yaw rate, A_x, A_y, A_z, current, i_raw, v_raw, airflow_voltage, airflow_speed, pot_Pitch
103981, 0.45441219210624695, 0.16575048863887787, -0.21380119025707245, 0, 0, 0, 0, 0, 0, 0.013967008329927921, 0.1045890524983406, 0.24079817533493042, -0.45440393865993794, -0.5889758391681994, -24.354131040271866, 0, 0, 0, 0, 0, 0, 0, 0, 0, 0, 0, 0, 0, 0, 0, 0, 0
103991, 0.45306575298309326, 0.1650037318468094, -0.2118280529975891, -8.247292518615723, -18.869199752807617, -22.815269470214844, -0.5887272357940674, -1.3997547626495361, -1.1057294607162476, 0.013940243981778622, 0.1045803353190422, 0.2407492846250534, -0.4688411386570783, -0.548475888417471, -24.348694734330174, 9362.0, 43253.0, 35388.0, 9362.0, 8.132232666015625, 0.14571398496627808, 0.09246876090765, 0.07175099104642868, 0, 0, 0, 0, 0, 0, 0, 0, 0
104001, 0.4538492262363434, 0.16552527248859406, -0.21170638501644135, -8.253181457519531, -18.883201599121094, -22.82632827758789, -0.5890129804611206, -1.400529384613037, -1.1060181856155396, 0.013943620957434177, 0.10458436608314514, 0.24082772433757782, -0.3965818893996124, -0.6345764327526808, -24.336826114482015, 9362.0, 43253.0, 35388.0, 9362.0, 8.132232666015625, -0.00888571422547102, -0.12494566291570663, -0.1845654994249344, -0.009721389971673489, -0.06749162077903748, 0.9960362911224365, -0.041754212230443954, -0.10231781005859375, 1.487548828125, 1.31982421875, 0.0273590087890625, 0
104011, 0.4541756510734558, 0.16681316494941711, -0.21377885341644287, -8.259073257446289, -18.8972110748291, -22.837390899658203, -0.5892971754074097, -1.4013009071350098, -1.1064280271530151, 0.013936535455286503, 0.10459236055612564, 0.24082575738430023, -0.4383825116802497, -0.5918065996146424, -24.32736165679702, 9362.0, 43253.0, 35388.0, 9362.0, 8.132232666015625, 0.11508755385875702, 0.12440745532512665, -0.21973669528961182, -0.010651915334165096, -0.0689665898680687, 0.9954318404197693, -0.0336613766849041, -0.1739978790283203, 1.481689453125, 1.348388671875, 0.0154571533203125, 1.796630859375
104021, 0.45445412397384644, 0.1674986481666565, -0.214068204164505, -8.264967918395996, -18.91122817993164, -22.84845733642578, -0.589582085609436, -1.4020732641220093, -1.1069039106369019, 0.01398725900799036, 0.10459303110837936, 0.24080103635787964, -0.5368968852513509, -0.48172876618158966, -24.354656566801815, 9362.0, 43253.0, 35388.0, 9362.0, 8.132232666015625, 0.22740404307842255, 0.10534955561161041, 0.486504465341568, -0.011471368372440338, -0.07006149739027023, 0.9977351427078247, -0.0586613267660141, -0.03959846496582031, 1.49267578125, 1.3154296875, 0.03118896484375, 1.8017578125
104031, 0.4541856646537781, 0.16894195973873138, -0.21112701296806335, -8.270865440368652, -18.92525291442871, -22.859527587890625, -0.5898700952529907, -1.4028481245040894, -1.107103705406189, 0.013941976241767406, 0.10459719598293304, 0.24082611501216888, -0.39114634378151597, -0.6550358289482574, -24.335591717642806, 9362.0, 43253.0, 35388.0, 9362.0, 8.132232666015625, -0.007247496396303177, -0.017854953184723854, 0.26111340522766113, -0.011032584123313427, -0.07030460238456726, 0.9994360208511353, -0.05353879556059837, -0.10231781005859375, 1.487548828125, 1.310302734375, 0.036285400390625, 1.825927734375
104041, 0.453913152217865, 0.1688728630542755, -0.2115844488143921, -8.276765823364258, -18.939285278320312, -22.8705997467041, -0.5901594758033752, -1.4036245346069336, -1.1071873903274536, 0.01390165463089943, 0.1045360267162323, 0.24092568457126617, -0.4905923688692058, -0.6925405575801449, -24.294398262746725, 9362.0, 43253.0, 35388.0, 9362.0, 8.132232666015625, 0.06369385123252869, 0.17279772460460663, -0.10579302161931992, -0.010834397748112679, -0.06853150576353073, 0.9963750243186951, -0.04400753602385521, 0.30983924865722656, 1.521240234375, 1.3359375, 0.01806640625, 1.799560546875
104051, 0.4535463750362396, 0.16938261687755585, -0.21246443688869476, -8.282669067382812, -18.953325271606445, -22.88167381286621, -0.5904505848884583, -1.4043984413146973, -1.1075291633605957, 0.013931126333773136, 0.10459689050912857, 0.24082715809345245, -0.43681958585906194, -0.6067803558480591, -24.332878990438136, 9362.0, 43253.0, 35388.0, 9362.0, 8.132232666015625, -0.02334257960319519, -0.08994227647781372, 0.29862678050994873, -0.010850755497813225, -0.06781226396560669, 0.9962318539619446, -0.0456753633916378, -0.18295860290527344, 1.48095703125, 1.316162109375, 0.030517578125, 1.831787109375
104061, 0.4540024399757385, 0.17072883248329163, -0.21134509146213531, -8.288575172424316, -18.96737289428711, -22.892749786376953, -0.5907416343688965, -1.4051722288131714, -1.10784912109375, 0.013907271437346935, 0.10452842712402344, 0.24085453152656555, -0.5773560175684948, -0.5873628999372329, -24.314525304603, 9362.0, 43253.0, 35388.0, 9362.0, 8.132232666015625, -0.09024152904748917, -0.06810414791107178, -0.20525723695755005, -0.010692429728806019, -0.07168920338153839, 1.000190258026123, -0.043000753968954086, -0.1291980743408203, 1.4853515625, 1.3330078125, 0.0191650390625, 1.80322265625
104071, 0.453970730304718, 0.16902336478233337, -0.21206529438495636, -8.29448413848877, -18.981428146362305, -22.903827667236328, -0.5910344123840332, -1.405947208404541, -1.107879877090454, 0.013933866284787655, 0.10459600389003754, 0.24087053537368774, -0.37976740375663426, -0.6296815949806103, -24.318026456573456, 9362.0, 43253.0, 35388.0, 9362.0, 8.132232666015625, -0.15098492801189423, -0.2459978461265564, -0.25280991196632385, -0.012066060677170753, -0.07144889235496521, 0.9980285167694092, -0.05077463388442993, -0.11127853393554688, 1.48681640625, 1.32568359375, 0.0232086181640625, 1.803955078125
104081, 0.45307305455207825, 0.1703692227602005, -0.21409808099269867, -8.300395965576172, -18.99549102783203, -22.914907455444336, -0.5913290977478027, -1.406722068786621, -1.1080689430236816, 0.013958005234599113, 0.10459081828594208, 0.24083508551120758, -0.4872540577626665, -0.491404658783523, -24.35035818655945, 9362.0, 43253.0, 35388.0, 9362.0, 8.132232666015625, 0.07473073154687881, 0.37180158495903015, 0.12925994396209717, -0.011094517074525356, -0.07072392106056213, 0.9979352355003357, -0.049118705093860626, -0.08439826965332031, 1.489013671875, 1.358642578125, 0.0159912109375, 1.80029296875
104091, 0.45329418778419495, 0.16926397383213043, -0.21325768530368805, -8.306310653686523, -19.00956153869629, -22.925989151000977, -0.5916208028793335, -1.4074965715408325, -1.10828697681427, 0.01392020471394062, 0.1045939028263092, 0.24079781770706177, -0.4884228465342253, -0.5156913230762825, -24.336354986310198, 9362.0, 43253.0, 35388.0, 9362.0, 8.132232666015625, -0.030827300623059273, -0.12721286714076996, -0.36006173491477966, -0.009686177596449852, -0.0696825385093689, 0.9973273277282715, -0.06253012269735336, 0.014162063598632812, 1.4970703125, 1.3095703125, 0.037139892578125, 1.80322265625
104101, 0.4533482789993286, 0.16927273571491241, -0.21350759267807007, -8.312228202819824, -19.023639678955078, -22.93707275390625, -0.5919145345687866, -1.4082690477371216, -1.1085549592971802, 0.014000458642840385, 0.10461375117301941, 0.2409645915031433, -0.4027575950490887, -0.675534642476407, -24.34723098349203, 9362.0, 43253.0, 35388.0, 9362.0, 8.132232666015625, 0.0003096197033300996, -0.14588288962841034, -0.05230918154120445, -0.0087813101708889, -0.07225482165813446, 0.9976334571838379, -0.03823656216263771, -0.11127853393554688, 1.48681640625, 1.30810546875, 0.0388031005859375, 1.8427734375
104111, 0.45340174436569214, 0.16968899965286255, -0.21331503987312317, -8.318148612976074, -19.0377254486084, -22.94816017150879, -0.5922065377235413, -1.409042239189148, -1.1087980270385742, 0.013936059549450874, 0.10460570454597473, 0.24084840714931488, -0.44711210458230494, -0.5855413346845921, -24.34157338356435, 9362.0, 43253.0, 35388.0, 9362.0, 8.132232666015625, -0.0843159556388855, 0.4546310305595398, -0.09532774984836578, -0.009026887826621532, -0.07280554622411728, 0.9984294176101685, -0.03675259277224541, 0.30983924865722656, 1.521240234375, 1.330810546875, 0.0203399658203125, 1.799560546875
104121, 0.4540694057941437, 0.166610449552536, -0.21399874985218048, -8.324071884155273, -19.05181884765625, -22.95924949645996, -0.5924987196922302, -1.4098159074783325, -1.1089881658554077, 0.013945396989583969, 0.10457577556371689, 0.24082797765731812, -0.46878028550004347, -0.59974150594158, -24.347632944212574, 9362.0, 43253.0, 35388.0, 9362.0, 8.132232666015625, 0.027752432972192764, -0.22841474413871765, -0.08370627462863922, -0.010365183465182781, -0.07140273600816727, 0.9964121580123901, -0.04615102335810661, -0.18295860290527344, 1.48095703125, 1.31689453125, 0.0298919677734375, 1.827392578125
104131, 0.4541282057762146, 0.16757486760616302, -0.21535645425319672, -8.329998016357422, -19.065921783447266, -22.970340728759766, -0.592790961265564, -1.4105879068374634, -1.1093883514404297, 0.01394998375326395, 0.10457945615053177, 0.24085798859596252, -0.41809601387703493, -0.6300290033447595, -24.34475575218363, 9362.0, 43253.0, 35388.0, 9362.0, 8.132232666015625, 0.0018319220980629325, 0.08190897107124329, 0.0492575466632843, -0.010084515437483788, -0.06988992542028427, 0.9929917454719543, -0.03108561970293522, -0.14711761474609375, 1.48388671875, 1.35791015625, 0.015869140625, 1.8017578125
104141, 0.4535774290561676, 0.16919156908988953, -0.21561476588249207, -8.33592700958252, -19.080032348632812, -22.98143768310547, -0.5930771231651306, -1.4113587141036987, -1.1100728511810303, 0.013917578384280205, 0.10453633964061737, 0.24090808629989624, -0.5904515676218763, -0.5427093939773329, -24.314988401613, 9362.0, 43253.0, 35388.0, 9362.0, 8.132232666015625, 0.18954220414161682, -0.08567431569099426, -0.3023209869861603, -0.012769373133778572, -0.0674986019730568, 0.9948909878730774, -0.04900602623820305, -0.09335899353027344, 1.48828125, 1.30517578125, 0.0422515869140625, 1.8369140625
104151, 0.4545154869556427, 0.1716427057981491, -0.21750526130199432, -8.341858863830566, -19.09415054321289, -22.99254035949707, -0.5933653712272644, -1.4121311902999878, -1.1105951070785522, 0.01397372130304575, 0.104605533182621, 0.24101725220680237, -0.418973659374827, -0.7235873657246827, -24.35263664958443, 9362.0, 43253.0, 35388.0, 9362.0, 8.132232666015625, 0.0779949203133583, -0.34171217679977417, 0.1785343885421753, -0.013025430031120777, -0.07154593616724014, 0.9963670372962952, -0.04808448627591133, -0.18295860290527344, 1.48095703125, 1.351318359375, 0.0153350830078125, 1.803955078125
104161, 0.45566344261169434, 0.17475083470344543, -0.21650850772857666, -8.347793579101562, -19.1082763671875, -23.00364875793457, -0.5936570167541504, -1.4129037857055664, -1.1109353303909302, 0.013939510099589825, 0.10458466410636902, 0.2408984899520874, -0.4187081828460538, -0.5903019556416211, -24.357905722994598, 9362.0, 43253.0, 35388.0, 9362.0, 8.132232666015625, 0.09797699004411697, 0.2014012634754181, -0.15227451920509338, -0.01128922589123249, -0.07148274779319763, 0.9992941617965698, -0.0624503456056118, 0.0052013397216796875, 1.496337890625, 1.3330078125, 0.0191650390625, 1.8017578125
104171, 0.45442327857017517, 0.17363670468330383, -0.2166179120540619, -8.353731155395508, -19.12240982055664, -23.014759063720703, -0.593953549861908, -1.4136804342269897, -1.1110153198242188, 0.013949893414974213, 0.10459119081497192, 0.24086815118789673, -0.4177358181628142, -0.5984707864437269, -24.360252921407515, 9362.0, 43253.0, 35388.0, 9362.0, 8.132232666015625, -0.229584738612175, -0.16500745713710785, 0.05834219604730606, -0.011060694232583046, -0.06986770033836365, 0.9993529915809631, -0.045339543372392654, -0.07543754577636719, 1.48974609375, 1.53076171875, 0.2596435546875, 1.796630859375
104181, 0.45392152667045593, 0.17260098457336426, -0.21518704295158386, -8.359672546386719, -19.136550903320312, -23.025869369506836, -0.5942554473876953, -1.4144588708877563, -1.111079216003418, 0.014000244438648224, 0.10461307317018509, 0.24094730615615845, -0.4867533852913945, -0.6455712953913064, -24.371778137549246, 9362.0, 43253.0, 35388.0, 9362.0, 8.132232666015625, 0.019732171669602394, -0.17612116038799286, 0.004251829814165831, -0.010394926182925701, -0.07010744512081146, 0.9983886480331421, -0.043610308319330215, 0.25608062744140625, 1.516845703125, 1.341064453125, 0.01654052734375, 1.801025390625
104191, 0.453311026096344, 0.17458823323249817, -0.2160872519016266, -8.365616798400879, -19.150699615478516, -23.0369815826416, -0.594555139541626, -1.4152343273162842, -1.111283540725708, 0.013936977833509445, 0.10459598898887634, 0.24089159071445465, -0.4369638616598031, -0.6305502698197927, -24.350750433775218, 9362.0, 43253.0, 35388.0, 9362.0, 8.132232666015625, -0.0514986552298069, -0.13035373389720917, 0.3261323869228363, -0.010868340730667114, -0.07050362229347229, 0.9962388277053833, -0.034097060561180115, -0.10231781005859375, 1.487548828125, 1.322021484375, 0.0257415771484375, 1.80322265625
104201, 0.45263537764549255, 0.17750760912895203, -0.21413958072662354, -8.371563911437988, -19.16485595703125, -23.048095703125, -0.5948525071144104, -1.4160076379776, -1.1116454601287842, 0.013986559584736824, 0.10462586581707001, 0.2410237193107605, -0.38259070543607204, -0.7183104268023044, -24.362983474812097, 9362.0, 43253.0, 35388.0, 9362.0, 8.132232666015625, -0.18233805894851685, -0.17295709252357483, -0.003419924061745405, -0.011600296013057232, -0.06771644949913025, 0.9976347088813782, -0.049637649208307266, -0.10231781005859375, 1.487548828125, 1.333740234375, 0.0189361572265625, 1.808349609375
104211, 0.45177483558654785, 0.17879894375801086, -0.21383586525917053, -8.377513885498047, -19.179019927978516, -23.059213638305664, -0.5951535105705261, -1.416780710220337, -1.111891508102417, 0.013932912610471249, 0.10459429025650024, 0.24087128043174744, -0.41186023953225387, -0.6012130815639409, -24.34866517086231, 9362.0, 43253.0, 35388.0, 9362.0, 8.132232666015625, 0.014841979369521141, 0.3478856086730957, 0.3497535288333893, -0.012008408084511757, -0.07053765654563904, 0.9988037943840027, -0.034459564834833145, -0.1291980743408203, 1.4853515625, 1.31982421875, 0.0273590087890625, 1.801025390625
104221, 0.45158135890960693, 0.1770710051059723, -0.21232186257839203, -8.383466720581055, -19.193191528320312, -23.07033348083496, -0.5954598784446716, -1.4175533056259155, -1.1120493412017822, 0.013975108973681927, 0.10458332300186157, 0.2408437877893448, -0.48741573775935626, -0.505553325654887, -24.37437842739139, 9362.0, 43253.0, 35388.0, 9362.0, 8.132232666015625, -0.022072158753871918, -0.1813695728778839, -0.27887552976608276, -0.010466565378010273, -0.07135994732379913, 0.9975656270980835, -0.04733807593584061, -0.15607833862304688, 1.483154296875, 1.28466796875, 0.07440185546875, 1.806884765625
104231, 0.4512377977371216, 0.17949439585208893, -0.2134355753660202, -8.389422416687012, -19.20737075805664, -23.08145523071289, -0.5957682132720947, -1.4183237552642822, -1.1122961044311523, 0.013955182395875454, 0.10459885001182556, 0.24088969826698303, -0.4228292848843294, -0.6465910339579182, -24.32939329885777, 9362.0, 43253.0, 35388.0, 9362.0, 8.132232666015625, -0.0630699098110199, -0.04665772616863251, 0.15103057026863098, -0.010774988681077957, -0.06985707581043243, 0.9959992170333862, -0.058766789734363556, -0.19191741943359375, 1.480224609375, 1.270751953125, 0.104522705078125, 1.7958984375
104241, 0.45099374651908875, 0.18033534288406372, -0.21295419335365295, -8.395381927490234, -19.2215576171875, -23.092580795288086, -0.596072793006897, -1.4190924167633057, -1.1127021312713623, 0.013997547328472137, 0.10459460318088531, 0.24099376797676086, -0.44999285662999616, -0.648334709144109, -24.370999533111902, 9362.0, 43253.0, 35388.0, 9362.0, 8.132232666015625, -0.04559923708438873, -0.034163862466812134, 0.15058058500289917, -0.01291587669402361, -0.06850491464138031, 0.9968903660774231, -0.02434113249182701, -0.12023735046386719, 1.486083984375, 1.300048828125, 0.0489654541015625, 1.801025390625
104251, 0.450961172580719, 0.18286824226379395, -0.21220870316028595, -8.401344299316406, -19.23575210571289, -23.103710174560547, -0.5963819026947021, -1.4198611974716187, -1.1130568981170654, 0.01401130948215723, 0.10461527854204178, 0.24098412692546844, -0.4297866751453355, -0.6505663205432484, -24.37077431515685, 9362.0, 43253.0, 35388.0, 9362.0, 8.132232666015625, -0.01373234111815691, -0.01995466649532318, 0.22633785009384155, -0.011904391460120678, -0.07042254507541656, 0.9965475797653198, -0.032475002110004425, 0.08584022521972656, 1.5029296875, 1.247314453125, 0.172119140625, 1.844970703125
104261, 0.45224615931510925, 0.18311522901058197, -0.21060863137245178, -8.407309532165527, -19.249954223632812, -23.11484146118164, -0.5966925621032715, -1.4206299781799316, -1.113372564315796, 0.014007432386279106, 0.10460199415683746, 0.24096353352069855, -0.4519190537265468, -0.6578577851814202, -24.38465431205526, 9362.0, 43253.0, 35388.0, 9362.0, 8.132232666015625, 0.288362056016922, 0.355684757232666, -0.046065255999565125, -0.010221262462437153, -0.06937616318464279, 0.9985270500183105, -0.032956454902887344, -0.10231781005859375, 1.487548828125, 1.298583984375, 0.051055908203125, 1.801025390625
104271, 0.45285165309906006, 0.18031494319438934, -0.20976883172988892, -8.413277626037598, -19.264163970947266, -23.1259765625, -0.5970080494880676, -1.4213995933532715, -1.113518238067627, 0.013988037593662739, 0.10461363196372986, 0.2409844994544983, -0.4126481837686803, -0.6951496799721326, -24.351401689632176, 9362.0, 43253.0, 35388.0, 9362.0, 8.132232666015625, 0.041039176285266876, 0.5288336873054504, -0.0673317164182663, -0.009417965076863766, -0.07080654799938202, 0.9994070529937744, -0.02224104478955269, 0.12168121337890625, 1.505859375, 1.298583984375, 0.051055908203125, 1.801025390625
104281, 0.4532063901424408, 0.17675510048866272, -0.20886054635047913, -8.413277626037598, -19.264163970947266, -23.1259765625, -0.5970080494880676, -1.4213995933532715, -1.113518238067627, 0.01395653747022152, 0.10458367317914963, 0.24087077379226685, -0.4522536520702756, -0.6114308033694726, -24.3254450586865, 9362.0, 43253.0, 35388.0, 9362.0, 8.132232666015625, 0.00975080020725727, -0.2467135190963745, -0.19585184752941132, -0.010455366224050522, -0.07160130143165588, 0.9978650212287903, -0.033554669469594955, -0.07543754577636719, 1.48974609375, 1.298583984375, 0.051055908203125, 1.801025390625
104291, 0.4536592662334442, 0.17750900983810425, -0.20835281908512115, -8.425224304199219, -19.292606353759766, -23.14824867248535, -0.5976352691650391, -1.4229451417922974, -1.113781452178955, 0.013963700272142887, 0.1045432910323143, 0.24102923274040222, -0.5115872511531738, -0.686360016282805, -24.342432646758862, 9362.0, 43253.0, 35388.0, 9362.0, 8.132232666015625, 0.030195003375411034, -0.2710345983505249, -0.058706916868686676, -0.010354523546993732, -0.07065822929143906, 0.9989692568778992, -0.031057117506861687, -0.15607833862304688, 1.483154296875, 1.298583984375, 0.051055908203125, 1.801025390625
104301, 0.4530438482761383, 0.1792718917131424, -0.2080863118171692, -8.431201934814453, -19.306838989257812, -23.159387588500977, -0.5979403257369995, -1.423719048500061, -1.1138770580291748, 0.014021644368767738, 0.10462651401758194, 0.24091048538684845, -0.4863668068777255, -0.5969580001653014, -24.369608818017667, 9362.0, 43253.0, 35388.0, 9362.0, 8.132232666015625, -0.1872592717409134, 0.4024501442909241, 0.11518684029579163, -0.010256136767566204, -0.07213469594717026, 1.0000332593917847, -0.031057117506861687, -0.15607833862304688, 1.483154296875, 1.298583984375, 0.051055908203125, 1.801025390625
104311, 0.4526437222957611, 0.17901745438575745, -0.20767614245414734, -8.431201934814453, -19.306838989257812, -23.159387588500977, -0.5979403257369995, -1.423719048500061, -1.1138770580291748, 0.014001692645251751, 0.10461179167032242, 0.24090810120105743, -0.45614883592303823, -0.655992295549936, -24.387627393595576, 9362.0, 43253.0, 35388.0, 9362.0, 8.132232666015625, -0.07261179387569427, -0.11493323743343353, 0.05539964884519577, -0.009897916577756405, -0.06887050718069077, 0.9990327954292297, -0.003978228196501732, 0.30983924865722656, 1.521240234375, 1.298583984375, 0.051055908203125, 1.8017578125
104321, 0.45275554060935974, 0.17856675386428833, -0.20673780143260956, -8.443166732788086, -19.3353271484375, -23.181665420532227, -0.5985565185546875, -1.4252686500549316, -1.1139676570892334, 0.013913143426179886, 0.10452879220247269, 0.24087092280387878, -0.5616399535119361, -0.5974605947073997, -24.30558868220593, 9362.0, 43253.0, 35388.0, 9362.0, 8.132232666015625, 0.12640519440174103, 0.0370306558907032, -0.011253850534558296, -0.010517694056034088, -0.06983860582113266, 0.9994165301322937, -0.003978228196501732, 0.30983924865722656, 1.521240234375, 1.298583984375, 0.051055908203125, 1.8017578125
104361, 0.45344701409339905, 0.17610158026218414, -0.20884981751441956, -8.461136817932129, -19.378122329711914, -23.215089797973633, -0.5994829535484314, -1.4275888204574585, -1.1142700910568237, 0.013975274749100208, 0.10462331771850586, 0.2409861534833908, -0.32688942320966813, -0.7699673697524076, -24.335746805236692, 9362.0, 43253.0, 35388.0, 9362.0, 8.132232666015625, 0.14515864849090576, 0.007108298130333424, 0.04146277531981468, -0.010790499858558178, -0.07064404338598251, 0.9973334670066833, -0.031150756403803825, 0.06792068481445312, 1.50146484375, 1.298583984375, 0.051055908203125, 1.8017578125
104401, 0.4552730619907379, 0.17352701723575592, -0.20922105014324188, -8.461136817932129, -19.378122329711914, -23.215089797973633, -0.5994829535484314, -1.4275888204574585, -1.1142700910568237, 0.0140381483361125, 0.1046132817864418, 0.24091388285160065, -0.492469194587021, -0.6229756527794734, -24.392072552246095, 9362.0, 43253.0, 35388.0, 9362.0, 8.132232666015625, -0.036105021834373474, 0.13644525408744812, -0.31583550572395325, -0.010108075104653835, -0.07104510813951492, 0.9964737892150879, -0.020731212571263313, -0.10231781005859375, 1.487548828125, 1.298583984375, 0.051055908203125, 1.799560546875
104411, 0.45473214983940125, 0.17355598509311676, -0.2111286222934723, -8.461136817932129, -19.378122329711914, -23.215089797973633, -0.5994829535484314, -1.4275888204574585, -1.1142700910568237, 0.013971107080578804, 0.10459250956773758, 0.24077333509922028, -0.5007096189837836, -0.518227322224817, -24.366104382012, 9362.0, 43253.0, 35388.0, 9362.0, 8.132232666015625, -0.1541670709848404, 0.0831790417432785, 0.037153780460357666, -0.010108075104653835, -0.07104510813951492, 0.9964737892150879, 0.025888221338391304, -0.07543754577636719, 1.48974609375, 1.298583984375, 0.051055908203125, 1.799560546875
104441, 0.4533955752849579, 0.16924560070037842, -0.21225737035274506, -8.515213966369629, -19.506919860839844, -23.315458297729492, -0.6022012233734131, -1.4345605373382568, -1.1161487102508545, 0.013982852920889854, 0.1045975312590599, 0.24076764285564423, -0.5018863055690438, -0.5804163054010019, -24.373620276322164, 9362.0, 43253.0, 35388.0, 9362.0, 8.132232666015625, 0.01114058867096901, -0.13774316012859344, 0.05674859881401062, -0.010631096549332142, -0.06967948377132416, 0.9962801933288574, 0.025888221338391304, -0.07543754577636719, 1.48974609375, 1.298583984375, 0.051055908203125, 1.799560546875
104451, 0.4534098207950592, 0.16962690651416779, -0.21311569213867188, -8.52123737335205, -19.521268844604492, -23.326622009277344, -0.6024945974349976, -1.4353340864181519, -1.1164875030517578, 0.01399080827832222, 0.1046106219291687, 0.24095726013183594, -0.3657255636569345, -0.7440981015706996, -24.357800262116612, 9362.0, 43253.0, 35388.0, 9362.0, 8.132232666015625, 0.01114058867096901, -0.13774316012859344, 0.05674859881401062, -0.010631096549332142, -0.06967948377132416, 0.9962801933288574, 0.025888221338391304, -0.07543754577636719, 1.48974609375, 1.298583984375, 0.051055908203125, 1.799560546875
104461, 0.45257696509361267, 0.17158019542694092, -0.2162816971540451, -8.52123737335205, -19.521268844604492, -23.326622009277344, -0.6024945974349976, -1.4353340864181519, -1.1164875030517578, 0.01400498766452074, 0.1045931875705719, 0.24078184366226196, -0.5351569520674805, -0.5350351770639463, -24.38661244212904, 9362.0, 43253.0, 35388.0, 9362.0, 8.132232666015625, 0.10041037946939468, 0.005356127396225929, -0.11339959502220154, -0.010631096549332142, -0.06967948377132416, 0.9962801933288574, -0.010722486302256584, -0.09335899353027344, 1.48828125, 1.298583984375, 0.051055908203125, 1.799560546875
104471, 0.4531176686286926, 0.17065219581127167, -0.2154448926448822, -8.533292770385742, -19.549989700317383, -23.348957061767578, -0.6030789017677307, -1.4368799924850464, -1.1170594692230225, 0.013986396603286266, 0.1045994758605957, 0.24073171615600586, -0.5162712924398873, -0.5468747459267718, -24.36304436410661, 9362.0, 43253.0, 35388.0, 9362.0, 8.132232666015625, -0.20910440385341644, -0.4544549286365509, -0.23075303435325623, -0.010631096549332142, -0.06967948377132416, 0.9962801933288574, -0.010722486302256584, -0.09335899353027344, 1.48828125, 1.298583984375, 0.051055908203125, 1.799560546875
104481, 0.4527510702610016, 0.17634226381778717, -0.2183060497045517, -8.533292770385742, -19.549989700317383, -23.348957061767578, -0.6030789017677307, -1.4368799924850464, -1.1170594692230225, 0.01399464625865221, 0.10459766536951065, 0.24081262946128845, -0.43524951314493165, -0.6186008704048049, -24.35405959981447, 9362.0, 43253.0, 35388.0, 9362.0, 8.132232666015625, -0.3922564387321472, -0.2873709499835968, 0.017949629575014114, -0.010631096549332142, -0.06967948377132416, 0.9962801933288574, -0.02318587526679039, -0.09335899353027344, 1.48828125, 1.298583984375, 0.051055908203125, 1.799560546875
104491, 0.4501376748085022, 0.1786498874425888, -0.2180168181657791, -8.533292770385742, -19.549989700317383, -23.348957061767578, -0.6030789017677307, -1.4368799924850464, -1.1170594692230225, 0.013998793438076973, 0.10458962619304657, 0.24074631929397583, -0.4668682697257228, -0.5252418558302736, -24.36403782814686, 9362.0, 43253.0, 35388.0, 9362.0, 8.132232666015625, 0.027783306315541267, -0.11278275400400162, -0.1183294802904129, -0.010877441614866257, -0.07077572494745255, 0.9964177012443542, -0.02318587526679039, -0.09335899353027344, 1.48828125, 1.298583984375, 0.051055908203125, 1.799560546875
104501, 0.45063188672065735, 0.1797109693288803, -0.21928250789642334, -8.533292770385742, -19.549989700317383, -23.348957061767578, -0.6030789017677307, -1.4368799924850464, -1.1170594692230225, 0.013986600562930107, 0.10460398346185684, 0.2407798171043396, -0.4513065408668195, -0.5342546513598165, -24.336388234099, 9362.0, 43253.0, 35388.0, 9362.0, 8.132232666015625, 0.104792021214962, -0.008001001551747322, 0.12776067852973938, -0.009482626803219318, -0.06965824961662292, 0.9962638020515442, -0.02318587526679039, -0.09335899353027344, 1.48828125, 1.298583984375, 0.051055908203125, 1.799560546875
104521, 0.452668160200119, 0.1793801337480545, -0.21679706871509552, -8.563484191894531, -19.621929168701172, -23.404861450195312, -0.6045887470245361, -1.4407265186309814, -1.1190773248672485, 0.0139790503308177, 0.10460019111633301, 0.24078314006328583, -0.4460391689422022, -0.5580412345746026, -24.354192801943555, 9362.0, 43253.0, 35388.0, 9362.0, 8.132232666015625, -0.0913616269826889, -0.33412203192710876, 0.11062698066234589, -0.011215602047741413, -0.07014237344264984, 0.9957177042961121, -0.038063641637563705, -0.1739978790283203, 1.481689453125, 1.298583984375, 0.051055908203125, 1.799560546875
104551, 0.45469021797180176, 0.1819414347410202, -0.21625488996505737, -8.575581550598145, -19.650760650634766, -23.427248001098633, -0.6052072048187256, -1.4422696828842163, -1.1195496320724487, 0.01399265043437481, 0.10459242016077042, 0.24075670540332794, -0.5062020003255253, -0.5007657712956188, -24.348953905807054, 9362.0, 43253.0, 35388.0, 9362.0, 8.132232666015625, -0.062446314841508865, -0.20277900993824005, -0.2442316859960556, -0.008996753953397274, -0.07004274427890778, 0.9959811568260193, -0.03329608589410782, 0.08584022521972656, 1.5029296875, 1.298583984375, 0.051055908203125, 1.799560546875
104561, 0.45552951097488403, 0.18161003291606903, -0.21721522510051727, -8.587692260742188, -19.679622650146484, -23.44964599609375, -0.6058323979377747, -1.4438140392303467, -1.1202871799468994, 0.013988160528242588, 0.10458935797214508, 0.24077969789505005, -0.4337812473119712, -0.6276705150159216, -24.36763282881545, 9362.0, 43253.0, 35388.0, 9362.0, 8.132232666015625, 0.03632208704948425, -0.22825630009174347, -0.04122161492705345, -0.008996753953397274, -0.07004274427890778, 0.9959811568260193, -0.03329608589410782, 0.08584022521972656, 1.5029296875, 1.298583984375, 0.051055908203125, 1.799560546875
104581, 0.454581618309021, 0.183793306350708, -0.22007524967193604, -8.599815368652344, -19.708515167236328, -23.472061157226562, -0.6064581871032715, -1.4453637599945068, -1.1211092472076416, 0.01401186641305685, 0.10459956526756287, 0.2407790869474411, -0.5296332020382792, -0.5230797994813656, -24.361515759887244, 9362.0, 43253.0, 35388.0, 9362.0, 8.132232666015625, 0.12879151105880737, 0.20100051164627075, 0.14200428128242493, -0.010477310977876186, -0.07026651501655579, 0.996041476726532, -0.03329608589410782, 0.08584022521972656, 1.5029296875, 1.298583984375, 0.051055908203125, 1.799560546875
104601, 0.45498597621917725, 0.18243926763534546, -0.2185038924217224, -8.605881690979004, -19.722972869873047, -23.483272552490234, -0.6067764163017273, -1.4461400508880615, -1.121352195739746, 0.013974220491945744, 0.1045910120010376, 0.24076354503631592, -0.4255242839968537, -0.6068454967694947, -24.34315336961384, 9362.0, 43253.0, 35388.0, 9362.0, 8.132232666015625, -0.06858418881893158, 0.4467899203300476, 0.028877058997750282, -0.01274621207267046, -0.0717206746339798, 0.995755672454834, -0.03329608589410782, 0.08584022521972656, 1.5029296875, 1.298583984375, 0.051055908203125, 1.799560546875
104611, 0.45474058389663696, 0.18023434281349182, -0.2192700058221817, -8.618022918701172, -19.751911163330078, -23.505704879760742, -0.607406735420227, -1.447690486907959, -1.1219696998596191, 0.0140186483040452, 0.104617640376091, 0.24094785749912262, -0.40591893846297716, -0.7206556433559115, -24.346093548084784, 9362.0, 43253.0, 35388.0, 9362.0, 8.132232666015625, -0.056478362530469894, -0.6419075727462769, -0.23286467790603638, -0.01274621207267046, -0.0717206746339798, 0.995755672454834, -0.03329608589410782, 0.08584022521972656, 1.5029296875, 1.298583984375, 0.051055908203125, 1.799560546875
104621, 0.4546772837638855, 0.18390057981014252, -0.22150395810604095, -8.618022918701172, -19.751911163330078, -23.505704879760742, -0.607406735420227, -1.447690486907959, -1.1219696998596191, 0.014006773941218853, 0.10460274666547775, 0.24074745178222656, -0.4992996944069577, -0.5314813511977547, -24.359422804682787, 9362.0, 43253.0, 35388.0, 9362.0, 8.132232666015625, 0.06249961629509926, -0.45848363637924194, -0.05132192000746727, -0.010260985232889652, -0.06730086356401443, 0.9984573125839233, -0.012570755556225777, -0.12023735046386719, 1.486083984375, 1.298583984375, 0.051055908203125, 1.799560546875
104641, 0.4551343321800232, 0.18357917666435242, -0.22094301879405975, -8.636259078979492, -19.79537582397461, -23.539377212524414, -0.6083484292030334, -1.4500154256820679, -1.122944712638855, 0.014006846584379673, 0.10460362583398819, 0.24079108238220215, -0.5142805785255076, -0.5388108631453576, -24.362841433659202, 9362.0, 43253.0, 35388.0, 9362.0, 8.132232666015625, 0.0014978772960603237, -0.08334607630968094, 0.16056114435195923, -0.01106614526361227, -0.06751391291618347, 0.9959051609039307, -0.02060394547879696, -0.11127853393554688, 1.48681640625, 1.298583984375, 0.051055908203125, 1.799560546875
104651, 0.4559729993343353, 0.18480214476585388, -0.21930114924907684, -8.636259078979492, -19.79537582397461, -23.539377212524414, -0.6083484292030334, -1.4500154256820679, -1.122944712638855, 0.013985564932227135, 0.10460888594388962, 0.24073722958564758, -0.4961177805882219, -0.5503739774852932, -24.354553624384383, 9362.0, 43253.0, 35388.0, 9362.0, 8.132232666015625, 0.042548082768917084, -0.19282266497612, -0.15088030695915222, -0.01106614526361227, -0.06751391291618347, 0.9959051609039307, -0.03215664625167847, 0.1933612823486328, 1.51171875, 1.298583984375, 0.051055908203125, 1.799560546875
104691, 0.4557378888130188, 0.19021788239479065, -0.2192569226026535, -8.666716575622559, -19.867971420288086, -23.595563888549805, -0.6099490523338318, -1.453895926475525, -1.124485731124878, 0.0140098687261343, 0.10460337996482849, 0.24073664844036102, -0.5403768380387403, -0.48037727553005993, -24.373750628420883, 9362.0, 43253.0, 35388.0, 9362.0, 8.132232666015625, -0.08502596616744995, -0.04981014132499695, -0.0842539444565773, -0.010632121935486794, -0.07009392231702805, 0.9952153563499451, -0.03000771254301071, 0.13064002990722656, 1.506591796875, 1.298583984375, 0.051055908203125, 1.799560546875
104701, 0.45543572306632996, 0.19089165329933167, -0.21944546699523926, -8.67281723022461, -19.88251495361328, -23.6068115234375, -0.6102757453918457, -1.4546706676483154, -1.1249425411224365, 0.014034993946552277, 0.10462221503257751, 0.2409059703350067, -0.4149080349557455, -0.6383186466002826, -24.38520615037295, 9362.0, 43253.0, 35388.0, 9362.0, 8.132232666015625, -0.053914234042167664, 0.1643463522195816, 0.17571428418159485, -0.01060145627707243, -0.06820628046989441, 0.9970684051513672, -0.03000771254301071, 0.13064002990722656, 1.506591796875, 1.298583984375, 0.051055908203125, 1.799560546875
104711, 0.4552171528339386, 0.19094543159008026, -0.21681806445121765, -8.67281723022461, -19.88251495361328, -23.6068115234375, -0.6102757453918457, -1.4546706676483154, -1.1249425411224365, 0.013990623876452446, 0.10459281504154205, 0.24077948927879333, -0.49785857549476115, -0.565601345576539, -24.349931723653526, 9362.0, 43253.0, 35388.0, 9362.0, 8.132232666015625, -0.053914234042167664, 0.1643463522195816, 0.17571428418159485, -0.01060145627707243, -0.06820628046989441, 0.9970684051513672, -0.04475542530417442, -0.10231781005859375, 1.487548828125, 1.298583984375, 0.051055908203125, 1.799560546875
104751, 0.45482876896858215, 0.19288226962089539, -0.21744248270988464, -8.70337200164795, -19.955347061157227, -23.66309928894043, -0.6119203567504883, -1.4585505723953247, -1.1265645027160645, 0.013989484868943691, 0.10458490997552872, 0.24075187742710114, -0.468378859778337, -0.558347077061029, -24.35775929118697, 9362.0, 43253.0, 35388.0, 9362.0, 8.132232666015625, 0.21081914007663727, -0.3666027784347534, -0.1894567459821701, -0.010629589669406414, -0.07057319581508636, 0.9968329668045044, -0.05805684253573418, 0.09480094909667969, 1.503662109375, 1.298583984375, 0.051055908203125, 1.798095703125
104771, 0.45574113726615906, 0.19320879876613617, -0.21620984375476837, -8.70337200164795, -19.955347061157227, -23.66309928894043, -0.6119203567504883, -1.4585505723953247, -1.1265645027160645, 0.014014456421136856, 0.10459156334400177, 0.24077287316322327, -0.5224198878224263, -0.4927999299444821, -24.372003416742384, 9362.0, 43253.0, 35388.0, 9362.0, 8.132232666015625, 0.09366700053215027, 0.6590414643287659, -0.17004071176052094, -0.01250111497938633, -0.07105948776006699, 0.9986634254455566, -0.04977851361036301, -0.14711761474609375, 1.48388671875, 1.298583984375, 0.051055908203125, 1.798095703125
104781, 0.4552798867225647, 0.18931835889816284, -0.2173137664794922, -8.721744537353516, -19.99913787841797, -23.6969051361084, -0.612918496131897, -1.4608789682388306, -1.1271976232528687, 0.013991117477416992, 0.10458363592624664, 0.24074497818946838, -0.5017867762479363, -0.5154112634884314, -24.37774901985318, 9362.0, 43253.0, 35388.0, 9362.0, 8.132232666015625, 0.23552122712135315, -0.1368720382452011, 0.17912061512470245, -0.01250111497938633, -0.07105948776006699, 0.9986634254455566, -0.04977851361036301, -0.14711761474609375, 1.48388671875, 1.298583984375, 0.051055908203125, 1.798095703125
104791, 0.45708659291267395, 0.19012266397476196, -0.21537010371685028, -8.727875709533691, -20.013750076293945, -23.70817756652832, -0.6132519245147705, -1.4616574048995972, -1.1272886991500854, 0.013973149470984936, 0.10459443926811218, 0.24083927273750305, -0.4203139368107945, -0.6661072466798714, -24.34579125595173, 9362.0, 43253.0, 35388.0, 9362.0, 8.132232666015625, 0.04072209447622299, 0.15464726090431213, 0.03086981177330017, -0.01250111497938633, -0.07105948776006699, 0.9986634254455566, -0.04977851361036301, -0.14711761474609375, 1.48388671875, 1.298583984375, 0.051055908203125, 1.798095703125
104811, 0.4582318663597107, 0.19125835597515106, -0.21863268315792084, -8.727875709533691, -20.013750076293945, -23.70817756652832, -0.6132519245147705, -1.4616574048995972, -1.1272886991500854, 0.013970667496323586, 0.1045980453491211, 0.24078978598117828, -0.464383043000569, -0.5799297442442253, -24.34660331323224, 9362.0, 43253.0, 35388.0, 9362.0, 8.132232666015625, 0.07981050759553909, -0.1002202183008194, 0.07507510483264923, -0.009367656894028187, -0.07170525938272476, 0.9972246289253235, -0.033806297928094864, 0.023120880126953125, 1.497802734375, 1.298583984375, 0.051055908203125, 1.798095703125
104841, 0.4591551125049591, 0.19395428895950317, -0.2174457311630249, -8.727875709533691, -20.013750076293945, -23.70817756652832, -0.6132519245147705, -1.4616574048995972, -1.1272886991500854, 0.014004463329911232, 0.10458934307098389, 0.2408188283443451, -0.47439446579504135, -0.5748505087335616, -24.37447524505606, 9362.0, 43253.0, 35388.0, 9362.0, 8.132232666015625, -0.12867702543735504, 0.25423941016197205, -0.02671019360423088, -0.008793442510068417, -0.06937063485383987, 0.9984726309776306, -0.06555129587650299, -0.05751800537109375, 1.4912109375, 1.298583984375, 0.051055908203125, 1.798095703125
104861, 0.45843058824539185, 0.19258391857147217, -0.21785280108451843, -8.765344619750977, -20.103055953979492, -23.776988983154297, -0.6152616143226624, -1.4664218425750732, -1.1287293434143066, 0.013980045914649963, 0.10458947718143463, 0.24082951247692108, -0.49022989327092154, -0.5864148003592788, -24.344797461741848, 9362.0, 43253.0, 35388.0, 9362.0, 8.132232666015625, -0.2481558471918106, 0.11754992604255676, 0.19624976813793182, -0.010327013209462166, -0.07035647332668304, 0.9978764057159424, -0.06555129587650299, -0.05751800537109375, 1.4912109375, 1.298583984375, 0.051055908203125, 1.798095703125
104881, 0.45769384503364563, 0.19249433279037476, -0.21432626247406006, -8.765344619750977, -20.103055953979492, -23.776988983154297, -0.6152616143226624, -1.4664218425750732, -1.1287293434143066, 0.014005478471517563, 0.1045917496085167, 0.2407693713903427, -0.5065651685393565, -0.5243711311829315, -24.368570126062146, 9362.0, 43253.0, 35388.0, 9362.0, 8.132232666015625, 0.05291050672531128, -0.040901150554418564, 0.015833400189876556, -0.010327013209462166, -0.07035647332668304, 0.9978764057159424, -0.032799769192934036, -0.06647872924804688, 1.490478515625, 1.298583984375, 0.051055908203125, 1.798095703125
104901, 0.4595470428466797, 0.19441351294517517, -0.21545131504535675, -8.796149253845215, -20.176475524902344, -23.833452224731445, -0.6169246435165405, -1.4703277349472046, -1.1300581693649292, 0.013991061598062515, 0.10460954904556274, 0.2407526820898056, -0.48627741475208175, -0.5624291050036447, -24.382031288427342, 9362.0, 43253.0, 35388.0, 9362.0, 8.132232666015625, -0.06682836264371872, -0.3149762749671936, 0.19420839846134186, -0.010327013209462166, -0.07035647332668304, 0.9978764057159424, -0.032799769192934036, -0.06647872924804688, 1.490478515625, 1.298583984375, 0.051055908203125, 1.798095703125
104951, 0.4617803692817688, 0.1941910982131958, -0.21187031269073486, -8.814672470092773, -20.22062110900879, -23.86737060546875, -0.6179311871528625, -1.4726767539978027, -1.1310428380966187, 0.013985928148031235, 0.10459627956151962, 0.24078699946403503, -0.4791969668071254, -0.5704649275300824, -24.354616045770953, 9362.0, 43253.0, 35388.0, 9362.0, 8.132232666015625, 0.13879577815532684, 0.0004703100712504238, 0.17378075420856476, -0.010182508267462254, -0.07104600965976715, 0.9952170252799988, -0.029569072648882866, -0.09335899353027344, 1.48828125, 1.298583984375, 0.051055908203125, 1.798095703125
104981, 0.4607221782207489, 0.19448252022266388, -0.21220871806144714, -8.845610618591309, -20.29435157775879, -23.92396354675293, -0.6195970773696899, -1.4766087532043457, -1.1325448751449585, 0.014003087766468525, 0.10460145026445389, 0.24081534147262573, -0.49711238503483146, -0.5448043041318158, -24.369513998676926, 9362.0, 43253.0, 35388.0, 9362.0, 8.132232666015625, -0.06824713200330734, -0.13296857476234436, -0.3860982060432434, -0.010182508267462254, -0.07104600965976715, 0.9952170252799988, -0.043599002063274384, 0.3277606964111328, 1.522705078125, 1.298583984375, 0.051055908203125, 1.798095703125
104991, 0.45996397733688354, 0.19563163816928864, -0.2137584686279297, -8.845610618591309, -20.29435157775879, -23.92396354675293, -0.6195970773696899, -1.4766087532043457, -1.1325448751449585, 0.014053377322852612, 0.10460392385721207, 0.2409563809633255, -0.4503368625728558, -0.6833990649965642, -24.39649890789766, 9362.0, 43253.0, 35388.0, 9362.0, 8.132232666015625, 0.005852426402270794, 0.2715319097042084, -0.20149929821491241, -0.010392026044428349, -0.0698477104306221, 0.9973867535591125, -0.043599002063274384, 0.3277606964111328, 1.522705078125, 1.298583984375, 0.051055908203125, 1.798095703125
105011, 0.45943328738212585, 0.19064851105213165, -0.21382589638233185, -8.845610618591309, -20.29435157775879, -23.92396354675293, -0.6195970773696899, -1.4766087532043457, -1.1325448751449585, 0.014027236960828304, 0.10460738092660904, 0.24097126722335815, -0.41269355786074297, -0.7142874406185626, -24.377667475390645, 9362.0, 43253.0, 35388.0, 9362.0, 8.132232666015625, 0.345359742641449, -0.1376768946647644, 0.0527859628200531, -0.009651290252804756, -0.07074755430221558, 0.9977831244468689, -0.012807903811335564, -0.15607833862304688, 1.483154296875, 1.298583984375, 0.051055908203125, 1.798095703125
105021, 0.4608582854270935, 0.19212515652179718, -0.21447698771953583, -8.845610618591309, -20.29435157775879, -23.92396354675293, -0.6195970773696899, -1.4766087532043457, -1.1325448751449585, 0.01406468078494072, 0.10460091382265091, 0.24094094336032867, -0.4611973688162005, -0.6912426290627707, -24.392975336096484, 9362.0, 43253.0, 35388.0, 9362.0, 8.132232666015625, 0.345359742641449, -0.1376768946647644, 0.0527859628200531, -0.009651290252804756, -0.07074755430221558, 0.9977831244468689, -0.02867846190929413, -0.18295860290527344, 1.48095703125, 1.298583984375, 0.051055908203125, 1.798095703125
105051, 0.4600389301776886, 0.19134441018104553, -0.2119777947664261, -8.88906478881836, -20.397905349731445, -24.003307342529297, -0.6219256520271301, -1.4821008443832397, -1.1345572471618652, 0.014068057760596275, 0.10460738092660904, 0.24098804593086243, -0.4385989695452776, -0.732395750544498, -24.377600659348158, 9362.0, 43253.0, 35388.0, 9362.0, 8.132232666015625, 0.03143436089158058, -0.14120186865329742, -0.3353897035121918, -0.009651846252381802, -0.06978913396596909, 0.9979794025421143, -0.04817618057131767, -0.11127853393554688, 1.48681640625, 1.298583984375, 0.051055908203125, 1.798095703125
105061, 0.4598967432975769, 0.1930214762687683, -0.21417805552482605, -8.88906478881836, -20.397905349731445, -24.003307342529297, -0.6219256520271301, -1.4821008443832397, -1.1345572471618652, 0.013980132527649403, 0.10459199547767639, 0.24083049595355988, -0.40820805040395647, -0.6232798590404514, -24.357095468943317, 9362.0, 43253.0, 35388.0, 9362.0, 8.132232666015625, 0.07310760021209717, 0.3707634508609772, -0.20088520646095276, -0.009651846252381802, -0.06978913396596909, 0.9979794025421143, -0.04817618057131767, -0.11127853393554688, 1.48681640625, 1.298583984375, 0.051055908203125, 1.798095703125
105071, 0.4615473449230194, 0.19184018671512604, -0.21480409801006317, -8.901510238647461, -20.42756462097168, -24.026002883911133, -0.6225847005844116, -1.4836704730987549, -1.1350289583206177, 0.01402346696704626, 0.10459212958812714, 0.240794375538826, -0.5167337684353566, -0.5171592201845954, -24.379947181768763, 9362.0, 43253.0, 35388.0, 9362.0, 8.132232666015625, 0.06654012203216553, 0.013610106892883778, -0.017193283885717392, -0.009651846252381802, -0.06978913396596909, 0.9979794025421143, -0.04817618057131767, -0.11127853393554688, 1.48681640625, 1.298583984375, 0.051055908203125, 1.798095703125
105081, 0.46182504296302795, 0.19185766577720642, -0.21445681154727936, -8.901510238647461, -20.42756462097168, -24.026002883911133, -0.6225847005844116, -1.4836704730987549, -1.1350289583206177, 0.014061301946640015, 0.10461565107107162, 0.24092966318130493, -0.43772884880889573, -0.6369190422288398, -24.37662875371981, 9362.0, 43253.0, 35388.0, 9362.0, 8.132232666015625, 0.026190897449851036, 0.063691645860672, 0.30737999081611633, -0.009651846252381802, -0.06978913396596909, 0.9979794025421143, -0.03481167182326317, -0.01271820068359375, 1.494873046875, 1.298583984375, 0.051055908203125, 1.798095703125
105101, 0.4617108404636383, 0.18887193500995636, -0.2128240317106247, -8.901510238647461, -20.42756462097168, -24.026002883911133, -0.6225847005844116, -1.4836704730987549, -1.1350289583206177, 0.013954217545688152, 0.10453789681196213, 0.24088117480278015, -0.5046955591772146, -0.6716580805280898, -24.330678463758968, 9362.0, 43253.0, 35388.0, 9362.0, 8.132232666015625, -0.028539011254906654, -0.015298093669116497, -0.1026972085237503, -0.011824212037026882, -0.06795646995306015, 0.9958372116088867, -0.02133525162935257, 0.05896186828613281, 1.500732421875, 1.298583984375, 0.051055908203125, 1.798095703125
105111, 0.4620823264122009, 0.188813716173172, -0.2127576321363449, -8.92643928527832, -20.486974716186523, -24.071430206298828, -0.6239056587219238, -1.4868124723434448, -1.1364506483078003, 0.014008975587785244, 0.10459227114915848, 0.24080395698547363, -0.5023978288824632, -0.5231809643366034, -24.36217755761394, 9362.0, 43253.0, 35388.0, 9362.0, 8.132232666015625, 0.012512324377894402, -0.4315040111541748, -0.20615896582603455, -0.00932305958122015, -0.06880062073469162, 0.9953908920288086, -0.02133525162935257, 0.05896186828613281, 1.500732421875, 1.298583984375, 0.051055908203125, 1.798095703125
105121, 0.46151378750801086, 0.18967096507549286, -0.21358391642570496, -8.932680130004883, -20.501846313476562, -24.082796096801758, -0.6242305636405945, -1.4875984191894531, -1.1368861198425293, 0.014034094288945198, 0.10462775826454163, 0.2409484088420868, -0.39059701328892754, -0.7301835602280278, -24.365957562943038, 9362.0, 43253.0, 35388.0, 9362.0, 8.132232666015625, 0.14283539354801178, -0.03504709154367447, -0.006035883445292711, -0.009262369945645332, -0.06820698827505112, 0.9967795610427856, -0.02133525162935257, 0.05896186828613281, 1.500732421875, 1.298583984375, 0.051055908203125, 1.798095703125
105131, 0.46198907494544983, 0.18988697230815887, -0.21277961134910583, -8.932680130004883, -20.501846313476562, -24.082796096801758, -0.6242305636405945, -1.4875984191894531, -1.1368861198425293, 0.014003605581820011, 0.10460323840379715, 0.24079442024230957, -0.4012579819766141, -0.645305107750545, -24.355945487739394, 9362.0, 43253.0, 35388.0, 9362.0, 8.132232666015625, 0.06549723446369171, -0.5284816026687622, 0.07637722790241241, -0.010694163851439953, -0.07052815705537796, 0.9967619180679321, -0.02133525162935257, 0.05896186828613281, 1.500732421875, 1.298583984375, 0.051055908203125, 1.798095703125
105141, 0.4615689516067505, 0.19392944872379303, -0.21271568536758423, -8.932680130004883, -20.501846313476562, -24.082796096801758, -0.6242305636405945, -1.4875984191894531, -1.1368861198425293, 0.014049522578716278, 0.104616679251194, 0.2406853884458542, -0.5046082395638815, -0.5305180819649422, -24.371373813374227, 9362.0, 43253.0, 35388.0, 9362.0, 8.132232666015625, -0.15496587753295898, -0.12628574669361115, 0.15617148578166962, -0.010694163851439953, -0.07052815705537796, 0.9967619180679321, -0.014204517006874084, 0.1396007537841797, 1.50732421875, 1.298583984375, 0.051055908203125, 1.798095703125
105151, 0.46073299646377563, 0.19629891216754913, -0.2122405469417572, -8.932680130004883, -20.501846313476562, -24.082796096801758, -0.6242305636405945, -1.4875984191894531, -1.1368861198425293, 0.014032002538442612, 0.10459814220666885, 0.2406540960073471, -0.5693903862412837, -0.4622102205973704, -24.39450809990325, 9362.0, 43253.0, 35388.0, 9362.0, 8.132232666015625, -0.051896099001169205, -0.2831248641014099, -0.22317516803741455, -0.010694163851439953, -0.07052815705537796, 0.9967619180679321, -0.03826097771525383, -0.10231781005859375, 1.487548828125, 1.298583984375, 0.051055908203125, 1.798095703125
105161, 0.4613027274608612, 0.19818741083145142, -0.21418163180351257, -8.95767593383789, -20.561412811279297, -24.128297805786133, -0.625542163848877, -1.49074387550354, -1.1383984088897705, 0.01400719117373228, 0.10460308194160461, 0.24071185290813446, -0.43954764668636725, -0.5773743003545064, -24.381184381944156, 9362.0, 43253.0, 35388.0, 9362.0, 8.132232666015625, 0.1548604667186737, -0.05354311689734459, 0.34257736802101135, -0.0101143978536129, -0.07072369009256363, 0.9966245293617249, -0.03826097771525383, -0.10231781005859375, 1.487548828125, 1.298583984375, 0.051055908203125, 1.798095703125
105171, 0.4628591239452362, 0.19723059237003326, -0.2129436582326889, -8.963932991027832, -20.576324462890625, -24.13968276977539, -0.6258799433708191, -1.4915286302566528, -1.138758897781372, 0.014014597050845623, 0.10462144017219543, 0.24068816006183624, -0.4375731374518789, -0.5785891732430173, -24.35863517394459, 9362.0, 43253.0, 35388.0, 9362.0, 8.132232666015625, -0.12928666174411774, 0.2549677789211273, 0.29148533940315247, -0.0101143978536129, -0.07072369009256363, 0.9966245293617249, -0.03826097771525383, -0.10231781005859375, 1.487548828125, 1.298583984375, 0.051055908203125, 1.798095703125
105201, 0.4643251895904541, 0.20001201331615448, -0.21150149405002594, -8.976457595825195, -20.606170654296875, -24.16246223449707, -0.6265612244606018, -1.4931046962738037, -1.1392326354980469, 0.013983567245304585, 0.10459567606449127, 0.24073514342308044, -0.3997905623105192, -0.6646868023049706, -24.342117586365735, 9362.0, 43253.0, 35388.0, 9362.0, 8.132232666015625, -0.03786443546414375, 0.17514027655124664, -0.46764805912971497, -0.01052780356258154, -0.07130862772464752, 0.9971916079521179, -0.02100568823516369, -0.07543754577636719, 1.48974609375, 1.298583984375, 0.051055908203125, 1.798095703125
105211, 0.46422716975212097, 0.19860342144966125, -0.21423274278640747, -8.988995552062988, -20.63604736328125, -24.18525505065918, -0.6272459030151367, -1.4946824312210083, -1.1399133205413818, 0.014007986523211002, 0.10460714250802994, 0.240664541721344, -0.39998124013969777, -0.6616865420816112, -24.316114937732138, 9362.0, 43253.0, 35388.0, 9362.0, 8.132232666015625, 0.0011082538403570652, 0.006382848136126995, 0.03939792886376381, -0.01216901559382677, -0.06858693063259125, 0.9972216486930847, -0.024169497191905975, -0.2098369598388672, 1.478759765625, 1.298583984375, 0.051055908203125, 1.798095703125
105231, 0.46397295594215393, 0.20041656494140625, -0.21327361464500427, -8.995269775390625, -20.650999069213867, -24.1966552734375, -0.6275903582572937, -1.4954739809036255, -1.1402026414871216, 0.014014587737619877, 0.10460365563631058, 0.24071693420410156, -0.44092010161623124, -0.6374645015785063, -24.33147881817906, 9362.0, 43253.0, 35388.0, 9362.0, 8.132232666015625, -0.12606896460056305, -0.055489860475063324, 0.05578790232539177, -0.008857774548232555, -0.06835002452135086, 0.9983152151107788, -0.02480112761259079, -0.09335899353027344, 1.48828125, 1.298583984375, 0.051055908203125, 1.798095703125
105241, 0.4626629650592804, 0.2010057270526886, -0.21340222656726837, -8.995269775390625, -20.650999069213867, -24.1966552734375, -0.6275903582572937, -1.4954739809036255, -1.1402026414871216, 0.0140326377004385, 0.10458622872829437, 0.24070990085601807, -0.5165181281401091, -0.5976296208791041, -24.350129493054943, 9362.0, 43253.0, 35388.0, 9362.0, 8.132232666015625, 0.19517336785793304, 0.0673682764172554, -0.08140429109334946, -0.008857774548232555, -0.06835002452135086, 0.9983152151107788, -0.03236124664545059, -0.03959846496582031, 1.49267578125, 1.298583984375, 0.051055908203125, 1.798095703125
105251, 0.46405717730522156, 0.2008996605873108, -0.2128446400165558, -9.014113426208496, -20.695899963378906, -24.23087501525879, -0.6286203265190125, -1.4978480339050293, -1.1409202814102173, 0.0140483183786273, 0.1045907661318779, 0.2407701462507248, -0.42971670267620565, -0.6281571246798592, -24.333604361417777, 9362.0, 43253.0, 35388.0, 9362.0, 8.132232666015625, -0.1822773814201355, -0.26906105875968933, -0.058760929852724075, -0.011063753627240658, -0.06976471096277237, 0.99755859375, -0.03236124664545059, -0.03959846496582031, 1.49267578125, 1.298583984375, 0.051055908203125, 1.798095703125
105261, 0.4638768136501312, 0.2031332105398178, -0.21350613236427307, -9.014113426208496, -20.695899963378906, -24.23087501525879, -0.6286203265190125, -1.4978480339050293, -1.1409202814102173, 0.014080405235290527, 0.10460463911294937, 0.2407027781009674, -0.4849664595928093, -0.5518708440822593, -24.35734503928123, 9362.0, 43253.0, 35388.0, 9362.0, 8.132232666015625, -0.0009137442684732378, 0.06725002825260162, 0.02014736644923687, -0.011063753627240658, -0.06976471096277237, 0.99755859375, -0.020787684246897697, -0.18295860290527344, 1.48095703125, 1.298583984375, 0.051055908203125, 1.798095703125
105271, 0.4631001949310303, 0.2036023885011673, -0.2142874151468277, -9.014113426208496, -20.695899963378906, -24.23087501525879, -0.6286203265190125, -1.4978480339050293, -1.1409202814102173, 0.014056453481316566, 0.10458146780729294, 0.24081359803676605, -0.47873496801530246, -0.6054951326552498, -24.366365173311802, 9362.0, 43253.0, 35388.0, 9362.0, 8.132232666015625, 0.1691628098487854, 0.24915584921836853, -0.05176854133605957, -0.011063753627240658, -0.06976471096277237, 0.99755859375, -0.020787684246897697, -0.18295860290527344, 1.48095703125, 1.298583984375, 0.051055908203125, 1.80029296875
105291, 0.4637802839279175, 0.20027504861354828, -0.21270108222961426, -9.014113426208496, -20.695899963378906, -24.23087501525879, -0.6286203265190125, -1.4978480339050293, -1.1409202814102173, 0.014083527959883213, 0.10461800545454025, 0.2407844513654709, -0.5351425897457935, -0.5145119465049675, -24.37300416601649, 9362.0, 43253.0, 35388.0, 9362.0, 8.132232666015625, -0.11085949093103409, 0.262713223695755, 0.2330673187971115, -0.010597988963127136, -0.06972420960664749, 1.0000755786895752, -0.030682479962706566, 0.0052013397216796875, 1.496337890625, 1.298583984375, 0.051055908203125, 1.80029296875
105311, 0.4631446301937103, 0.20089982450008392, -0.21164476871490479, -9.045587539672852, -20.770891189575195, -24.28795623779297, -0.6303578019142151, -1.50180184841156, -1.142054796218872, 0.014048280194401741, 0.10459771752357483, 0.2407831996679306, -0.4633142457830475, -0.607287771550233, -24.368617539306186, 9362.0, 43253.0, 35388.0, 9362.0, 8.132232666015625, -0.12525853514671326, -0.2725871205329895, 0.06958696991205215, -0.008707503788173199, -0.06987715512514114, 0.9987149238586426, -0.026945747435092926, -0.10231781005859375, 1.487548828125, 1.298583984375, 0.051055908203125, 1.80029296875
105341, 0.4661230742931366, 0.2002006322145462, -0.21452736854553223, -9.070829391479492, -20.831026077270508, -24.333663940429688, -0.6317338943481445, -1.504960298538208, -1.1434321403503418, 0.014070211909711361, 0.10458987206220627, 0.24077840149402618, -0.5857508672139177, -0.44874754294446006, -24.394031059724156, 9362.0, 43253.0, 35388.0, 9362.0, 8.132232666015625, -0.10811366140842438, -0.19042357802391052, 0.0773688331246376, -0.011384501121938229, -0.06897591799497604, 0.996917724609375, -0.03483382612466812, -0.18295860290527344, 1.48095703125, 1.298583984375, 0.051055908203125, 1.80029296875
105361, 0.4656982719898224, 0.2013302594423294, -0.2143002450466156, -9.083471298217773, -20.861141204833984, -24.356538772583008, -0.6324201226234436, -1.5065484046936035, -1.1440376043319702, 0.014012949541211128, 0.10461348295211792, 0.24078163504600525, -0.48552164958442856, -0.581800771579168, -24.37948406929155, 9362.0, 43253.0, 35388.0, 9362.0, 8.132232666015625, -0.019508689641952515, 0.06570396572351456, 0.12517619132995605, -0.011775609105825424, -0.06996455043554306, 0.9966740012168884, -0.015578155405819416, 0.30088043212890625, 1.5205078125, 1.298583984375, 0.051055908203125, 1.80029296875
105371, 0.46646758913993835, 0.20085284113883972, -0.21286731958389282, -9.083471298217773, -20.861141204833984, -24.356538772583008, -0.6324201226234436, -1.5065484046936035, -1.1440376043319702, 0.01403686124831438, 0.10463061183691025, 0.2409898042678833, -0.444489496553794, -0.666883653344172, -24.37178152679953, 9362.0, 43253.0, 35388.0, 9362.0, 8.132232666015625, 0.038424309343099594, -0.10318051278591156, 0.018939469009637833, -0.011775609105825424, -0.06996455043554306, 0.9966740012168884, -0.028988176956772804, -0.13815879821777344, 1.484619140625, 1.298583984375, 0.051055908203125, 1.80029296875
105381, 0.4659283757209778, 0.2008519470691681, -0.21225126087665558, -9.096126556396484, -20.89128875732422, -24.37942123413086, -0.6331145167350769, -1.508137822151184, -1.1442877054214478, 0.014019673690199852, 0.10461999475955963, 0.24070772528648376, -0.48951657836180373, -0.5537318642286664, -24.376405142234322, 9362.0, 43253.0, 35388.0, 9362.0, 8.132232666015625, -0.18580779433250427, 0.140783429145813, -0.09120377153158188, -0.010745968669652939, -0.0692189633846283, 0.9977895617485046, -0.028988176956772804, -0.13815879821777344, 1.484619140625, 1.298583984375, 0.051055908203125, 1.80029296875
105391, 0.4650692641735077, 0.20073311030864716, -0.2135629653930664, -9.096126556396484, -20.89128875732422, -24.37942123413086, -0.6331145167350769, -1.508137822151184, -1.1442877054214478, 0.013985035009682178, 0.10462825000286102, 0.24065950512886047, -0.43705580768000063, -0.6257491299224398, -24.364226312455973, 9362.0, 43253.0, 35388.0, 9362.0, 8.132232666015625, 0.15659797191619873, 0.3216409683227539, 0.337207168340683, -0.010745968669652939, -0.0692189633846283, 0.9977895617485046, -0.0385393463075161, -0.09335899353027344, 1.48828125, 1.298583984375, 0.051055908203125, 1.80029296875
105461, 0.46437957882881165, 0.19971059262752533, -0.21231235563755035, -9.14052963256836, -20.997053146362305, -24.4595947265625, -0.6355323195457458, -1.51369309425354, -1.146537184715271, 0.014045823365449905, 0.10459408164024353, 0.24078312516212463, -0.5499184373700468, -0.5009980619794021, -24.376567465130865, 9362.0, 43253.0, 35388.0, 9362.0, 8.132232666015625, -0.03621191903948784, -0.02316116914153099, -0.21082007884979248, -0.011144374497234821, -0.07075771689414978, 0.9956042170524597, -0.03573986142873764, -0.09335899353027344, 1.48828125, 1.298583984375, 0.051055908203125, 1.80029296875
