timeTick, roll, pitch, yaw, stateX, stateY, stateZ, stateVX, stateVY, stateVZ, otX0, otY0, otZ0, otRoll0, otPitch0, otYaw0, left wing, pitch motor, yaw motor, right wing, voltage, roll rate, pitch rate, yaw rate, A_x, A_y, A_z, current, i_raw, v_raw, airflow_voltage, airflow_speed, pot_Pitch
222228, 0.09480838477611542, -0.31404632329940796, -0.05550605058670044, 0, 0, 0, 0, 0, 0, -0.029494021087884903, 0.11871900409460068, 0.23879453539848328, -2.7958035215950594, 1.3649678415243898, 8.633014905276614, 0, 0, 0, 0, 0, 0, 0, 0, 0, 0, 0, 0, 0, 0, 0, 0, 0
222238, 0.09456848353147507, -0.3131354749202728, -0.05473928526043892, 2.481341600418091, -0.45531314611434937, -3.388031482696533, 0.4581526815891266, -0.1056828647851944, -0.4444218575954437, -0.02949683740735054, 0.11871113628149033, 0.23874524235725403, -2.8649773789989252, 1.4680662605967996, 8.64483382713206, 9362.0, 23592.0, 35388.0, 9362.0, 7.973554611206055, 0.02566593512892723, 0.013330409303307533, -0.22407183051109314, 0, 0, 0, 0, 0, 0, 0, 0, 0
222248, 0.09516115486621857, -0.31315550208091736, -0.05581003054976463, 2.4859259128570557, -0.4563708007335663, -3.39247727394104, 0.4586886465549469, -0.10584522783756256, -0.44471263885498047, -0.029488906264305115, 0.1187090203166008, 0.2387399673461914, -2.887918229352101, 1.4564983123299555, 8.626689059633946, 9362.0, 23592.0, 35388.0, 9362.0, 7.973554611206055, 0.05798543617129326, -0.15599067509174347, 0.015821490436792374, 0.007745915558189154, -0.07583773881196976, 0.9984130859375, -0.11577646434307098, -0.08439826965332031, 1.489013671875, 1.339599609375, 0.0168914794921875, 1.32568359375
222258, 0.0949176549911499, -0.31137287616729736, -0.05515715107321739, 2.4905154705047607, -0.45743006467819214, -3.3969249725341797, 0.45922401547431946, -0.10600747168064117, -0.4448316693305969, -0.029478516429662704, 0.1186990886926651, 0.23876400291919708, -2.811029024210345, 1.3892390197150917, 8.638957922644568, 9362.0, 23592.0, 35388.0, 9362.0, 7.973554611206055, 0.13890260457992554, 0.22475139796733856, 0.28174102306365967, 0.007472514174878597, -0.07598230242729187, 0.9978511333465576, -0.11328350007534027, -0.10231781005859375, 1.487548828125, 1.336669921875, 0.0177764892578125, 1.32421875
222268, 0.0944724902510643, -0.31263235211372375, -0.05377751588821411, 2.495110273361206, -0.4584909677505493, -3.401374578475952, 0.4597586691379547, -0.10617050528526306, -0.44507545232772827, -0.029507659375667572, 0.11870613694190979, 0.23870059847831726, -2.843571087244025, 1.444780611362546, 8.627457881442892, 9362.0, 23592.0, 35388.0, 9362.0, 7.973554611206055, 0.020141929388046265, -0.15302035212516785, 0.07561875134706497, 0.007618761155754328, -0.07680001109838486, 0.9971466064453125, -0.11143987625837326, -0.09335899353027344, 1.48828125, 1.33154296875, 0.0198516845703125, 1.32275390625
222278, 0.09414246678352356, -0.3117528259754181, -0.05427573621273041, 2.4997105598449707, -0.45955348014831543, -3.4058263301849365, 0.4602905511856079, -0.10633319616317749, -0.44527554512023926, -0.029472997412085533, 0.11870312690734863, 0.23878510296344757, -2.8256374932026755, 1.413141909502059, 8.623260880864025, 9362.0, 23592.0, 35388.0, 9362.0, 7.973554611206055, 0.19685670733451843, 0.06083407625555992, 0.049288153648376465, 0.009081915020942688, -0.07936563342809677, 0.9965172410011292, -0.11052363365888596, -0.08439826965332031, 1.489013671875, 1.13525390625, 0.8764495849609375, 1.324951171875
222288, 0.09392087161540985, -0.3125424087047577, -0.05390971153974533, 2.5043160915374756, -0.46061763167381287, -3.41028094291687, 0.46082374453544617, -0.10649486631155014, -0.4456436336040497, -0.02949666604399681, 0.11869709193706512, 0.2387170046567917, -2.8705761951005324, 1.419618940708233, 8.645807400737546, 9362.0, 23592.0, 35388.0, 9362.0, 7.973554611206055, 0.06094948947429657, -0.2735905051231384, 0.08979304134845734, 0.008366418071091175, -0.07725547254085541, 0.9969027042388916, -0.11025206744670868, -0.10231781005859375, 1.487548828125, 1.1455078125, 0.7802734375, 1.323486328125
222298, 0.09317632764577866, -0.3117899000644684, -0.0540243461728096, 2.5089271068573, -0.46168339252471924, -3.414738893508911, 0.46135565638542175, -0.10665605217218399, -0.4459477663040161, -0.028871621936559677, 0.11880035698413849, 0.23852354288101196, -3.155543729409929, 1.7529725273902272, 8.298734764009566, 9362.0, 23592.0, 35388.0, 9362.0, 7.973554611206055, 0.023866085335612297, -0.002618256025016308, -0.13063743710517883, 0.00983011070638895, -0.0741790384054184, 0.9974280595779419, -0.1097516268491745, -0.1291980743408203, 1.4853515625, 1.1455078125, 0.7802734375, 1.32568359375
222308, 0.09368938207626343, -0.31167781352996826, -0.054616089910268784, 2.5135433673858643, -0.46275076270103455, -3.4191999435424805, 0.4618889391422272, -0.1068168431520462, -0.44626814126968384, -0.0294744074344635, 0.11870221793651581, 0.23877881467342377, -2.767554445185942, 1.3344833891524104, 8.632645226062948, 9362.0, 23592.0, 35388.0, 9362.0, 7.973554611206055, 0.025884341448545456, 0.35254785418510437, -0.10416429489850998, 0.008127130568027496, -0.07547611743211746, 0.9974021911621094, -0.1092807725071907, -0.12023735046386719, 1.486083984375, 1.13232421875, 0.9053192138671875, 1.31982421875
222318, 0.09343774616718292, -0.31374281644821167, -0.055267687886953354, 2.518164873123169, -0.4638197422027588, -3.42366361618042, 0.4624215066432953, -0.10697655379772186, -0.44647255539894104, -0.029484089463949203, 0.1187114417552948, 0.23878426849842072, -2.8055946032649417, 1.3513333044409137, 8.630787829077496, 9362.0, 23592.0, 35388.0, 9362.0, 7.99338960647583, 0.04949146881699562, -0.1983364224433899, -0.04342363029718399, 0.008519585244357586, -0.07637744396924973, 0.9980958700180054, -0.10878433287143707, -0.09335899353027344, 1.48828125, 1.149169921875, 0.7476959228515625, 1.322021484375
222328, 0.09370417892932892, -0.31274646520614624, -0.05577682703733444, 2.522791862487793, -0.4648903012275696, -3.4281294345855713, 0.4629537761211395, -0.10713712126016617, -0.4466954171657562, -0.028869912028312683, 0.11877581477165222, 0.23853369057178497, -3.1495165143176447, 1.777670273747617, 8.31012799196509, 9362.0, 23592.0, 35388.0, 9362.0, 7.973554611206055, 0.05524853616952896, 0.1697503626346588, -0.28114423155784607, 0.006920927669852972, -0.07530123740434647, 0.9954601526260376, -0.10913557559251785, -0.09335899353027344, 1.48828125, 1.130859375, 0.91998291015625, 1.326416015625
222338, 0.09308737516403198, -0.312435120344162, -0.057342663407325745, 2.5274240970611572, -0.4659624695777893, -3.432598114013672, 0.4634888470172882, -0.10729704797267914, -0.44704917073249817, -0.02947627753019333, 0.1187167540192604, 0.23872661590576172, -2.87893405759844, 1.4356254903869967, 8.609771763506457, 9362.0, 23592.0, 35388.0, 9362.0, 7.973554611206055, 0.17736387252807617, 0.06206059083342552, 0.34959545731544495, 0.007148820906877518, -0.07842592895030975, 0.9945911169052124, -0.10475253313779831, -0.11127853393554688, 1.48681640625, 1.324951171875, 0.0236663818359375, 1.32861328125
222348, 0.09382158517837524, -0.3131754398345947, -0.0572214275598526, 2.5320615768432617, -0.46703624725341797, -3.4370710849761963, 0.4640215337276459, -0.107457235455513, -0.4475308656692505, -0.02948235720396042, 0.11869889497756958, 0.23873849213123322, -2.8646823484886252, 1.4605089284291353, 8.64524642420365, 9362.0, 23592.0, 35388.0, 9362.0, 7.99338960647583, -0.05468826740980148, 0.2854144275188446, -0.07643439620733261, 0.008555720560252666, -0.07608777284622192, 0.9968408942222595, -0.10706540942192078, -0.1291980743408203, 1.4853515625, 1.34033203125, 0.0166168212890625, 1.3212890625
222358, 0.09197480231523514, -0.31422045826911926, -0.0585731640458107, 2.5367045402526855, -0.4681116044521332, -3.4415485858917236, 0.46455398201942444, -0.10761643946170807, -0.44796672463417053, -0.02948528341948986, 0.1187119260430336, 0.23873339593410492, -2.86061198936618, 1.3945610845965746, 8.64901047371298, 9362.0, 23592.0, 35388.0, 9362.0, 7.99338960647583, -0.039992064237594604, -0.173683762550354, -0.049260832369327545, 0.007124482188373804, -0.07407712191343307, 0.9989270567893982, -0.11190637946128845, -0.15607833862304688, 1.483154296875, 1.32861328125, 0.0214385986328125, 1.323486328125
222368, 0.09185253083705902, -0.3137969970703125, -0.058847133070230484, 2.5413527488708496, -0.4691885709762573, -3.4460291862487793, 0.4650890529155731, -0.10777733474969864, -0.44815298914909363, -0.029484760016202927, 0.11870100349187851, 0.2387097179889679, -2.8700134264817363, 1.4252038599234425, 8.646179908811835, 9362.0, 23592.0, 35388.0, 9362.0, 7.99338960647583, 0.02472236193716526, 0.06518001854419708, -0.11294113099575043, 0.007762129884213209, -0.07782163470983505, 0.9982100129127502, -0.11071644723415375, -0.14711761474609375, 1.48388671875, 1.330810546875, 0.0203399658203125, 1.322021484375
222378, 0.09184442460536957, -0.3149496614933014, -0.060246992856264114, 2.546006441116333, -0.4702671468257904, -3.4505112171173096, 0.46562623977661133, -0.10793516784906387, -0.44826751947402954, -0.02950652316212654, 0.11870311945676804, 0.2387198656797409, -2.8327307628427745, 1.3925849645226833, 8.638054865603973, 9362.0, 23592.0, 35388.0, 9362.0, 7.99338960647583, 0.03315200284123421, 0.10379397869110107, -0.14256200194358826, 0.005585614591836929, -0.07669689506292343, 0.9963504076004028, -0.11471281200647354, -0.09335899353027344, 1.48828125, 1.3330078125, 0.0191650390625, 1.32421875
222388, 0.0913812667131424, -0.3151155710220337, -0.060787539929151535, 2.5506653785705566, -0.47134727239608765, -3.4549953937530518, 0.46616169810295105, -0.1080925241112709, -0.4485647976398468, -0.02948625758290291, 0.11869335919618607, 0.23870763182640076, -2.800828855576153, 1.40164541066801, 8.629689407163333, 9362.0, 23592.0, 35388.0, 9362.0, 7.99338960647583, 0.06550313532352448, 0.13619758188724518, -0.045643679797649384, 0.0066256034187972546, -0.0764927864074707, 0.9984411001205444, -0.11421191692352295, -0.10231781005859375, 1.487548828125, 1.32568359375, 0.0232086181640625, 1.32275390625
222398, 0.09216426312923431, -0.31674280762672424, -0.06078825518488884, 2.5553297996520996, -0.47242897748947144, -3.459482192993164, 0.466699481010437, -0.1082499772310257, -0.4488004446029663, -0.029479283839464188, 0.11870705336332321, 0.23879344761371613, -2.8077242566832608, 1.3714096602862753, 8.629007258365208, 9362.0, 23592.0, 35388.0, 9362.0, 7.99338960647583, 0.12463404983282089, -0.011571058072149754, -0.157954603433609, 0.0064743380062282085, -0.07630907744169235, 0.9982907772064209, -0.11476823687553406, -0.10231781005859375, 1.487548828125, 1.327880859375, 0.0218353271484375, 1.3271484375
222408, 0.09218183904886246, -0.3164325952529907, -0.06263939291238785, 2.559999465942383, -0.4735122621059418, -3.463970899581909, 0.46723800897598267, -0.10840675979852676, -0.44895121455192566, -0.02947411499917507, 0.11870705336332321, 0.2387184500694275, -2.8866642105497995, 1.4902606666623512, 8.637863462004471, 9362.0, 23592.0, 35388.0, 9362.0, 7.99338960647583, -0.16536377370357513, -0.07216671854257584, 0.09349076449871063, 0.008262868039309978, -0.07696457952260971, 0.9980728626251221, -0.11170966178178787, -0.10231781005859375, 1.487548828125, 1.329345703125, 0.02105712890625, 1.323486328125
222418, 0.09157291054725647, -0.3166365325450897, -0.06175212562084198, 2.5646746158599854, -0.47459712624549866, -3.468461513519287, 0.4677790403366089, -0.1085648387670517, -0.44914960861206055, -0.029495511204004288, 0.11871162801980972, 0.2387424111366272, -2.817680613158719, 1.3247929345742193, 8.621323111404903, 9362.0, 23592.0, 35388.0, 9362.0, 7.973554611206055, 0.046814948320388794, 0.03698699176311493, -0.07247717678546906, 0.007567552383989096, -0.07833851873874664, 0.9994952082633972, -0.1098581999540329, -0.08439826965332031, 1.489013671875, 1.330078125, 0.0206298828125, 1.324951171875
222428, 0.09183051437139511, -0.3162320554256439, -0.061871450394392014, 2.569355010986328, -0.4756835699081421, -3.4729535579681396, 0.46831998229026794, -0.10872304439544678, -0.4492763578891754, -0.029473155736923218, 0.11869773268699646, 0.2387712597846985, -2.8023161325276806, 1.367385050511075, 8.620551841784296, 9362.0, 23592.0, 35388.0, 9362.0, 7.99338960647583, -0.1856898069381714, -0.07013629376888275, 0.005194602068513632, 0.007075121626257896, -0.07681907713413239, 0.9989966750144958, -0.11098180711269379, -0.12023735046386719, 1.486083984375, 1.3388671875, 0.017120361328125, 1.322021484375
222438, 0.09069027006626129, -0.3162235617637634, -0.061220698058605194, 2.5740408897399902, -0.47677159309387207, -3.4774463176727295, 0.46886181831359863, -0.10888039320707321, -0.44929417967796326, -0.029474809765815735, 0.11869089305400848, 0.2387271374464035, -2.8718092035045677, 1.471725856710151, 8.62280176569434, 9362.0, 23592.0, 35388.0, 9362.0, 7.973554611206055, 0.1338476687669754, -0.07419919967651367, 0.02319200523197651, 0.00652792863547802, -0.0760129913687706, 0.9960168600082397, -0.11518434435129166, -0.11127853393554688, 1.48681640625, 1.335205078125, 0.018280029296875, 1.32275390625
222448, 0.0921572744846344, -0.3167925179004669, -0.061999816447496414, 2.5787322521209717, -0.4778611958026886, -3.481940507888794, 0.4694017767906189, -0.10903781652450562, -0.44953474402427673, -0.029478613287210464, 0.11870701611042023, 0.23871439695358276, -2.887363920930212, 1.5077936896095991, 8.623417887771113, 9362.0, 23592.0, 35388.0, 9362.0, 7.973554611206055, -0.0390300378203392, 0.10849286615848541, -0.09550821781158447, 0.006111114285886288, -0.07295405119657516, 0.9967926144599915, -0.11433069407939911, -0.1291980743408203, 1.4853515625, 1.33447265625, 0.0186309814453125, 1.323486328125
222458, 0.09259773790836334, -0.3187940716743469, -0.06303645670413971, 2.5834288597106934, -0.4789523482322693, -3.4864377975463867, 0.4699409604072571, -0.10919307172298431, -0.44991788268089294, -0.02949083037674427, 0.11870505660772324, 0.238735169172287, -2.8581601523018967, 1.449713947904172, 8.646036979130113, 9362.0, 23592.0, 35388.0, 9362.0, 7.973554611206055, -0.09011325240135193, 0.06884217262268066, -0.0011325887171551585, 0.007630049716681242, -0.07734167575836182, 0.996523380279541, -0.11611543595790863, -0.13815879821777344, 1.484619140625, 1.3330078125, 0.0191650390625, 1.323486328125
222468, 0.0917929857969284, -0.32036709785461426, -0.06231774762272835, 2.5881309509277344, -0.4800450801849365, -3.490938663482666, 0.47048139572143555, -0.10935094952583313, -0.45023706555366516, -0.029495185241103172, 0.11870533972978592, 0.23876802623271942, -2.790677499200586, 1.339642721669577, 8.62755669862117, 9362.0, 23592.0, 35388.0, 9362.0, 7.99338960647583, 0.19524914026260376, 0.16063638031482697, -0.16424699127674103, 0.008834597654640675, -0.07597213983535767, 0.9962064027786255, -0.11393502354621887, -0.08439826965332031, 1.489013671875, 1.32568359375, 0.0232086181640625, 1.32568359375
222478, 0.09252443164587021, -0.3202490508556366, -0.06387384980916977, 2.5928385257720947, -0.4811393916606903, -3.495443105697632, 0.47102490067481995, -0.10950946062803268, -0.45062869787216187, -0.0294796172529459, 0.11869607120752335, 0.2387092560529709, -2.892687781426809, 1.462541098226069, 8.645726251604975, 9362.0, 23592.0, 35388.0, 9362.0, 7.99338960647583, -0.03157902881503105, -0.31837010383605957, -0.12635260820388794, 0.006618911866098642, -0.07471780478954315, 0.9978034496307373, -0.11091721802949905, -0.1291980743408203, 1.4853515625, 1.32568359375, 0.0232086181640625, 1.32568359375
222488, 0.09277338534593582, -0.3201662600040436, -0.06403110921382904, 2.5928385257720947, -0.4811393916606903, -3.495443105697632, 0.47102490067481995, -0.10950946062803268, -0.45062869787216187, -0.029482439160346985, 0.11870098114013672, 0.23872065544128418, -2.8507588844034264, 1.4448648448069434, 8.653113390280852, 9362.0, 23592.0, 35388.0, 9362.0, 7.973554611206055, -0.15414254367351532, -0.30543017387390137, 0.29388099908828735, 0.006618911866098642, -0.07471780478954315, 0.9978034496307373, -0.11091721802949905, -0.1291980743408203, 1.4853515625, 1.32568359375, 0.0232086181640625, 1.323486328125
222498, 0.09276960790157318, -0.3178081214427948, -0.06275291740894318, 2.6022701263427734, -0.4833327531814575, -3.5044612884521484, 0.4721185564994812, -0.10982544720172882, -0.45114216208457947, -0.029508180916309357, 0.11869961768388748, 0.23871134221553802, -2.8367499413999004, 1.4274577644150952, 8.634471183805898, 9362.0, 23592.0, 35388.0, 9362.0, 7.973554611206055, 0.21561241149902344, 0.5689853429794312, 0.22292490303516388, 0.006618911866098642, -0.07471780478954315, 0.9978034496307373, -0.11091721802949905, -0.1291980743408203, 1.4853515625, 1.32568359375, 0.0232086181640625, 1.32275390625
222508, 0.09406396001577377, -0.3212752640247345, -0.06190800294280052, 2.606994152069092, -0.48443180322647095, -3.5089738368988037, 0.47266530990600586, -0.10998452454805374, -0.45136988162994385, -0.02949414774775505, 0.11869551241397858, 0.23875537514686584, -2.8255532993577575, 1.3664812726106845, 8.632324264792135, 9362.0, 23592.0, 35388.0, 9362.0, 7.973554611206055, -0.051862601190805435, 0.3272288143634796, -0.012587500736117363, 0.006618911866098642, -0.07471780478954315, 0.9978034496307373, -0.11091721802949905, -0.1291980743408203, 1.4853515625, 1.32568359375, 0.0232086181640625, 1.32275390625
222518, 0.09282564371824265, -0.3222630023956299, -0.061610929667949677, 2.606994152069092, -0.48443180322647095, -3.5089738368988037, 0.47266530990600586, -0.10998452454805374, -0.45136988162994385, -0.029499897733330727, 0.11870521306991577, 0.23875728249549866, -2.887880266185124, 1.4537532282677148, 8.630047729692306, 9362.0, 23592.0, 35388.0, 9362.0, 7.973554611206055, -0.025107622146606445, -0.33075442910194397, -0.11904603242874146, 0.007685266435146332, -0.07482051104307175, 0.996282160282135, -0.11091721802949905, -0.1291980743408203, 1.4853515625, 1.32568359375, 0.0232086181640625, 1.32421875
222528, 0.09337405860424042, -0.3218311071395874, -0.06313445419073105, 2.606994152069092, -0.48443180322647095, -3.5089738368988037, 0.47266530990600586, -0.10998452454805374, -0.45136988162994385, -0.029472503811120987, 0.11870485544204712, 0.23877426981925964, -2.8352044886044214, 1.4107440552395758, 8.641135368408447, 9362.0, 23592.0, 35388.0, 9362.0, 7.973554611206055, -0.2427862137556076, -0.0707622617483139, 0.062462374567985535, 0.008376906625926495, -0.07575984299182892, 0.9945610761642456, -0.11091721802949905, -0.1291980743408203, 1.4853515625, 1.32568359375, 0.0232086181640625, 1.323486328125
222538, 0.09230930358171463, -0.32263901829719543, -0.06355728209018707, 2.6211984157562256, -0.4877385199069977, -3.522523880004883, 0.47430598735809326, -0.11046374589204788, -0.45222243666648865, -0.02948966808617115, 0.11870482563972473, 0.23872709274291992, -2.8374059079749228, 1.4492335571625006, 8.640075764850831, 9362.0, 23592.0, 35388.0, 9362.0, 7.973554611206055, -0.16356979310512543, 0.17777764797210693, -0.13547998666763306, 0.008376906625926495, -0.07575984299182892, 0.9945610761642456, -0.11091721802949905, -0.1291980743408203, 1.4853515625, 1.32568359375, 0.0232086181640625, 1.323486328125
222548, 0.09300819039344788, -0.3243006467819214, -0.06395512819290161, 2.625944137573242, -0.4888439476490021, -3.527047872543335, 0.47485482692718506, -0.11062364280223846, -0.4525812268257141, -0.028877437114715576, 0.11877249926328659, 0.23855191469192505, -3.1236022166612263, 1.7547928337055225, 8.285468697642372, 9362.0, 23592.0, 35388.0, 9362.0, 7.973554611206055, -0.04152151569724083, -0.2827581465244293, 0.3022336959838867, 0.008376906625926495, -0.07575984299182892, 0.9945610761642456, -0.11091721802949905, -0.1291980743408203, 1.4853515625, 1.32568359375, 0.0232086181640625, 1.32568359375
222558, 0.09198477119207382, -0.32314980030059814, -0.06302620470523834, 2.630695343017578, -0.4899509847164154, -3.531574010848999, 0.475406676530838, -0.110782191157341, -0.4526515007019043, -0.02948639541864395, 0.11868676543235779, 0.2387119084596634, -2.7717516222026664, 1.2185030998011541, 8.622503640458795, 9362.0, 23592.0, 35388.0, 9362.0, 7.973554611206055, -0.15726517140865326, 0.5091495513916016, 0.024379108101129532, 0.008376906625926495, -0.07575984299182892, 0.9945610761642456, -0.11091721802949905, -0.1291980743408203, 1.4853515625, 1.32568359375, 0.0232086181640625, 1.31982421875
222568, 0.09127423167228699, -0.32522812485694885, -0.06139484792947769, 2.630695343017578, -0.4899509847164154, -3.531574010848999, 0.475406676530838, -0.110782191157341, -0.4526515007019043, -0.029476288706064224, 0.11871222406625748, 0.23874230682849884, -2.873148892847989, 1.4507213551998461, 8.63948280642967, 9362.0, 23592.0, 35388.0, 9362.0, 7.973554611206055, 0.09123217314481735, 0.6272960901260376, -0.08874775469303131, 0.008376906625926495, -0.07575984299182892, 0.9945610761642456, -0.11091721802949905, -0.1291980743408203, 1.4853515625, 1.32568359375, 0.0232086181640625, 1.32568359375
222578, 0.09102703630924225, -0.3278006911277771, -0.06318973004817963, 2.630695343017578, -0.4899509847164154, -3.531574010848999, 0.475406676530838, -0.110782191157341, -0.4526515007019043, -0.02947867289185524, 0.11868471652269363, 0.23876994848251343, -2.8074779345422645, 1.3454572118794772, 8.652107145141184, 9362.0, 23592.0, 35388.0, 9362.0, 7.973554611206055, 0.061540473252534866, 0.01862795278429985, -0.16997204720973969, 0.0080618467181921, -0.07732120156288147, 0.9971489906311035, -0.11091721802949905, -0.1291980743408203, 1.4853515625, 1.32568359375, 0.0232086181640625, 1.32568359375
222588, 0.09126397222280502, -0.3267459273338318, -0.06544168293476105, 2.630695343017578, -0.4899509847164154, -3.531574010848999, 0.475406676530838, -0.110782191157341, -0.4526515007019043, -0.02949174866080284, 0.11869780719280243, 0.23873846232891083, -2.820860260271437, 1.3571712323025622, 8.633210995549558, 9362.0, 23592.0, 35388.0, 9362.0, 7.973554611206055, -0.04766015335917473, -0.3421967327594757, -0.4049168527126312, 0.0080618467181921, -0.07732120156288147, 0.9971489906311035, -0.11091721802949905, -0.1291980743408203, 1.4853515625, 1.32568359375, 0.0232086181640625, 1.324951171875
222598, 0.09168023616075516, -0.3232267498970032, -0.06936287879943848, 2.630695343017578, -0.4899509847164154, -3.531574010848999, 0.475406676530838, -0.110782191157341, -0.4526515007019043, -0.028888629749417305, 0.1187475249171257, 0.23859207332134247, -3.0109358824698345, 1.5875434826546666, 8.299226425348905, 9362.0, 23592.0, 35388.0, 9362.0, 7.973554611206055, 0.09113766998052597, 0.15046079456806183, 0.018890777602791786, 0.007975108921527863, -0.07585278898477554, 0.9950107932090759, -0.11091721802949905, -0.1291980743408203, 1.4853515625, 1.32568359375, 0.0232086181640625, 1.3212890625
222608, 0.09340998530387878, -0.32429996132850647, -0.07012338191270828, 2.6545350551605225, -0.4955098032951355, -3.5542378425598145, 0.4781838655471802, -0.11156820505857468, -0.45406484603881836, -0.029464049264788628, 0.11870298534631729, 0.23878149688243866, -2.8163331689695243, 1.4050790244687335, 8.624065301947246, 9362.0, 23592.0, 35388.0, 9362.0, 7.973554611206055, -0.07578470557928085, 0.07595977932214737, -0.14469298720359802, 0.007975108921527863, -0.07585278898477554, 0.9950107932090759, -0.11091721802949905, -0.1291980743408203, 1.4853515625, 1.32568359375, 0.0232086181640625, 1.32421875
222618, 0.091822549700737, -0.3264451324939728, -0.07121597230434418, 2.6593196392059326, -0.49662625789642334, -3.5587801933288574, 0.4787352681159973, -0.11172531545162201, -0.45440003275871277, -0.0294794999063015, 0.11870674788951874, 0.2387697845697403, -2.8149988146136202, 1.373346988405757, 8.625756644451453, 9362.0, 23592.0, 35388.0, 9362.0, 7.973554611206055, -0.037122394889593124, 0.11162059754133224, -0.09791477769613266, 0.007975108921527863, -0.07585278898477554, 0.9950107932090759, -0.11091721802949905, -0.1291980743408203, 1.4853515625, 1.32568359375, 0.0232086181640625, 1.3212890625
222628, 0.09215979278087616, -0.32742780447006226, -0.07247792184352875, 2.6593196392059326, -0.49662625789642334, -3.5587801933288574, 0.4787352681159973, -0.11172531545162201, -0.45440003275871277, -0.029481718316674232, 0.11871562898159027, 0.23874835669994354, -2.854140075316833, 1.4332876016766818, 8.633695113560211, 9362.0, 23592.0, 35388.0, 9362.0, 7.973554611206055, -0.057711031287908554, 0.010899737477302551, 0.09736257791519165, 0.007975108921527863, -0.07585278898477554, 0.9950107932090759, -0.11091721802949905, -0.1291980743408203, 1.4853515625, 1.32568359375, 0.0232086181640625, 1.326416015625
222638, 0.09188523888587952, -0.3274678587913513, -0.0727081373333931, 2.6593196392059326, -0.49662625789642334, -3.5587801933288574, 0.4787352681159973, -0.11172531545162201, -0.45440003275871277, -0.0288643017411232, 0.11877480894327164, 0.23852017521858215, -3.084747877363386, 1.7251273701386083, 8.287017782620527, 9362.0, 23592.0, 35388.0, 9362.0, 7.973554611206055, -0.02255355939269066, 0.2075301706790924, -0.3011404275894165, 0.006665513385087252, -0.0745503380894661, 0.9972429871559143, -0.11091721802949905, -0.1291980743408203, 1.4853515625, 1.32568359375, 0.0232086181640625, 1.3212890625
222648, 0.09290290623903275, -0.32820776104927063, -0.07533007860183716, 2.6593196392059326, -0.49662625789642334, -3.5587801933288574, 0.4787352681159973, -0.11172531545162201, -0.45440003275871277, -0.029490549117326736, 0.11869575083255768, 0.23875734210014343, -2.802654774739292, 1.3909886343984397, 8.645910218493789, 9362.0, 23592.0, 35388.0, 9362.0, 7.973554611206055, -0.2223893702030182, 0.0722607746720314, 0.09895136952400208, 0.009628119878470898, -0.0743100568652153, 0.9981561303138733, -0.11091721802949905, -0.1291980743408203, 1.4853515625, 1.32568359375, 0.0232086181640625, 1.3212890625
222658, 0.09208417683839798, -0.3276177942752838, -0.07483132928609848, 2.6593196392059326, -0.49662625789642334, -3.5587801933288574, 0.4787352681159973, -0.11172531545162201, -0.45440003275871277, -0.02949199266731739, 0.11869817227125168, 0.2387157529592514, -2.8209512355186623, 1.4383998535359979, 8.614550080779976, 9362.0, 23592.0, 35388.0, 9362.0, 7.973554611206055, -0.031794141978025436, 0.025983065366744995, -0.24747753143310547, 0.009409635327756405, -0.07659777253866196, 0.9968478083610535, -0.11091721802949905, -0.1291980743408203, 1.4853515625, 1.32568359375, 0.0232086181640625, 1.3212890625
222668, 0.09135712683200836, -0.32787182927131653, -0.07762933522462845, 2.683326005935669, -0.5022323727607727, -3.581530809402466, 0.48152461647987366, -0.11251821368932724, -0.4556453227996826, -0.02949119731783867, 0.11871393024921417, 0.23875075578689575, -2.8029473598496755, 1.3645695460404568, 8.63165800453747, 9362.0, 23592.0, 35388.0, 9362.0, 7.99338960647583, 0.03628882020711899, -0.14753888547420502, -0.0593930147588253, 0.009409635327756405, -0.07659777253866196, 0.9968478083610535, -0.11091721802949905, -0.1291980743408203, 1.4853515625, 1.32568359375, 0.0232086181640625, 1.3212890625
222678, 0.09125568717718124, -0.32735708355903625, -0.07769918441772461, 2.6881439685821533, -0.5033583641052246, -3.5860888957977295, 0.48208358883857727, -0.11267613619565964, -0.4559490978717804, -0.029490098357200623, 0.11870066821575165, 0.23870320618152618, -2.8700263193719975, 1.4663612097259033, 8.656612148222472, 9362.0, 23592.0, 35388.0, 9362.0, 7.99338960647583, -0.014061263762414455, 0.23856282234191895, -0.26341548562049866, 0.009409635327756405, -0.07659777253866196, 0.9968478083610535, -0.11091721802949905, -0.1291980743408203, 1.4853515625, 1.32568359375, 0.0232086181640625, 1.322021484375
222688, 0.09142857044935226, -0.33019596338272095, -0.07797300070524216, 2.6881439685821533, -0.5033583641052246, -3.5860888957977295, 0.48208358883857727, -0.11267613619565964, -0.4559490978717804, -0.029493581503629684, 0.11870890855789185, 0.23872798681259155, -2.862157774754128, 1.4350071227848105, 8.656634654521394, 9362.0, 23592.0, 35388.0, 9362.0, 7.99338960647583, -0.062340978533029556, -0.03473742678761482, 0.06507674604654312, 0.0073160454630851746, -0.07514187693595886, 0.998079776763916, -0.11091721802949905, -0.1291980743408203, 1.4853515625, 1.32568359375, 0.0232086181640625, 1.31982421875
222698, 0.09116041660308838, -0.33100032806396484, -0.07701851427555084, 2.6881439685821533, -0.5033583641052246, -3.5860888957977295, 0.48208358883857727, -0.11267613619565964, -0.4559490978717804, -0.029507484287023544, 0.11870377510786057, 0.23870880901813507, -2.928113077593898, 1.5205255249852598, 8.634717829312118, 9362.0, 23592.0, 35388.0, 9362.0, 7.99338960647583, -0.13756217062473297, 0.2737608253955841, 0.2991611063480377, 0.010645141825079918, -0.07720311731100082, 0.9965782761573792, -0.11091721802949905, -0.1291980743408203, 1.4853515625, 1.32568359375, 0.0232086181640625, 1.324951171875
222708, 0.0907839983701706, -0.33208969235420227, -0.07455549389123917, 2.6881439685821533, -0.5033583641052246, -3.5860888957977295, 0.48208358883857727, -0.11267613619565964, -0.4559490978717804, -0.02947383001446724, 0.11870104819536209, 0.2387639731168747, -2.854238188475538, 1.4342125065485334, 8.634569579081633, 9362.0, 23592.0, 35388.0, 9362.0, 7.99338960647583, -0.19344207644462585, -0.1346452385187149, -0.10549571365118027, 0.008374391123652458, -0.07468685507774353, 0.9977991580963135, -0.11091721802949905, -0.1291980743408203, 1.4853515625, 1.32568359375, 0.0232086181640625, 1.327880859375
222718, 0.09113999456167221, -0.3306565582752228, -0.07494224607944489, 2.6881439685821533, -0.5033583641052246, -3.5860888957977295, 0.48208358883857727, -0.11267613619565964, -0.4559490978717804, -0.029487181454896927, 0.11868903040885925, 0.23873886466026306, -2.90167922285556, 1.4103303523607167, 8.639515105003484, 9362.0, 23592.0, 35388.0, 9362.0, 7.973554611206055, 0.03205907717347145, -0.24782271683216095, -0.14010439813137054, 0.007043652236461639, -0.0736026018857956, 0.9980945587158203, -0.11091721802949905, -0.1291980743408203, 1.4853515625, 1.32568359375, 0.0232086181640625, 1.327880859375
222728, 0.09206335246562958, -0.329877108335495, -0.0757426992058754, 2.6881439685821533, -0.5033583641052246, -3.5860888957977295, 0.48208358883857727, -0.11267613619565964, -0.4559490978717804, -0.029470250010490417, 0.1187087669968605, 0.23877465724945068, -2.828193007677884, 1.384593106353634, 8.629285938937784, 9362.0, 23592.0, 35388.0, 9362.0, 7.973554611206055, 0.006794505286961794, 0.2218126654624939, 0.0782725140452385, 0.006885218899697065, -0.07341849058866501, 0.9985778331756592, -0.11091721802949905, -0.1291980743408203, 1.4853515625, 1.32568359375, 0.0232086181640625, 1.32275390625
222738, 0.09210336953401566, -0.3290437161922455, -0.07489646226167679, 2.717170000076294, -0.5101470947265625, -3.6134848594665527, 0.4854637086391449, -0.11361540853977203, -0.4572252333164215, -0.02888287603855133, 0.11877571046352386, 0.2385159730911255, -3.065511559727987, 1.68430708696647, 8.28616762065646, 9362.0, 23592.0, 35388.0, 9362.0, 7.99338960647583, -0.015511634759604931, 0.24502520263195038, -0.14066624641418457, 0.006885218899697065, -0.07341849058866501, 0.9985778331756592, -0.11091721802949905, -0.1291980743408203, 1.4853515625, 1.32568359375, 0.0232086181640625, 1.32275390625
222748, 0.0928359106183052, -0.33059000968933105, -0.07600358128547668, 2.717170000076294, -0.5101470947265625, -3.6134848594665527, 0.4854637086391449, -0.11361540853977203, -0.4572252333164215, -0.028862426057457924, 0.11878533661365509, 0.2385181337594986, -3.1391237321901215, 1.7851752224516986, 8.291910492900069, 9362.0, 23592.0, 35388.0, 9362.0, 7.973554611206055, -0.006040748208761215, 0.08679313957691193, 0.057704102247953415, 0.006885218899697065, -0.07341849058866501, 0.9985778331756592, -0.11091721802949905, -0.1291980743408203, 1.4853515625, 1.32568359375, 0.0232086181640625, 1.32568359375
222758, 0.09346908330917358, -0.3332948386669159, -0.0767231211066246, 2.717170000076294, -0.5101470947265625, -3.6134848594665527, 0.4854637086391449, -0.11361540853977203, -0.4572252333164215, -0.029459647834300995, 0.11870128661394119, 0.23878568410873413, -2.765121206441354, 1.2891397440353387, 8.633237724888145, 9362.0, 23592.0, 35388.0, 9362.0, 7.973554611206055, 0.19709078967571259, 0.7136828899383545, 0.1581309586763382, 0.006885218899697065, -0.07341849058866501, 0.9985778331756592, -0.11091721802949905, -0.1291980743408203, 1.4853515625, 1.32568359375, 0.0232086181640625, 1.32568359375
222768, 0.09447315335273743, -0.33846980333328247, -0.07497864961624146, 2.717170000076294, -0.5101470947265625, -3.6134848594665527, 0.4854637086391449, -0.11361540853977203, -0.4572252333164215, -0.02947254851460457, 0.11870011687278748, 0.23875828087329865, -2.8235284035522015, 1.3826507217155495, 8.62572931452073, 9362.0, 23592.0, 35388.0, 9362.0, 7.973554611206055, -0.15651780366897583, 0.14845211803913116, 0.2893579602241516, 0.007788060698658228, -0.07688382267951965, 0.9977684617042542, -0.11091721802949905, -0.1291980743408203, 1.4853515625, 1.32568359375, 0.0232086181640625, 1.326416015625
222778, 0.094672292470932, -0.34043559432029724, -0.07275871932506561, 2.736633777618408, -0.5147044062614441, -3.63179612159729, 0.487720787525177, -0.11425074934959412, -0.45842447876930237, -0.0295126773416996, 0.11870890855789185, 0.23867836594581604, -2.912539750741442, 1.5550454145515005, 8.652131861016914, 9362.0, 23592.0, 35388.0, 9362.0, 7.99338960647583, -0.12577122449874878, 0.1732853800058365, -0.03182107210159302, 0.007788060698658228, -0.07688382267951965, 0.9977684617042542, -0.11091721802949905, -0.1291980743408203, 1.4853515625, 1.32568359375, 0.0232086181640625, 1.32568359375
222788, 0.09496134519577026, -0.3419969379901886, -0.07429496198892593, 2.741513967514038, -0.5158477425575256, -3.6363816261291504, 0.4882986843585968, -0.1144128367304802, -0.45866426825523376, -0.029488030821084976, 0.11868660151958466, 0.23872649669647217, -2.842809277816135, 1.440478971730812, 8.639694400056992, 9362.0, 23592.0, 35388.0, 9362.0, 7.973554611206055, -0.0821242406964302, 0.018257198855280876, 0.062295202165842056, 0.007788060698658228, -0.07688382267951965, 0.9977684617042542, -0.11091721802949905, -0.1291980743408203, 1.4853515625, 1.32568359375, 0.0232086181640625, 1.32568359375
222798, 0.0944746881723404, -0.3411925435066223, -0.07485067844390869, 2.7463998794555664, -0.5169926881790161, -3.640969753265381, 0.488879531621933, -0.11457518488168716, -0.45896676182746887, -0.029474027454853058, 0.118726447224617, 0.23876069486141205, -2.798446470325282, 1.377852703131822, 8.633242674597577, 9362.0, 23592.0, 35388.0, 9362.0, 7.973554611206055, 0.03594397008419037, 0.07596670836210251, -0.14374946057796478, 0.007788060698658228, -0.07688382267951965, 0.9977684617042542, -0.11091721802949905, -0.1291980743408203, 1.4853515625, 1.32568359375, 0.0232086181640625, 1.323486328125
222808, 0.09449978917837143, -0.3423543870449066, -0.07507159560918808, 2.751291513442993, -0.5181392431259155, -3.6455612182617188, 0.4894627034664154, -0.11473795771598816, -0.45933425426483154, -0.02949872799217701, 0.11871202290058136, 0.23874567449092865, -2.859084320548534, 1.3792646348997835, 8.634589888503474, 9362.0, 23592.0, 35388.0, 9362.0, 7.973554611206055, 0.19590559601783752, -0.21882356703281403, -0.2798483967781067, 0.007788060698658228, -0.07688382267951965, 0.9977684617042542, -0.11091721802949905, -0.1291980743408203, 1.4853515625, 1.32568359375, 0.0232086181640625, 1.32275390625
222818, 0.09473708271980286, -0.3410951495170593, -0.07701506465673447, 2.7561891078948975, -0.5192874073982239, -3.6501564979553223, 0.4900444447994232, -0.11489986628293991, -0.4596997797489166, -0.02950289472937584, 0.1186719536781311, 0.23874755203723907, -2.8070858637463227, 1.177858987944603, 8.632674682520522, 9362.0, 23592.0, 35388.0, 9362.0, 7.973554611206055, 0.04850464686751366, -0.11840327829122543, 0.018699970096349716, 0.007788060698658228, -0.07688382267951965, 0.9977684617042542, -0.11091721802949905, -0.1291980743408203, 1.4853515625, 1.32568359375, 0.0232086181640625, 1.323486328125
222828, 0.09577653557062149, -0.3398556411266327, -0.07730095833539963, 2.7561891078948975, -0.5192874073982239, -3.6501564979553223, 0.4900444447994232, -0.11489986628293991, -0.4596997797489166, -0.029469717293977737, 0.11869064718484879, 0.2387346476316452, -2.8741999899023964, 1.4588087867415709, 8.62478641609826, 9362.0, 23592.0, 35388.0, 9362.0, 7.973554611206055, -0.07637635618448257, -0.11915060132741928, -0.15888015925884247, 0.007566490676254034, -0.07653511315584183, 0.9960991740226746, -0.11091721802949905, -0.1291980743408203, 1.4853515625, 1.32568359375, 0.0232086181640625, 1.32275390625
222838, 0.09581515938043594, -0.3393063247203827, -0.07857616245746613, 2.7561891078948975, -0.5192874073982239, -3.6501564979553223, 0.4900444447994232, -0.11489986628293991, -0.4596997797489166, -0.029484234750270844, 0.11870931088924408, 0.2387421578168869, -2.797618267551547, 1.4600535304705318, 8.619832679839847, 9362.0, 23592.0, 35388.0, 9362.0, 7.973554611206055, -0.08342251181602478, -0.022495776414871216, -0.14693570137023926, 0.007325663231313229, -0.07571686804294586, 0.9977403879165649, -0.11091721802949905, -0.1291980743408203, 1.4853515625, 1.32568359375, 0.0232086181640625, 1.32275390625
222848, 0.0950240045785904, -0.33950233459472656, -0.07929603010416031, 2.7561891078948975, -0.5192874073982239, -3.6501564979553223, 0.4900444447994232, -0.11489986628293991, -0.4596997797489166, -0.0294981449842453, 0.1186930313706398, 0.23874881863594055, -2.7806246988598793, 1.3353377202201955, 8.63641575221274, 9362.0, 23592.0, 35388.0, 9362.0, 7.973554611206055, -0.0613093227148056, 0.11394601315259933, -0.14123955368995667, 0.006852727383375168, -0.07535459101200104, 0.9965217113494873, -0.11091721802949905, -0.1291980743408203, 1.4853515625, 1.32568359375, 0.0232086181640625, 1.323486328125
222858, 0.09468265622854233, -0.3398725688457489, -0.08007249236106873, 2.7758374214172363, -0.5238964557647705, -3.668572425842285, 0.492369145154953, -0.11555296927690506, -0.46096017956733704, -0.029473615810275078, 0.11870107799768448, 0.23878464102745056, -2.7396724053714814, 1.3487329266142467, 8.62244059087928, 9362.0, 23592.0, 35388.0, 9362.0, 7.973554611206055, -0.17433278262615204, 0.14045611023902893, -0.0241860244423151, 0.006852727383375168, -0.07535459101200104, 0.9965217113494873, -0.11091721802949905, -0.1291980743408203, 1.4853515625, 1.32568359375, 0.0232086181640625, 1.32568359375
222868, 0.09516188502311707, -0.3405393660068512, -0.07946200668811798, 2.780764102935791, -0.5250527858734131, -3.6731836795806885, 0.49294814467430115, -0.11571591347455978, -0.4612984359264374, -0.029465720057487488, 0.11871784925460815, 0.23879507184028625, -2.781598218007238, 1.379748448091192, 8.637591100960638, 9362.0, 23592.0, 35388.0, 9362.0, 7.973554611206055, 0.036786168813705444, -0.31911417841911316, 0.11834148317575455, 0.008040993474423885, -0.0741213858127594, 0.9963764548301697, -0.11091721802949905, -0.1291980743408203, 1.4853515625, 1.32568359375, 0.0232086181640625, 1.323486328125
222878, 0.09630779176950455, -0.33877384662628174, -0.07986414432525635, 2.780764102935791, -0.5250527858734131, -3.6731836795806885, 0.49294814467430115, -0.11571591347455978, -0.4612984359264374, -0.029476691037416458, 0.11869290471076965, 0.23875872790813446, -2.837388985821189, 1.450429649531145, 8.638226091325869, 9362.0, 23592.0, 35388.0, 9362.0, 7.973554611206055, -0.004506710451096296, -0.3361659049987793, -0.08816967159509659, 0.008581100031733513, -0.07630593329668045, 0.998910665512085, -0.11091721802949905, -0.1291980743408203, 1.4853515625, 1.32568359375, 0.0232086181640625, 1.3271484375
222888, 0.09569057822227478, -0.3363021910190582, -0.07998508960008621, 2.7906346321105957, -0.5273703932762146, -3.6824164390563965, 0.49410921335220337, -0.11604159325361252, -0.4618922770023346, -0.02950604259967804, 0.11869776248931885, 0.23877167701721191, -2.8104380542431935, 1.3961461583707262, 8.640407789596422, 9362.0, 23592.0, 35388.0, 9362.0, 7.973554611206055, -0.08098183572292328, 0.12519891560077667, 0.12857471406459808, 0.0077751618809998035, -0.07568627595901489, 0.9993231296539307, -0.11091721802949905, -0.1291980743408203, 1.4853515625, 1.32568359375, 0.0232086181640625, 1.3271484375
222898, 0.09564028680324554, -0.33656251430511475, -0.07944890111684799, 2.7906346321105957, -0.5273703932762146, -3.6824164390563965, 0.49410921335220337, -0.11604159325361252, -0.4618922770023346, -0.029487090185284615, 0.11871165037155151, 0.23876063525676727, -2.808470507230603, 1.388278281030722, 8.643837171935655, 9362.0, 23592.0, 35388.0, 9362.0, 7.973554611206055, 0.28232353925704956, 0.254965603351593, 0.14895401895046234, 0.00755765987560153, -0.07322032749652863, 0.9965323209762573, -0.11091721802949905, -0.1291980743408203, 1.4853515625, 1.32568359375, 0.0232086181640625, 1.3271484375
222908, 0.09665244072675705, -0.3380025625228882, -0.07836335152387619, 2.8005285263061523, -0.5296944975852966, -3.691655397415161, 0.49526330828666687, -0.11637157946825027, -0.4621157646179199, -0.029520828276872635, 0.11864689737558365, 0.23818765580654144, -2.4248841712228377, -3.346484338972431, 8.559690160068062, 9362.0, 23592.0, 35388.0, 9362.0, 7.973554611206055, -0.01938462443649769, -0.04733141139149666, -0.04610993340611458, 0.00755765987560153, -0.07322032749652863, 0.9965323209762573, -0.11091721802949905, -0.1291980743408203, 1.4853515625, 1.32568359375, 0.0232086181640625, 1.32275390625
222918, 0.09626465290784836, -0.3374667167663574, -0.0795343667268753, 2.8054840564727783, -0.5308590531349182, -3.6962783336639404, 0.49583718180656433, -0.1165354922413826, -0.4624745845794678, -0.02950422465801239, 0.11869852244853973, 0.2387499213218689, -2.8535554837710597, 1.4508392799360195, 8.651737695772793, 9362.0, 23592.0, 35388.0, 9362.0, 7.973554611206055, -0.2682932913303375, 0.03606009483337402, 0.13868558406829834, 0.008566093631088734, -0.07840467244386673, 0.9994583129882812, -0.11091721802949905, -0.1291980743408203, 1.4853515625, 1.32568359375, 0.0232086181640625, 1.3271484375
222928, 0.09558218717575073, -0.33953583240509033, -0.07942754775285721, 2.8104453086853027, -0.5320252180099487, -3.70090389251709, 0.4964147210121155, -0.11670149862766266, -0.4626523554325104, -0.029478199779987335, 0.11870654672384262, 0.23872371017932892, -2.854745534781525, 1.5073111924893112, 8.650663474948848, 9362.0, 23592.0, 35388.0, 9362.0, 7.973554611206055, -0.24217994511127472, -0.12813962996006012, 0.16298744082450867, 0.008566093631088734, -0.07840467244386673, 0.9994583129882812, -0.11091721802949905, -0.1291980743408203, 1.4853515625, 1.32568359375, 0.0232086181640625, 1.323486328125
222938, 0.09542600065469742, -0.3376848101615906, -0.0791877880692482, 2.8104453086853027, -0.5320252180099487, -3.70090389251709, 0.4964147210121155, -0.11670149862766266, -0.4626523554325104, -0.029487814754247665, 0.11870057880878448, 0.23880445957183838, -2.813760899211908, 1.3723332985597096, 8.644993012069586, 9362.0, 23592.0, 35388.0, 9362.0, 7.973554611206055, -0.09651893377304077, -0.3481650650501251, 0.2537517249584198, 0.008566093631088734, -0.07840467244386673, 0.9994583129882812, -0.11091721802949905, -0.1291980743408203, 1.4853515625, 1.32568359375, 0.0232086181640625, 1.32275390625
222948, 0.09612997621297836, -0.3377995789051056, -0.07720479369163513, 2.8104453086853027, -0.5320252180099487, -3.70090389251709, 0.4964147210121155, -0.11670149862766266, -0.4626523554325104, -0.02948271669447422, 0.11869383603334427, 0.23879089951515198, -2.7785764845844843, 1.3592766296651178, 8.625073840635862, 9362.0, 23592.0, 35388.0, 9362.0, 7.973554611206055, 0.04556283727288246, -0.28713178634643555, -0.16820350289344788, 0.008566093631088734, -0.07840467244386673, 0.9994583129882812, -0.11091721802949905, -0.1291980743408203, 1.4853515625, 1.32568359375, 0.0232086181640625, 1.326416015625
222958, 0.09723668545484543, -0.3351686894893646, -0.07969213277101517, 2.8253636360168457, -0.5355336666107178, -3.7147934436798096, 0.4981473982334137, -0.11719464510679245, -0.46330156922340393, -0.029490523040294647, 0.1187114343047142, 0.23875030875205994, -2.83682962454139, 1.434906871325154, 8.62666928121681, 9362.0, 23592.0, 35388.0, 9362.0, 7.973554611206055, -0.11301185190677643, 0.09488189965486526, 0.024902882054448128, 0.008566093631088734, -0.07840467244386673, 0.9994583129882812, -0.11091721802949905, -0.1291980743408203, 1.4853515625, 1.32568359375, 0.0232086181640625, 1.323486328125
222968, 0.0974889025092125, -0.3353523313999176, -0.0798199474811554, 2.830348014831543, -0.5367064476013184, -3.7194278240203857, 0.4987240433692932, -0.11735955625772476, -0.4635891318321228, -0.029478769749403, 0.11868776381015778, 0.23875169456005096, -2.8554227567692454, 1.4225601028155381, 8.637893564231705, 9362.0, 23592.0, 35388.0, 9362.0, 7.973554611206055, 0.0676751583814621, -0.3251981735229492, 0.061776213347911835, 0.008566093631088734, -0.07840467244386673, 0.9994583129882812, -0.11091721802949905, -0.1291980743408203, 1.4853515625, 1.32568359375, 0.0232086181640625, 1.323486328125
222978, 0.09782146662473679, -0.3349258303642273, -0.08106296509504318, 2.8353381156921387, -0.5378808975219727, -3.7240655422210693, 0.4992956221103668, -0.11752625554800034, -0.46393883228302, -0.029487811028957367, 0.11869675666093826, 0.23874379694461823, -2.7879894397218905, 1.3889909352411678, 8.646276822949659, 9362.0, 23592.0, 35388.0, 9362.0, 7.973554611206055, -0.22017298638820648, -0.085487000644207, -0.15874063968658447, 0.008566093631088734, -0.07840467244386673, 0.9994583129882812, -0.11091721802949905, -0.1291980743408203, 1.4853515625, 1.32568359375, 0.0232086181640625, 1.32275390625
222988, 0.0966024398803711, -0.3349667489528656, -0.08139628171920776, 2.8353381156921387, -0.5378808975219727, -3.7240655422210693, 0.4992956221103668, -0.11752625554800034, -0.46393883228302, -0.02950207144021988, 0.11869911104440689, 0.23869699239730835, -2.946164685812789, 1.5130703492880855, 8.647343541531765, 9362.0, 23592.0, 35388.0, 9362.0, 7.973554611206055, 0.020808566361665726, 0.2702771723270416, 0.08827804774045944, 0.008566093631088734, -0.07840467244386673, 0.9994583129882812, -0.11091721802949905, -0.1291980743408203, 1.4853515625, 1.32568359375, 0.0232086181640625, 1.323486328125
222998, 0.09730882197618484, -0.33586499094963074, -0.08158734440803528, 2.8353381156921387, -0.5378808975219727, -3.7240655422210693, 0.4992956221103668, -0.11752625554800034, -0.46393883228302, -0.029486436396837234, 0.11869853734970093, 0.2387782633304596, -2.777645752530934, 1.3187042562174724, 8.631564774961282, 9362.0, 23592.0, 35388.0, 9362.0, 7.973554611206055, 0.2788507640361786, 0.012923491187393665, -0.024586636573076248, 0.008566093631088734, -0.07840467244386673, 0.9994583129882812, -0.11091721802949905, -0.1291980743408203, 1.4853515625, 1.32568359375, 0.0232086181640625, 1.323486328125
223008, 0.09818439185619354, -0.33667683601379395, -0.0817713662981987, 2.8503427505493164, -0.5414142608642578, -3.7380032539367676, 0.5010080933570862, -0.11802618950605392, -0.46529310941696167, -0.029476946219801903, 0.11870547384023666, 0.23876173794269562, -2.832367230153815, 1.3844571239679908, 8.646030267980438, 9362.0, 23592.0, 35388.0, 9362.0, 7.973554611206055, -0.030851012095808983, -0.1359410583972931, 0.21589252352714539, 0.008566093631088734, -0.07840467244386673, 0.9994583129882812, -0.11091721802949905, -0.1291980743408203, 1.4853515625, 1.32568359375, 0.0232086181640625, 1.324951171875
223018, 0.09743157774209976, -0.3366633653640747, -0.08054249733686447, 2.855355739593506, -0.5425953269004822, -3.7426586151123047, 0.501579999923706, -0.11819275468587875, -0.46579110622406006, -0.029489371925592422, 0.11869803816080093, 0.2387048304080963, -2.910858764189467, 1.4933996110599992, 8.661241504287764, 9362.0, 23592.0, 35388.0, 9362.0, 7.973554611206055, 0.030521586537361145, 0.1527942419052124, -0.0569908432662487, 0.008566093631088734, -0.07840467244386673, 0.9994583129882812, -0.11091721802949905, -0.1291980743408203, 1.4853515625, 1.32568359375, 0.0232086181640625, 1.323486328125
223028, 0.09701550006866455, -0.3369303047657013, -0.07950988411903381, 2.855355739593506, -0.5425953269004822, -3.7426586151123047, 0.501579999923706, -0.11819275468587875, -0.46579110622406006, -0.029483027756214142, 0.11870316416025162, 0.2387894093990326, -2.695123629485784, 1.2765881233087555, 8.62142565259341, 9362.0, 23592.0, 35388.0, 9362.0, 7.973554611206055, 0.021040519699454308, -0.06090455874800682, -0.2365756630897522, 0.008566093631088734, -0.07840467244386673, 0.9994583129882812, -0.11091721802949905, -0.1291980743408203, 1.4853515625, 1.32568359375, 0.0232086181640625, 1.31982421875
223038, 0.09640446305274963, -0.33712804317474365, -0.0807647779583931, 2.86539888381958, -0.5449625849723816, -3.7519824504852295, 0.5027281045913696, -0.11852807551622391, -0.46651920676231384, -0.02950003370642662, 0.11870916932821274, 0.23875971138477325, -2.8056586187689407, 1.4154276231536471, 8.625068162354056, 9362.0, 23592.0, 35388.0, 9362.0, 7.973554611206055, 0.23797698318958282, 0.13004125654697418, 0.10381254553794861, 0.008566093631088734, -0.07840467244386673, 0.9994583129882812, -0.11091721802949905, -0.1291980743408203, 1.4853515625, 1.32568359375, 0.0232086181640625, 1.324951171875
223048, 0.09688681364059448, -0.3365972340106964, -0.08050363510847092, 2.86539888381958, -0.5449625849723816, -3.7519824504852295, 0.5027281045913696, -0.11852807551622391, -0.46651920676231384, -0.029475491493940353, 0.11869458854198456, 0.23874394595623016, -2.8754525186412407, 1.445174460133785, 8.629633020121389, 9362.0, 23592.0, 35388.0, 9362.0, 7.973554611206055, 0.046601731330156326, 0.14370235800743103, -0.2376886010169983, 0.008566093631088734, -0.07840467244386673, 0.9994583129882812, -0.11091721802949905, -0.1291980743408203, 1.4853515625, 1.32568359375, 0.0232086181640625, 1.32568359375
223058, 0.09712391346693039, -0.33723175525665283, -0.0813281387090683, 2.86539888381958, -0.5449625849723816, -3.7519824504852295, 0.5027281045913696, -0.11852807551622391, -0.46651920676231384, -0.029469944536685944, 0.11868952214717865, 0.2387603521347046, -2.8353770754930356, 1.415065090537496, 8.641001800681781, 9362.0, 23592.0, 35388.0, 9362.0, 7.973554611206055, -0.06916731595993042, -0.2760876417160034, -0.09628501534461975, 0.007927578873932362, -0.07774399220943451, 0.9955863356590271, -0.11091721802949905, -0.1291980743408203, 1.4853515625, 1.32568359375, 0.0232086181640625, 1.3271484375
223078, 0.09756021201610565, -0.3336343467235565, -0.08044310659170151, 2.8855538368225098, -0.5497169494628906, -3.7706732749938965, 0.5050259232521057, -0.11919202655553818, -0.46807655692100525, -0.02949819341301918, 0.11870291084051132, 0.2387586534023285, -2.8522205017053115, 1.396472303480266, 8.637586926434288, 9362.0, 23592.0, 35388.0, 9362.0, 7.973554611206055, -0.0884137749671936, -0.2633977234363556, 0.16036011278629303, 0.006714134942740202, -0.07825525850057602, 0.9953293204307556, -0.11091721802949905, -0.1291980743408203, 1.4853515625, 1.2099609375, 0.329986572265625, 1.323486328125
223088, 0.09808160364627838, -0.334923654794693, -0.07955192774534225, 2.8906068801879883, -0.550909698009491, -3.7753565311431885, 0.505596935749054, -0.11935999244451523, -0.46855977177619934, -0.02948613464832306, 0.11871610581874847, 0.23876996338367462, -2.817714829312308, 1.4072158082915962, 8.622117316901917, 9362.0, 23592.0, 35388.0, 9362.0, 7.973554611206055, 0.031669650226831436, -0.1296544373035431, 0.178911954164505, 0.006714134942740202, -0.07825525850057602, 0.9953293204307556, -0.11091721802949905, -0.1291980743408203, 1.4853515625, 1.2099609375, 0.329986572265625, 1.32421875
223098, 0.09871144592761993, -0.3347727358341217, -0.07901185750961304, 2.8906068801879883, -0.550909698009491, -3.7753565311431885, 0.505596935749054, -0.11935999244451523, -0.46855977177619934, -0.029468707740306854, 0.11870861053466797, 0.2387542575597763, -2.858844115407103, 1.4809646581528568, 8.628702251927741, 9362.0, 23592.0, 35388.0, 9362.0, 7.973554611206055, 0.06551188230514526, 0.03135920315980911, 0.324698269367218, 0.006714134942740202, -0.07825525850057602, 0.9953293204307556, -0.11091721802949905, -0.1291980743408203, 1.4853515625, 1.2099609375, 0.329986572265625, 1.32568359375
223108, 0.09834568947553635, -0.33600547909736633, -0.07814982533454895, 2.8906068801879883, -0.550909698009491, -3.7753565311431885, 0.505596935749054, -0.11935999244451523, -0.46855977177619934, -0.02947913482785225, 0.11870289593935013, 0.23879198729991913, -2.739891441567989, 1.2723862469958647, 8.618988512302654, 9362.0, 23592.0, 35388.0, 9362.0, 7.973554611206055, 0.18185628950595856, -0.06163039058446884, 0.08039259910583496, 0.006714134942740202, -0.07825525850057602, 0.9953293204307556, -0.11091721802949905, -0.1291980743408203, 1.4853515625, 1.2099609375, 0.329986572265625, 1.3271484375
223118, 0.09930860996246338, -0.3351648151874542, -0.07769854366779327, 2.8906068801879883, -0.550909698009491, -3.7753565311431885, 0.505596935749054, -0.11935999244451523, -0.46855977177619934, -0.02950354665517807, 0.11870141327381134, 0.23873794078826904, -2.7596591802057593, 1.420361936368863, 8.620044943444215, 9362.0, 23592.0, 35388.0, 9362.0, 7.973554611206055, -0.2604321241378784, -0.356473833322525, -0.3021749258041382, 0.006714134942740202, -0.07825525850057602, 0.9953293204307556, -0.11091721802949905, -0.1291980743408203, 1.4853515625, 1.2099609375, 0.329986572265625, 1.32275390625
223128, 0.09751619398593903, -0.33334726095199585, -0.0776083841919899, 2.8906068801879883, -0.550909698009491, -3.7753565311431885, 0.505596935749054, -0.11935999244451523, -0.46855977177619934, -0.02949904091656208, 0.11870472133159637, 0.238766610622406, -2.814213678785125, 1.418574498155806, 8.617179910262648, 9362.0, 23592.0, 35388.0, 9362.0, 7.973554611206055, 0.011253753677010536, 0.15248876810073853, -0.11810263246297836, 0.008121740072965622, -0.07381536066532135, 0.9946268796920776, -0.11091721802949905, -0.1291980743408203, 1.4853515625, 1.2099609375, 0.329986572265625, 1.32275390625
223138, 0.09833970665931702, -0.336260586977005, -0.07775897532701492, 2.8906068801879883, -0.550909698009491, -3.7753565311431885, 0.505596935749054, -0.11935999244451523, -0.46855977177619934, -0.02945661172270775, 0.11871150881052017, 0.23877251148223877, -2.808831023054418, 1.3688817806748546, 8.629825235210495, 9362.0, 23592.0, 35388.0, 9362.0, 7.973554611206055, 0.08873546868562698, -0.05964474752545357, -0.26837480068206787, 0.007408605422824621, -0.07610700279474258, 0.997588038444519, -0.11091721802949905, -0.1291980743408203, 1.4853515625, 1.2099609375, 0.329986572265625, 1.3212890625
223148, 0.09953943639993668, -0.3374251425266266, -0.07803260535001755, 2.9210453033447266, -0.5581015348434448, -3.8035366535186768, 0.5090199112892151, -0.12037010490894318, -0.4708559811115265, -0.029501870274543762, 0.11871355026960373, 0.23871488869190216, -2.8031735506250404, 1.396574303476882, 8.615981794206, 9362.0, 23592.0, 35388.0, 9362.0, 7.99338960647583, 0.048491887748241425, 0.03573122248053551, 0.35764116048812866, 0.008993837982416153, -0.0771145299077034, 0.9976651668548584, -0.11091721802949905, -0.1291980743408203, 1.4853515625, 1.2099609375, 0.329986572265625, 1.3212890625
223158, 0.10078132897615433, -0.3362865746021271, -0.0760427862405777, 2.9210453033447266, -0.5581015348434448, -3.8035366535186768, 0.5090199112892151, -0.12037010490894318, -0.4708559811115265, -0.029487386345863342, 0.11871068179607391, 0.23875971138477325, -2.765478574325372, 1.3055493146314916, 8.62384764699625, 9362.0, 23592.0, 35388.0, 9362.0, 7.99338960647583, 0.23118652403354645, -0.12276352941989899, 0.2508808374404907, 0.008993837982416153, -0.0771145299077034, 0.9976651668548584, -0.11091721802949905, -0.1291980743408203, 1.4853515625, 1.2099609375, 0.329986572265625, 1.324951171875
223168, 0.10171439498662949, -0.3357068598270416, -0.07485774159431458, 2.9210453033447266, -0.5581015348434448, -3.8035366535186768, 0.5090199112892151, -0.12037010490894318, -0.4708559811115265, -0.028875485062599182, 0.11878304928541183, 0.23853231966495514, -3.1019119160854562, 1.7377508801954775, 8.2855106047402, 9362.0, 23592.0, 35388.0, 9362.0, 7.99338960647583, 0.030282720923423767, 0.07217897474765778, 0.05510988086462021, 0.008993837982416153, -0.0771145299077034, 0.9976651668548584, -0.11091721802949905, -0.1291980743408203, 1.4853515625, 1.2099609375, 0.329986572265625, 1.3212890625
223178, 0.10172112286090851, -0.33415868878364563, -0.07507451623678207, 2.9210453033447266, -0.5581015348434448, -3.8035366535186768, 0.5090199112892151, -0.12037010490894318, -0.4708559811115265, -0.029459621757268906, 0.11869417876005173, 0.238780677318573, -2.840712373641239, 1.3837066659606592, 8.629243134015118, 9362.0, 23592.0, 35388.0, 9362.0, 7.99338960647583, 0.030282720923423767, 0.07217897474765778, 0.05510988086462021, 0.008869417943060398, -0.07471548020839691, 0.9979774951934814, -0.11091721802949905, -0.1291980743408203, 1.4853515625, 1.2099609375, 0.329986572265625, 1.32568359375
223198, 0.10024454444646835, -0.33312276005744934, -0.07638982683420181, 2.9210453033447266, -0.5581015348434448, -3.8035366535186768, 0.5090199112892151, -0.12037010490894318, -0.4708559811115265, -0.029502201825380325, 0.11869806796312332, 0.23874782025814056, -2.82513853325379, 1.3538132721542695, 8.643883626989599, 9362.0, 23592.0, 35388.0, 9362.0, 7.973554611206055, -0.19215436279773712, -0.1583710014820099, -0.11489097028970718, 0.008869417943060398, -0.07471548020839691, 0.9979774951934814, -0.11091721802949905, -0.1291980743408203, 1.4853515625, 1.2099609375, 0.329986572265625, 1.324951171875
223208, 0.10117481648921967, -0.3335105776786804, -0.07794796675443649, 2.9210453033447266, -0.5581015348434448, -3.8035366535186768, 0.5090199112892151, -0.12037010490894318, -0.4708559811115265, -0.02885548770427704, 0.11880085617303848, 0.23847799003124237, -3.1215180390350876, 1.8100496406594857, 8.286037289852034, 9362.0, 23592.0, 35388.0, 9362.0, 7.973554611206055, -0.08440525084733963, -0.3107212781906128, -0.20333927869796753, 0.008869417943060398, -0.07471548020839691, 0.9979774951934814, -0.11091721802949905, -0.1291980743408203, 1.4853515625, 1.2099609375, 0.329986572265625, 1.32568359375
223218, 0.10117276757955551, -0.3326435387134552, -0.07972431927919388, 2.9210453033447266, -0.5581015348434448, -3.8035366535186768, 0.5090199112892151, -0.12037010490894318, -0.4708559811115265, -0.029490487650036812, 0.11870180070400238, 0.23875847458839417, -2.8266883259994873, 1.3946975226701284, 8.629257048386552, 9362.0, 23592.0, 35388.0, 9362.0, 7.973554611206055, 0.004592949990183115, 0.0034774700179696083, -0.17243701219558716, 0.008869417943060398, -0.07471548020839691, 0.9979774951934814, -0.11091721802949905, -0.1291980743408203, 1.4853515625, 1.12939453125, 0.9347991943359375, 1.32568359375
223228, 0.10134044289588928, -0.33352532982826233, -0.08039181679487228, 2.9619503021240234, -0.5677861571311951, -3.8412883281707764, 0.5135964155197144, -0.12175065279006958, -0.4729689061641693, -0.028867363929748535, 0.11878799647092819, 0.23850718140602112, -3.1482933805123636, 1.777281867484703, 8.287021747715496, 9362.0, 23592.0, 35388.0, 9362.0, 7.973554611206055, -0.06322310119867325, 0.105608731508255, -0.13068841397762299, 0.006998900324106216, -0.07693977653980255, 0.9967134594917297, -0.11091721802949905, -0.1291980743408203, 1.4853515625, 1.12939453125, 0.9347991943359375, 1.32421875
