timeTick, roll, pitch, yaw, stateX, stateY, stateZ, stateVX, stateVY, stateVZ, otX0, otY0, otZ0, otRoll0, otPitch0, otYaw0, left wing, pitch motor, yaw motor, right wing, voltage, roll rate, pitch rate, yaw rate, A_x, A_y, A_z, current, i_raw, v_raw, airflow_voltage, airflow_speed, pot_Pitch
281919, 0.018440254032611847, -0.07642719149589539, 0.018224190920591354, 0, 0, 0, 0, 0, 0, -0.006666180677711964, 0.11369402706623077, 0.2407897561788559, -1.6229580209083385, 0.7622880893248976, -8.077540826664086, 0, 0, 0, 0, 0, 0, 0, 0, 0, 0, 0, 0, 0, 0, 0, 0, 0
281929, 0.0182272270321846, -0.07757306843996048, 0.01680024154484272, 0.004224168136715889, -0.0012675691395998001, -0.012152592651546001, 0.008841962553560734, -0.002364774700254202, -0.015000434592366219, -0.006662547122687101, 0.11367695778608322, 0.24080991744995117, -1.5951172499390864, 0.6971721398668933, -8.1022692884982, 9362.0, 32767.0, 35388.0, 9362.0, 8.251240730285645, 0.035099826753139496, 0.09049686044454575, 0.2465260922908783, 7.270874630194157e-05, -0.0681292936205864, 0.9988909363746643, 0, 0, 0, 0, 0, 0
281939, 0.018006816506385803, -0.07712925225496292, 0.01709774322807789, 0.004313251469284296, -0.0012913725804537535, -0.012303037568926811, 0.008974671363830566, -0.0023959155660122633, -0.015088199637830257, -0.006656337529420853, 0.11369507014751434, 0.24082638323307037, -1.5517400220637043, 0.6486855359817412, -8.101853619145745, 9362.0, 32767.0, 35388.0, 9362.0, 8.251240730285645, -0.14107827842235565, -0.10888416320085526, -0.08114328980445862, -0.000291108968667686, -0.0679728090763092, 0.9991103410720825, -0.1377662718296051, -0.12023735046386719, 1.486083984375, 1.411376953125, 0.05181884765625, 1.55859375
281949, 0.016358423978090286, -0.07723444700241089, 0.017727365717291832, 0.004403657745569944, -0.0013154855696484447, -0.012454371899366379, 0.009106617420911789, -0.0024266797117888927, -0.015178201720118523, -0.006652383133769035, 0.1136917695403099, 0.24080751836299896, -1.6032049035697364, 0.6769235086616732, -8.091577744244464, 9362.0, 32767.0, 35388.0, 9362.0, 8.251240730285645, -0.07964354008436203, 0.0936092659831047, 0.20359006524085999, 0.0007682855939492583, -0.06615357846021652, 1.0008211135864258, -0.1288832277059555, -0.1291980743408203, 1.4853515625, 1.406982421875, 0.046966552734375, 1.564453125
281959, 0.016748599708080292, -0.07881605625152588, 0.019309276714920998, 0.004495385568588972, -0.0013398922747001052, -0.012605978175997734, 0.009238914586603642, -0.0024546540807932615, -0.015142587013542652, -0.006638949736952782, 0.11368083208799362, 0.24085387587547302, -1.552135097070248, 0.6263469372252075, -8.097532356486436, 9362.0, 32767.0, 35388.0, 9362.0, 8.271075248718262, 0.050447337329387665, 0.3493953049182892, 0.20048071444034576, 0.00044826851808466017, -0.06708336621522903, 0.9986761212348938, -0.12532609701156616, -0.15607833862304688, 1.483154296875, 1.418701171875, 0.0603485107421875, 1.5615234375
281969, 0.01713244989514351, -0.07998296618461609, 0.020750418305397034, 0.004588449373841286, -0.0013645818689838052, -0.012757660821080208, 0.00937379989773035, -0.0024832661729305983, -0.015193643048405647, -0.00665663555264473, 0.11369418352842331, 0.24080002307891846, -1.615996033723571, 0.7308485920384271, -8.081947709980488, 9362.0, 32767.0, 35388.0, 9362.0, 8.271075248718262, 0.08624981343746185, 0.1566527932882309, 0.1734309196472168, 0.00015149114187806845, -0.06686291098594666, 1.000049352645874, -0.12199567258358002, -0.1291980743408203, 1.4853515625, 1.399658203125, 0.0396575927734375, 1.559326171875
281979, 0.01749446429312229, -0.08132234215736389, 0.02206343412399292, 0.004682871513068676, -0.001389560871757567, -0.012910035438835621, 0.00951063260436058, -0.0025125201791524887, -0.015280846506357193, -0.006672495044767857, 0.11369271576404572, 0.24079877138137817, -1.6337718584996404, 0.7256011539966778, -8.077024644504819, 9362.0, 32767.0, 35388.0, 9362.0, 8.251240730285645, 0.028387002646923065, -0.06001150608062744, -0.1773076355457306, 0.0008089385810308158, -0.06742000579833984, 1.0003597736358643, -0.12579014897346497, -0.1291980743408203, 1.4853515625, 1.411376953125, 0.05181884765625, 1.559326171875
281989, 0.017939139157533646, -0.08039219677448273, 0.021575957536697388, 0.004778674338012934, -0.001414835685864091, -0.01306262519210577, 0.009649942629039288, -0.002542434958741069, -0.015236674807965755, -0.006643399596214294, 0.11368411034345627, 0.24082285165786743, -1.5617175731016009, 0.6631536594400984, -8.095953035014185, 9362.0, 32767.0, 35388.0, 9362.0, 8.251240730285645, 0.08551741391420364, -0.09863924980163574, -0.039946671575307846, 0.00037094176514074206, -0.06775601208209991, 0.9988750219345093, -0.12055419385433197, -0.15607833862304688, 1.483154296875, 1.40478515625, 0.0446624755859375, 1.557861328125
281999, 0.018336543813347816, -0.07885780185461044, 0.02115577645599842, 0.004875861573964357, -0.001440413179807365, -0.013215417042374611, 0.009787481278181076, -0.0025730717461556196, -0.015321336686611176, -0.006634399760514498, 0.11367616057395935, 0.2408045530319214, -1.583624628642096, 0.7057923446127745, -8.087747777533526, 9362.0, 32767.0, 35388.0, 9362.0, 8.251240730285645, 0.1474519968032837, 0.41040587425231934, 0.01130401249974966, -0.0014362175716087222, -0.0667189359664917, 0.9959457516670227, -0.11867772787809372, -0.07543754577636719, 1.48974609375, 1.41357421875, 0.0542449951171875, 1.55859375
282009, 0.01896415837109089, -0.08131180703639984, 0.02240292727947235, 0.0049744099378585815, -0.0014663002220913768, -0.013369914144277573, 0.00992214772850275, -0.002604329725727439, -0.015577724203467369, -0.006638107821345329, 0.11368963867425919, 0.24083532392978668, -1.6118773644062883, 0.6787296530719402, -8.101813657679434, 9362.0, 32767.0, 35388.0, 9362.0, 8.251240730285645, -0.06195669621229172, -0.16431596875190735, 0.08828184753656387, -0.0005698770983144641, -0.06679031997919083, 0.9982101321220398, -0.11419390887022018, -0.07543754577636719, 1.48974609375, 1.412841796875, 0.0534515380859375, 1.55859375
282019, 0.018916040658950806, -0.07919250428676605, 0.02326281927525997, 0.005074325483292341, -0.0014925050782039762, -0.013527297414839268, 0.010060937143862247, -0.0026366370730102062, -0.015898503363132477, -0.006656560581177473, 0.113677017390728, 0.24081888794898987, -1.5846852997018388, 0.6410152720474969, -8.07958034707241, 9362.0, 32767.0, 35388.0, 9362.0, 8.251240730285645, -0.07205946743488312, 0.24353717267513275, 0.1172569990158081, 0.003502639476209879, -0.06959904730319977, 1.0004161596298218, -0.10982737690210342, -0.08439826965332031, 1.489013671875, 1.405517578125, 0.0454254150390625, 1.56005859375
282029, 0.01864743046462536, -0.08206658810377121, 0.024345604702830315, 0.0051756128668785095, -0.001519033103249967, -0.013686306774616241, 0.010196533985435963, -0.0026689651422202587, -0.01590292900800705, -0.006646300666034222, 0.11368481069803238, 0.2408212572336197, -1.6101085355256624, 0.6487925819597251, -8.079486473325751, 9362.0, 32767.0, 35388.0, 9362.0, 8.271075248718262, 0.12272097915410995, 0.3920890986919403, 0.09064064174890518, 0.0020114805083721876, -0.06497050821781158, 1.000174641609192, -0.10872726887464523, -0.09335899353027344, 1.48828125, 1.4208984375, 0.063079833984375, 1.562255859375
282039, 0.018873043358325958, -0.0853017121553421, 0.0254896879196167, 0.005278280936181545, -0.0015458822017535567, -0.013845129869878292, 0.010337123647332191, -0.002700844081118703, -0.015861310064792633, -0.006788646802306175, 0.11347953230142593, 0.24038293957710266, -2.4095071681779725, 1.8201543677360235, -7.810396919488537, 9362.0, 32767.0, 35388.0, 9362.0, 8.271075248718262, 0.0672931969165802, 0.4275704622268677, 0.08459512144327164, -0.0004890860291197896, -0.0660727322101593, 0.9989363551139832, -0.11007924377918243, -0.1291980743408203, 1.4853515625, 1.414306640625, 0.05517578125, 1.559326171875
282049, 0.018422672525048256, -0.08743007481098175, 0.026186132803559303, 0.005382381845265627, -0.001573051675222814, -0.01400425098836422, 0.010483034886419773, -0.0027330585289746523, -0.015962567180395126, -0.006628046277910471, 0.11368727684020996, 0.24083943665027618, -1.563580122146578, 0.6286232723693956, -8.09374967991217, 9362.0, 32767.0, 35388.0, 9362.0, 8.271075248718262, 0.1526050716638565, 0.05629053711891174, -0.015354475937783718, 0.0007612329791299999, -0.06880029290914536, 0.995625913143158, -0.11109767109155655, -0.09335899353027344, 1.48828125, 1.4150390625, 0.05596923828125, 1.562255859375
282059, 0.019042396917939186, -0.08903982490301132, 0.02648579701781273, 0.005487958434969187, -0.0016005390789359808, -0.014165456406772137, 0.010632253251969814, -0.002764427335932851, -0.016278205439448357, -0.006661368068307638, 0.1136816218495369, 0.24081438779830933, -1.5863625324977324, 0.6703321991453208, -8.086396110414778, 9362.0, 32767.0, 35388.0, 9362.0, 8.251240730285645, 0.019525660201907158, 0.4549059271812439, -0.09345397353172302, 0.0023060287348926067, -0.06638602912425995, 0.9985357522964478, -0.11036520451307297, -0.11127853393554688, 1.48681640625, 1.415771484375, 0.0568695068359375, 1.559326171875
282069, 0.01984221115708351, -0.0908031165599823, 0.02508907951414585, 0.0055950409732759, -0.0016283454606309533, -0.014329755678772926, 0.010784237645566463, -0.0027968590147793293, -0.016581283882260323, -0.006657805759459734, 0.11369262635707855, 0.24080555140972137, -1.5823458530732477, 0.6462889451122749, -8.077740916050868, 9362.0, 32767.0, 35388.0, 9362.0, 8.271075248718262, -0.14061188697814941, 0.1598045527935028, -0.041930895298719406, 0.0028097848407924175, -0.06936132162809372, 0.99959397315979, -0.10955549031496048, -0.11127853393554688, 1.48681640625, 1.405517578125, 0.0454254150390625, 1.55859375
282079, 0.019402023404836655, -0.09420741349458694, 0.0266866534948349, 0.005703660659492016, -0.0016564835095778108, -0.014495749026536942, 0.01093966607004404, -0.0028307479806244373, -0.01661701314151287, -0.00666060671210289, 0.11369715631008148, 0.24079160392284393, -1.6106300584712199, 0.690395017644164, -8.089082343875688, 9362.0, 32767.0, 35388.0, 9362.0, 8.271075248718262, 0.0506114587187767, 0.09992799907922745, 0.213873952627182, 0.0009849505731835961, -0.06813975423574448, 0.9978715181350708, -0.10909761488437653, -0.08439826965332031, 1.489013671875, 1.346923828125, 0.015472412109375, 1.562255859375
282089, 0.020211506634950638, -0.09433583915233612, 0.025456920266151428, 0.0058138626627624035, -0.0016849564854055643, -0.014662742614746094, 0.011100709438323975, -0.0028638376388698816, -0.01678137294948101, -0.006657849065959454, 0.11369214206933975, 0.24081557989120483, -1.5800797154144413, 0.7163198100394368, -8.107413403803248, 9362.0, 32767.0, 35388.0, 9362.0, 8.271075248718262, -0.03287201747298241, -0.07995062321424484, -0.12930524349212646, 0.0009404052398167551, -0.06725171208381653, 0.998785138130188, -0.10463722050189972, -0.05751800537109375, 1.4912109375, 1.33740234375, 0.0175323486328125, 1.559326171875
282099, 0.02050173096358776, -0.09514486789703369, 0.024425696581602097, 0.005925676319748163, -0.0017137672984972596, -0.014831364154815674, 0.011261972598731518, -0.002898316364735365, -0.016942515969276428, -0.006795243360102177, 0.11347289383411407, 0.24030913412570953, -2.5060903845325155, 2.0044797061657107, -7.769035902990611, 9362.0, 32767.0, 35388.0, 9362.0, 8.251240730285645, -0.07666517794132233, -0.025530142709612846, -0.12188354879617691, 0.0018448784248903394, -0.06698864698410034, 1.000834584236145, -0.10021311789751053, -0.11127853393554688, 1.48681640625, 1.330810546875, 0.0203399658203125, 1.55859375
282109, 0.019993498921394348, -0.09375016391277313, 0.022780265659093857, 0.006039110943675041, -0.0017429257277399302, -0.015000605955719948, 0.011424953117966652, -0.002933366922661662, -0.016905343160033226, -0.00664591696113348, 0.11368995159864426, 0.2408369481563568, -1.5703244579814566, 0.6480718296637349, -8.08448047707599, 9362.0, 32767.0, 35388.0, 9362.0, 8.251240730285645, -0.1455095112323761, 0.3969576358795166, -0.09507681429386139, 0.0027547618374228477, -0.06720548868179321, 1.0003255605697632, -0.10085223615169525, -0.08439826965332031, 1.489013671875, 1.335205078125, 0.018280029296875, 1.563720703125
282119, 0.019845927134156227, -0.09536106139421463, 0.02272075228393078, 0.006154163740575314, -0.001772430376149714, -0.015169375576078892, 0.011585576459765434, -0.0029675550758838654, -0.01684821955859661, -0.006657506804913282, 0.11368378251791, 0.24081315100193024, -1.6078095635197482, 0.695632675486678, -8.104544596560277, 9362.0, 32767.0, 35388.0, 9362.0, 8.271075248718262, 0.011715068481862545, -0.1388237178325653, -0.10426976531744003, 0.00259513221681118, -0.06940331310033798, 0.998897135257721, -0.10224977135658264, -0.14711761474609375, 1.48388671875, 1.324951171875, 0.0236663818359375, 1.560791015625
282129, 0.019877634942531586, -0.0947408452630043, 0.02377166599035263, 0.006270835176110268, -0.001802275306545198, -0.015338374301791191, 0.011748695746064186, -0.0030014312360435724, -0.016951121389865875, -0.006650608964264393, 0.11369186639785767, 0.24080590903759003, -1.6073437416798027, 0.6916261082706967, -8.094007555289618, 9362.0, 32767.0, 35388.0, 9362.0, 8.271075248718262, -0.0128750279545784, -0.10449215024709702, -0.4221108555793762, 0.0026503487024456263, -0.06816709041595459, 0.9982922077178955, -0.10162083059549332, -0.1291980743408203, 1.4853515625, 1.405517578125, 0.0454254150390625, 1.56298828125
282139, 0.019708000123500824, -0.09489963203668594, 0.02273736149072647, 0.006389132235199213, -0.001832459238357842, -0.015508613549172878, 0.011910679750144482, -0.00303535140119493, -0.017096422612667084, -0.006639420986175537, 0.11369965225458145, 0.2408248633146286, -1.600229291645189, 0.720850907625163, -8.09582266509491, 9362.0, 32767.0, 35388.0, 9362.0, 8.271075248718262, -0.012417987920343876, -0.1437809318304062, -0.25730207562446594, 0.0030178590677678585, -0.06753620505332947, 0.9997718334197998, -0.10153886675834656, -0.09335899353027344, 1.48828125, 1.417236328125, 0.058624267578125, 1.563720703125
282149, 0.01970355585217476, -0.09297627955675125, 0.020383622497320175, 0.006509051192551851, -0.0018629810074344277, -0.015679901465773582, 0.01207306981086731, -0.003069014521315694, -0.01716087944805622, -0.006668125279247761, 0.11369581520557404, 0.24079006910324097, -1.5939323398944618, 0.7473326544151178, -8.090463814799646, 9362.0, 32767.0, 35388.0, 9362.0, 8.271075248718262, 0.20948612689971924, 0.1390165537595749, 0.01766299083828926, 0.0011951489141210914, -0.06766599416732788, 1.0016659498214722, -0.10018859058618546, -0.11127853393554688, 1.48681640625, 1.41064453125, 0.0509490966796875, 1.564453125
282159, 0.021179335191845894, -0.09626714885234833, 0.020948026329278946, 0.006630579009652138, -0.0018938396824523807, -0.0158509723842144, 0.012232455424964428, -0.0031027314253151417, -0.017053047195076942, -0.0066450973972678185, 0.11368623375892639, 0.24081407487392426, -1.5838607695405122, 0.703198926636162, -8.084947313397038, 9362.0, 32767.0, 35388.0, 9362.0, 8.271075248718262, 0.06662780791521072, 0.26614484190940857, 0.3333538770675659, -0.0005763603840023279, -0.06740622222423553, 1.0006637573242188, -0.10299766063690186, -0.10231781005859375, 1.487548828125, 1.412109375, 0.0526123046875, 1.55712890625
282169, 0.021887054666876793, -0.09845864772796631, 0.022079305723309517, 0.00675372825935483, -0.0019250481855124235, -0.016021130606532097, 0.01239742524921894, -0.003138958942145109, -0.01697814278304577, -0.006682709790766239, 0.11356822401285172, 0.24072860181331635, -1.7098504420780662, 0.8580553745042891, -7.9653863367234035, 9362.0, 32767.0, 35388.0, 9362.0, 8.271075248718262, 0.13092708587646484, 0.310577929019928, -0.019950659945607185, 0.0008134010131470859, -0.06671394407749176, 0.9990494251251221, -0.10425695776939392, -0.04855918884277344, 1.491943359375, 1.409912109375, 0.0501251220703125, 1.562255859375
282179, 0.022127361968159676, -0.1001778170466423, 0.021937884390354156, 0.006878545042127371, -0.0019566246774047613, -0.016191240400075912, 0.012565902434289455, -0.0031763440929353237, -0.017043355852365494, -0.006652306765317917, 0.11369055509567261, 0.24079358577728271, -1.622547306691107, 0.6943065355435749, -8.077272873602526, 9362.0, 32767.0, 35388.0, 9362.0, 8.251240730285645, -0.008158485405147076, -0.15838338434696198, 0.14559730887413025, 0.002030754927545786, -0.06780334562063217, 0.9988141059875488, -0.10791543871164322, -0.1739978790283203, 1.481689453125, 1.41357421875, 0.0542449951171875, 1.55712890625
282189, 0.022000126540660858, -0.09969981014728546, 0.023422814905643463, 0.007005061022937298, -0.0019885769579559565, -0.01636211760342121, 0.01273728534579277, -0.003214125521481037, -0.017131537199020386, -0.0066602518782019615, 0.11368288844823837, 0.24081997573375702, -1.592191155473438, 0.7350887881750907, -8.107487306775624, 9362.0, 32767.0, 35388.0, 9362.0, 8.271075248718262, 0.05005788803100586, 0.2166863977909088, -0.05944563075900078, 0.002632761374115944, -0.06905905157327652, 1.0001680850982666, -0.10589033365249634, -0.10231781005859375, 1.487548828125, 1.412841796875, 0.0534515380859375, 1.560791015625
282199, 0.022899704053997993, -0.10132777690887451, 0.02355405129492283, 0.007133286911994219, -0.0020209061913192272, -0.016533710062503815, 0.012907907366752625, -0.003251701360568404, -0.0171866063028574, -0.006658461876213551, 0.11366903781890869, 0.24078543484210968, -1.620213045833382, 0.7392163542545234, -8.077072132566368, 9362.0, 32767.0, 35388.0, 9362.0, 8.251240730285645, -0.044484227895736694, 0.2620965242385864, 0.2944389581680298, 0.002202138537541032, -0.064761683344841, 0.9998412132263184, -0.10795934498310089, -0.11127853393554688, 1.48681640625, 1.415771484375, 0.0568695068359375, 1.559326171875
282209, 0.02239268459379673, -0.10134599357843399, 0.025186527520418167, 0.007263233885169029, -0.002053618896752596, -0.016705425456166267, 0.01308146957308054, -0.0032908450812101364, -0.01715601049363613, -0.006649067159742117, 0.11368704587221146, 0.2408030778169632, -1.5812099576430303, 0.6538960008668369, -8.092847869946233, 9362.0, 32767.0, 35388.0, 9362.0, 8.271075248718262, -0.22546404600143433, -0.24896956980228424, -0.3011416792869568, 0.0015027282061055303, -0.06641462445259094, 0.9992930293083191, -0.10954852402210236, -0.14711761474609375, 1.48388671875, 1.41357421875, 0.0542449951171875, 1.557861328125
282219, 0.022424349561333656, -0.0998423844575882, 0.022756988182663918, 0.007394915912300348, -0.0020867185667157173, -0.01687726564705372, 0.013254906982183456, -0.0033290942665189505, -0.017211636528372765, -0.006643245462328196, 0.11369005590677261, 0.2407839000225067, -1.60944156769891, 0.708675198749745, -8.088756130763793, 9362.0, 32767.0, 35388.0, 9362.0, 8.251240730285645, 0.40594738721847534, 0.12654025852680206, -0.2113475501537323, 0.0009568763780407608, -0.06903732568025589, 0.9998608827590942, -0.10766316950321198, -0.09335899353027344, 1.48828125, 1.399658203125, 0.0396575927734375, 1.564453125
282229, 0.02468455396592617, -0.10110478103160858, 0.020913109183311462, 0.007528319489210844, -0.0021202010102570057, -0.017049547284841537, 0.013425810262560844, -0.0033674119040369987, -0.0172443725168705, -0.006655355915427208, 0.1136864423751831, 0.24082686007022858, -1.574636841300222, 0.6511717965502726, -8.08320793223076, 9362.0, 32767.0, 35388.0, 9362.0, 8.271075248718262, -0.1266353279352188, 0.3929881751537323, 0.07502692937850952, 0.0028556701727211475, -0.06901544332504272, 0.9980446696281433, -0.1064579039812088, -0.13815879821777344, 1.484619140625, 1.40771484375, 0.0478363037109375, 1.559326171875
282259, 0.024948230013251305, -0.1028396263718605, 0.019227655604481697, 0.007938939146697521, -0.00222314172424376, -0.017572857439517975, 0.013950234279036522, -0.003496567253023386, -0.017602527514100075, -0.006655517965555191, 0.1137000024318695, 0.2408047914505005, -1.5838082561105566, 0.7006266822920395, -8.084926175983425, 9362.0, 32767.0, 35388.0, 9362.0, 8.271075248718262, 0.019431807100772858, 0.19867859780788422, 0.10560949146747589, 0.0006309965392574668, -0.06804148852825165, 0.9982567429542542, -0.1091880202293396, -0.1291980743408203, 1.4853515625, 1.41357421875, 0.0542449951171875, 1.559326171875
282289, 0.024547601118683815, -0.10854307562112808, 0.021994944661855698, 0.00836543831974268, -0.0023299665190279484, -0.01810825616121292, 0.01448974572122097, -0.0036250343546271324, -0.018136152997612953, -0.00664892653003335, 0.11368752270936966, 0.24082067608833313, -1.5744958838034226, 0.6862966801147934, -8.098513463070844, 9362.0, 32767.0, 35388.0, 9362.0, 8.271075248718262, 0.12027653306722641, 0.19228345155715942, -0.13051636517047882, 0.0006930144154466689, -0.06355378031730652, 0.9974794387817383, -0.1091880202293396, -0.1291980743408203, 1.4853515625, 1.406982421875, 0.046966552734375, 1.559326171875
282299, 0.02420840412378311, -0.10962133854627609, 0.021212955936789513, 0.008511262014508247, -0.002366426168009639, -0.018291007727384567, 0.014675075188279152, -0.0036668782122433186, -0.018413715064525604, -0.0067640626803040504, 0.11348135769367218, 0.24039019644260406, -2.3872155988014017, 1.7702761339376707, -7.778763614507167, 9362.0, 32767.0, 35388.0, 9362.0, 8.251240730285645, 0.12027653306722641, 0.19228345155715942, -0.13051636517047882, 0.0006930144154466689, -0.06355378031730652, 0.9974794387817383, -0.1091880202293396, -0.1291980743408203, 1.4853515625, 1.406982421875, 0.046966552734375, 1.559326171875
282309, 0.024044400081038475, -0.11155309528112411, 0.01976240985095501, 0.008658950217068195, -0.002403301652520895, -0.018475621938705444, 0.01486259512603283, -0.003708222648128867, -0.018508674576878548, -0.006660674698650837, 0.11369450390338898, 0.240768164396286, -1.6143603955907018, 0.7157984237108224, -8.095001826515553, 9362.0, 32767.0, 35388.0, 9362.0, 8.251240730285645, 0.021541902795433998, -0.28374332189559937, 0.07451246678829193, 0.0006930144154466689, -0.06355378031730652, 0.9974794387817383, -0.1091880202293396, -0.1291980743408203, 1.4853515625, 1.406982421875, 0.046966552734375, 1.559326171875
282329, 0.0236677136272192, -0.1109808087348938, 0.018402939662337303, 0.008960013277828693, -0.0024782929103821516, -0.018848225474357605, 0.015243388712406158, -0.0037915343418717384, -0.0186912901699543, -0.006645205896347761, 0.11368853598833084, 0.2407960742712021, -1.5868524938012554, 0.7129162331268333, -8.100266671822585, 9362.0, 32767.0, 35388.0, 9362.0, 8.251240730285645, -0.11484312266111374, 0.24095004796981812, -0.1299804300069809, 0.0004998182412236929, -0.06652757525444031, 0.9975568652153015, -0.1091880202293396, -0.1291980743408203, 1.4853515625, 1.41357421875, 0.0542449951171875, 1.559326171875
282339, 0.023705758154392242, -0.11367999762296677, 0.01745694689452648, 0.00911339558660984, -0.002516410080716014, -0.019036084413528442, 0.01543304231017828, -0.0038319213781505823, -0.0188802108168602, -0.006772218272089958, 0.1134820431470871, 0.2403385043144226, -2.449717607769046, 1.9077105976821258, -7.791483279940947, 9362.0, 32767.0, 35388.0, 9362.0, 8.271075248718262, 0.1251719444990158, -0.06273641437292099, -0.05921673774719238, 0.0014438653597608209, -0.06792458891868591, 0.9964181780815125, -0.1091880202293396, -0.1291980743408203, 1.4853515625, 1.409912109375, 0.0501251220703125, 1.559326171875
282349, 0.025805078446865082, -0.11244726926088333, 0.017370076850056648, 0.009268696419894695, -0.0025549312122166157, -0.01922639273107052, 0.01562710478901863, -0.0038723156321793795, -0.019180865958333015, -0.006655801087617874, 0.11369682103395462, 0.24080458283424377, -1.5818611231918362, 0.7209208931299997, -8.091209931919035, 9362.0, 32767.0, 35388.0, 9362.0, 8.271075248718262, -0.09298557043075562, 0.7185174226760864, 0.15005768835544586, 0.0014438653597608209, -0.06792458891868591, 0.9964181780815125, -0.1091880202293396, -0.1291980743408203, 1.4853515625, 1.409912109375, 0.0501251220703125, 1.559326171875
282359, 0.025286365300416946, -0.11750669777393341, 0.018614649772644043, 0.009425927884876728, -0.002593874465674162, -0.01941923424601555, 0.01581922546029091, -0.00391634413972497, -0.01938696950674057, -0.006652481388300657, 0.11369465291500092, 0.24080917239189148, -1.560139135522706, 0.6782132920942558, -8.092122202508339, 9362.0, 32767.0, 35388.0, 9362.0, 8.251240730285645, -0.09298557043075562, 0.7185174226760864, 0.15005768835544586, -5.7777953770710155e-05, -0.06784721463918686, 0.9986830949783325, -0.1091880202293396, -0.1291980743408203, 1.4853515625, 1.409912109375, 0.0501251220703125, 1.55712890625
282379, 0.025882961228489876, -0.11847652494907379, 0.01843036711215973, 0.009746349416673183, -0.002673075068742037, -0.01980879344046116, 0.016224602237343788, -0.004004731308668852, -0.01950898952782154, -0.006652099080383778, 0.11368174850940704, 0.2407950609922409, -1.5488397066790605, 0.668139025295801, -8.103515503812094, 9362.0, 32767.0, 35388.0, 9362.0, 8.251240730285645, 0.12266938388347626, -0.00540041783824563, 0.2657329738140106, -5.7777953770710155e-05, -0.06784721463918686, 0.9986830949783325, -0.1091880202293396, -0.1291980743408203, 1.4853515625, 1.41650390625, 0.0577545166015625, 1.55712890625
282399, 0.026794422417879105, -0.12121960520744324, 0.018445804715156555, 0.010074906051158905, -0.0027540605515241623, -0.020202111452817917, 0.01663217507302761, -0.0040945266373455524, -0.019936198368668556, -0.006644868291914463, 0.11367902159690857, 0.24078361690044403, -1.569170285266311, 0.7266433663436089, -8.086714366120638, 9362.0, 32767.0, 35388.0, 9362.0, 8.271075248718262, -0.07948639243841171, 0.4080356955528259, 0.27300167083740234, -5.7777953770710155e-05, -0.06784721463918686, 0.9986830949783325, -0.1091880202293396, -0.1291980743408203, 1.4853515625, 1.41650390625, 0.0577545166015625, 1.55712890625
282409, 0.025770582258701324, -0.12394510209560394, 0.022039011120796204, 0.010242263786494732, -0.0027952343225479126, -0.020402494817972183, 0.016839297488331795, -0.004140231758356094, -0.02014024741947651, -0.006608530879020691, 0.11369442939758301, 0.24083010852336884, -1.5982637513301172, 0.6378750175302912, -8.104229904014735, 9362.0, 32767.0, 35388.0, 9362.0, 8.271075248718262, 0.014587641693651676, 0.03366799280047417, 0.09048158675432205, -5.7777953770710155e-05, -0.06784721463918686, 0.9986830949783325, -0.1091880202293396, -0.1291980743408203, 1.4853515625, 1.41650390625, 0.0577545166015625, 1.55712890625
282459, 0.027496865019202232, -0.12624342739582062, 0.027167417109012604, 0.011110864579677582, -0.003007845487445593, -0.021412957459688187, 0.017906619235873222, -0.004368144553154707, -0.02028976008296013, -0.006655785720795393, 0.11370009183883667, 0.2407379299402237, -1.5803800543944946, 0.7287940710335761, -8.08233114281195, 9362.0, 32767.0, 35388.0, 9362.0, 8.251240730285645, 0.22246259450912476, -0.031988829374313354, 0.05152701586484909, 0.0023174514062702656, -0.06582043319940567, 1.0018420219421387, -0.1091880202293396, -0.1291980743408203, 1.4853515625, 1.40625, 0.04620361328125, 1.55712890625
282479, 0.028327545151114464, -0.127740278840065, 0.029418230056762695, 0.011473317630589008, -0.003096157917752862, -0.021818526089191437, 0.018338214606046677, -0.0044640954583883286, -0.02027932181954384, -0.006649382412433624, 0.11367484927177429, 0.2408198118209839, -1.5905251574931276, 0.6429333304265015, -8.095734008953318, 9362.0, 32767.0, 35388.0, 9362.0, 8.251240730285645, -0.00015228777192533016, 0.3287774920463562, 0.3625325858592987, 0.0008350067073479295, -0.06683178246021271, 1.0016086101531982, -0.1091880202293396, -0.1291980743408203, 1.4853515625, 1.40625, 0.04620361328125, 1.55712890625
282499, 0.030031995847821236, -0.13201521337032318, 0.03156069293618202, 0.011844494380056858, -0.003186417045071721, -0.02222229167819023, 0.01878264546394348, -0.004562632646411657, -0.02020181156694889, -0.0066084652207791805, 0.11371292173862457, 0.24078121781349182, -1.573608492995487, 0.6748146145587839, -8.10036149763004, 9362.0, 32767.0, 35388.0, 9362.0, 8.251240730285645, 0.1588275134563446, 0.20084956288337708, -0.116546131670475, 0.001668859156779945, -0.06672614812850952, 0.9986234903335571, -0.1091880202293396, -0.1291980743408203, 1.4853515625, 1.283203125, 0.0772247314453125, 1.55712890625
282529, 0.03175419569015503, -0.1345069855451584, 0.03298134729266167, 0.012418178841471672, -0.003325676778331399, -0.02283002994954586, 0.01946362480521202, -0.004723850172013044, -0.02031441032886505, -0.006646676920354366, 0.11368098109960556, 0.24077890813350677, -1.5701623475180033, 0.6693013291387899, -8.091308023916035, 9362.0, 32767.0, 35388.0, 9362.0, 8.251240730285645, -0.07740335911512375, -0.1645369529724121, 0.07590777426958084, 0.0015905260806903243, -0.06815650314092636, 1.0000449419021606, -0.1091880202293396, -0.1291980743408203, 1.4853515625, 1.279541015625, 0.0847015380859375, 1.55712890625
282539, 0.03183017671108246, -0.13445433974266052, 0.034292515367269516, 0.012613964267075062, -0.003373185871168971, -0.02303432673215866, 0.019693415611982346, -0.004777953028678894, -0.02054443582892418, -0.006605799775570631, 0.11371239274740219, 0.2408147156238556, -1.5909145098193354, 0.6752833320485649, -8.09005808410014, 9362.0, 32767.0, 35388.0, 9362.0, 8.271075248718262, -0.07740335911512375, -0.1645369529724121, 0.07590777426958084, 0.0015905260806903243, -0.06815650314092636, 1.0000449419021606, -0.1091880202293396, -0.1291980743408203, 1.4853515625, 1.279541015625, 0.0847015380859375, 1.55712890625
282579, 0.030190978199243546, -0.13263216614723206, 0.03868662938475609, 0.013420024886727333, -0.0035685631446540356, -0.023870166391134262, 0.020607521757483482, -0.0049888999201357365, -0.02109052613377571, -0.006640786770731211, 0.1136944591999054, 0.2407766580581665, -1.583134269112886, 0.6644475485672672, -8.074818712052759, 9362.0, 32767.0, 35388.0, 9362.0, 8.251240730285645, -0.11695235967636108, -0.21437758207321167, -0.13976402580738068, -0.0007322498131543398, -0.06702632457017899, 0.9977330565452576, -0.1091880202293396, -0.1291980743408203, 1.4853515625, 1.34033203125, 0.0166168212890625, 1.55712890625
282589, 0.02953430265188217, -0.13309046626091003, 0.03855912759900093, 0.013627231121063232, -0.003618708811700344, -0.024082936346530914, 0.020833773538470268, -0.005040247458964586, -0.0214631799608469, -0.006630747579038143, 0.11370370537042618, 0.24075990915298462, -1.622188873880966, 0.7668188943560494, -8.075844349317428, 9362.0, 32767.0, 35388.0, 9362.0, 8.271075248718262, 0.13808535039424896, 0.10966391861438751, -0.03434990346431732, -0.0007322498131543398, -0.06702632457017899, 0.9977330565452576, -0.1091880202293396, -0.1291980743408203, 1.4853515625, 1.34033203125, 0.0166168212890625, 1.55712890625
282599, 0.030994582921266556, -0.1322888433933258, 0.03836600109934807, 0.01383670512586832, -0.0036693625152111053, -0.02429908514022827, 0.021060984581708908, -0.005090498831123114, -0.02176613360643387, -0.00666638882830739, 0.11370658129453659, 0.24079951643943787, -1.6183794346350846, 0.7403014135895205, -8.085013195006438, 9362.0, 32767.0, 35388.0, 9362.0, 8.251240730285645, 0.02895617112517357, 0.38624775409698486, 0.12464714050292969, -0.0007322498131543398, -0.06702632457017899, 0.9977330565452576, -0.1091880202293396, -0.1291980743408203, 1.4853515625, 1.34033203125, 0.0166168212890625, 1.55712890625
282619, 0.031050749123096466, -0.13317768275737762, 0.037361957132816315, 0.014262468554079533, -0.0037722322158515453, -0.02473679929971695, 0.021517325192689896, -0.005196737125515938, -0.0220065638422966, -0.006630521267652512, 0.11370141059160233, 0.24078163504600525, -1.6254795255510102, 0.707925314917702, -8.075617157995298, 9362.0, 32767.0, 35388.0, 9362.0, 8.251240730285645, 0.2280133068561554, 0.25345438718795776, -0.053798507899045944, 0.000698978896252811, -0.06627095490694046, 0.9998936057090759, -0.1091880202293396, -0.1291980743408203, 1.4853515625, 1.33740234375, 0.0175323486328125, 1.55712890625
282639, 0.0331035777926445, -0.13742682337760925, 0.040216490626335144, 0.014697392471134663, -0.003877241164445877, -0.025177303701639175, 0.021976904943585396, -0.0053056213073432446, -0.022010065615177155, -0.006660614628344774, 0.1136864721775055, 0.24073073267936707, -1.5863477425261654, 0.7009679332423104, -8.087690945652636, 9362.0, 32767.0, 35388.0, 9362.0, 8.251240730285645, 0.1745835244655609, 0.19310961663722992, 0.11627171188592911, 0.0007403090712614357, -0.06690508127212524, 1.0004557371139526, -0.1091880202293396, -0.1291980743408203, 1.4853515625, 1.332275390625, 0.019561767578125, 1.55712890625
282649, 0.034108370542526245, -0.13834020495414734, 0.03999519348144531, 0.01491833757609129, -0.003930579870939255, -0.025397803634405136, 0.02221205271780491, -0.005362088792026043, -0.022089391946792603, -0.006795421242713928, 0.11348509788513184, 0.24031467735767365, -2.530851542030675, 1.9832593030003238, -7.773701725641326, 9362.0, 32767.0, 35388.0, 9362.0, 8.271075248718262, 0.1745835244655609, 0.19310961663722992, 0.11627171188592911, -0.0004886218812316656, -0.06562477350234985, 0.997496485710144, -0.1091880202293396, -0.1291980743408203, 1.4853515625, 1.332275390625, 0.019561767578125, 1.55712890625
282659, 0.033938031643629074, -0.14106935262680054, 0.03900296986103058, 0.015141639858484268, -0.003984491340816021, -0.025619862601161003, 0.022448379546403885, -0.0054201893508434296, -0.02232201397418976, -0.0066100964322686195, 0.11369548738002777, 0.24082902073860168, -1.635395894079257, 0.7202692311917076, -8.080241563908126, 9362.0, 32767.0, 35388.0, 9362.0, 8.251240730285645, 0.04851740971207619, 0.25467586517333984, -0.04495067149400711, -0.0004886218812316656, -0.06562477350234985, 0.997496485710144, -0.1091880202293396, -0.1291980743408203, 1.4853515625, 1.332275390625, 0.019561767578125, 1.55712890625
282669, 0.03401906415820122, -0.14442384243011475, 0.03803465887904167, 0.015367329120635986, -0.004038982558995485, -0.025843949988484383, 0.022689513862133026, -0.005478033795952797, -0.022494958713650703, -0.006754215806722641, 0.11348174512386322, 0.24036721885204315, -2.413905711186542, 1.8167607824820777, -7.799262481601785, 9362.0, 32767.0, 35388.0, 9362.0, 8.251240730285645, 0.056330230087041855, -0.16753044724464417, 0.047173067927360535, -0.0004886218812316656, -0.06562477350234985, 0.997496485710144, -0.1091880202293396, -0.1291980743408203, 1.4853515625, 1.332275390625, 0.019561767578125, 1.55712890625
282699, 0.034292545169591904, -0.1433716118335724, 0.04397892206907272, 0.01605905406177044, -0.004205969162285328, -0.02652333676815033, 0.023422135040163994, -0.005654976703226566, -0.02272721566259861, -0.0066296616569161415, 0.11370504647493362, 0.24076807498931885, -1.5542008894877493, 0.6709073422919971, -8.090270168273246, 9362.0, 32767.0, 35388.0, 9362.0, 8.251240730285645, -0.2715592086315155, 0.0586274191737175, 0.242498517036438, -0.0006455134134739637, -0.06857804954051971, 1.0005745887756348, -0.1091880202293396, -0.1291980743408203, 1.4853515625, 1.32568359375, 0.0232086181640625, 1.55712890625
282769, 0.032703716307878494, -0.14537620544433594, 0.04569919407367706, 0.01776004210114479, -0.004616036545485258, -0.028131430968642235, 0.02518792264163494, -0.006061460357159376, -0.02345743589103222, -0.006790735758841038, 0.11346633732318878, 0.24031959474086761, -2.437571996019341, 1.8696031599801586, -7.785722096769085, 9362.0, 32767.0, 35388.0, 9362.0, 8.251240730285645, 0.11214038729667664, -0.0347544401884079, -0.006332732271403074, 0.0005535472300834954, -0.06570737808942795, 0.9977256059646606, -0.1091880202293396, -0.1291980743408203, 1.4853515625, 1.329345703125, 0.02105712890625, 1.55712890625
282779, 0.03344724699854851, -0.14490190148353577, 0.04489043354988098, 0.018013162538409233, -0.004676929209381342, -0.028367314487695694, 0.025436213240027428, -0.006117107346653938, -0.023719029501080513, -0.006619479972869158, 0.1136925145983696, 0.24080932140350342, -1.5477555342841405, 0.6457385457023577, -8.089900780589527, 9362.0, 32767.0, 35388.0, 9362.0, 8.271075248718262, -0.22586371004581451, -0.06395302712917328, 0.050267159938812256, 0.0005535472300834954, -0.06570737808942795, 0.9977256059646606, -0.1091880202293396, -0.1291980743408203, 1.4853515625, 1.329345703125, 0.02105712890625, 1.55712890625
282789, 0.031996723264455795, -0.1438969075679779, 0.04542296379804611, 0.018268762156367302, -0.004738384857773781, -0.02860606089234352, 0.025683576241135597, -0.006174004636704922, -0.0240296870470047, -0.00676634069532156, 0.11349346488714218, 0.24038127064704895, -2.352217039390291, 1.7180053360248735, -7.792720760506667, 9362.0, 32767.0, 35388.0, 9362.0, 8.271075248718262, -0.22586371004581451, -0.06395302712917328, 0.050267159938812256, 0.0010607828153297305, -0.06346020102500916, 0.9982144236564636, -0.1091880202293396, -0.1291980743408203, 1.4853515625, 1.329345703125, 0.02105712890625, 1.55712890625
282819, 0.031696394085884094, -0.1441776007413864, 0.04408436268568039, 0.019050300121307373, -0.004926033318042755, -0.029336510226130486, 0.026417896151542664, -0.006335146725177765, -0.02471252717077732, -0.006633976474404335, 0.11367771774530411, 0.2407585084438324, -1.5978108353134082, 0.7559611745992356, -8.086446221715617, 9362.0, 32767.0, 35388.0, 9362.0, 8.251240730285645, 0.10817158967256546, 0.0763687789440155, 0.39306652545928955, 0.002014939906075597, -0.06903719902038574, 0.9972233772277832, -0.1091880202293396, -0.1291980743408203, 1.4853515625, 1.324951171875, 0.0236663818359375, 1.55712890625
282839, 0.032233577221632004, -0.14469504356384277, 0.04452743008732796, 0.019583597779273987, -0.005053817760199308, -0.029833592474460602, 0.02691282331943512, -0.006443512625992298, -0.024972405284643173, -0.006654877215623856, 0.1137104406952858, 0.2407878041267395, -1.6026498261065887, 0.7230383625244485, -8.060149799779808, 9362.0, 32767.0, 35388.0, 9362.0, 8.271075248718262, -0.022135604172945023, -0.10937116295099258, -0.20599597692489624, 0.001032993197441101, -0.067025326192379, 0.9975288510322571, -0.1091880202293396, -0.1291980743408203, 1.4853515625, 1.32421875, 0.024139404296875, 1.55712890625
282859, 0.03334255516529083, -0.1474810540676117, 0.04305506497621536, 0.020126821473240852, -0.005183779168874025, -0.03033789061009884, 0.027411671355366707, -0.006552084349095821, -0.025455566123127937, -0.006798828020691872, 0.11347359418869019, 0.24025483429431915, -2.6007462557147027, 2.0797761067926217, -7.757405275962612, 9362.0, 32767.0, 35388.0, 9362.0, 8.251240730285645, 0.16444341838359833, 0.08260489255189896, -0.2876446843147278, 0.001032993197441101, -0.067025326192379, 0.9975288510322571, -0.1091880202293396, -0.1291980743408203, 1.4853515625, 1.32421875, 0.024139404296875, 1.55712890625
282889, 0.03514730557799339, -0.14737899601459503, 0.03602949157357216, 0.020960494875907898, -0.00538289500400424, -0.031105324625968933, 0.028165161609649658, -0.00672202417626977, -0.025680596008896828, -0.006643287837505341, 0.11369118094444275, 0.240828737616539, -1.5242732294994101, 0.6493722188276081, -8.095016828115995, 9362.0, 32767.0, 35388.0, 9362.0, 8.251240730285645, -0.03949998691678047, 0.3005160987377167, 0.16597850620746613, 0.0006269522127695382, -0.0673539787530899, 1.0007727146148682, -0.1091880202293396, -0.1291980743408203, 1.4853515625, 1.329345703125, 0.02105712890625, 1.55712890625
282909, 0.03526413440704346, -0.15053360164165497, 0.03752284124493599, 0.021528873592615128, -0.005518537014722824, -0.03161840885877609, 0.02867487445473671, -0.006842241156846285, -0.025717562064528465, -0.0066472189500927925, 0.11369213461875916, 0.2408011257648468, -1.6100960879283377, 0.6850168438685671, -8.089242671936262, 9362.0, 32767.0, 35388.0, 9362.0, 8.251240730285645, 0.032067522406578064, -0.04766333848237991, -0.06618887931108475, -0.000879382889252156, -0.06455786526203156, 0.9984008073806763, -0.1091880202293396, -0.1291980743408203, 1.4853515625, 1.32861328125, 0.0214385986328125, 1.55712890625
282919, 0.03561798855662346, -0.1504378318786621, 0.03704116493463516, 0.021528873592615128, -0.005518537014722824, -0.03161840885877609, 0.02867487445473671, -0.006842241156846285, -0.025717562064528465, -0.006636322941631079, 0.11370010673999786, 0.24075497686862946, -1.6140023141062754, 0.7501519840543267, -8.089390843180047, 9362.0, 32767.0, 35388.0, 9362.0, 8.271075248718262, 0.032067522406578064, -0.04766333848237991, -0.06618887931108475, -0.000879382889252156, -0.06455786526203156, 0.9984008073806763, -0.1091880202293396, -0.1291980743408203, 1.4853515625, 1.32861328125, 0.0214385986328125, 1.55712890625
282939, 0.03599192574620247, -0.15391454100608826, 0.03802383691072464, 0.022400708869099617, -0.005726522300392389, -0.03239908441901207, 0.029449153691530228, -0.00702405022457242, -0.026453174650669098, -0.006781576666980982, 0.11347144097089767, 0.24027054011821747, -2.466249837054933, 1.9380183448684818, -7.782671092292464, 9362.0, 32767.0, 35388.0, 9362.0, 8.271075248718262, -0.17945100367069244, -0.05773063749074936, -0.10417606681585312, 0.0014326601522043347, -0.06699998676776886, 0.996876060962677, -0.1091880202293396, -0.1291980743408203, 1.4853515625, 1.32861328125, 0.0214385986328125, 1.55712890625
282949, 0.03649182617664337, -0.15509337186813354, 0.03643207997083664, 0.022696515545248985, -0.005797069054096937, -0.032664887607097626, 0.02971203252673149, -0.0070853466168046, -0.026706896722316742, -0.0066419425420463085, 0.11368705332279205, 0.24084405601024628, -1.5317109577243355, 0.6593984248287086, -8.091460653721146, 9362.0, 32767.0, 35388.0, 9362.0, 8.271075248718262, -0.046271275728940964, 0.4074234068393707, 0.3531225323677063, 0.0014326601522043347, -0.06699998676776886, 0.996876060962677, -0.1091880202293396, -0.1291980743408203, 1.4853515625, 1.32861328125, 0.0214385986328125, 1.55712890625
283009, 0.038123711943626404, -0.16117145121097565, 0.034492261707782745, 0.024527492001652718, -0.006233479827642441, -0.0342891626060009, 0.031324807554483414, -0.007461766712367535, -0.027648422867059708, -0.006754265632480383, 0.11346656084060669, 0.24035124480724335, -2.4685242917875585, 1.889459781247382, -7.781209926590127, 9362.0, 32767.0, 35388.0, 9362.0, 8.271075248718262, -0.08530935645103455, -0.22932928800582886, -0.0027724653482437134, 0.0011704126372933388, -0.06874070316553116, 0.9993760585784912, -0.1091880202293396, -0.1291980743408203, 1.4853515625, 1.3359375, 0.01806640625, 1.55712890625
283019, 0.03748559206724167, -0.16049659252166748, 0.033415887504816055, 0.024842118844389915, -0.006308422889560461, -0.03456616774201393, 0.03160051256418228, -0.007526812609285116, -0.027751892805099487, -0.006632302887737751, 0.11368513852357864, 0.2408199906349182, -1.5994621126977189, 0.7211456707829598, -8.086532798997949, 9362.0, 32767.0, 35388.0, 9362.0, 8.271075248718262, -0.0385715514421463, 0.052154626697301865, 0.04126176983118057, 0.0011704126372933388, -0.06874070316553116, 0.9993760585784912, -0.1091880202293396, -0.1291980743408203, 1.4853515625, 1.3359375, 0.01806640625, 1.55712890625
283029, 0.03722963109612465, -0.16254077851772308, 0.03282691165804863, 0.025159496814012527, -0.0063840108923614025, -0.03484395146369934, 0.03187519684433937, -0.007590802852064371, -0.027804844081401825, -0.006654265336692333, 0.11368276923894882, 0.24079570174217224, -1.5790617380094942, 0.7008755721358284, -8.083767980624375, 9362.0, 32767.0, 35388.0, 9362.0, 8.271075248718262, -0.0385715514421463, 0.052154626697301865, 0.04126176983118057, -0.00159546360373497, -0.06904824823141098, 0.9988923668861389, -0.1091880202293396, -0.1291980743408203, 1.4853515625, 1.3359375, 0.01806640625, 1.55712890625
283049, 0.03758234903216362, -0.16329002380371094, 0.03293294087052345, 0.02580256201326847, -0.0065370951779186726, -0.03540249541401863, 0.03243117406964302, -0.007717459928244352, -0.028115984052419662, -0.006770940497517586, 0.1134812980890274, 0.24031953513622284, -2.4631386012176706, 1.9162183418688414, -7.786466290563458, 9362.0, 32767.0, 35388.0, 9362.0, 8.271075248718262, -0.0842263400554657, 0.1105441078543663, 0.2851547598838806, 0.0006617956678383052, -0.06630799919366837, 0.9971231818199158, -0.1091880202293396, -0.1291980743408203, 1.4853515625, 1.3359375, 0.01806640625, 1.55712890625
283079, 0.03772513195872307, -0.16132688522338867, 0.033450279384851456, 0.026788024231791496, -0.006771492306143045, -0.0362587608397007, 0.03326582536101341, -0.00790849607437849, -0.028919633477926254, -0.006631076335906982, 0.11369015276432037, 0.2408086657524109, -1.5779732274118297, 0.6624162449743665, -8.09397375515174, 9362.0, 32767.0, 35388.0, 9362.0, 8.251240730285645, -0.16438226401805878, -0.26181545853614807, -0.039920613169670105, 0.0006617956678383052, -0.06630799919366837, 0.9971231818199158, -0.1091880202293396, -0.1291980743408203, 1.4853515625, 1.333740234375, 0.0189361572265625, 1.55712890625
283099, 0.03757105767726898, -0.16393989324569702, 0.03588801622390747, 0.02745887078344822, -0.006930941250175238, -0.0368383452296257, 0.03381993621587753, -0.00803559459745884, -0.028904128819704056, -0.006634686607867479, 0.1136886402964592, 0.24077139794826508, -1.5660774210706958, 0.6517363247243679, -8.098517729747861, 9362.0, 32767.0, 35388.0, 9362.0, 8.271075248718262, -0.12638632953166962, -0.3064914643764496, -0.3184550106525421, 0.0010598477674648166, -0.06631633639335632, 1.0014688968658447, -0.1091880202293396, -0.1291980743408203, 1.4853515625, 1.333740234375, 0.0189361572265625, 1.55712890625
283109, 0.03679988160729408, -0.16259437799453735, 0.03518135845661163, 0.027798475697636604, -0.007011618465185165, -0.037126488983631134, 0.034101177006959915, -0.008099865168333054, -0.028724493458867073, -0.006664014421403408, 0.11368855088949203, 0.2408113032579422, -1.5548558264688617, 0.6857961895670144, -8.084769838345657, 9362.0, 32767.0, 35388.0, 9362.0, 8.251240730285645, -0.04954871907830238, -0.03058731183409691, 0.24583283066749573, 0.002410316141322255, -0.06637507677078247, 1.0007805824279785, -0.1091880202293396, -0.1291980743408203, 1.4853515625, 1.333740234375, 0.0189361572265625, 1.55712890625
283119, 0.036622270941734314, -0.16342602670192719, 0.036329519003629684, 0.028140880167484283, -0.0070929317735135555, -0.0374133475124836, 0.034379828721284866, -0.008162747137248516, -0.028647055849432945, -0.006756163202226162, 0.11348273605108261, 0.2403695434331894, -2.408371903779989, 1.8287609676993384, -7.807506606026346, 9362.0, 32767.0, 35388.0, 9362.0, 8.251240730285645, -0.04954871907830238, -0.03058731183409691, 0.24583283066749573, 0.002410316141322255, -0.06637507677078247, 1.0007805824279785, -0.1091880202293396, -0.1291980743408203, 1.4853515625, 1.323486328125, 0.024688720703125, 1.55712890625
283139, 0.03551293909549713, -0.16575387120246887, 0.04031796380877495, 0.028834085911512375, -0.007257428485900164, -0.03798640891909599, 0.034941770136356354, -0.008286034688353539, -0.028693368658423424, -0.0067699505016207695, 0.11346562206745148, 0.24036242067813873, -2.3516057356681714, 1.7882580405884028, -7.790736980712587, 9362.0, 32767.0, 35388.0, 9362.0, 8.251240730285645, 0.1122443675994873, 0.0944133847951889, 0.46724778413772583, 0.000862867571413517, -0.06719045341014862, 0.9999335408210754, -0.1091880202293396, -0.1291980743408203, 1.4853515625, 1.323486328125, 0.024688720703125, 1.55712890625
283149, 0.0356832854449749, -0.16643638908863068, 0.04107499122619629, 0.029184922575950623, -0.007340591866523027, -0.038273368030786514, 0.03522560000419617, -0.00834663212299347, -0.028698138892650604, -0.006641828920692205, 0.11369076371192932, 0.24079567193984985, -1.6333210291667741, 0.7236402184073256, -8.0920808861714, 9362.0, 32767.0, 35388.0, 9362.0, 8.271075248718262, 0.1122443675994873, 0.0944133847951889, 0.46724778413772583, 0.0006836484535597265, -0.06864982843399048, 1.0003163814544678, -0.1091880202293396, -0.1291980743408203, 1.4853515625, 1.323486328125, 0.024688720703125, 1.55712890625
283169, 0.035272419452667236, -0.16441169381141663, 0.03945832699537277, 0.029895123094320297, -0.007508739363402128, -0.038846492767333984, 0.0357925146818161, -0.008467677980661392, -0.028719307854771614, -0.00679495744407177, 0.1134762093424797, 0.24030838906764984, -2.4346807368564893, 1.9086591082688074, -7.778171714669528, 9362.0, 32767.0, 35388.0, 9362.0, 8.251240730285645, -0.1682567000389099, 0.3467797040939331, 0.03834427893161774, 0.0006836484535597265, -0.06864982843399048, 1.0003163814544678, -0.1091880202293396, -0.1291980743408203, 1.4853515625, 1.323486328125, 0.024688720703125, 1.55712890625
283179, 0.034878265112638474, -0.16657677292823792, 0.03899233043193817, 0.03025445155799389, -0.007593716029077768, -0.03913525864481926, 0.036073144525289536, -0.008527688682079315, -0.029033297672867775, -0.006629101932048798, 0.11370162665843964, 0.24078743159770966, -1.6144836290811224, 0.7254772735886377, -8.088021958139537, 9362.0, 32767.0, 35388.0, 9362.0, 8.271075248718262, 0.021689046174287796, 0.2508470416069031, 0.3193364143371582, 0.0006836484535597265, -0.06864982843399048, 1.0003163814544678, -0.1091880202293396, -0.1291980743408203, 1.4853515625, 1.323486328125, 0.024688720703125, 1.55712890625
283189, 0.033984825015068054, -0.169653058052063, 0.04159414395689964, 0.030616603791713715, -0.007679289672523737, -0.03942728787660599, 0.03635738790035248, -0.008586999960243702, -0.02937215566635132, -0.006776859983801842, 0.11348673701286316, 0.24038581550121307, -2.4029885793373826, 1.8706837227578887, -7.769581457631095, 9362.0, 32767.0, 35388.0, 9362.0, 8.251240730285645, -0.1663009226322174, -0.3460630178451538, -0.15337593853473663, 0.0006836484535597265, -0.06864982843399048, 1.0003163814544678, -0.1091880202293396, -0.1291980743408203, 1.4853515625, 1.323486328125, 0.024688720703125, 1.55712890625
283199, 0.03374698385596275, -0.16708338260650635, 0.04107549414038658, 0.030981626361608505, -0.007765448652207851, -0.039722613990306854, 0.036646969616413116, -0.008644791319966316, -0.029692959040403366, -0.006633118260651827, 0.11369433254003525, 0.24080979824066162, -1.5732359717484312, 0.7305170907398804, -8.0865886204749, 9362.0, 32767.0, 35388.0, 9362.0, 8.251240730285645, 0.07837852835655212, 0.0443282388150692, 0.040380798280239105, 0.0006836484535597265, -0.06864982843399048, 1.0003163814544678, -0.1091880202293396, -0.1291980743408203, 1.4853515625, 1.323486328125, 0.024688720703125, 1.55712890625
283219, 0.033933915197849274, -0.1648646593093872, 0.0421481728553772, 0.03172026202082634, -0.007939493283629417, -0.04032101854681969, 0.03721582144498825, -0.008759723976254463, -0.030051035806536674, -0.006629863753914833, 0.1136845201253891, 0.24077415466308594, -1.628340465460788, 0.6865778464599543, -8.08348114481959, 9362.0, 32767.0, 35388.0, 9362.0, 8.251240730285645, -0.31451094150543213, -0.2639433741569519, 0.14237701892852783, 0.0006836484535597265, -0.06864982843399048, 1.0003163814544678, -0.1091880202293396, -0.1291980743408203, 1.4853515625, 1.3330078125, 0.0191650390625, 1.55712890625
283239, 0.032784443348646164, -0.1641882061958313, 0.04386838525533676, 0.032470207661390305, -0.00811582338064909, -0.04092244803905487, 0.037777673453092575, -0.008871274068951607, -0.029993409290909767, -0.006620792672038078, 0.11368857324123383, 0.2407844364643097, -1.5618449174920563, 0.6538480962221058, -8.09661053043389, 9362.0, 32767.0, 35388.0, 9362.0, 8.251240730285645, 0.10819089412689209, 0.15426130592823029, -0.13738586008548737, 0.0012532371329143643, -0.06927899271249771, 1.0008633136749268, -0.1091880202293396, -0.1291980743408203, 1.4853515625, 1.330078125, 0.0206298828125, 1.55712890625
283249, 0.032618358731269836, -0.16462814807891846, 0.044205375015735626, 0.03284939005970955, -0.008204814977943897, -0.04122300073504448, 0.03805847465991974, -0.00892711989581585, -0.030116692185401917, -0.006624426692724228, 0.1136782318353653, 0.2407989650964737, -1.552534754623744, 0.6090432904038892, -8.087150993238986, 9362.0, 32767.0, 35388.0, 9362.0, 8.251240730285645, 0.10819089412689209, 0.15426130592823029, -0.13738586008548737, 0.0012532371329143643, -0.06927899271249771, 1.0008633136749268, -0.1091880202293396, -0.1291980743408203, 1.4853515625, 1.330078125, 0.0206298828125, 1.55712890625
283309, 0.03592994436621666, -0.17011962831020355, 0.04437282308936119, 0.03518366068601608, -0.00875075999647379, -0.043041203171014786, 0.03976007178425789, -0.009276775643229485, -0.030514344573020935, -0.006648007780313492, 0.11369580775499344, 0.2408096045255661, -1.5850412934770928, 0.7002036966310925, -8.090780372486027, 9362.0, 32767.0, 35388.0, 9362.0, 8.271075248718262, 0.03296303749084473, 0.3145868480205536, -0.33798927068710327, 0.001230249647051096, -0.06671850383281708, 0.9981698393821716, -0.1091880202293396, -0.1291980743408203, 1.4853515625, 1.3857421875, 0.0280914306640625, 1.55712890625
283359, 0.039229776710271835, -0.1673634648323059, 0.04241594299674034, 0.03720827400684357, -0.009222458116710186, -0.044585127383470535, 0.04121864587068558, -0.009596887044608593, -0.03118998557329178, -0.0066621494479477406, 0.11367885023355484, 0.2407662272453308, -1.6421159519583648, 0.7396580894724707, -8.07068981265846, 9362.0, 32767.0, 35388.0, 9362.0, 8.271075248718262, 0.026733141392469406, -0.3228818476200104, -0.0714309811592102, -0.001299796043895185, -0.06629006564617157, 0.999245285987854, -0.1091880202293396, -0.1291980743408203, 1.4853515625, 1.28466796875, 0.07440185546875, 1.55712890625
283449, 0.040996305644512177, -0.16554836928844452, 0.04934421554207802, 0.041034914553165436, -0.010112926363945007, -0.04743743687868118, 0.04381432384252548, -0.010194153524935246, -0.032072484493255615, -0.006634094752371311, 0.1137021854519844, 0.24079911410808563, -1.5627132437736875, 0.665296117752348, -8.1050223219896, 9362.0, 32767.0, 35388.0, 9362.0, 8.251240730285645, 0.14072944223880768, 0.07859382778406143, 0.19929523766040802, -0.000596196623519063, -0.06488490849733353, 1.000846028327942, -0.1091880202293396, -0.1291980743408203, 1.4853515625, 1.2802734375, 0.0831756591796875, 1.55712890625
283479, 0.040400102734565735, -0.16696801781654358, 0.05089141055941582, 0.04236204922199249, -0.010421902872622013, -0.048412032425403595, 0.04466072842478752, -0.010404936969280243, -0.03297886997461319, -0.006630118936300278, 0.11369635164737701, 0.24079099297523499, -1.5844710119924552, 0.7121132641554766, -8.080495771451016, 9362.0, 32767.0, 35388.0, 9362.0, 8.271075248718262, 0.013757424429059029, 0.2634313106536865, 0.06706815212965012, 0.0025508273392915726, -0.06730067729949951, 0.9971054196357727, -0.1091880202293396, -0.1291980743408203, 1.4853515625, 1.2802734375, 0.0831756591796875, 1.55712890625
283499, 0.04095642641186714, -0.17092691361904144, 0.05195092782378197, 0.04326099902391434, -0.010631388984620571, -0.04907083883881569, 0.04523591324687004, -0.010544557124376297, -0.032828863710165024, -0.0066165318712592125, 0.11369813978672028, 0.24078944325447083, -1.5983128292640414, 0.7237716326480381, -8.104568792895448, 9362.0, 32767.0, 35388.0, 9362.0, 8.251240730285645, 0.013757424429059029, 0.2634313106536865, 0.06706815212965012, 0.0025508273392915726, -0.06730067729949951, 0.9971054196357727, -0.1091880202293396, -0.1291980743408203, 1.4853515625, 1.2802734375, 0.0831756591796875, 1.55712890625
283509, 0.0414138101041317, -0.17144158482551575, 0.05184204503893852, 0.043714821338653564, -0.010737183503806591, -0.049399085342884064, 0.04552866145968437, -0.010614424012601376, -0.032819829881191254, -0.006651472765952349, 0.11369024962186813, 0.24076904356479645, -1.5803737756366152, 0.7048692477856378, -8.074471232807532, 9362.0, 32767.0, 35388.0, 9362.0, 8.271075248718262, -0.06107679009437561, 0.16247253119945526, 0.1727137565612793, 0.0025508273392915726, -0.06730067729949951, 0.9971054196357727, -0.1091880202293396, -0.1291980743408203, 1.4853515625, 1.2802734375, 0.0831756591796875, 1.55712890625
283519, 0.041614189743995667, -0.17275863885879517, 0.052122119814157486, 0.04417157173156738, -0.010843680240213871, -0.04972822219133377, 0.045821696519851685, -0.010684928856790066, -0.03300684690475464, -0.006643960252404213, 0.11369418352842331, 0.24080274999141693, -1.5653045671535704, 0.6547218566563799, -8.076213726942504, 9362.0, 32767.0, 35388.0, 9362.0, 8.251240730285645, -0.06107679009437561, 0.16247253119945526, 0.1727137565612793, 0.0025508273392915726, -0.06730067729949951, 0.9971054196357727, -0.1091880202293396, -0.1291980743408203, 1.4853515625, 1.2802734375, 0.0831756591796875, 1.55712890625
283549, 0.0406002402305603, -0.17235280573368073, 0.0480349175632, 0.045559514313936234, -0.011167402379214764, -0.05072568729519844, 0.046707648783922195, -0.010895157232880592, -0.03356729447841644, -0.006628298666328192, 0.11369533836841583, 0.24075642228126526, -1.5713094484763261, 0.685173850225965, -8.09437248526148, 9362.0, 32767.0, 35388.0, 9362.0, 8.271075248718262, -0.09292567521333694, -0.09592140465974808, -0.06423838436603546, 0.0010758090065792203, -0.06721287965774536, 0.9968597888946533, -0.1091880202293396, -0.1291980743408203, 1.4853515625, 1.27734375, 0.0894012451171875, 1.55712890625
283569, 0.03882402926683426, -0.16971595585346222, 0.048905178904533386, 0.04649956151843071, -0.011386681348085403, -0.05140044540166855, 0.04729776829481125, -0.011032024398446083, -0.033806588500738144, -0.006633669137954712, 0.11370165646076202, 0.2407953143119812, -1.573232476164209, 0.702066790647649, -8.091009490969501, 9362.0, 32767.0, 35388.0, 9362.0, 8.251240730285645, 0.16301089525222778, -0.04646289721131325, -0.17276901006698608, -0.00024204340297728777, -0.06766922026872635, 1.00039803981781, -0.1091880202293396, -0.1291980743408203, 1.4853515625, 1.27734375, 0.0894012451171875, 1.55712890625
283579, 0.03906576707959175, -0.17045387625694275, 0.048553694039583206, 0.04697399213910103, -0.011497332714498043, -0.05173896253108978, 0.04758814349770546, -0.01109819021075964, -0.03389623016119003, -0.006775145418941975, 0.113481804728508, 0.24035082757472992, -2.3717067300564993, 1.8031077181653643, -7.812422234799614, 9362.0, 32767.0, 35388.0, 9362.0, 8.271075248718262, 0.16301089525222778, -0.04646289721131325, -0.17276901006698608, -0.00024204340297728777, -0.06766922026872635, 1.00039803981781, -0.1091880202293396, -0.1291980743408203, 1.4853515625, 1.27734375, 0.0894012451171875, 1.55712890625
283589, 0.038901619613170624, -0.1715785712003708, 0.05009525269269943, 0.047451332211494446, -0.011608647182583809, -0.05207827687263489, 0.047879837453365326, -0.011164775118231773, -0.033966097980737686, -0.006652086041867733, 0.11370247602462769, 0.24075593054294586, -1.558232596737475, 0.7065365311228504, -8.09890185424357, 9362.0, 32767.0, 35388.0, 9362.0, 8.251240730285645, 0.16301089525222778, -0.04646289721131325, -0.17276901006698608, -0.00024204340297728777, -0.06766922026872635, 1.00039803981781, -0.1091880202293396, -0.1291980743408203, 1.4853515625, 1.27734375, 0.0894012451171875, 1.55712890625
283599, 0.03759106993675232, -0.17235957086086273, 0.0503699854016304, 0.047931596636772156, -0.011720625683665276, -0.05241886153817177, 0.04817311838269234, -0.01123100332915783, -0.03415033221244812, -0.006641746498644352, 0.11368414014577866, 0.24074338376522064, -1.5611678682878125, 0.7127078816834285, -8.085496388104646, 9362.0, 32767.0, 35388.0, 9362.0, 8.251240730285645, 0.31457239389419556, -0.11613136529922485, -0.00500906677916646, -0.00024204340297728777, -0.06766922026872635, 1.00039803981781, -0.1091880202293396, -0.1291980743408203, 1.4853515625, 1.27734375, 0.0894012451171875, 1.55712890625
