timeTick, roll, pitch, yaw, stateX, stateY, stateZ, stateVX, stateVY, stateVZ, otX0, otY0, otZ0, otRoll0, otPitch0, otYaw0, left wing, pitch motor, yaw motor, right wing, voltage, roll rate, pitch rate, yaw rate, A_x, A_y, A_z, current, i_raw, v_raw, airflow_voltage, airflow_speed, pot_Pitch
49181, 2.7797489166259766, -1.0558193922042847, 1.8010950088500977, 0, 0, 0, 0, 0, 0, -0.04117879271507263, 0.11829449236392975, 0.2375178039073944, 0.1562971690431903, -21.332559002617387, 15.273332190782858, 0, 0, 0, 0, 0, 0, 0, 0, 0, 0, 0, 0, 0, 0, 0, 0, 0
49191, 2.779447317123413, -1.0576483011245728, 1.8019850254058838, -0.0018759318627417088, 0.004528982564806938, -50.84501647949219, -0.03265957906842232, 0.0788731500506401, -2.135822296142578, -0.04001197963953018, 0.11882766336202621, 0.24212126433849335, 3.0072626187457754, -7.297606297684695, 15.174602864916722, 9362.0, 19660.0, 35388.0, 9362.0, 0, 0, 0, 0, 0, 0, 0, 0, 0, 0, 0, 0, 0
49201, 2.7789485454559326, -1.0547239780426025, 1.8024669885635376, -0.002192773623391986, 0.005294262431561947, -50.86637496948242, -0.030708713456988335, 0.07418279349803925, -2.136121988296509, -0.04002140834927559, 0.11883077025413513, 0.24206684529781342, 2.9354035787769237, -7.2505027102722295, 15.167954674771911, 9362.0, 19660.0, 35388.0, 9362.0, 7.9537200927734375, -0.06387367099523544, -0.4845232665538788, 0.008941504172980785, 0.013586553744971752, -0.07594180107116699, 0.996140718460083, -0.0956432968378067, -0.08439826965332031, 1.489013671875, 0, 0, 0
49211, 2.777827024459839, -1.0554299354553223, 1.8021470308303833, -0.0024901125580072403, 0.006012693978846073, -50.88773727416992, -0.028759026899933815, 0.06950352340936661, -2.136639356613159, -0.04000494256615639, 0.11882440000772476, 0.2421105057001114, 2.988909974965395, -7.328986300634369, 15.160267347630041, 9362.0, 19660.0, 35388.0, 9362.0, 7.9537200927734375, -0.12374185025691986, -0.08403928577899933, 0.02923262119293213, 0.01631777361035347, -0.07653916627168655, 0.9987658262252808, -0.07024842500686646, 0.05000114440917969, 1.5, 1.0517578125, 1.971160888671875, 1.22607421875
49221, 2.7776455879211426, -1.0576664209365845, 1.8010855913162231, -0.0027679577469825745, 0.006684283725917339, -50.90910339355469, -0.02681002952158451, 0.06481443345546722, -2.1369378566741943, -0.0399821475148201, 0.11879290640354156, 0.24206525087356567, 2.9493732813341906, -7.39601698302468, 15.102762218413442, 9362.0, 19660.0, 35388.0, 9362.0, 7.9537200927734375, 0.011998029425740242, 0.30398786067962646, -0.07790541648864746, 0.015230494551360607, -0.07530656456947327, 0.9974320530891418, -0.05260070413351059, -0.09335899353027344, 1.48828125, 1.04736328125, 2.0461883544921875, 1.22607421875
49231, 2.778927803039551, -1.0583893060684204, 1.8003636598587036, -0.0030263091903179884, 0.007308996748179197, -50.93047332763672, -0.02486034668982029, 0.060128115117549896, -2.137254238128662, -0.04001886770129204, 0.11882035434246063, 0.24207569658756256, 2.9752989209959706, -7.279089079771694, 15.179043848372721, 9362.0, 19660.0, 35388.0, 9362.0, 7.9537200927734375, 0.15997232496738434, -0.15369006991386414, -0.07499569654464722, 0.013305198401212692, -0.07798904180526733, 0.9984957575798035, -0.06175781041383743, -0.13815879821777344, 1.484619140625, 1.07373046875, 1.62420654296875, 1.25244140625
49241, 2.7795567512512207, -1.0591158866882324, 1.8000657558441162, -0.0032651457004249096, 0.007886850275099277, -50.951847076416016, -0.022907022386789322, 0.055442508310079575, -2.1375770568847656, -0.04001577943563461, 0.11882509291172028, 0.2421143651008606, 3.0023071794309417, -7.320814886008634, 15.158955380027866, 9362.0, 19660.0, 35388.0, 9362.0, 7.9537200927734375, 0.0880252793431282, 0.15881963074207306, 0.0895920991897583, 0.014361714012920856, -0.07489771395921707, 0.9988478422164917, -0.06850889325141907, -0.1291980743408203, 1.4853515625, 1.11767578125, 1.0591888427734375, 1.2275390625
49251, 2.780137538909912, -1.0591719150543213, 1.7978706359863281, -0.003484441665932536, 0.008417833596467972, -50.97322463989258, -0.020952219143509865, 0.050754230469465256, -2.1378891468048096, -0.04001741483807564, 0.11881916224956512, 0.24207672476768494, 2.936762738953679, -7.22510988067782, 15.188284379169898, 9362.0, 19660.0, 35388.0, 9362.0, 7.9537200927734375, 0.04700760543346405, -0.0345623642206192, -0.20837529003620148, 0.016628185287117958, -0.07551092654466629, 0.9978897571563721, -0.07273469120264053, -0.08439826965332031, 1.489013671875, 1.119140625, 1.04302978515625, 1.224609375
49261, 2.7814900875091553, -1.0575329065322876, 1.7960911989212036, -0.0036841812543570995, 0.008901923894882202, -50.994606018066406, -0.018995899707078934, 0.04606383293867111, -2.1381800174713135, -0.040021028369665146, 0.11882193386554718, 0.24209758639335632, 2.9450034241701637, -7.260305632158833, 15.178107044692352, 9362.0, 19660.0, 35388.0, 9362.0, 7.9537200927734375, 0.220054030418396, -0.4453200697898865, -0.14898334443569183, 0.015030412934720516, -0.0772719457745552, 0.9972296953201294, -0.06291280686855316, 0.03208160400390625, 1.49853515625, 1.111083984375, 1.133758544921875, 1.224609375
49271, 2.7806155681610107, -1.0601063966751099, 1.7974141836166382, -0.0038643653970211744, 0.009339123032987118, -51.0159912109375, -0.017041075974702835, 0.04137595370411873, -2.138545274734497, -0.040019065141677856, 0.11882480978965759, 0.24206694960594177, 2.9723974250678524, -7.2589787582305405, 15.181336543550959, 9362.0, 19660.0, 35388.0, 9362.0, 7.9537200927734375, -0.23207660019397736, 0.4037882089614868, 0.15901406109333038, 0.016404276713728905, -0.07768456637859344, 0.9944968819618225, -0.05887347087264061, -0.04855918884277344, 1.491943359375, 1.112548828125, 1.1168670654296875, 1.228271484375
49281, 2.780886173248291, -1.0645827054977417, 1.8003849983215332, -0.004025037866085768, 0.009729485027492046, -51.03738021850586, -0.015093364752829075, 0.03669644519686699, -2.139134645462036, -0.04121517390012741, 0.11828438192605972, 0.23743395507335663, 0.1526703739808511, -21.572103882608218, 15.280369867288735, 9362.0, 19660.0, 35388.0, 9362.0, 7.9537200927734375, -0.04636397212743759, 0.4462979733943939, 0.19513854384422302, 0.014293385669589043, -0.07690885663032532, 0.9984817504882812, -0.06296044588088989, -0.04855918884277344, 1.491943359375, 1.10595703125, 1.194122314453125, 1.225341796875
49291, 2.7807366847991943, -1.0644067525863647, 1.800794243812561, -0.004166196566075087, 0.010073024779558182, -51.058773040771484, -0.01313813216984272, 0.032011620700359344, -2.1395766735076904, -0.04001554474234581, 0.11882278323173523, 0.24204696714878082, 2.8888581411596452, -7.200981413026909, 15.18826970059119, 9362.0, 19660.0, 35388.0, 9362.0, 7.9537200927734375, -0.026658356189727783, -0.11761020869016647, 0.12208668887615204, 0.013651449233293533, -0.0744001492857933, 1.0005314350128174, -0.06501127034425735, -0.13815879821777344, 1.484619140625, 1.116943359375, 1.0672607421875, 1.22607421875
49301, 2.781446933746338, -1.0639077425003052, 1.7992420196533203, -0.004287733230739832, 0.010369643568992615, -51.080169677734375, -0.01116914302110672, 0.027312111109495163, -2.1397171020507812, -0.04001237079501152, 0.11882802844047546, 0.2420606166124344, 2.93224497224062, -7.261339498604059, 15.172423003736839, 9362.0, 19660.0, 35388.0, 9362.0, 7.9537200927734375, 0.07505311816930771, 0.0543699748814106, -0.24196521937847137, 0.014403032138943672, -0.07447996735572815, 0.996730387210846, -0.06325559318065643, -0.11127853393554688, 1.48681640625, 1.106689453125, 1.1853790283203125, 1.22900390625
49311, 2.781179189682007, -1.0660111904144287, 1.799202561378479, -0.004389595706015825, 0.010619303211569786, -51.10157012939453, -0.00920349732041359, 0.022619767114520073, -2.140002727508545, -0.040025822818279266, 0.11882125586271286, 0.2420876920223236, 2.938705146382618, -7.286944416497079, 15.18463958141759, 9362.0, 19660.0, 35388.0, 9362.0, 7.9537200927734375, -0.059257086366415024, 0.3110109567642212, 0.08732454478740692, 0.014189422130584717, -0.0742197036743164, 0.9959061741828918, -0.06918754428625107, -0.08439826965332031, 1.489013671875, 1.118408203125, 1.0510711669921875, 1.224609375
49321, 2.7814700603485107, -1.0678157806396484, 1.8012913465499878, -0.0044718291610479355, 0.010822087526321411, -51.12297439575195, -0.007243251893669367, 0.01793704926967621, -2.1405153274536133, -0.03999510407447815, 0.1188242956995964, 0.24208508431911469, 2.9494058925231754, -7.234128890056752, 15.172008901112951, 9362.0, 19660.0, 35388.0, 9362.0, 7.9537200927734375, 0.040407389402389526, 0.3009278476238251, 0.23550929129123688, 0.014851256273686886, -0.07396986335515976, 0.9961920976638794, -0.07518593221902847, -0.11127853393554688, 1.48681640625, 1.112548828125, 1.1168670654296875, 1.22607421875
49331, 2.7798242568969727, -1.0677103996276855, 1.801378607749939, -0.004534440580755472, 0.01097804307937622, -51.14438247680664, -0.005278881173580885, 0.013254115357995033, -2.1410093307495117, -0.04000302776694298, 0.11878567934036255, 0.2420399934053421, 2.9633243043166257, -7.385911409985226, 15.095091323240167, 9362.0, 19660.0, 35388.0, 9362.0, 7.9537200927734375, -0.33112335205078125, -0.02781829610466957, 0.017972106114029884, 0.014769197441637516, -0.07424835860729218, 0.9963774681091309, -0.08166336268186569, -0.09335899353027344, 1.48828125, 1.141845703125, 0.81378173828125, 1.226806640625
49341, 2.781428337097168, -1.0672335624694824, 1.800235629081726, -0.004577388055622578, 0.011087157763540745, -51.165794372558594, -0.003310589352622628, 0.00856876466423273, -2.141462564468384, -0.040023431181907654, 0.1188334971666336, 0.24210812151432037, 2.965483119013881, -7.255850842116757, 15.182477155724062, 9362.0, 19660.0, 35388.0, 9362.0, 7.9537200927734375, 0.25599101185798645, -0.03718908131122589, -0.21078990399837494, 0.015002741478383541, -0.07722598314285278, 0.9959328770637512, -0.08933934569358826, -0.07543754577636719, 1.48974609375, 1.11181640625, 1.125274658203125, 1.226806640625
49351, 2.781118869781494, -1.0706217288970947, 1.7994309663772583, -0.004600663669407368, 0.011149456724524498, -51.18721008300781, -0.0013446379452943802, 0.0038909432478249073, -2.1420140266418457, -0.03999178856611252, 0.11878085136413574, 0.24204537272453308, 2.9144628501252945, -7.360003218014185, 15.116386172321093, 9362.0, 19660.0, 35388.0, 9362.0, 7.9537200927734375, -0.14423474669456482, 0.4276095926761627, -0.20241889357566833, 0.014994415454566479, -0.07735682278871536, 0.997600793838501, -0.09380846470594406, -0.11127853393554688, 1.48681640625, 1.1162109375, 1.075439453125, 1.22900390625
49361, 2.7816696166992188, -1.0715594291687012, 1.7989592552185059, -0.004604270216077566, 0.011164930649101734, -51.20863342285156, 0.0006232344312593341, -0.0007961823139339685, -2.142430543899536, -0.04000752046704292, 0.1188303753733635, 0.24208253622055054, 2.9507958293892282, -7.271399546457047, 15.182226443643565, 9362.0, 19660.0, 35388.0, 9362.0, 7.9537200927734375, 0.060519229620695114, 0.01871129684150219, -0.11040124297142029, 0.014130744151771069, -0.07355775684118271, 0.9969266653060913, -0.09619076550006866, -0.06647872924804688, 1.490478515625, 1.118408203125, 1.0510711669921875, 1.2275390625
49371, 2.780932903289795, -1.0731960535049438, 1.7995573282241821, -0.004588172305375338, 0.011133542284369469, -51.23006057739258, 0.0025963212829083204, -0.005481400992721319, -2.1428720951080322, -0.03998533636331558, 0.11878667771816254, 0.24204382300376892, 2.8782830042715393, -7.266397127683234, 15.098226274458124, 9362.0, 19660.0, 35388.0, 9362.0, 7.9537200927734375, -0.1593259871006012, 0.0024701282382011414, -0.07029227167367935, 0.01466910820454359, -0.07422101497650146, 0.9985971450805664, -0.09867797046899796, -0.07543754577636719, 1.48974609375, 1.25244140625, 0.155426025390625, 1.2275390625
49381, 2.7805066108703613, -1.074977993965149, 1.8001995086669922, -0.004552324768155813, 0.011055272072553635, -51.25149154663086, 0.004573256243020296, -0.010172630660235882, -2.1432063579559326, -0.04002159461379051, 0.11883103102445602, 0.24206458032131195, 2.884763871169266, -7.20330167063247, 15.197068809068474, 9362.0, 19660.0, 35388.0, 9362.0, 7.9537200927734375, 0.03543901443481445, 0.12435033917427063, 0.007992846891283989, 0.012769901193678379, -0.07540149986743927, 0.996865451335907, -0.10153995454311371, -0.14711761474609375, 1.48388671875, 1.34033203125, 0.0166168212890625, 1.228271484375
49391, 2.781898260116577, -1.0764186382293701, 1.8040457963943481, -0.004496690817177296, 0.01093008928000927, -51.272926330566406, 0.006553619168698788, -0.014863952994346619, -2.143510103225708, -0.04000021517276764, 0.1187862679362297, 0.2420278787612915, 2.899259772783221, -7.353513970922876, 15.12297253302458, 9362.0, 19660.0, 35388.0, 9362.0, 7.9537200927734375, 0.19825924932956696, 0.5233617424964905, 0.6298827528953552, 0.015359810553491116, -0.07503674924373627, 0.9951453804969788, -0.1014418676495552, -0.10231781005859375, 1.487548828125, 1.3125, 0.034027099609375, 1.25244140625
49401, 2.7823946475982666, -1.0769126415252686, 1.8042906522750854, -0.004421269055455923, 0.010758071206510067, -51.29436492919922, 0.008531009778380394, -0.019539447501301765, -2.1441240310668945, -0.04001267999410629, 0.1188228577375412, 0.2420932650566101, 2.936295255126111, -7.245937096979105, 15.180147254023115, 9362.0, 19660.0, 35388.0, 9362.0, 7.9537200927734375, 0.18478403985500336, 0.2718196213245392, -0.06164988502860069, 0.014428200200200081, -0.07606317102909088, 0.9963696002960205, -0.0974588617682457, -0.10231781005859375, 1.487548828125, 1.2978515625, 0.05224609375, 1.261962890625
49411, 2.7811968326568604, -1.0761587619781494, 1.8018403053283691, -0.0043260520324110985, 0.010539270006120205, -51.3158073425293, 0.010512448847293854, -0.02422075718641281, -2.144665002822876, -0.04001079872250557, 0.11882804334163666, 0.24208511412143707, 2.952311846209088, -7.287771448950991, 15.167826463238836, 9362.0, 19660.0, 35388.0, 9362.0, 7.9537200927734375, 0.03488378971815109, -0.1333695352077484, -0.34474676847457886, 0.014823592267930508, -0.07336346805095673, 0.9975045919418335, -0.09414686262607574, 0.09480094909667969, 1.503662109375, 1.27734375, 0.0894012451171875, 1.22607421875
49421, 2.781018018722534, -1.0786162614822388, 1.8023247718811035, -0.004210997372865677, 0.010273607447743416, -51.337257385253906, 0.012498294934630394, -0.028911784291267395, -2.145021438598633, -0.039989884942770004, 0.11878342181444168, 0.2420653998851776, 2.9461709142766286, -7.38214590931554, 15.108213770394412, 9362.0, 19660.0, 35388.0, 9362.0, 7.9537200927734375, -0.018968522548675537, 0.17995591461658478, 0.048494093120098114, 0.01345024537295103, -0.07492921501398087, 0.9957068562507629, -0.08651868253946304, -0.10231781005859375, 1.487548828125, 1.267822265625, 0.111724853515625, 1.225341796875
49431, 2.7810680866241455, -1.0776604413986206, 1.8025734424591064, -0.004076107870787382, 0.00996108166873455, -51.35871124267578, 0.014479666948318481, -0.03359335660934448, -2.1455328464508057, -0.04001382738351822, 0.1188155859708786, 0.24206890165805817, 2.937811174299896, -7.249329911044612, 15.201540104752526, 9362.0, 19660.0, 35388.0, 9362.0, 7.9537200927734375, -0.015847302973270416, -0.1771514117717743, -0.021451333537697792, 0.015852658078074455, -0.07489517331123352, 0.9979398250579834, -0.09324374794960022, -0.10231781005859375, 1.487548828125, 1.28466796875, 0.07440185546875, 1.22607421875
49441, 2.781954526901245, -1.0801174640655518, 1.8041551113128662, -0.00392137048766017, 0.009601711295545101, -51.38016891479492, 0.016467861831188202, -0.03828063979744911, -2.14591646194458, -0.04001438245177269, 0.11882606893777847, 0.24206630885601044, 2.960747126144449, -7.247285552453803, 15.16584287965319, 9362.0, 19660.0, 35388.0, 9362.0, 7.9537200927734375, 0.174615740776062, 0.44633427262306213, -0.09516075253486633, 0.014330255798995495, -0.07593771070241928, 0.9973009824752808, -0.09377282857894897, -0.05751800537109375, 1.4912109375, 1.288330078125, 0.0676116943359375, 1.225341796875
49461, 2.781061887741089, -1.079840898513794, 1.8067753314971924, -0.0037467586807906628, 0.009195467457175255, -51.40163040161133, 0.01845460943877697, -0.042968183755874634, -2.146296501159668, -0.040020935237407684, 0.11881372332572937, 0.24208636581897736, 2.9631527835821236, -7.396940044193059, 15.106629472194467, 9362.0, 19660.0, 35388.0, 9362.0, 7.9537200927734375, -0.04425724595785141, -0.03395308926701546, 0.09074632823467255, 0.015397340059280396, -0.07870674878358841, 0.9961434602737427, -0.094503253698349, -0.11127853393554688, 1.48681640625, 1.2744140625, 0.0959014892578125, 1.2275390625
49491, 2.7807230949401855, -1.0795832872390747, 1.8079484701156616, -0.003103613620623946, 0.00769561342895031, -51.46603775024414, 0.024421801790595055, -0.05702197551727295, -2.147648334503174, -0.04001545533537865, 0.11882434785366058, 0.24207080900669098, 2.900462585394139, -7.167157745901164, 15.18669534966505, 9362.0, 19660.0, 35388.0, 9362.0, 7.9537200927734375, 0.04912220314145088, 0.009520414285361767, 0.2000027447938919, 0.015397340059280396, -0.07870674878358841, 0.9961434602737427, -0.09659584611654282, -0.06647872924804688, 1.490478515625, 1.2744140625, 0.0959014892578125, 1.22900390625
49501, 2.7820792198181152, -1.0792738199234009, 1.807228684425354, -0.002575484337285161, 0.006461712997406721, -51.509002685546875, 0.028390763327479362, -0.0663708969950676, -2.148897886276245, -0.04003018140792847, 0.1188340112566948, 0.2420598864555359, 2.9152688833128506, -7.1775952661778035, 15.190011361820131, 9362.0, 19660.0, 35388.0, 9362.0, 7.9537200927734375, 0.04912220314145088, 0.009520414285361767, 0.2000027447938919, 0.015397340059280396, -0.07870674878358841, 0.9961434602737427, -0.09659584611654282, -0.06647872924804688, 1.490478515625, 1.259033203125, 0.135589599609375, 1.23046875
49511, 2.7826883792877197, -1.0826830863952637, 1.8057913780212402, -0.002575484337285161, 0.006461712997406721, -51.509002685546875, 0.028390763327479362, -0.0663708969950676, -2.148897886276245, -0.039990562945604324, 0.11879965662956238, 0.24203549325466156, 2.9628411625665, -7.358092757525668, 15.105669725326335, 9362.0, 19660.0, 35388.0, 9362.0, 7.9537200927734375, 0.09354858100414276, 0.5657533407211304, -0.09363694489002228, 0.015397340059280396, -0.07870674878358841, 0.9961434602737427, -0.09659584611654282, -0.06647872924804688, 1.490478515625, 1.26416015625, 0.121337890625, 1.225341796875
49531, 2.7858428955078125, -1.0824579000473022, 1.8046362400054932, -0.0016342636663466692, 0.004259827081114054, -51.573490142822266, 0.034366633743047714, -0.08043774962425232, -2.150017738342285, -0.04001696780323982, 0.11882176250219345, 0.24212923645973206, 2.994036577176587, -7.32931414414432, 15.16624067991829, 9362.0, 19660.0, 35388.0, 9362.0, 7.9537200927734375, 0.2836703062057495, 0.11256791651248932, -0.047508418560028076, 0.015397340059280396, -0.07870674878358841, 0.9961434602737427, -0.08999461680650711, -0.01271820068359375, 1.494873046875, 1.26416015625, 0.121337890625, 1.225341796875
49551, 2.785602331161499, -1.083402395248413, 1.805040717124939, -0.0012806195300072432, 0.0034319781698286533, -51.594993591308594, 0.036362174898386, -0.08513202518224716, -2.1503727436065674, -0.03998369723558426, 0.11878912150859833, 0.24204565584659576, 2.913656434208812, -7.324765349696605, 15.108706611148174, 9362.0, 19660.0, 35388.0, 9362.0, 7.9537200927734375, -0.229374960064888, -0.08811973035335541, 0.15715332329273224, 0.015397340059280396, -0.07870674878358841, 0.9961434602737427, -0.06366455554962158, 0.06792068481445312, 1.50146484375, 1.11181640625, 1.125274658203125, 1.22900390625
49561, 2.785700559616089, -1.0841872692108154, 1.8057438135147095, -0.0012806195300072432, 0.0034319781698286533, -51.594993591308594, 0.036362174898386, -0.08513202518224716, -2.1503727436065674, -0.039989225566387177, 0.11879587918519974, 0.24205003678798676, 2.873928445669778, -7.322363423805143, 15.106724762213586, 9362.0, 19660.0, 35388.0, 9362.0, 7.9537200927734375, -0.0018324345583096147, 0.13290835916996002, 0.07468576729297638, 0.015397340059280396, -0.07870674878358841, 0.9961434602737427, -0.06366455554962158, 0.06792068481445312, 1.50146484375, 1.11181640625, 1.125274658203125, 1.228271484375
49571, 2.7843093872070312, -1.0849149227142334, 1.8048442602157593, -9.989686077460647e-05, 0.0006665830733254552, -51.65951919555664, 0.042353253811597824, -0.09922599047422409, -2.1512792110443115, -0.03999916836619377, 0.11882222443819046, 0.24210312962532043, 2.9938908781075186, -7.287678097379825, 15.16149444712462, 9362.0, 19660.0, 35388.0, 9362.0, 7.9537200927734375, -0.01074252463877201, 0.3057352900505066, -0.13931412994861603, 0.015397340059280396, -0.07870674878358841, 0.9961434602737427, -0.06366455554962158, 0.06792068481445312, 1.50146484375, 1.14111328125, 0.8206024169921875, 1.2275390625
49611, 2.782075881958008, -1.084008812904358, 1.8028687238693237, 0.0012605709489434958, -0.0025212946347892284, -51.72407531738281, 0.04834406450390816, -0.11330024898052216, -2.1525087356567383, -0.040019337087869644, 0.11882584542036057, 0.24207176268100739, 2.8976986927401023, -7.201719827285785, 15.199115769316222, 9362.0, 19660.0, 35388.0, 9362.0, 7.9537200927734375, -0.10119914263486862, -0.037572238594293594, 0.1842355877161026, 0.014619420282542706, -0.07607211172580719, 0.9984069466590881, -0.05588042363524437, -0.07543754577636719, 1.48974609375, 1.1162109375, 1.075439453125, 1.25537109375
49621, 2.7819275856018066, -1.0843069553375244, 1.8030672073364258, 0.002267346251755953, -0.004881196189671755, -51.76713180541992, 0.05233371630311012, -0.12268581986427307, -2.1531622409820557, -0.03999045863747597, 0.11878334730863571, 0.24204902350902557, 2.9320764072639154, -7.325802558191981, 15.113758029665073, 9362.0, 19660.0, 35388.0, 9362.0, 7.9537200927734375, -0.10119914263486862, -0.037572238594293594, 0.1842355877161026, 0.014619420282542706, -0.07607211172580719, 0.9984069466590881, -0.05588042363524437, -0.07543754577636719, 1.48974609375, 1.1162109375, 1.075439453125, 1.25537109375
49631, 2.7827539443969727, -1.0858409404754639, 1.8040101528167725, 0.002267346251755953, -0.004881196189671755, -51.76713180541992, 0.05233371630311012, -0.12268581986427307, -2.1531622409820557, -0.039975330233573914, 0.11879502236843109, 0.24205487966537476, 2.9353630025774184, -7.364175878842474, 15.08246338981881, 9362.0, 19660.0, 35388.0, 9362.0, 7.9537200927734375, 0.279831200838089, -0.031547077000141144, 0.12933349609375, 0.014619420282542706, -0.07607211172580719, 0.9984069466590881, -0.05588042363524437, -0.07543754577636719, 1.48974609375, 1.0693359375, 1.6899566650390625, 1.25537109375
49661, 2.781660795211792, -1.08632493019104, 1.8063422441482544, 0.002267346251755953, -0.004881196189671755, -51.76713180541992, 0.05233371630311012, -0.12268581986427307, -2.1531622409820557, -0.039976391941308975, 0.11879147589206696, 0.24204792082309723, 2.9000265354237444, -7.312243672939815, 15.115181472086276, 9362.0, 19660.0, 35388.0, 9362.0, 7.9537200927734375, -0.04915281757712364, 0.22257092595100403, 0.1835974007844925, 0.014619420282542706, -0.07607211172580719, 0.9984069466590881, -0.09650411456823349, -0.08439826965332031, 1.489013671875, 1.0693359375, 1.6899566650390625, 1.25537109375
49701, 2.7813680171966553, -1.0892595052719116, 1.8050000667572021, 0.00642036646604538, -0.014617573469877243, -51.91794967651367, 0.06633300334215164, -0.15550649166107178, -2.155818462371826, -0.040019139647483826, 0.11881810426712036, 0.24209150671958923, 2.917816237515119, -7.24866649564288, 15.196035708839206, 9362.0, 19660.0, 35388.0, 9362.0, 7.9537200927734375, 0.09795389324426651, -0.1922694742679596, -0.4053640365600586, 0.014619420282542706, -0.07607211172580719, 0.9984069466590881, -0.06780704855918884, -0.12023735046386719, 1.486083984375, 1.3212890625, 0.026214599609375, 1.229736328125
49721, 2.7812740802764893, -1.0889960527420044, 1.805093765258789, 0.00642036646604538, -0.014617573469877243, -51.91794967651367, 0.06633300334215164, -0.15550649166107178, -2.155818462371826, -0.040016137063503265, 0.11880271136760712, 0.24204882979393005, 2.925559565785472, -7.305927126093707, 15.13077301058704, 9362.0, 19660.0, 35388.0, 9362.0, 7.9537200927734375, 0.20175567269325256, -0.006991622503846884, -0.07609812915325165, 0.015924910083413124, -0.07483169436454773, 0.9987701773643494, -0.06780704855918884, -0.12023735046386719, 1.486083984375, 1.317626953125, 0.0291900634765625, 1.231201171875
49731, 2.781125783920288, -1.0888347625732422, 1.8052784204483032, 0.00642036646604538, -0.014617573469877243, -51.91794967651367, 0.06633300334215164, -0.15550649166107178, -2.155818462371826, -0.039972808212041855, 0.1187884509563446, 0.2420736700296402, 2.952119594787844, -7.362093603449267, 15.108220954483295, 9362.0, 19660.0, 35388.0, 9362.0, 7.9537200927734375, -0.037784598767757416, -0.013637029565870762, -0.15427963435649872, 0.015924910083413124, -0.07483169436454773, 0.9987701773643494, -0.06780704855918884, -0.12023735046386719, 1.486083984375, 1.31982421875, 0.0273590087890625, 1.22900390625
49741, 2.7817816734313965, -1.0904724597930908, 1.8073697090148926, 0.00642036646604538, -0.014617573469877243, -51.91794967651367, 0.06633300334215164, -0.15550649166107178, -2.155818462371826, -0.040018223226070404, 0.11883538961410522, 0.24212385714054108, 2.9224527187861655, -7.210391973000469, 15.176405744760526, 9362.0, 19660.0, 35388.0, 9362.0, 7.9537200927734375, 0.03229976072907448, 0.16626641154289246, 0.3095816671848297, 0.015924910083413124, -0.07483169436454773, 0.9987701773643494, -0.06780704855918884, -0.12023735046386719, 1.486083984375, 1.341796875, 0.0162811279296875, 1.22900390625
49771, 2.7820448875427246, -1.0923207998275757, 1.8092678785324097, 0.00642036646604538, -0.014617573469877243, -51.91794967651367, 0.06633300334215164, -0.15550649166107178, -2.155818462371826, -0.04001956060528755, 0.11883407086133957, 0.24208761751651764, 2.949857973259323, -7.270215995617548, 15.182920377658425, 9362.0, 19660.0, 35388.0, 9362.0, 7.9537200927734375, 0.19948452711105347, 0.09555592387914658, 0.2188214659690857, 0.015924910083413124, -0.07483169436454773, 0.9987701773643494, -0.09333194047212601, -0.1739978790283203, 1.481689453125, 1.3212890625, 0.026214599609375, 1.22900390625
49801, 2.7824575901031494, -1.0963667631149292, 1.8119592666625977, 0.014057232066988945, -0.032512400299310684, -52.13370895385742, 0.0864105299115181, -0.2023719996213913, -2.159857749938965, -0.039986882358789444, 0.11879835277795792, 0.2420724779367447, 2.9395129879050845, -7.298714285754812, 15.109705588388671, 9362.0, 19660.0, 35388.0, 9362.0, 7.9537200927734375, 0.1060517355799675, 0.12016157805919647, -0.1691567301750183, 0.015924910083413124, -0.07483169436454773, 0.9987701773643494, -0.10261526703834534, -0.06647872924804688, 1.490478515625, 1.3212890625, 0.026214599609375, 1.228271484375
49811, 2.7816052436828613, -1.0985586643218994, 1.8144477605819702, 0.014057232066988945, -0.032512400299310684, -52.13370895385742, 0.0864105299115181, -0.2023719996213913, -2.159857749938965, -0.04002577066421509, 0.1188291683793068, 0.24205973744392395, 2.941448341090818, -7.240522297193138, 15.186179416776067, 9362.0, 19660.0, 35388.0, 9362.0, 7.9537200927734375, -0.20643126964569092, 0.10876515507698059, 0.31481024622917175, 0.015924910083413124, -0.07483169436454773, 0.9987701773643494, -0.10261526703834534, -0.06647872924804688, 1.490478515625, 1.3212890625, 0.026214599609375, 1.23046875
49841, 2.78298282623291, -1.10379159450531, 1.8179957866668701, 0.017674947157502174, -0.040982481092214584, -52.22012710571289, 0.09448481351137161, -0.22113074362277985, -2.161181926727295, -0.04001815617084503, 0.11883672326803207, 0.24209651350975037, 2.922192138611754, -7.224424799705844, 15.1841045873727, 9362.0, 19660.0, 35388.0, 9362.0, 7.9537200927734375, -0.06352069228887558, 0.2820464074611664, 0.06589887291193008, 0.015924910083413124, -0.07483169436454773, 0.9987701773643494, -0.06529584527015686, -0.10231781005859375, 1.487548828125, 1.316162109375, 0.030517578125, 1.2275390625
49861, 2.7824554443359375, -1.101548671722412, 1.8180581331253052, 0.0196051225066185, -0.04549885168671608, -52.26335906982422, 0.09853662550449371, -0.23050831258296967, -2.1619508266448975, -0.04001898318529129, 0.11882834881544113, 0.24209418892860413, 2.9340888565391126, -7.253425082008874, 15.190202212377399, 9362.0, 19660.0, 35388.0, 9362.0, 7.9537200927734375, 0.08361614495515823, -0.4716157913208008, -0.2785824239253998, 0.015924910083413124, -0.07483169436454773, 0.9987701773643494, -0.07689191401004791, -0.09335899353027344, 1.48828125, 1.316162109375, 0.030517578125, 1.2275390625
49911, 2.7842674255371094, -1.1071727275848389, 1.8149847984313965, 0.02588273212313652, -0.06017272546887398, -52.39315414428711, 0.11070960015058517, -0.2586086690425873, -2.164879322052002, -0.04000162333250046, 0.11880263686180115, 0.24205628037452698, 2.9221253741250313, -7.351512971147514, 15.119121141706145, 9362.0, 19660.0, 35388.0, 9362.0, 7.9537200927734375, -0.06410019099712372, -0.049181293696165085, -0.04113733768463135, 0.01419767178595066, -0.07744988799095154, 0.9968989491462708, -0.09133069217205048, -0.07543754577636719, 1.48974609375, 1.314697265625, 0.0319061279296875, 1.226806640625
49921, 2.7850358486175537, -1.1066879034042358, 1.813154935836792, 0.02588273212313652, -0.06017272546887398, -52.39315414428711, 0.11070960015058517, -0.2586086690425873, -2.164879322052002, -0.03999059647321701, 0.11879857629537582, 0.2420642226934433, 2.9365514108282946, -7.367371058010093, 15.110835520224365, 9362.0, 19660.0, 35388.0, 9362.0, 7.9537200927734375, 0.0477522648870945, -0.005531822331249714, -0.20836427807807922, 0.01419767178595066, -0.07744988799095154, 0.9968989491462708, -0.09133069217205048, -0.07543754577636719, 1.48974609375, 1.326416015625, 0.022705078125, 1.316162109375
49931, 2.7842674255371094, -1.1093268394470215, 1.8151057958602905, 0.028137626126408577, -0.06543869525194168, -52.43646240234375, 0.11478105187416077, -0.26798754930496216, -2.1656627655029297, -0.040021948516368866, 0.11882789433002472, 0.2420855462551117, 2.9610558952935078, -7.284437916152797, 15.177497104480679, 9362.0, 19660.0, 35388.0, 9362.0, 7.9537200927734375, -0.08203015476465225, 0.302262544631958, 0.26081857085227966, 0.01419767178595066, -0.07744988799095154, 0.9968989491462708, -0.09133069217205048, -0.07543754577636719, 1.48974609375, 1.326416015625, 0.022705078125, 1.316162109375
49981, 2.782754898071289, -1.1165149211883545, 1.8152936697006226, 0.032892245799303055, -0.07653376460075378, -52.52311325073242, 0.12295493483543396, -0.28676098585128784, -2.166951894760132, -0.0400286465883255, 0.1188361868262291, 0.24207526445388794, 2.9339208513243706, -7.201684195293723, 15.185620455699356, 9362.0, 19660.0, 35388.0, 9362.0, 7.9537200927734375, -0.0459226593375206, 0.21647319197654724, -0.03413984552025795, 0.01419767178595066, -0.07744988799095154, 0.9968989491462708, -0.07475005835294724, -0.03959846496582031, 1.49267578125, 1.269287109375, 0.1081085205078125, 1.226806640625
50031, 2.779897689819336, -1.121199369430542, 1.8156912326812744, 0.040638890117406845, -0.09458289295434952, -52.6532096862793, 0.13528265058994293, -0.31487342715263367, -2.169511318206787, -0.0400288850069046, 0.11882284283638, 0.2420739382505417, 2.947310100787585, -7.273958139121959, 15.175143167946624, 9362.0, 19660.0, 35388.0, 9362.0, 7.9537200927734375, -0.022354086861014366, 0.09699191898107529, -0.04640660807490349, 0.01419767178595066, -0.07744988799095154, 0.9968989491462708, -0.08660555630922318, -0.06647872924804688, 1.490478515625, 1.270751953125, 0.104522705078125, 1.22607421875
50051, 2.780287742614746, -1.1215903759002686, 1.8191230297088623, 0.040638890117406845, -0.09458289295434952, -52.6532096862793, 0.13528265058994293, -0.31487342715263367, -2.169511318206787, -0.04002426937222481, 0.11882956326007843, 0.24207888543605804, 2.935682362806793, -7.240237037139991, 15.186715761366736, 9362.0, 19660.0, 35388.0, 9362.0, 7.9537200927734375, 0.09164443612098694, 0.20264726877212524, 0.13632917404174805, 0.01419767178595066, -0.07744988799095154, 0.9968989491462708, -0.10017091035842896, -0.11127853393554688, 1.48681640625, 1.28466796875, 0.07440185546875, 1.22607421875
50061, 2.7805123329162598, -1.1213241815567017, 1.8189759254455566, 0.040638890117406845, -0.09458289295434952, -52.6532096862793, 0.13528265058994293, -0.31487342715263367, -2.169511318206787, -0.03998390957713127, 0.11879970133304596, 0.2420525997877121, 2.8897083874031577, -7.251464291820042, 15.1121439719798, 9362.0, 19660.0, 35388.0, 9362.0, 7.9537200927734375, 0.09164443612098694, 0.20264726877212524, 0.13632917404174805, 0.01419767178595066, -0.07744988799095154, 0.9968989491462708, -0.09521525353193283, -0.12023735046386719, 1.486083984375, 1.264892578125, 0.119354248046875, 1.22607421875
50091, 2.782115936279297, -1.119722843170166, 1.8193800449371338, 0.047660503536462784, -0.11091155558824539, -52.761741638183594, 0.14558370411396027, -0.33827367424964905, -2.1717991828918457, -0.040016334503889084, 0.11882670968770981, 0.24208830296993256, 2.9574315219694287, -7.241844110320983, 15.185211955449514, 9362.0, 19660.0, 35388.0, 9362.0, 7.9537200927734375, 0.017139948904514313, 0.022877555340528488, -0.0693436786532402, 0.01419767178595066, -0.07744988799095154, 0.9968989491462708, -0.0976790264248848, -0.15607833862304688, 1.483154296875, 1.260498046875, 0.1313934326171875, 1.226806640625
50121, 2.781815767288208, -1.12068772315979, 1.8218326568603516, 0.05364882946014404, -0.12481769919395447, -52.848636627197266, 0.15383286774158478, -0.35703253746032715, -2.1730144023895264, -0.040022216737270355, 0.11882622539997101, 0.2420779913663864, 2.9452424994157447, -7.242109912833342, 15.194432922497391, 9362.0, 19660.0, 35388.0, 9362.0, 7.9537200927734375, -0.08663912862539291, 0.023044953122735023, 0.31979209184646606, 0.01419767178595066, -0.07744988799095154, 0.9968989491462708, -0.05981011688709259, -0.13815879821777344, 1.484619140625, 1.260498046875, 0.1313934326171875, 1.22900390625
50151, 2.7830288410186768, -1.1239773035049438, 1.822614312171936, 0.056766729801893234, -0.13205215334892273, -52.89210510253906, 0.15795667469501495, -0.3664088547229767, -2.1736910343170166, -0.04003680869936943, 0.11882732063531876, 0.24207741022109985, 2.993926291831604, -7.273455370333863, 15.16445961544461, 9362.0, 19660.0, 35388.0, 9362.0, 7.9537200927734375, 0.196344792842865, -0.0038330613169819117, -0.08428940922021866, 0.01673131436109543, -0.07496192306280136, 0.9989500641822815, -0.07261534780263901, -0.13815879821777344, 1.484619140625, 1.09423828125, 1.340240478515625, 1.23046875
50161, 2.7836971282958984, -1.1246328353881836, 1.8220785856246948, 0.056766729801893234, -0.13205215334892273, -52.89210510253906, 0.15795667469501495, -0.3664088547229767, -2.1736910343170166, -0.040008917450904846, 0.11879730224609375, 0.24202854931354523, 2.907848541409085, -7.31613756009736, 15.118351636773246, 9362.0, 19660.0, 35388.0, 9362.0, 7.9537200927734375, 0.018725287169218063, 0.14787201583385468, -0.07940977066755295, 0.01673131436109543, -0.07496192306280136, 0.9989500641822815, -0.07261534780263901, -0.13815879821777344, 1.484619140625, 1.06787109375, 1.7122650146484375, 1.245849609375
50201, 2.7830371856689453, -1.1240787506103516, 1.8186429738998413, 0.06661559641361237, -0.1548798829317093, -53.022605895996094, 0.17034682631492615, -0.3945152163505554, -2.176379919052124, -0.04002489522099495, 0.118840791285038, 0.2420825958251953, 2.916984597422607, -7.182523840938643, 15.192383913643408, 9362.0, 19660.0, 35388.0, 9362.0, 7.9537200927734375, -0.0938418060541153, -0.3660387694835663, 0.11225343495607376, 0.01673131436109543, -0.07496192306280136, 0.9989500641822815, -0.08823495358228683, -0.06647872924804688, 1.490478515625, 1.059814453125, 1.838623046875, 1.23046875
50281, 2.7853426933288574, -1.1266754865646362, 1.8154430389404297, 0.07539170980453491, -0.17519187927246094, -53.131473541259766, 0.18069419264793396, -0.41796472668647766, -2.1782968044281006, -0.03998811915516853, 0.11879298835992813, 0.24209216237068176, 2.9366438740907403, -7.369250897292602, 15.106025641030252, 9362.0, 19660.0, 35388.0, 9362.0, 7.9537200927734375, -0.1532404124736786, -0.2004024237394333, 0.11333706974983215, 0.015480004251003265, -0.07523336261510849, 0.9971667528152466, -0.09947744011878967, -0.10231781005859375, 1.487548828125, 1.311767578125, 0.0348052978515625, 1.231201171875
50301, 2.7843663692474365, -1.1272345781326294, 1.8153098821640015, 0.07539170980453491, -0.17519187927246094, -53.131473541259766, 0.18069419264793396, -0.41796472668647766, -2.1782968044281006, -0.04003891348838806, 0.11882428079843521, 0.24208243191242218, 2.9412943726341454, -7.255081389314256, 15.180893283825993, 9362.0, 19660.0, 35388.0, 9362.0, 7.9537200927734375, -0.11893744021654129, 0.35092973709106445, 0.21590295433998108, 0.015480004251003265, -0.07523336261510849, 0.9971667528152466, -0.06254211068153381, -0.1291980743408203, 1.4853515625, 1.3154296875, 0.03118896484375, 1.228271484375
50321, 2.784799337387085, -1.1279737949371338, 1.8135926723480225, 0.08660519123077393, -0.20111329853534698, -53.262264251708984, 0.1930927187204361, -0.4460776448249817, -2.1814441680908203, -0.04002876579761505, 0.1188458800315857, 0.24207276105880737, 2.960241566703207, -7.271119857344672, 15.183153823309835, 9362.0, 19660.0, 35388.0, 9362.0, 7.9537200927734375, -0.07028710097074509, -0.1619943082332611, -0.24734638631343842, 0.015480004251003265, -0.07523336261510849, 0.9971667528152466, -0.07626871019601822, -0.08439826965332031, 1.489013671875, 1.294921875, 0.0565948486328125, 1.228271484375
50351, 2.7827765941619873, -1.1261783838272095, 1.8151136636734009, 0.09449484199285507, -0.21933181583881378, -53.349552154541016, 0.20139069855213165, -0.4648486077785492, -2.182781457901001, -0.040018826723098755, 0.11881505697965622, 0.24206705391407013, 2.930220875657682, -7.21194898062717, 15.192470970576517, 9362.0, 19660.0, 35388.0, 9362.0, 7.9537200927734375, 0.03400220721960068, -0.027212277054786682, 0.2028534710407257, 0.015480004251003265, -0.07523336261510849, 0.9971667528152466, -0.09221495687961578, -0.11127853393554688, 1.48681640625, 1.314697265625, 0.0319061279296875, 1.224609375
50371, 2.7825064659118652, -1.1295019388198853, 1.8137911558151245, 0.09449484199285507, -0.21933181583881378, -53.349552154541016, 0.20139069855213165, -0.4648486077785492, -2.182781457901001, -0.03997885435819626, 0.11876332014799118, 0.24206945300102234, 3.170396479794027, -7.27397402835814, 15.22081493440911, 9362.0, 19660.0, 35388.0, 9362.0, 7.9537200927734375, -0.1305469274520874, 0.22725848853588104, -0.06806459277868271, 0.015002907253801823, -0.07649081945419312, 0.9964153170585632, -0.09221495687961578, -0.11127853393554688, 1.48681640625, 1.336669921875, 0.0177764892578125, 1.23046875
50391, 2.7827460765838623, -1.1308763027191162, 1.813218593597412, 0.10062967985868454, -0.2334880232810974, -53.41505813598633, 0.2076011449098587, -0.4788980782032013, -2.1841681003570557, -0.040007684379816055, 0.11878596991300583, 0.2420499175786972, 2.8788417950345084, -7.315608731775313, 15.142364455023507, 9362.0, 19660.0, 35388.0, 9362.0, 7.9537200927734375, 0.17234160006046295, 0.1387915015220642, 0.01376749761402607, 0.015002907253801823, -0.07649081945419312, 0.9964153170585632, -0.10342677682638168, -0.06647872924804688, 1.490478515625, 1.336669921875, 0.0177764892578125, 1.23046875
50401, 2.783621311187744, -1.129330039024353, 1.8119779825210571, 0.10062967985868454, -0.2334880232810974, -53.41505813598633, 0.2076011449098587, -0.4788980782032013, -2.1841681003570557, -0.040018659085035324, 0.11882151663303375, 0.24207031726837158, 2.9494233623053216, -7.212152564429061, 15.186143414690823, 9362.0, 19660.0, 35388.0, 9362.0, 7.9537200927734375, 0.06487850844860077, -0.2726464867591858, -0.138830304145813, 0.015002907253801823, -0.07649081945419312, 0.9964153170585632, -0.10342677682638168, -0.06647872924804688, 1.490478515625, 1.30810546875, 0.0388031005859375, 1.226806640625
50441, 2.7845242023468018, -1.1271586418151855, 1.8114006519317627, 0.11345914751291275, -0.2630649507045746, -53.54618835449219, 0.22004470229148865, -0.5070100426673889, -2.1867005825042725, -0.04119991138577461, 0.11829935759305954, 0.23750323057174683, 0.14265744037914607, -21.34714686176349, 15.30409494523257, 9362.0, 19660.0, 35388.0, 9362.0, 7.9537200927734375, 0.058267317712306976, -0.15519632399082184, -0.10915711522102356, 0.015002907253801823, -0.07649081945419312, 0.9964153170585632, -0.10342677682638168, -0.06647872924804688, 1.490478515625, 1.3271484375, 0.022308349609375, 1.224609375
50461, 2.783038377761841, -1.1348155736923218, 1.8149470090866089, 0.11345914751291275, -0.2630649507045746, -53.54618835449219, 0.22004470229148865, -0.5070100426673889, -2.1867005825042725, -0.04000061750411987, 0.11880363523960114, 0.242044597864151, 2.900911719118495, -7.339713090068926, 15.111141015009817, 9362.0, 19660.0, 35388.0, 9362.0, 7.9537200927734375, -0.07972675561904907, 0.27157074213027954, 0.25566384196281433, 0.015002907253801823, -0.07649081945419312, 0.9964153170585632, -0.07943540066480637, -0.07543754577636719, 1.48974609375, 1.31396484375, 0.0325469970703125, 1.224609375
50471, 2.781996488571167, -1.135604977607727, 1.8172250986099243, 0.12015382200479507, -0.27848634123802185, -53.61180877685547, 0.2262689173221588, -0.5210738182067871, -2.18791127204895, -0.04003751650452614, 0.11882992088794708, 0.24207229912281036, 2.9005549992178965, -7.185643843743264, 15.19599291084979, 9362.0, 19660.0, 35388.0, 9362.0, 7.9537200927734375, -0.07972675561904907, 0.27157074213027954, 0.25566384196281433, 0.015002907253801823, -0.07649081945419312, 0.9964153170585632, -0.07943540066480637, -0.07543754577636719, 1.48974609375, 1.31396484375, 0.0325469970703125, 1.228271484375
50491, 2.7838327884674072, -1.1333080530166626, 1.8176965713500977, 0.12472087144851685, -0.28900146484375, -53.655574798583984, 0.23044003546237946, -0.530444324016571, -2.1887242794036865, -0.040003325790166855, 0.11879579722881317, 0.24206997454166412, 2.934404009462496, -7.318339897008599, 15.106969995791234, 9362.0, 19660.0, 35388.0, 9362.0, 7.9537200927734375, 0.05219880864024162, -0.22465157508850098, 0.10592252761125565, 0.015002907253801823, -0.07649081945419312, 0.9964153170585632, -0.09294307976961136, -0.04855918884277344, 1.491943359375, 1.31689453125, 0.0298919677734375, 1.22607421875
50501, 2.7834465503692627, -1.1355522871017456, 1.8179155588150024, 0.1270357072353363, -0.29432937502861023, -53.67746353149414, 0.23252664506435394, -0.535137951374054, -2.1889662742614746, -0.04001564532518387, 0.11883772909641266, 0.24210934340953827, 2.982058308116812, -7.331941963645704, 15.160779662249698, 9362.0, 19660.0, 35388.0, 9362.0, 7.9537200927734375, 0.01219545491039753, 0.1971207559108734, 0.043102942407131195, 0.015002907253801823, -0.07649081945419312, 0.9964153170585632, -0.09294307976961136, -0.04855918884277344, 1.491943359375, 1.31689453125, 0.0298919677734375, 1.223876953125
50521, 2.7840487957000732, -1.1320958137512207, 1.8165265321731567, 0.13172785937786102, -0.30512577295303345, -53.72125244140625, 0.23669031262397766, -0.544501543045044, -2.1900055408477783, -0.040008947253227234, 0.11880353838205338, 0.24204929172992706, 2.9099990083073055, -7.374666456148134, 15.10211108041015, 9362.0, 19660.0, 35388.0, 9362.0, 7.9537200927734375, 0.01219545491039753, 0.1971207559108734, 0.043102942407131195, 0.015002907253801823, -0.07649081945419312, 0.9964153170585632, -0.0665259063243866, 0.12168121337890625, 1.505859375, 1.3388671875, 0.017120361328125, 1.2275390625
50581, 2.7819645404815674, -1.1354565620422363, 1.819514274597168, 0.14136220514774323, -0.3272813856601715, -53.808876037597656, 0.24502259492874146, -0.5632681846618652, -2.191274642944336, -0.040026143193244934, 0.11882638931274414, 0.2421034425497055, 2.9689436593482235, -7.284608270967794, 15.175383153275076, 9362.0, 19660.0, 35388.0, 9362.0, 7.9537200927734375, 0.09190027415752411, 0.034872930496931076, -0.021718202158808708, 0.013039907440543175, -0.07425454258918762, 0.9988371729850769, -0.07908111065626144, -0.04855918884277344, 1.491943359375, 1.1162109375, 1.075439453125, 1.2275390625
50591, 2.781357765197754, -1.137080430984497, 1.8212599754333496, 0.14136220514774323, -0.3272813856601715, -53.808876037597656, 0.24502259492874146, -0.5632681846618652, -2.191274642944336, -0.0400264598429203, 0.11884359270334244, 0.24209320545196533, 2.964265771237811, -7.254658397034092, 15.192170164524184, 9362.0, 19660.0, 35388.0, 9362.0, 7.9537200927734375, 0.017061477527022362, 0.04473448172211647, 0.01779463142156601, 0.013039907440543175, -0.07425454258918762, 0.9988371729850769, -0.07908111065626144, -0.04855918884277344, 1.491943359375, 1.114013671875, 1.10015869140625, 1.23046875
50641, 2.781156539916992, -1.1412166357040405, 1.8217588663101196, 0.15902426838874817, -0.36785832047462463, -53.96235656738281, 0.2596246302127838, -0.5960693359375, -2.193906545639038, -0.03999461233615875, 0.11878954619169235, 0.24205802381038666, 2.9358066605229802, -7.376728671300015, 15.112940967158902, 9362.0, 19660.0, 35388.0, 9362.0, 7.9537200927734375, 0.149880513548851, 0.18333086371421814, -0.0074143074452877045, 0.013039907440543175, -0.07425454258918762, 0.9988371729850769, -0.08930465579032898, -0.13815879821777344, 1.484619140625, 1.10888671875, 1.15936279296875, 1.23046875
50701, 2.7797749042510986, -1.1408830881118774, 1.8202357292175293, 0.16957701742649078, -0.3920760750770569, -54.05013656616211, 0.2680118680000305, -0.614814281463623, -2.195209503173828, -0.0400320328772068, 0.11882209777832031, 0.24212606251239777, 2.977821896125047, -7.269548154446426, 15.186994009131519, 9362.0, 19660.0, 35388.0, 9362.0, 7.9537200927734375, 0.02885434776544571, 0.1982862651348114, 0.016531478613615036, 0.013039907440543175, -0.07425454258918762, 0.9988371729850769, -0.06785942614078522, -0.09335899353027344, 1.48828125, 1.11474609375, 1.0919036865234375, 1.224609375
50711, 2.7798094749450684, -1.141298532485962, 1.8191475868225098, 0.16957701742649078, -0.3920760750770569, -54.05013656616211, 0.2680118680000305, -0.614814281463623, -2.195209503173828, -0.040000684559345245, 0.11879805475473404, 0.24202701449394226, 2.8801691194990027, -7.316093603033522, 15.119240681854512, 9362.0, 19660.0, 35388.0, 9362.0, 7.9537200927734375, -0.0656893327832222, -0.029046373441815376, -0.05263072997331619, 0.013039907440543175, -0.07425454258918762, 0.9988371729850769, -0.06785942614078522, -0.09335899353027344, 1.48828125, 1.121337890625, 1.0191802978515625, 1.22314453125
50731, 2.77919602394104, -1.1429908275604248, 1.8214905261993408, 0.16957701742649078, -0.3920760750770569, -54.05013656616211, 0.2680118680000305, -0.614814281463623, -2.195209503173828, -0.04002971947193146, 0.11882583796977997, 0.24210894107818604, 2.977796405058495, -7.285193007302695, 15.185315635279695, 9362.0, 19660.0, 35388.0, 9362.0, 7.9537200927734375, -0.12441917508840561, 0.364043265581131, 0.15447433292865753, 0.013039907440543175, -0.07425454258918762, 0.9988371729850769, -0.08912068605422974, -0.10231781005859375, 1.487548828125, 1.1162109375, 1.075439453125, 1.226806640625
50761, 2.7804417610168457, -1.1455308198928833, 1.8178199529647827, 0.19168813526630402, -0.4427594542503357, -54.22587585449219, 0.28477349877357483, -0.6522676944732666, -2.198228120803833, -0.04002080485224724, 0.11883241683244705, 0.2420937716960907, 2.994579897323587, -7.290305237944267, 15.178519111344395, 9362.0, 19660.0, 35388.0, 9362.0, 7.9537200927734375, 0.010268366895616055, 0.3148479461669922, -0.01861707866191864, 0.013039907440543175, -0.07425454258918762, 0.9988371729850769, -0.09325231611728668, -0.12023735046386719, 1.486083984375, 1.114013671875, 1.10015869140625, 1.23046875
50771, 2.780717134475708, -1.1412173509597778, 1.818173885345459, 0.19742551445960999, -0.4558982253074646, -54.26985168457031, 0.28896576166152954, -0.6616137027740479, -2.199289321899414, -0.040037378668785095, 0.11883888393640518, 0.2420710027217865, 2.9241537482940347, -7.272972389774907, 15.183094022890584, 9362.0, 19660.0, 35388.0, 9362.0, 7.9537200927734375, 0.010268366895616055, 0.3148479461669922, -0.01861707866191864, 0.013039907440543175, -0.07425454258918762, 0.9988371729850769, -0.09325231611728668, -0.12023735046386719, 1.486083984375, 1.114013671875, 1.10015869140625, 1.226806640625
50821, 2.778562545776367, -1.146530270576477, 1.8237334489822388, 0.2061888724565506, -0.47595706582069397, -54.335853576660156, 0.29525116086006165, -0.6756370663642883, -2.200941801071167, -0.04002932459115982, 0.11882758140563965, 0.2420618236064911, 2.92256253272702, -7.248100268566077, 15.17778040912839, 9362.0, 19660.0, 35388.0, 9362.0, 7.9537200927734375, 0.16903503239154816, -0.19226621091365814, -0.05405263602733612, 0.013039907440543175, -0.07425454258918762, 0.9988371729850769, -0.04838234931230545, -0.11127853393554688, 1.48681640625, 1.28466796875, 0.07440185546875, 1.226806640625
50841, 2.7777187824249268, -1.146593451499939, 1.8244738578796387, 0.2061888724565506, -0.47595706582069397, -54.335853576660156, 0.29525116086006165, -0.6756370663642883, -2.200941801071167, -0.04113168269395828, 0.11821368336677551, 0.23746690154075623, 0.313956647801565, -21.3014862590681, 15.284799658646248, 9362.0, 19660.0, 35388.0, 9362.0, 7.9537200927734375, 0.06573610752820969, -0.08304315060377121, 0.10263825207948685, 0.013039907440543175, -0.07425454258918762, 0.9988371729850769, -0.03306394815444946, -0.05751800537109375, 1.4912109375, 1.311767578125, 0.0348052978515625, 1.2451171875
50871, 2.7773821353912354, -1.1452512741088867, 1.8228759765625, 0.22737166285514832, -0.5243968963623047, -54.49003219604492, 0.30998367071151733, -0.7083685994148254, -2.203982353210449, -0.0400187224149704, 0.1188262328505516, 0.24208755791187286, 2.938433643757113, -7.215421375207512, 15.189210834065012, 9362.0, 19660.0, 35388.0, 9362.0, 7.9537200927734375, 0.004054522141814232, 0.1593346893787384, -0.18427395820617676, 0.013039907440543175, -0.07425454258918762, 0.9988371729850769, -0.05669577792286873, -0.03959846496582031, 1.49267578125, 1.31689453125, 0.0298919677734375, 1.229736328125
50881, 2.7768986225128174, -1.1454554796218872, 1.823513150215149, 0.23048202693462372, -0.5315039753913879, -54.5120735168457, 0.3120879530906677, -0.7130520343780518, -2.2042438983917236, -0.040009234100580215, 0.11881453543901443, 0.2420891374349594, 2.946214622423575, -7.246726585686218, 15.1749105638451, 9362.0, 19660.0, 35388.0, 9362.0, 7.9537200927734375, 0.08361432701349258, 0.038412127643823624, 0.15565425157546997, 0.013039907440543175, -0.07425454258918762, 0.9988371729850769, -0.05669577792286873, -0.03959846496582031, 1.49267578125, 1.31689453125, 0.0298919677734375, 1.226806640625
50891, 2.7776317596435547, -1.1445229053497314, 1.8243054151535034, 0.23048202693462372, -0.5315039753913879, -54.5120735168457, 0.3120879530906677, -0.7130520343780518, -2.2042438983917236, -0.0400288887321949, 0.11883062869310379, 0.24206961691379547, 2.924405235658567, -7.275666403584381, 15.201582063089283, 9362.0, 19660.0, 35388.0, 9362.0, 7.9537200927734375, 0.08361432701349258, 0.038412127643823624, 0.15565425157546997, 0.013039907440543175, -0.07425454258918762, 0.9988371729850769, -0.08193857967853546, -0.11127853393554688, 1.48681640625, 1.130859375, 0.91998291015625, 1.226806640625
50941, 2.7768912315368652, -1.149049162864685, 1.822211503982544, 0.2431337535381317, -0.5604000687599182, -54.60028076171875, 0.320490300655365, -0.7317370772361755, -2.2062318325042725, -0.04003077372908592, 0.11882315576076508, 0.2420613169670105, 2.8947159033959635, -7.220767513148502, 15.187205393352086, 9362.0, 19660.0, 35388.0, 9362.0, 7.9537200927734375, 0.08019834756851196, -0.06627064943313599, 0.01092630997300148, 0.013039907440543175, -0.07425454258918762, 0.9988371729850769, -0.09224208444356918, -0.15607833862304688, 1.483154296875, 1.31689453125, 0.0298919677734375, 1.22607421875
50961, 2.7749435901641846, -1.1508147716522217, 1.8213598728179932, 0.25612157583236694, -0.5900431871414185, -54.68857192993164, 0.32890865206718445, -0.7504249215126038, -2.208164930343628, -0.03998091444373131, 0.1188039630651474, 0.24204829335212708, 2.939581699539226, -7.380287600106811, 15.089201590061124, 9362.0, 19660.0, 35388.0, 9362.0, 7.9537200927734375, -0.276267945766449, -0.02772998996078968, 0.026743097230792046, 0.013039907440543175, -0.07425454258918762, 0.9988371729850769, -0.09360083192586899, -0.03959846496582031, 1.49267578125, 1.317626953125, 0.0291900634765625, 1.2275390625
50971, 2.7750837802886963, -1.1497770547866821, 1.817044734954834, 0.25612157583236694, -0.5900431871414185, -54.68857192993164, 0.32890865206718445, -0.7504249215126038, -2.208164930343628, -0.0400155633687973, 0.11883234977722168, 0.24208611249923706, 2.960919897746161, -7.249377716432633, 15.172102159476449, 9362.0, 19660.0, 35388.0, 9362.0, 7.9537200927734375, 0.11255496740341187, -0.24220694601535797, -0.4669826626777649, 0.013039907440543175, -0.07425454258918762, 0.9988371729850769, -0.09242880344390869, -0.03959846496582031, 1.49267578125, 1.072265625, 1.6459503173828125, 1.2275390625
50991, 2.7758312225341797, -1.1501938104629517, 1.8164310455322266, 0.2660837471485138, -0.6127659678459167, -54.75484085083008, 0.3352349102497101, -0.7644283175468445, -2.209670066833496, -0.04003166779875755, 0.11882185935974121, 0.24206818640232086, 2.93366994507201, -7.222414611416326, 15.186557894220797, 9362.0, 19660.0, 35388.0, 9362.0, 7.9537200927734375, 0.12595094740390778, -0.14286580681800842, -0.12762705981731415, 0.013039907440543175, -0.07425454258918762, 0.9988371729850769, -0.09380795806646347, -0.11127853393554688, 1.48681640625, 1.072265625, 1.6459503173828125, 1.2275390625
51061, 2.7774834632873535, -1.1550911664962769, 1.817879319190979, 0.29041722416877747, -0.668217658996582, -54.91184616088867, 0.35023584961891174, -0.7976070642471313, -2.212615966796875, -0.040026310831308365, 0.11881746351718903, 0.24208419024944305, 2.969920260754826, -7.294689060440163, 15.169405802642075, 9362.0, 19660.0, 35388.0, 9362.0, 7.9537200927734375, -0.06405019760131836, -0.013537578284740448, 0.02278747968375683, 0.013039907440543175, -0.07425454258918762, 0.9988371729850769, -0.09595765173435211, -0.05751800537109375, 1.4912109375, 1.052490234375, 1.9588470458984375, 1.225341796875
51071, 2.7785372734069824, -1.1560869216918945, 1.8186681270599365, 0.29041722416877747, -0.668217658996582, -54.91184616088867, 0.35023584961891174, -0.7976070642471313, -2.212615966796875, -0.0400003083050251, 0.11878969520330429, 0.24202430248260498, 2.8996594368887414, -7.317369824428852, 15.115592207531344, 9362.0, 19660.0, 35388.0, 9362.0, 7.9537200927734375, 0.21434445679187775, 0.11240044981241226, 0.1770608127117157, 0.013039907440543175, -0.07425454258918762, 0.9988371729850769, -0.09595765173435211, -0.05751800537109375, 1.4912109375, 1.05322265625, 1.9465789794921875, 1.226806640625
51081, 2.7780210971832275, -1.155588984489441, 1.8166948556900024, 0.2974643409252167, -0.6842634081840515, -54.95610809326172, 0.3544778525829315, -0.8069644570350647, -2.21328067779541, -0.039998263120651245, 0.11879102140665054, 0.24201293289661407, 2.889688596957268, -7.3604949027005375, 15.124415989459573, 9362.0, 19660.0, 35388.0, 9362.0, 7.9537200927734375, -0.0369977243244648, 0.047513917088508606, -0.22576254606246948, 0.013039907440543175, -0.07425454258918762, 0.9988371729850769, -0.09595765173435211, -0.05751800537109375, 1.4912109375, 1.05322265625, 1.9465789794921875, 1.226806640625
51091, 2.777588129043579, -1.1577895879745483, 1.816923975944519, 0.2974643409252167, -0.6842634081840515, -54.95610809326172, 0.3544778525829315, -0.8069644570350647, -2.21328067779541, -0.04002319648861885, 0.11882856488227844, 0.2420462965965271, 2.8953468446016157, -7.214075371166842, 15.18891006695847, 9362.0, 19660.0, 35388.0, 9362.0, 7.9537200927734375, -0.22027574479579926, 0.1564716249704361, -0.03399671986699104, 0.013039907440543175, -0.07425454258918762, 0.9988371729850769, -0.09595765173435211, -0.05751800537109375, 1.4912109375, 1.049560546875, 2.0084381103515625, 1.2275390625
51161, 2.779629945755005, -1.1576666831970215, 1.819312334060669, 0.3081941604614258, -0.7086829543113708, -55.022518157958984, 0.360845148563385, -0.8209998607635498, -2.214376211166382, -0.039997249841690063, 0.11879290640354156, 0.24206674098968506, 2.936126259905421, -7.338962348866943, 15.10876193276013, 9362.0, 19660.0, 35388.0, 9362.0, 7.9537200927734375, 0.16876386106014252, 0.10514255613088608, 0.07715287059545517, 0.013039907440543175, -0.07425454258918762, 0.9988371729850769, -0.08213503658771515, -0.06647872924804688, 1.490478515625, 1.055419921875, 1.9101409912109375, 1.22607421875
51181, 2.7812349796295166, -1.158095121383667, 1.817572832107544, 0.3339735269546509, -0.7672972083091736, -55.17765808105469, 0.37570351362228394, -0.8536978363990784, -2.2181763648986816, -0.040014106780290604, 0.11882790178060532, 0.2420409917831421, 2.9295596614676818, -7.2420531290865995, 15.167456134208335, 9362.0, 19660.0, 35388.0, 9362.0, 7.9537200927734375, 0.06225892901420593, 0.06730496883392334, 0.05735563486814499, 0.01416581217199564, -0.07451116293668747, 0.9961585402488708, -0.08213503658771515, -0.06647872924804688, 1.490478515625, 1.055419921875, 1.9101409912109375, 1.22607421875
51201, 2.7808539867401123, -1.1591503620147705, 1.8170331716537476, 0.3339735269546509, -0.7672972083091736, -55.17765808105469, 0.37570351362228394, -0.8536978363990784, -2.2181763648986816, -0.040026772767305374, 0.1188143864274025, 0.24206200242042542, 2.9275270074512596, -7.184359625490714, 15.184508046900435, 9362.0, 19660.0, 35388.0, 9362.0, 7.9537200927734375, -0.09350059181451797, -0.0891219973564148, -0.11802133917808533, 0.01416581217199564, -0.07451116293668747, 0.9961585402488708, -0.08063756674528122, -0.1291980743408203, 1.4853515625, 1.056884765625, 1.886077880859375, 1.224609375
51251, 2.7797818183898926, -1.1621118783950806, 1.819201111793518, 0.3607933521270752, -0.828202486038208, -55.333038330078125, 0.3905847370624542, -0.8864514827728271, -2.221238851547241, -0.04001583158969879, 0.11881958693265915, 0.24207283556461334, 2.924973793157778, -7.236857340257586, 15.185922393365916, 9362.0, 19660.0, 35388.0, 9362.0, 7.9537200927734375, 0.11551009118556976, 0.0893542617559433, -0.23126627504825592, 0.014473347924649715, -0.07359778136014938, 0.9969969987869263, -0.06933832168579102, -0.08439826965332031, 1.489013671875, 1.115478515625, 1.0836334228515625, 1.225341796875
51261, 2.7794086933135986, -1.1583178043365479, 1.8188719749450684, 0.3607933521270752, -0.828202486038208, -55.333038330078125, 0.3905847370624542, -0.8864514827728271, -2.221238851547241, -0.04000774025917053, 0.11882711201906204, 0.24206577241420746, 2.9286643768230194, -7.275328280075001, 15.168428338028038, 9362.0, 19660.0, 35388.0, 9362.0, 7.9537200927734375, -0.042790234088897705, -0.3048305809497833, 0.17763511836528778, 0.014473347924649715, -0.07359778136014938, 0.9969969987869263, -0.06933832168579102, -0.08439826965332031, 1.489013671875, 1.25244140625, 0.155426025390625, 1.225341796875
