timeTick, roll, pitch, yaw, stateX, stateY, stateZ, stateVX, stateVY, stateVZ, otX0, otY0, otZ0, otRoll0, otPitch0, otYaw0, left wing, pitch motor, yaw motor, right wing, voltage, roll rate, pitch rate, yaw rate, A_x, A_y, A_z, current, i_raw, v_raw, airflow_voltage, airflow_speed, pot_Pitch
112975, -0.20838315784931183, -0.7399547100067139, 0.7241019606590271, 0, 0, 0, 0, 0, 0, -0.049061454832553864, 0.11788491159677505, 0.2397240698337555, -0.9926575989027783, -1.7677065378938153, 21.69437699313418, 0, 0, 0, 0, 0, 0, 0, 0, 0, 0, 0, 0, 0, 0, 0, 0, 0
112985, -0.2078748643398285, -0.7391906380653381, 0.7227041721343994, 70.22128295898438, 24.987520217895508, -67.61503601074219, 3.600658416748047, 1.1134004592895508, -2.1763663291931152, -0.04903342202305794, 0.11779286712408066, 0.23969824612140656, -0.7793854058522626, -1.8997474668720713, 21.716852302261287, 9362.0, 15728.0, 35388.0, 9362.0, 0, 0, 0, 0, 0, 0, 0, 0, 0, 0, 0, 0, 0
112995, -0.20816461741924286, -0.7396853566169739, 0.7236599922180176, 70.25729370117188, 24.998655319213867, -67.63680267333984, 3.6019155979156494, 1.113771677017212, -2.1767141819000244, -0.049057066440582275, 0.11787191778421402, 0.23971876502037048, -0.9281634771694782, -1.8628004803582314, 21.66958030243589, 9362.0, 15728.0, 35388.0, 9362.0, 7.8942155838012695, -0.17770950496196747, 0.07876741141080856, 0.11237146705389023, 0.02025703527033329, -0.07597529888153076, 0.9966425895690918, -0.07323223352432251, -0.09335899353027344, 1.48828125, 1.316162109375, 0.030517578125, 0
113005, -0.20821072161197662, -0.7394968867301941, 0.7246676087379456, 70.29331970214844, 25.009794235229492, -67.6585693359375, 3.6031718254089355, 1.1141424179077148, -2.1770853996276855, -0.049062054604291916, 0.11786022782325745, 0.23973149061203003, -0.9816237547890916, -1.8693508045368503, 21.703253684322437, 9362.0, 15728.0, 35388.0, 9362.0, 7.8942155838012695, 0.005665978416800499, -0.001963521121069789, 0.09812150150537491, 0.020591259002685547, -0.07686624675989151, 0.9965132474899292, -0.06515438109636307, -0.06647872924804688, 1.490478515625, 1.288330078125, 0.0676116943359375, 1.16455078125
113015, -0.20902623236179352, -0.7394334673881531, 0.7252396941184998, 70.32936096191406, 25.020936965942383, -67.68034362792969, 3.6044301986694336, 1.1145137548446655, -2.177400827407837, -0.04904427006840706, 0.11778978258371353, 0.2396826148033142, -0.7964155782482306, -1.8366831883025156, 21.711655613134685, 9362.0, 15728.0, 35388.0, 9362.0, 7.8942155838012695, -0.03588871285319328, 0.08935133367776871, 0.030860986560583115, 0.022048817947506905, -0.07618972659111023, 0.9959288835525513, -0.06519031524658203, -0.09335899353027344, 1.48828125, 1.267822265625, 0.111724853515625, 1.128662109375
113025, -0.20972159504890442, -0.7389891147613525, 0.7247107028961182, 70.36540985107422, 25.03208351135254, -67.70211791992188, 3.6056864261627197, 1.1148847341537476, -2.1778018474578857, -0.049058686941862106, 0.11774289608001709, 0.2394096553325653, -1.3685010212928408, -1.0491413604674165, 21.81191385819953, 9362.0, 15728.0, 35388.0, 9362.0, 7.9140496253967285, 0.007901390083134174, -0.0009066257625818253, -0.0622725673019886, 0.018816886469721794, -0.07579098641872406, 0.9960379600524902, -0.07289182394742966, -0.06647872924804688, 1.490478515625, 1.265625, 0.1174468994140625, 1.12939453125
113035, -0.2080661803483963, -0.7373875379562378, 0.7265899181365967, 70.40147399902344, 25.04323387145996, -67.7238998413086, 3.6069436073303223, 1.1152573823928833, -2.178166151046753, -0.049055907875299454, 0.11772903800010681, 0.239413782954216, -1.3474734217696493, -1.0508178691649164, 21.817061985680212, 9362.0, 15728.0, 35388.0, 9362.0, 7.8942155838012695, 0.2062670737504959, -0.31474557518959045, 0.09814170002937317, 0.020619701594114304, -0.07543456554412842, 0.9973110556602478, -0.07458160072565079, -0.01271820068359375, 1.494873046875, 1.2509765625, 0.1600799560546875, 1.12939453125
113045, -0.20623154938220978, -0.7414841651916504, 0.7271395325660706, 70.43755340576172, 25.05438804626465, -67.74568176269531, 3.6082003116607666, 1.115631103515625, -2.178446054458618, -0.049040693789720535, 0.1178707554936409, 0.23973076045513153, -0.9626695204809623, -1.9077791422671453, 21.680148508286965, 9362.0, 15728.0, 35388.0, 9362.0, 7.8942155838012695, 0.24233339726924896, 0.45284274220466614, -0.005125498399138451, 0.02120930887758732, -0.07404807209968567, 0.9989425539970398, -0.04360172897577286, -0.03959846496582031, 1.49267578125, 1.27294921875, 0.099334716796875, 1.155029296875
113055, -0.20605431497097015, -0.7437995672225952, 0.7287303805351257, 70.47364044189453, 25.0655460357666, -67.76746368408203, 3.6094565391540527, 1.1160029172897339, -2.178579330444336, -0.049051590263843536, 0.11778704822063446, 0.2396601438522339, -0.8636782785514975, -1.7401896083609074, 21.720797549350998, 9362.0, 15728.0, 35388.0, 9362.0, 7.8942155838012695, 0.01639373227953911, -0.009887530468404293, 0.11627674847841263, 0.019830472767353058, -0.07517827302217484, 0.9963489770889282, -0.05285865440964699, -0.07543754577636719, 1.48974609375, 1.271484375, 0.1027679443359375, 1.130126953125
113065, -0.20647507905960083, -0.7446165680885315, 0.7298641204833984, 70.5097427368164, 25.07670783996582, -67.78925323486328, 3.6107170581817627, 1.1163707971572876, -2.1789276599884033, -0.049068138003349304, 0.11788055300712585, 0.23972678184509277, -0.947595051585798, -1.8014156924894564, 21.672879856544398, 9362.0, 15728.0, 35388.0, 9362.0, 7.8942155838012695, 0.019325435161590576, -0.02899257093667984, 0.0073139118030667305, 0.02187972515821457, -0.07645484805107117, 0.9974371194839478, -0.06610538065433502, -0.12023735046386719, 1.486083984375, 1.266357421875, 0.1154937744140625, 1.12939453125
113075, -0.20626699924468994, -0.7441470623016357, 0.7318911552429199, 70.54585266113281, 25.087873458862305, -67.81104278564453, 3.6119823455810547, 1.1167387962341309, -2.1792120933532715, -0.049070924520492554, 0.11788229644298553, 0.23967206478118896, -1.0261754037395556, -1.7390066916122748, 21.703151461815324, 9362.0, 15728.0, 35388.0, 9362.0, 7.8942155838012695, 0.06317082792520523, -0.0972285121679306, 0.15814059972763062, 0.020301809534430504, -0.07616591453552246, 0.9989269375801086, -0.077561154961586, -0.10231781005859375, 1.487548828125, 1.264892578125, 0.119354248046875, 1.1279296875
113085, -0.20681989192962646, -0.7434513568878174, 0.7326505184173584, 70.58197784423828, 25.099042892456055, -67.83283233642578, 3.613251209259033, 1.1171081066131592, -2.17934250831604, -0.04903300106525421, 0.11777666956186295, 0.23968549072742462, -0.7646081343914339, -1.8593122410418346, 21.716397316083455, 9362.0, 15728.0, 35388.0, 9362.0, 7.8942155838012695, -0.04964093491435051, -0.019935132935643196, 0.045563243329524994, 0.020081663504242897, -0.07606857270002365, 0.9968836307525635, -0.05904604494571686, -0.15607833862304688, 1.483154296875, 1.25537109375, 0.146392822265625, 1.1455078125
113095, -0.20650073885917664, -0.7461189031600952, 0.7332059741020203, 70.61811828613281, 25.11021614074707, -67.85462951660156, 3.6145172119140625, 1.1174765825271606, -2.17962384223938, -0.049075327813625336, 0.11788097023963928, 0.23972217738628387, -0.9413060181492767, -1.8035327216028918, 21.682376240497177, 9362.0, 15728.0, 35388.0, 9362.0, 7.8942155838012695, -0.002384259831160307, 0.3809245526790619, 0.034580763429403305, 0.020023057237267494, -0.0766206905245781, 0.9955607056617737, -0.03916516527533531, -0.13815879821777344, 1.484619140625, 1.2744140625, 0.0959014892578125, 1.1279296875
113105, -0.206195667386055, -0.7474302649497986, 0.732864260673523, 70.65426635742188, 25.12139320373535, -67.87642669677734, 3.615780830383301, 1.1178455352783203, -2.1800174713134766, -0.049076929688453674, 0.11774589121341705, 0.23937426507472992, -1.3917969276840998, -1.0287528071878853, 21.84228792715729, 9362.0, 15728.0, 35388.0, 9362.0, 7.8942155838012695, 0.035921674221754074, 0.13232265412807465, -0.24201352894306183, 0.021957645192742348, -0.07582346349954605, 0.995944619178772, -0.051223669201135635, -0.1291980743408203, 1.4853515625, 1.265625, 0.1174468994140625, 1.128662109375
113115, -0.20582610368728638, -0.7440698742866516, 0.7329791784286499, 70.6904296875, 25.1325740814209, -67.89823150634766, 3.6170473098754883, 1.1182136535644531, -2.180487632751465, -0.04906342551112175, 0.11786297708749771, 0.23973676562309265, -0.9661182220657858, -1.8657874692737266, 21.683324025573434, 9362.0, 15728.0, 35388.0, 9362.0, 7.8942155838012695, -0.05210385099053383, -0.607438325881958, -0.0003219236386939883, 0.022038444876670837, -0.07750711590051651, 0.9975028038024902, -0.06005285680294037, -0.04855918884277344, 1.491943359375, 1.263427734375, 0.1233062744140625, 1.130859375
113125, -0.20630452036857605, -0.7442651391029358, 0.7327883243560791, 70.72660827636719, 25.14375877380371, -67.92003631591797, 3.618319034576416, 1.118582010269165, -2.1807632446289062, -0.049063682556152344, 0.11782579869031906, 0.23947308957576752, -1.5208558761549658, -1.0614516635380369, 21.785893823150573, 9362.0, 15728.0, 35388.0, 9362.0, 7.8942155838012695, -0.030422355979681015, 0.019731460139155388, -0.04158439859747887, 0.02316259779036045, -0.07743091136217117, 0.9963391423225403, -0.06768862903118134, -0.030637741088867188, 1.493408203125, 1.248779296875, 0.1671905517578125, 1.130126953125
113135, -0.2053413689136505, -0.7442508339881897, 0.7334485054016113, 70.7627944946289, 25.15494728088379, -67.94184875488281, 3.6195836067199707, 1.1189491748809814, -2.181145191192627, -0.04905523732304573, 0.11787323653697968, 0.23973050713539124, -0.984645697671821, -1.7869150501782087, 21.687444441879727, 9362.0, 15728.0, 35388.0, 9362.0, 7.8942155838012695, 0.09900481253862381, -0.004737675655633211, 0.24415309727191925, 0.019554296508431435, -0.07721658051013947, 0.9971832036972046, -0.04478772357106209, -0.10231781005859375, 1.487548828125, 1.276611328125, 0.0910186767578125, 1.130859375
113145, -0.2049095779657364, -0.7450643181800842, 0.7328174710273743, 70.79899597167969, 25.1661376953125, -67.96366119384766, 3.620849609375, 1.1193177700042725, -2.18144154548645, -0.049064356833696365, 0.11772754043340683, 0.2394004464149475, -1.3814585514374638, -1.0530186708845122, 21.80357051823034, 9362.0, 15728.0, 35388.0, 9362.0, 7.8942155838012695, 0.07449580729007721, 0.017969567328691483, -0.21278782188892365, 0.018836500123143196, -0.07726605981588364, 0.9962098598480225, -0.05866071209311485, -0.11127853393554688, 1.48681640625, 1.32275390625, 0.0251312255859375, 1.16748046875
113155, -0.2059909999370575, -0.745378851890564, 0.7339545488357544, 70.83521270751953, 25.177331924438477, -67.9854736328125, 3.6221139430999756, 1.1196842193603516, -2.181797981262207, -0.04905238375067711, 0.11788289994001389, 0.2397441416978836, -0.9641584802792947, -1.8274323820893699, 21.70005328398147, 9362.0, 15728.0, 35388.0, 9362.0, 7.8942155838012695, -0.290182501077652, 0.13816916942596436, 0.14433445036411285, 0.01951218582689762, -0.07601115852594376, 0.9981988668441772, -0.06665606051683426, -0.030637741088867188, 1.493408203125, 1.31103515625, 0.0355682373046875, 1.128662109375
113165, -0.20509493350982666, -0.7479180097579956, 0.7324358224868774, 70.8714370727539, 25.18852996826172, -68.00729370117188, 3.623382568359375, 1.1200504302978516, -2.182039737701416, -0.04906032979488373, 0.11787006258964539, 0.23972763121128082, -0.9152932779761586, -1.8835408986019502, 21.696665346006306, 9362.0, 15728.0, 35388.0, 9362.0, 7.8942155838012695, -0.04561835154891014, 0.40739724040031433, 0.01871153898537159, 0.02146034501492977, -0.07462786138057709, 0.9983342289924622, -0.053748250007629395, 0.1933612823486328, 1.51171875, 1.32421875, 0.024139404296875, 1.128662109375
113175, -0.20362278819084167, -0.7476640343666077, 0.731350839138031, 70.90767669677734, 25.199731826782227, -68.02911376953125, 3.624652624130249, 1.1204190254211426, -2.1821646690368652, -0.049048710614442825, 0.1177896037697792, 0.2396317422389984, -0.891111666972862, -1.7284203652714893, 21.741987649046916, 9362.0, 15728.0, 35388.0, 9362.0, 7.8942155838012695, 0.12839871644973755, -0.2664794325828552, -0.12208015471696854, 0.023527678102254868, -0.07514705508947372, 0.9980140328407288, -0.04554150626063347, -0.1291980743408203, 1.4853515625, 1.29931640625, 0.0500640869140625, 1.130126953125
113185, -0.20351044833660126, -0.7503408193588257, 0.7339516878128052, 70.94393157958984, 25.2109375, -68.05093383789062, 3.6259257793426514, 1.1207858324050903, -2.1823599338531494, -0.04905219003558159, 0.11779901385307312, 0.23967906832695007, -0.8325520546040855, -1.8506940943836128, 21.723590168090258, 9362.0, 15728.0, 35388.0, 9362.0, 7.8942155838012695, -0.03233203664422035, 0.30735015869140625, 0.24707220494747162, 0.021555352956056595, -0.07741842418909073, 0.9980677962303162, -0.023250743746757507, 0.05000114440917969, 1.5, 1.31982421875, 0.0273590087890625, 1.1572265625
113195, -0.20429985225200653, -0.7531566023826599, 0.734849214553833, 70.98019409179688, 25.22214698791504, -68.07276153564453, 3.6271986961364746, 1.1211501359939575, -2.182584762573242, -0.04904398322105408, 0.1177791878581047, 0.23969070613384247, -0.8035313808251562, -1.8320925443753424, 21.714393730087565, 9362.0, 15728.0, 35388.0, 9362.0, 7.8942155838012695, -0.22713935375213623, 0.30760031938552856, 0.1821838766336441, 0.022403620183467865, -0.07814934849739075, 0.9989364743232727, -0.027828358113765717, -0.08439826965332031, 1.489013671875, 1.3212890625, 0.026214599609375, 1.159423828125
113205, -0.20323969423770905, -0.7519000768661499, 0.735182523727417, 71.01647186279297, 25.233360290527344, -68.09458923339844, 3.6284775733947754, 1.1215145587921143, -2.182710647583008, -0.04906301572918892, 0.11772210150957108, 0.2393905222415924, -1.379718004311308, -1.0570695082664656, 21.813105013897747, 9362.0, 15728.0, 35388.0, 9362.0, 7.8942155838012695, 0.04169231653213501, -0.1536022126674652, 0.16145092248916626, 0.020038576796650887, -0.07744358479976654, 0.99661785364151, -0.04146971181035042, -0.07543754577636719, 1.48974609375, 1.32275390625, 0.0251312255859375, 1.130126953125
113215, -0.20362259447574615, -0.7526031732559204, 0.7326282262802124, 71.05276489257812, 25.244577407836914, -68.11641693115234, 3.629758358001709, 1.1218798160552979, -2.1830010414123535, -0.049033522605895996, 0.11778035014867783, 0.23970425128936768, -0.8647088462515865, -1.8002802523742787, 21.73432229437759, 9362.0, 15728.0, 35388.0, 9362.0, 7.9140496253967285, -0.048009444028139114, 0.09666158258914948, -0.3193449378013611, 0.019515929743647575, -0.07563488185405731, 0.9962363243103027, -0.052338212728500366, -0.12023735046386719, 1.486083984375, 1.345458984375, 0.0156707763671875, 1.12939453125
113225, -0.20479220151901245, -0.7559518218040466, 0.7355314493179321, 71.08906555175781, 25.25579833984375, -68.13825225830078, 3.6310367584228516, 1.122243046760559, -2.183375120162964, -0.0490584559738636, 0.11787073314189911, 0.23972029983997345, -0.9135207941195193, -1.9018785821873507, 21.688635213896735, 9362.0, 15728.0, 35388.0, 9362.0, 7.8942155838012695, -0.10052621364593506, 0.3418360948562622, 0.3871830999851227, 0.019334178417921066, -0.07497968524694443, 0.996269702911377, -0.06270007789134979, -0.11127853393554688, 1.48681640625, 1.31982421875, 0.0273590087890625, 1.131591796875
113235, -0.2054474949836731, -0.7564072608947754, 0.7362728118896484, 71.12538146972656, 25.26702308654785, -68.16008758544922, 3.6323158740997314, 1.122606873512268, -2.1837103366851807, -0.04907179996371269, 0.11786807328462601, 0.23969583213329315, -0.9630195671403085, -1.8500972197809347, 21.692884842682574, 9362.0, 15728.0, 35388.0, 9362.0, 7.8942155838012695, 0.039175041019916534, 0.14936049282550812, -0.02576027810573578, 0.02086266502737999, -0.07649750262498856, 0.9978930354118347, -0.032726794481277466, 0.16648101806640625, 1.509521484375, 1.30810546875, 0.0388031005859375, 1.1337890625
113245, -0.20670753717422485, -0.7580044865608215, 0.7358579635620117, 71.12538146972656, 25.26702308654785, -68.16008758544922, 3.6323158740997314, 1.122606873512268, -2.1837103366851807, -0.04906994849443436, 0.11787247657775879, 0.23972412943840027, -0.972336074605174, -1.8438723646028166, 21.700931786087096, 9362.0, 15728.0, 35388.0, 9362.0, 7.8942155838012695, -0.13069839775562286, 0.17950698733329773, -0.022129593417048454, 0.020464112982153893, -0.0764906257390976, 0.995561420917511, -0.032726794481277466, 0.16648101806640625, 1.509521484375, 1.30810546875, 0.0388031005859375, 1.128662109375
113285, -0.20460136234760284, -0.7613682150840759, 0.7339558601379395, 71.30715942382812, 25.323200225830078, -68.2693099975586, 3.6387600898742676, 1.124445915222168, -2.1855156421661377, -0.04904023930430412, 0.1177784726023674, 0.23970183730125427, -0.7816908335623605, -1.8909611872570622, 21.70399858456775, 9362.0, 15728.0, 35388.0, 9362.0, 7.8942155838012695, 0.08329010754823685, -0.08820447325706482, 0.15764376521110535, 0.021184565499424934, -0.0765078067779541, 0.9957129955291748, -0.07063993811607361, -0.08439826965332031, 1.489013671875, 1.32861328125, 0.0214385986328125, 1.128662109375
113355, -0.2045803964138031, -0.7617143392562866, 0.7339516282081604, 71.56218719482422, 25.402000427246094, -68.42237854003906, 3.647844076156616, 1.1270188093185425, -2.187715530395508, -0.04905193671584129, 0.11787024885416031, 0.23975017666816711, -0.9499885926026213, -1.8086806160741276, 21.690749333868293, 9362.0, 15728.0, 35388.0, 9362.0, 7.8942155838012695, 0.14235517382621765, 0.34524354338645935, 0.21301017701625824, 0.018485577777028084, -0.07626989483833313, 0.9970217943191528, -0.046669624745845795, -0.09335899353027344, 1.48828125, 1.319091796875, 0.0279998779296875, 1.128662109375
113395, -0.2048254758119583, -0.7675182223320007, 0.7394263744354248, 71.70820617675781, 25.447113037109375, -68.50991821289062, 3.6530139446258545, 1.1284846067428589, -2.1893632411956787, -0.04908253997564316, 0.11786313354969025, 0.2397582232952118, -0.9876807570070216, -1.8535194146671472, 21.695932630695268, 9362.0, 15728.0, 35388.0, 9362.0, 7.8942155838012695, 0.14235517382621765, 0.34524354338645935, 0.21301017701625824, 0.02138485759496689, -0.07599583268165588, 0.9959361553192139, -0.05047905072569847, -0.05751800537109375, 1.4912109375, 1.316162109375, 0.030517578125, 1.128662109375
113425, -0.20344118773937225, -0.7685860991477966, 0.7392164468765259, 71.74474334716797, 25.458398818969727, -68.53181457519531, 3.6543145179748535, 1.128851294517517, -2.1897993087768555, -0.04906097799539566, 0.11787998676300049, 0.23971323668956757, -0.99051710693676, -1.7665118798849733, 21.698806066283225, 9362.0, 15728.0, 35388.0, 9362.0, 7.8942155838012695, -0.10044881701469421, -0.1204252615571022, -0.22829772531986237, 0.019731123000383377, -0.07624954730272293, 0.9981607794761658, -0.031537432223558426, 0.04104042053222656, 1.499267578125, 1.32275390625, 0.0251312255859375, 1.128662109375
113455, -0.20106036961078644, -0.7672988176345825, 0.7353465557098389, 71.92761993408203, 25.51488494873047, -68.64134979248047, 3.6608448028564453, 1.1306761503219604, -2.19140362739563, -0.049065232276916504, 0.1178659126162529, 0.23976098001003265, -0.9881883271780137, -1.8619486422001614, 21.70418804220899, 9362.0, 15728.0, 35388.0, 9362.0, 7.8942155838012695, 0.14059802889823914, -0.4388779401779175, -0.08849252015352249, 0.01918540894985199, -0.07746078073978424, 0.9977114200592041, -0.0706382468342781, -0.0037593841552734375, 1.49560546875, 1.3212890625, 0.026214599609375, 1.128662109375
113465, -0.2014142870903015, -0.7672844529151917, 0.735474169254303, 71.9642333984375, 25.526193618774414, -68.66326141357422, 3.6621549129486084, 1.131036639213562, -2.1916441917419434, -0.04906011000275612, 0.11786904186010361, 0.23972715437412262, -1.0131298209882293, -1.7879097396702832, 21.70597682829764, 9362.0, 15728.0, 35388.0, 9362.0, 7.8942155838012695, 0.057166751474142075, 0.10011372715234756, -0.0603770911693573, 0.021604010835289955, -0.07677116990089417, 0.9969584941864014, -0.0706382468342781, -0.0037593841552734375, 1.49560546875, 1.3212890625, 0.026214599609375, 1.128662109375
113475, -0.20219597220420837, -0.7693232893943787, 0.7356582283973694, 72.00086212158203, 25.537506103515625, -68.6851806640625, 3.6634600162506104, 1.1313966512680054, -2.191948890686035, -0.04904281347990036, 0.1177874431014061, 0.23967908322811127, -0.8634280927774066, -1.8127342683003462, 21.72833885474048, 9362.0, 15728.0, 35388.0, 9362.0, 7.8942155838012695, -0.15770845115184784, 0.23784013092517853, -0.05919576808810234, 0.021604010835289955, -0.07677116990089417, 0.9969584941864014, -0.03562181815505028, -0.05751800537109375, 1.4912109375, 1.3212890625, 0.026214599609375, 1.128662109375
113485, -0.20273104310035706, -0.7681264281272888, 0.7348568439483643, 72.03750610351562, 25.5488224029541, -68.70709991455078, 3.664763927459717, 1.1317569017410278, -2.1923320293426514, -0.04906919598579407, 0.1177288070321083, 0.23937389254570007, -1.379562815497848, -1.044142138155621, 21.81796229706334, 9362.0, 15728.0, 35388.0, 9362.0, 7.8942155838012695, -0.10650262981653214, -0.11482111364603043, 0.0802268460392952, 0.021604010835289955, -0.07677116990089417, 0.9969584941864014, -0.03562181815505028, -0.05751800537109375, 1.4912109375, 1.3212890625, 0.026214599609375, 1.128662109375
113495, -0.20308919250965118, -0.7657397985458374, 0.7326740622520447, 72.07415771484375, 25.560142517089844, -68.7290267944336, 3.6660702228546143, 1.1321179866790771, -2.1928536891937256, -0.049037087708711624, 0.11778069287538528, 0.23968622088432312, -0.7921595589773435, -1.837417646620537, 21.72031509054907, 9362.0, 15728.0, 35388.0, 9362.0, 7.8942155838012695, -0.10265500843524933, -0.45306694507598877, -0.22147707641124725, 0.021604010835289955, -0.07677116990089417, 0.9969584941864014, -0.03562181815505028, -0.05751800537109375, 1.4912109375, 1.3212890625, 0.026214599609375, 1.128662109375
113555, -0.20016077160835266, -0.7682269811630249, 0.7321484088897705, 72.25762176513672, 25.616792678833008, -68.83870697021484, 3.672591209411621, 1.133923053741455, -2.1947007179260254, -0.049072906374931335, 0.11787577718496323, 0.23972047865390778, -0.9987997439315118, -1.8000241767622072, 21.69950518565884, 9362.0, 15728.0, 35388.0, 9362.0, 7.8942155838012695, 0.38084352016448975, 0.247963085770607, 0.1106196865439415, 0.021771660074591637, -0.07736748456954956, 0.9977988600730896, -0.030772795900702477, -0.07543754577636719, 1.48974609375, 1.26416015625, 0.121337890625, 1.128662109375
113615, -0.19701287150382996, -0.7723757028579712, 0.732086181640625, 72.51502227783203, 25.69625473022461, -68.99240112304688, 3.681765556335449, 1.1364201307296753, -2.1964027881622314, -0.04903877153992653, 0.11779948323965073, 0.2396625578403473, -0.740782871670873, -1.8584692950784927, 21.708223950958168, 9362.0, 15728.0, 35388.0, 9362.0, 7.9140496253967285, 0.07960722595453262, 0.0028815611731261015, -0.09703429043292999, 0.01929410547018051, -0.07593456655740738, 0.9951300024986267, -0.08676192909479141, -0.030637741088867188, 1.493408203125, 1.04296875, 2.123138427734375, 1.1279296875
113625, -0.1966058313846588, -0.7746118903160095, 0.73159259557724, 72.51502227783203, 25.69625473022461, -68.99240112304688, 3.681765556335449, 1.1364201307296753, -2.1964027881622314, -0.04903649538755417, 0.11777625977993011, 0.23969626426696777, -0.896985709204201, -1.811856295795394, 21.731335196052893, 9362.0, 15728.0, 35388.0, 9362.0, 7.8942155838012695, 0.07960722595453262, 0.0028815611731261015, -0.09703429043292999, 0.020237809047102928, -0.07678873091936111, 0.9942463636398315, -0.08749483525753021, -0.12023735046386719, 1.486083984375, 1.034912109375, 2.269287109375, 1.1279296875
113675, -0.19560548663139343, -0.774531364440918, 0.72593092918396, 72.73616790771484, 25.764503479003906, -69.124267578125, 3.689652442932129, 1.1385327577590942, -2.1992454528808594, -0.04906802624464035, 0.1178862527012825, 0.23968668282032013, -1.0249685901265015, -1.7374960704882199, 21.700726711165288, 9362.0, 15728.0, 35388.0, 9362.0, 7.8942155838012695, 0.06943591684103012, -0.08360297232866287, 0.0419202521443367, 0.02324419468641281, -0.07657762616872787, 0.995658278465271, -0.08067173510789871, -0.07543754577636719, 1.48974609375, 1.001220703125, 2.9564666748046875, 1.1279296875
113735, -0.19447383284568787, -0.7809094786643982, 0.7267845273017883, 72.9577865600586, 25.83287811279297, -69.25630950927734, 3.697578191757202, 1.1406351327896118, -2.2017252445220947, -0.049087043851614, 0.11781594902276993, 0.23943927884101868, -1.4875058495588798, -1.1177184511404903, 21.806957687590643, 9362.0, 15728.0, 35388.0, 9362.0, 7.9140496253967285, 0.06943591684103012, -0.08360297232866287, 0.0419202521443367, 0.021399246528744698, -0.07538145035505295, 0.9949096441268921, -0.06268594413995743, -0.04855918884277344, 1.491943359375, 0.99462890625, 3.105987548828125, 1.1279296875
113745, -0.1951858550310135, -0.7809374928474426, 0.7268094420433044, 72.99476623535156, 25.84428596496582, -69.27832794189453, 3.6989059448242188, 1.140985131263733, -2.202153444290161, -0.049050986766815186, 0.1177186518907547, 0.23939570784568787, -1.401360781609995, -1.0299907479580668, 21.811537207041344, 9362.0, 15728.0, 35388.0, 9362.0, 7.9140496253967285, 0.06943591684103012, -0.08360297232866287, 0.0419202521443367, 0.01928924396634102, -0.07475553452968597, 0.9979107975959778, -0.06268594413995743, -0.04855918884277344, 1.491943359375, 0.99462890625, 3.105987548828125, 1.1279296875
113785, -0.1968526393175125, -0.7793349027633667, 0.7298847436904907, 73.14282989501953, 25.88995361328125, -69.36643981933594, 3.704216957092285, 1.1423900127410889, -2.203469753265381, -0.04907234385609627, 0.11772564053535461, 0.23934510350227356, -1.3650000734186292, -1.0243603622776618, 21.823842988897688, 9362.0, 15728.0, 35388.0, 9362.0, 7.8942155838012695, 0.1402701884508133, 0.06670524179935455, 0.3019575774669647, 0.019620591774582863, -0.07546789199113846, 0.996674120426178, -0.04880023002624512, -0.021678924560546875, 1.494140625, 0.986572265625, 3.295867919921875, 1.1279296875
113795, -0.19725337624549866, -0.7807053327560425, 0.7290635108947754, 73.17987823486328, 25.901378631591797, -69.38847351074219, 3.705543279647827, 1.142743706703186, -2.2036900520324707, -0.04902895167469978, 0.11779244244098663, 0.239694282412529, -0.7797870155750749, -1.8729773451048572, 21.70640084430076, 9362.0, 15728.0, 35388.0, 9362.0, 7.8942155838012695, -0.054325301200151443, 0.2189522385597229, 0.11650196462869644, 0.019620591774582863, -0.07546789199113846, 0.996674120426178, -0.04880023002624512, -0.021678924560546875, 1.494140625, 0.986572265625, 3.295867919921875, 1.1279296875
113805, -0.1958080232143402, -0.7815394997596741, 0.7292196154594421, 73.17987823486328, 25.901378631591797, -69.38847351074219, 3.705543279647827, 1.142743706703186, -2.2036900520324707, -0.04908158630132675, 0.11781523376703262, 0.23942133784294128, -1.5784040471030685, -0.9732782339852406, 21.808452499343844, 9362.0, 15728.0, 35388.0, 9362.0, 7.8942155838012695, 0.19242940843105316, 0.17880019545555115, 0.16993394494056702, 0.019620591774582863, -0.07546789199113846, 0.996674120426178, -0.057534363120794296, 0.05000114440917969, 1.5, 0.986572265625, 3.295867919921875, 1.1279296875
113835, -0.19540971517562866, -0.787942111492157, 0.7298083901405334, 73.25402069091797, 25.924240112304688, -69.43255615234375, 3.708193302154541, 1.1434491872787476, -2.204568386077881, -0.049058668315410614, 0.1178775280714035, 0.23971430957317352, -0.9821558715766441, -1.8116549007177412, 21.706242558959072, 9362.0, 15728.0, 35388.0, 9362.0, 7.8942155838012695, 0.19242940843105316, 0.17880019545555115, 0.16993394494056702, 0.020518619567155838, -0.07542657852172852, 0.9960540533065796, -0.05887681618332863, -0.12023735046386719, 1.486083984375, 0.9990234375, 3.0057220458984375, 1.1279296875
113875, -0.19592997431755066, -0.7910085320472717, 0.7307277321815491, 73.4395980834961, 25.981456756591797, -69.54281616210938, 3.7148680686950684, 1.1452040672302246, -2.206120014190674, -0.04907350242137909, 0.1178215816617012, 0.23942285776138306, -1.526553968699778, -0.9960945657095124, 21.787658842784058, 9362.0, 15728.0, 35388.0, 9362.0, 7.9140496253967285, 0.19242940843105316, 0.17880019545555115, 0.16993394494056702, 0.021061569452285767, -0.07466548681259155, 0.9948277473449707, -0.05979975312948227, -0.09335899353027344, 1.48828125, 0.99755859375, 3.038909912109375, 1.1279296875
113895, -0.1964879333972931, -0.7873976826667786, 0.7345110774040222, 73.55110931396484, 26.01582908630371, -69.60901641845703, 3.718893051147461, 1.1462533473968506, -2.2074413299560547, -0.0490567646920681, 0.1178836077451706, 0.23974788188934326, -0.9594323449878117, -1.822568883567243, 21.6849922879744, 9362.0, 15728.0, 35388.0, 9362.0, 7.8942155838012695, 0.19242940843105316, 0.17880019545555115, 0.16993394494056702, 0.01911645382642746, -0.07610267400741577, 0.9953611493110657, -0.05979975312948227, -0.09335899353027344, 1.48828125, 1.31982421875, 0.0273590087890625, 1.1279296875
113905, -0.19752196967601776, -0.7870780229568481, 0.7335070371627808, 73.58830261230469, 26.027294158935547, -69.63109588623047, 3.72023344039917, 1.146605134010315, -2.2078938484191895, -0.04902452602982521, 0.11778973042964935, 0.2397078424692154, -0.8192742034213372, -1.8527627095583057, 21.715194997764804, 9362.0, 15728.0, 35388.0, 9362.0, 7.8942155838012695, -0.20550000667572021, -0.06349238753318787, -0.17658914625644684, 0.01911645382642746, -0.07610267400741577, 0.9953611493110657, -0.05979975312948227, -0.09335899353027344, 1.48828125, 1.31982421875, 0.0273590087890625, 1.1279296875
113915, -0.19802920520305634, -0.7883509397506714, 0.7349467873573303, 73.6255111694336, 26.038761138916016, -69.6531753540039, 3.721571683883667, 1.1469573974609375, -2.2083234786987305, -0.049054473638534546, 0.11776506900787354, 0.23969246447086334, -0.8188801705641136, -1.821069930602647, 21.72165328982053, 9362.0, 15728.0, 35388.0, 9362.0, 7.8942155838012695, -0.20550000667572021, -0.06349238753318787, -0.17658914625644684, 0.01911645382642746, -0.07610267400741577, 0.9953611493110657, -0.05979975312948227, -0.09335899353027344, 1.48828125, 1.31982421875, 0.0273590087890625, 1.1279296875
113975, -0.19853942096233368, -0.7883487939834595, 0.7362445592880249, 73.81175994873047, 26.096153259277344, -69.76364135742188, 3.7282752990722656, 1.1487340927124023, -2.2100470066070557, -0.049060091376304626, 0.11789233982563019, 0.23970413208007812, -0.9021771297084361, -1.8591214154134832, 21.667882764481536, 9362.0, 15728.0, 35388.0, 9362.0, 7.8942155838012695, -0.0927698090672493, 0.1391611397266388, 0.25200003385543823, 0.02183895744383335, -0.07817282527685165, 0.9959641695022583, -0.06456493586301804, -0.09335899353027344, 1.48828125, 0.986572265625, 3.295867919921875, 1.1279296875
114015, -0.19890837371349335, -0.7909528613090515, 0.7327423095703125, 73.96099853515625, 26.14212989807129, -69.85206604003906, 3.7336349487304688, 1.1501566171646118, -2.211483955383301, -0.049048926681280136, 0.117879718542099, 0.2397492229938507, -0.9474869059609055, -1.830076234637687, 21.691206087167483, 9362.0, 15728.0, 35388.0, 9362.0, 7.8942155838012695, 0.15742193162441254, 0.21982185542583466, -0.0029008151032030582, 0.0199845340102911, -0.07687106728553772, 0.9945086240768433, -0.06820623576641083, 0.05896186828613281, 1.500732421875, 1.0166015625, 2.6270904541015625, 1.1279296875
114055, -0.20010903477668762, -0.7952526211738586, 0.7367992997169495, 74.1478500366211, 26.199684143066406, -69.96268463134766, 3.740351438522339, 1.1519407033920288, -2.213197946548462, -0.04905226081609726, 0.11780664324760437, 0.23966069519519806, -0.7869051136360768, -1.7915164721078156, 21.697859944402378, 9362.0, 15728.0, 35388.0, 9362.0, 7.9140496253967285, 0.06160620599985123, 0.48210209608078003, 0.10329652577638626, 0.020260673016309738, -0.07622460275888443, 0.99769526720047, -0.09030963480472565, -0.06647872924804688, 1.490478515625, 1.078125, 1.5602264404296875, 1.1279296875
114085, -0.19995713233947754, -0.794669508934021, 0.7373144626617432, 74.26011657714844, 26.234256744384766, -70.02909851074219, 3.7444019317626953, 1.1530152559280396, -2.2145254611968994, -0.04903354123234749, 0.11777766793966293, 0.23968219757080078, -0.8104409339981138, -1.8520357829448812, 21.71404081277659, 9362.0, 15728.0, 35388.0, 9362.0, 7.8942155838012695, -0.07193797081708908, -0.24820193648338318, 0.04447591304779053, 0.020260673016309738, -0.07622460275888443, 0.99769526720047, -0.08699220418930054, -0.07543754577636719, 1.48974609375, 1.078125, 1.5602264404296875, 1.130126953125
114115, -0.20063655078411102, -0.7930216789245605, 0.7337955236434937, 74.37251281738281, 26.268863677978516, -70.09555053710938, 3.7484548091888428, 1.1540923118591309, -2.2156622409820557, -0.04903809353709221, 0.11778687685728073, 0.23967544734477997, -0.8168744265631105, -1.8579866161603036, 21.72811999344908, 9362.0, 15728.0, 35388.0, 9362.0, 7.8942155838012695, 0.07232336699962616, -0.2974793016910553, -0.18742544949054718, 0.020260673016309738, -0.07622460275888443, 0.99769526720047, -0.0687156394124031, -0.08439826965332031, 1.489013671875, 1.03271484375, 2.3103179931640625, 1.130126953125
114135, -0.20126909017562866, -0.7917570471763611, 0.731764018535614, 74.41000366210938, 26.280406951904297, -70.11770629882812, 3.7498087882995605, 1.1544519662857056, -2.21602725982666, -0.04904361441731453, 0.11779537051916122, 0.23966960608959198, -0.8694829868047189, -1.7792821639077374, 21.717916019270973, 9362.0, 15728.0, 35388.0, 9362.0, 7.8942155838012695, -0.14223909378051758, -0.4537977874279022, -0.12361723184585571, 0.020260673016309738, -0.07622460275888443, 0.99769526720047, -0.04952611029148102, -0.09335899353027344, 1.48828125, 1.06494140625, 1.7574920654296875, 1.130126953125
114145, -0.2013121396303177, -0.7908700704574585, 0.7319050431251526, 74.48503112792969, 26.303503036499023, -70.16203308105469, 3.752509832382202, 1.1551727056503296, -2.216569423675537, -0.049032680690288544, 0.11780209094285965, 0.23967523872852325, -0.8336977944685101, -1.7789892906363889, 21.729019252143686, 9362.0, 15728.0, 35388.0, 9362.0, 7.8942155838012695, -0.14223909378051758, -0.4537977874279022, -0.12361723184585571, 0.020260673016309738, -0.07622460275888443, 0.99769526720047, -0.04952611029148102, -0.09335899353027344, 1.48828125, 1.06494140625, 1.7574920654296875, 1.130126953125
114155, -0.2005588561296463, -0.7898166179656982, 0.7305713295936584, 74.48503112792969, 26.303503036499023, -70.16203308105469, 3.752509832382202, 1.1551727056503296, -2.216569423675537, -0.049074094742536545, 0.11787088960409164, 0.23970511555671692, -1.0130727459707145, -1.764377718069909, 21.70381210328653, 9362.0, 15728.0, 35388.0, 9362.0, 7.8942155838012695, -0.14223909378051758, -0.4537977874279022, -0.12361723184585571, 0.022608797997236252, -0.07535163313150406, 0.9957135319709778, -0.04952611029148102, -0.09335899353027344, 1.48828125, 1.06494140625, 1.7574920654296875, 1.130126953125
114165, -0.19955120980739594, -0.7908948659896851, 0.7308372259140015, 74.48503112792969, 26.303503036499023, -70.16203308105469, 3.752509832382202, 1.1551727056503296, -2.216569423675537, -0.04902653023600578, 0.1177966445684433, 0.23969264328479767, -0.7673060211614633, -1.9221854870947084, 21.712194116405872, 9362.0, 15728.0, 35388.0, 9362.0, 7.8942155838012695, -0.016475267708301544, 0.06672898679971695, -0.15389089286327362, 0.022608797997236252, -0.07535163313150406, 0.9957135319709778, -0.07562407106161118, -0.04855918884277344, 1.491943359375, 1.06494140625, 1.7574920654296875, 1.130126953125
114175, -0.20045895874500275, -0.791753888130188, 0.7331709265708923, 74.59766387939453, 26.338172912597656, -70.2285385131836, 3.756542921066284, 1.1562532186508179, -2.217679023742676, -0.049061208963394165, 0.1178671345114708, 0.2397255301475525, -1.0088441019371204, -1.8132798420265317, 21.707910708779632, 9362.0, 15728.0, 35388.0, 9362.0, 7.8942155838012695, -0.016475267708301544, 0.06672898679971695, -0.15389089286327362, 0.022608797997236252, -0.07535163313150406, 0.9957135319709778, -0.07562407106161118, -0.04855918884277344, 1.491943359375, 1.06494140625, 1.7574920654296875, 1.130126953125
114245, -0.1976073980331421, -0.7906274199485779, 0.7276787757873535, 74.86094665527344, 26.419198989868164, -70.38385772705078, 3.765969753265381, 1.1587730646133423, -2.219813108444214, -0.04904840886592865, 0.1178562343120575, 0.23977115750312805, -0.9679961734297697, -1.8393622243283687, 21.682042086281175, 9362.0, 15728.0, 35388.0, 9362.0, 7.9140496253967285, 0.16744646430015564, 0.1739637851715088, 0.2187383472919464, 0.01995581015944481, -0.0775810107588768, 0.9974567294120789, -0.05673142150044441, -0.05751800537109375, 1.4912109375, 1.0224609375, 2.5086517333984375, 1.1630859375
114285, -0.19687190651893616, -0.79124516248703, 0.7276100516319275, 74.97399139404297, 26.453977584838867, -70.45046997070312, 3.770005941390991, 1.1598398685455322, -2.2206292152404785, -0.04904966801404953, 0.11786077916622162, 0.2397385686635971, -0.9994123595058018, -1.8195948898180347, 21.714673653274275, 9362.0, 15728.0, 35388.0, 9362.0, 7.8942155838012695, 0.08237195014953613, 0.19762104749679565, 0.16425378620624542, 0.02063543163239956, -0.07596486061811447, 0.9969581365585327, -0.05880167335271835, -0.08439826965332031, 1.489013671875, 0.993896484375, 3.1229095458984375, 1.1630859375
114295, -0.1969723105430603, -0.7927256226539612, 0.7276076674461365, 75.05319213867188, 26.478342056274414, -70.49710845947266, 3.772831916809082, 1.160587191581726, -2.221038579940796, -0.04907439276576042, 0.1178693175315857, 0.23972921073436737, -1.017738620678614, -1.7572812049091624, 21.712066674388552, 9362.0, 15728.0, 35388.0, 9362.0, 7.8942155838012695, 0.08237195014953613, 0.19762104749679565, 0.16425378620624542, 0.02063543163239956, -0.07596486061811447, 0.9969581365585327, -0.05880167335271835, -0.08439826965332031, 1.489013671875, 0.993896484375, 3.1229095458984375, 1.1630859375
114305, -0.1967933624982834, -0.7944579720497131, 0.7277359366416931, 75.09092712402344, 26.48995018005371, -70.51931762695312, 3.774177074432373, 1.1609402894973755, -2.2214386463165283, -0.04905053600668907, 0.11780083924531937, 0.23965021967887878, -0.852793681752528, -1.8032813224283757, 21.73301289257737, 9362.0, 15728.0, 35388.0, 9362.0, 7.8942155838012695, 0.04515404254198074, 0.2976711690425873, 0.1492406725883484, 0.02063543163239956, -0.07596486061811447, 0.9969581365585327, -0.05880167335271835, -0.08439826965332031, 1.489013671875, 0.993896484375, 3.1229095458984375, 1.1630859375
114315, -0.1969781368970871, -0.7944961786270142, 0.7257198691368103, 75.12867736816406, 26.501562118530273, -70.54153442382812, 3.775526523590088, 1.1612937450408936, -2.221693277359009, -0.04905587434768677, 0.11788050830364227, 0.23975571990013123, -0.9532642267630396, -1.912317959700232, 21.692664530838773, 9362.0, 15728.0, 35388.0, 9362.0, 7.8942155838012695, 0.04515404254198074, 0.2976711690425873, 0.1492406725883484, 0.02063543163239956, -0.07596486061811447, 0.9969581365585327, -0.05880167335271835, -0.08439826965332031, 1.489013671875, 0.993896484375, 3.1229095458984375, 1.1630859375
114335, -0.19610115885734558, -0.7928408980369568, 0.7240285277366638, 75.20421600341797, 26.52479362487793, -70.58597564697266, 3.7782249450683594, 1.1619988679885864, -2.2226336002349854, -0.049072083085775375, 0.11789121478796005, 0.23969264328479767, -0.9369978855421518, -1.8250601257759342, 21.691205874350814, 9362.0, 15728.0, 35388.0, 9362.0, 7.8942155838012695, -0.13896901905536652, -0.008381540887057781, -0.1598694622516632, 0.02063543163239956, -0.07596486061811447, 0.9969581365585327, -0.05880167335271835, -0.08439826965332031, 1.489013671875, 0.993896484375, 3.1229095458984375, 1.1630859375
114345, -0.19625301659107208, -0.7931087017059326, 0.7243332862854004, 75.24200439453125, 26.536415100097656, -70.60820007324219, 3.779576063156128, 1.1623508930206299, -2.2227373123168945, -0.049064941704273224, 0.11772946268320084, 0.239368736743927, -1.3701452988733105, -1.0229670434786158, 21.820750528105446, 9362.0, 15728.0, 35388.0, 9362.0, 7.8942155838012695, -0.13896901905536652, -0.008381540887057781, -0.1598694622516632, 0.020970065146684647, -0.07895062118768692, 0.9979524612426758, -0.05880167335271835, -0.08439826965332031, 1.489013671875, 0.993896484375, 3.1229095458984375, 1.1630859375
114385, -0.19818051159381866, -0.7946172952651978, 0.7261460423469543, 75.35545349121094, 26.57130241394043, -70.67489624023438, 3.783626079559326, 1.163405179977417, -2.223696708679199, -0.049069978296756744, 0.11773650348186493, 0.23939989507198334, -1.390322593745077, -1.0045362232993398, 21.824592305666755, 9362.0, 15728.0, 35388.0, 9362.0, 7.8942155838012695, 0.11419197171926498, 0.12880077958106995, 0.19684776663780212, 0.02035660669207573, -0.0750587061047554, 0.9962754845619202, -0.06332015246152878, -0.07543754577636719, 1.48974609375, 1.02978515625, 2.3658294677734375, 1.1630859375
114395, -0.19731953740119934, -0.7943354249000549, 0.7256093621253967, 75.43115234375, 26.59457778930664, -70.71937561035156, 3.786323070526123, 1.1641123294830322, -2.224407911300659, -0.049045924097299576, 0.11786621063947678, 0.23974916338920593, -1.0423007334034453, -1.796063974359953, 21.693952746210556, 9362.0, 15728.0, 35388.0, 9362.0, 7.8942155838012695, 0.11419197171926498, 0.12880077958106995, 0.19684776663780212, 0.021465344354510307, -0.0754656046628952, 0.9950624108314514, -0.06332015246152878, -0.07543754577636719, 1.48974609375, 1.02978515625, 2.3658294677734375, 1.1630859375
114405, -0.19662633538246155, -0.7934352159500122, 0.7253990769386292, 75.43115234375, 26.59457778930664, -70.71937561035156, 3.786323070526123, 1.1641123294830322, -2.224407911300659, -0.0490582138299942, 0.11786951124668121, 0.2397346943616867, -0.9260821697682342, -1.862835414632542, 21.69495714629084, 9362.0, 15728.0, 35388.0, 9362.0, 7.8942155838012695, -0.016228053718805313, -0.21204273402690887, -0.016686879098415375, 0.021465344354510307, -0.0754656046628952, 0.9950624108314514, -0.05698660761117935, -0.12023735046386719, 1.486083984375, 1.02978515625, 2.3658294677734375, 1.1630859375
114415, -0.1971113085746765, -0.7918055057525635, 0.7256444096565247, 75.43115234375, 26.59457778930664, -70.71937561035156, 3.786323070526123, 1.1641123294830322, -2.224407911300659, -0.04906623065471649, 0.1178099662065506, 0.2396700233221054, -0.7398046681681756, -1.875101026968224, 21.710476824092844, 9362.0, 15728.0, 35388.0, 9362.0, 7.8942155838012695, -0.016228053718805313, -0.21204273402690887, -0.016686879098415375, 0.02024451084434986, -0.07445985078811646, 0.9943368434906006, -0.064134880900383, -0.10231781005859375, 1.487548828125, 1.02978515625, 2.3658294677734375, 1.1630859375
114435, -0.19684207439422607, -0.7906386256217957, 0.724639892578125, 75.58271026611328, 26.641170501708984, -70.80838775634766, 3.7917144298553467, 1.1655256748199463, -2.2263503074645996, -0.0490298792719841, 0.11778523772954941, 0.23974503576755524, -0.8576220515859756, -1.8806243292090414, 21.72917296088689, 9362.0, 15728.0, 35388.0, 9362.0, 7.8942155838012695, 0.018881943076848984, -0.002010753145441413, -0.152908593416214, 0.019796792417764664, -0.07281998544931412, 0.9954239726066589, -0.05647516995668411, -0.08439826965332031, 1.489013671875, 1.02978515625, 2.3658294677734375, 1.1630859375
114445, -0.19683262705802917, -0.7932532429695129, 0.7237977385520935, 75.58271026611328, 26.641170501708984, -70.80838775634766, 3.7917144298553467, 1.1655256748199463, -2.2263503074645996, -0.0490611307322979, 0.11772909760475159, 0.2393895834684372, -1.3668135818439313, -1.0800043168763125, 21.846003958282637, 9362.0, 15728.0, 35388.0, 9362.0, 7.8942155838012695, 0.018881943076848984, -0.002010753145441413, -0.152908593416214, 0.02112525701522827, -0.07487590610980988, 0.9965004920959473, -0.05647516995668411, -0.08439826965332031, 1.489013671875, 1.02978515625, 2.3658294677734375, 1.1630859375
114475, -0.19864487648010254, -0.791624128818512, 0.7237088084220886, 75.73448944091797, 26.68781852722168, -70.89746856689453, 3.797100782394409, 1.1669405698776245, -2.2276971340179443, -0.049050576984882355, 0.11787991225719452, 0.23973360657691956, -0.9942492332561171, -1.803571703315015, 21.7097530463212, 9362.0, 15728.0, 35388.0, 9362.0, 7.9140496253967285, 0.0028929109685122967, 0.04845345765352249, 0.1352197825908661, 0.02112525701522827, -0.07487590610980988, 0.9965004920959473, -0.04000001400709152, 0.023120880126953125, 1.497802734375, 1.02978515625, 2.3658294677734375, 1.12939453125
114505, -0.19706957042217255, -0.7900317907333374, 0.7242384552955627, 75.84846496582031, 26.722843170166016, -70.96431732177734, 3.8011436462402344, 1.1680060625076294, -2.228687047958374, -0.04906168207526207, 0.11773417890071869, 0.2393730878829956, -1.4010462545938165, -1.0173116549136978, 21.827492059392927, 9362.0, 15728.0, 35388.0, 9362.0, 7.9140496253967285, 0.27123889327049255, -0.4501713812351227, -0.20726171135902405, 0.02490048110485077, -0.07830756902694702, 0.9976268410682678, -0.04869640991091728, -0.10231781005859375, 1.487548828125, 1.0400390625, 2.17547607421875, 1.12939453125
114515, -0.1973189115524292, -0.7871942520141602, 0.724826991558075, 75.84846496582031, 26.722843170166016, -70.96431732177734, 3.8011436462402344, 1.1680060625076294, -2.228687047958374, -0.049040354788303375, 0.11780613660812378, 0.23967163264751434, -0.777091548772205, -1.8018261935940245, 21.714094107464142, 9362.0, 15728.0, 35388.0, 9362.0, 7.9140496253967285, 0.27123889327049255, -0.4501713812351227, -0.20726171135902405, 0.021009264513850212, -0.07588011026382446, 0.9973050951957703, -0.04869640991091728, -0.10231781005859375, 1.487548828125, 1.0400390625, 2.17547607421875, 1.12939453125
114535, -0.2000841349363327, -0.7912096381187439, 0.7257370352745056, 75.96256256103516, 26.75790023803711, -71.03118896484375, 3.8051815032958984, 1.1690690517425537, -2.229389190673828, -0.04907960072159767, 0.11781458556652069, 0.23945343494415283, -1.5340265357726695, -1.02677431017716, 21.810921172891376, 9362.0, 15728.0, 35388.0, 9362.0, 7.8942155838012695, -0.07994981110095978, 0.21146725118160248, -0.07714993506669998, 0.01876315101981163, -0.07590973377227783, 0.9976337552070618, -0.05612059310078621, -0.08439826965332031, 1.489013671875, 1.0400390625, 2.17547607421875, 1.12939453125
114565, -0.19928774237632751, -0.7876348495483398, 0.7237046360969543, 76.07677459716797, 26.792987823486328, -71.09808349609375, 3.8092143535614014, 1.1701425313949585, -2.2302284240722656, -0.04905136674642563, 0.117863230407238, 0.23972396552562714, -0.9552215472503337, -1.878155505615581, 21.68968465110704, 9362.0, 15728.0, 35388.0, 9362.0, 7.9140496253967285, 0.0753137469291687, -0.09972482919692993, -0.2763971984386444, 0.019514478743076324, -0.07781648635864258, 0.9967595934867859, -0.04686257988214493, -0.06647872924804688, 1.490478515625, 1.32421875, 0.024139404296875, 1.12939453125
114575, -0.20058123767375946, -0.7874172925949097, 0.7255992293357849, 76.07677459716797, 26.792987823486328, -71.09808349609375, 3.8092143535614014, 1.1701425313949585, -2.2302284240722656, -0.049066949635744095, 0.11788950860500336, 0.23970159888267517, -1.026418386635131, -1.7185421790453859, 21.708602228253277, 9362.0, 15728.0, 35388.0, 9362.0, 7.8942155838012695, -0.37629127502441406, -0.16813388466835022, -0.006188176106661558, 0.019514478743076324, -0.07781648635864258, 0.9967595934867859, -0.06052336469292641, -0.07543754577636719, 1.48974609375, 1.32421875, 0.024139404296875, 1.12939453125
114595, -0.20105727016925812, -0.7853798866271973, 0.7255589962005615, 76.07677459716797, 26.792987823486328, -71.09808349609375, 3.8092143535614014, 1.1701425313949585, -2.2302284240722656, -0.0490548238158226, 0.11778201907873154, 0.2397041916847229, -0.902964970400603, -1.7837538177945191, 21.739925108961963, 9362.0, 15728.0, 35388.0, 9362.0, 7.8942155838012695, -0.37629127502441406, -0.16813388466835022, -0.006188176106661558, 0.020994631573557854, -0.07653269171714783, 0.9989299178123474, -0.05483214929699898, -0.14711761474609375, 1.48388671875, 1.3095703125, 0.037139892578125, 1.12939453125
114605, -0.2005733996629715, -0.7839744687080383, 0.7238956689834595, 76.229248046875, 26.83982276916504, -71.18730926513672, 3.8145768642425537, 1.1715779304504395, -2.231205701828003, -0.04905087500810623, 0.1177893579006195, 0.23967532813549042, -0.8115107454385612, -1.8275428268922838, 21.736347363042224, 9362.0, 15728.0, 35388.0, 9362.0, 7.8942155838012695, 0.07915068417787552, -0.17831625044345856, -0.17621521651744843, 0.020994631573557854, -0.07653269171714783, 0.9989299178123474, -0.05483214929699898, -0.14711761474609375, 1.48388671875, 1.3095703125, 0.037139892578125, 1.12939453125
114635, -0.20058828592300415, -0.7872810959815979, 0.7208672761917114, 76.3055648803711, 26.86326026916504, -71.23194122314453, 3.817246437072754, 1.1722973585128784, -2.231804370880127, -0.04902757704257965, 0.11779461801052094, 0.23970045149326324, -0.8039943417074938, -1.8629342531631892, 21.71913496316358, 9362.0, 15728.0, 35388.0, 9362.0, 7.8942155838012695, 0.09839839488267899, 0.49458763003349304, 0.021207382902503014, 0.02239983156323433, -0.0756148099899292, 0.9941195845603943, -0.06632121652364731, -0.08439826965332031, 1.489013671875, 1.11474609375, 1.0919036865234375, 1.12939453125
114655, -0.20021742582321167, -0.7898310422897339, 0.7220212817192078, 76.4201431274414, 26.89844512939453, -71.29891967773438, 3.821253776550293, 1.173372745513916, -2.2333438396453857, -0.049061961472034454, 0.11773662269115448, 0.23936039209365845, -1.3604161169837339, -1.0274971967496072, 21.819072535686143, 9362.0, 15728.0, 35388.0, 9362.0, 7.8942155838012695, -0.007303677964955568, 0.1834106147289276, 0.28331518173217773, 0.02023850753903389, -0.07862188667058945, 0.9983308911323547, -0.06632121652364731, -0.08439826965332031, 1.489013671875, 1.11474609375, 1.0919036865234375, 1.12939453125
114695, -0.19882343709468842, -0.7926483154296875, 0.720140278339386, 76.5730972290039, 26.945409774780273, -71.38827514648438, 3.8266308307647705, 1.174805760383606, -2.234459400177002, -0.049074213951826096, 0.11780843138694763, 0.23943625390529633, -1.5566848846553658, -1.0305814583323638, 21.81054186284336, 9362.0, 15728.0, 35388.0, 9362.0, 7.8942155838012695, -0.008071827702224255, -0.02885344810783863, -0.16332466900348663, 0.023047292605042458, -0.07592540979385376, 0.9962664246559143, -0.07574585825204849, -0.07543754577636719, 1.48974609375, 1.005615234375, 2.859588623046875, 1.12939453125
114705, -0.1995990127325058, -0.7913290858268738, 0.7222825288772583, 76.61137390136719, 26.9571590423584, -71.4106216430664, 3.8279783725738525, 1.1751625537872314, -2.234854221343994, -0.04907296597957611, 0.11773210018873215, 0.23940497636795044, -1.3525067488413032, -1.0611638893055613, 21.819401796416834, 9362.0, 15728.0, 35388.0, 9362.0, 7.8942155838012695, -0.008071827702224255, -0.02885344810783863, -0.16332466900348663, 0.02058020606637001, -0.07644713670015335, 0.9996745586395264, -0.07574585825204849, -0.07543754577636719, 1.48974609375, 1.005615234375, 2.859588623046875, 1.12939453125
114715, -0.20089910924434662, -0.7914819717407227, 0.7229166030883789, 76.61137390136719, 26.9571590423584, -71.4106216430664, 3.8279783725738525, 1.1751625537872314, -2.234854221343994, -0.049063146114349365, 0.11787936836481094, 0.23975017666816711, -0.9787850757111982, -1.8741366758223421, 21.708741657668476, 9362.0, 15728.0, 35388.0, 9362.0, 7.8942155838012695, -0.008071827702224255, -0.02885344810783863, -0.16332466900348663, 0.020990565419197083, -0.0761556401848793, 0.9970893263816833, -0.07457999885082245, -0.11127853393554688, 1.48681640625, 1.005615234375, 2.859588623046875, 1.12939453125
114755, -0.2033306360244751, -0.7917551398277283, 0.7260249257087708, 76.80294036865234, 27.015962600708008, -71.52239227294922, 3.8347127437591553, 1.176961898803711, -2.2363505363464355, -0.04904581606388092, 0.11780540645122528, 0.2396327555179596, -0.9273869246263694, -1.7134658685728823, 21.754915153808604, 9362.0, 15728.0, 35388.0, 9362.0, 7.8942155838012695, 0.018893703818321228, -0.19519689679145813, 0.12880460917949677, 0.022289754822850227, -0.07625873386859894, 0.995649516582489, -0.3065836727619171, -0.04855918884277344, 1.491943359375, 1.0517578125, 1.971160888671875, 1.12939453125
114795, -0.20347513258457184, -0.7918426394462585, 0.7256160974502563, 76.95643615722656, 27.06307029724121, -71.61188507080078, 3.8400936126708984, 1.1784111261367798, -2.2379703521728516, -0.049056366086006165, 0.11788751184940338, 0.23972664773464203, -0.9414565667353691, -1.8529048814113764, 21.710433700859188, 9362.0, 15728.0, 35388.0, 9362.0, 7.8942155838012695, -0.33697548508644104, -0.02072196826338768, -0.3769781291484833, 0.020843543112277985, -0.07845557481050491, 0.996674120426178, -0.18092699348926544, -0.12023735046386719, 1.486083984375, 1.05908203125, 1.8503875732421875, 1.12939453125
114805, -0.2017425149679184, -0.7897982001304626, 0.7260630130767822, 76.95643615722656, 27.06307029724121, -71.61188507080078, 3.8400936126708984, 1.1784111261367798, -2.2379703521728516, -0.049091875553131104, 0.11781515926122665, 0.23941035568714142, -1.5603144207890307, -1.0031226549079406, 21.805996185823904, 9362.0, 15728.0, 35388.0, 9362.0, 7.8942155838012695, 0.1716935932636261, -0.3003537058830261, 0.10165268927812576, 0.020880190655589104, -0.07832943648099899, 0.9968162178993225, -0.14909899234771729, 0.1396007537841797, 1.50732421875, 1.05908203125, 1.8503875732421875, 1.12939453125
114815, -0.2008819282054901, -0.7918338775634766, 0.7250366806983948, 77.03326416015625, 27.086645126342773, -71.65665435791016, 3.8427867889404297, 1.179136872291565, -2.238802909851074, -0.049024540930986404, 0.11780468374490738, 0.2397172749042511, -0.8033171845857574, -1.8367654094036538, 21.711513163072013, 9362.0, 15728.0, 35388.0, 9362.0, 7.9140496253967285, 0.1716935932636261, -0.3003537058830261, 0.10165268927812576, 0.020880190655589104, -0.07832943648099899, 0.9968162178993225, -0.1184857189655304, -0.09335899353027344, 1.48828125, 1.05908203125, 1.8503875732421875, 1.12939453125
114825, -0.19998881220817566, -0.7942965030670166, 0.7265322804450989, 77.03326416015625, 27.086645126342773, -71.65665435791016, 3.8427867889404297, 1.179136872291565, -2.238802909851074, -0.049094174057245255, 0.11781060695648193, 0.2394225150346756, -1.5731413918974688, -0.9752246407684879, 21.802575309988487, 9362.0, 15728.0, 35388.0, 9362.0, 7.8942155838012695, 0.1716935932636261, -0.3003537058830261, 0.10165268927812576, 0.020607473328709602, -0.07407737523317337, 0.993683397769928, -0.1184857189655304, -0.09335899353027344, 1.48828125, 1.05908203125, 1.8503875732421875, 1.12939453125
114865, -0.20143164694309235, -0.7966121435165405, 0.7250888347625732, 77.22557067871094, 27.145648956298828, -71.76864624023438, 3.8495230674743652, 1.180937647819519, -2.240769863128662, -0.04904120787978172, 0.1177847683429718, 0.23969052731990814, -0.6817922492343124, -1.9086600023317715, 21.719249254586078, 9362.0, 15728.0, 35388.0, 9362.0, 7.9140496253967285, 0.27484235167503357, 0.11848175525665283, 0.23606787621974945, 0.020607473328709602, -0.07407737523317337, 0.993683397769928, -0.0930061861872673, -0.11127853393554688, 1.48681640625, 1.32275390625, 0.0251312255859375, 1.12939453125
114885, -0.2025907337665558, -0.7968108654022217, 0.7235782742500305, 77.3025894165039, 27.169273376464844, -71.81346130371094, 3.8522307872772217, 1.1816598176956177, -2.2412638664245605, -0.04903212562203407, 0.11780489981174469, 0.2397010773420334, -0.755563046388629, -1.8143552416183297, 21.72118836558285, 9362.0, 15728.0, 35388.0, 9362.0, 7.8942155838012695, 0.27484235167503357, 0.11848175525665283, 0.23606787621974945, 0.019596993923187256, -0.07578738033771515, 0.99753338098526, -0.0930061861872673, -0.11127853393554688, 1.48681640625, 1.316162109375, 0.030517578125, 1.12939453125
114915, -0.20185814797878265, -0.7997110486030579, 0.7209280729293823, 77.3796615600586, 27.192913055419922, -71.8582992553711, 3.8549351692199707, 1.1823832988739014, -2.2422287464141846, -0.04907259717583656, 0.11780759692192078, 0.23943422734737396, -1.5328787083313136, -1.0431814056450435, 21.785462006668048, 9362.0, 15728.0, 35388.0, 9362.0, 7.8942155838012695, 0.031861234456300735, 0.10722146928310394, -0.21487897634506226, 0.022078705951571465, -0.07805605977773666, 0.9947107434272766, -0.04344756528735161, 0.24711990356445312, 1.51611328125, 1.316162109375, 0.030517578125, 1.12939453125
114925, -0.20097413659095764, -0.7990924119949341, 0.7199508547782898, 77.3796615600586, 27.192913055419922, -71.8582992553711, 3.8549351692199707, 1.1823832988739014, -2.2422287464141846, -0.04906206578016281, 0.1178743913769722, 0.23973889648914337, -0.9831238978103126, -1.75217307159852, 21.701012752925163, 9362.0, 15728.0, 35388.0, 9362.0, 7.8942155838012695, 0.031861234456300735, 0.10722146928310394, -0.21487897634506226, 0.022402189671993256, -0.07749813050031662, 0.99776691198349, -0.05545391887426376, -0.1291980743408203, 1.4853515625, 1.316162109375, 0.030517578125, 1.12939453125
114935, -0.20038972795009613, -0.798985481262207, 0.722371518611908, 77.3796615600586, 27.192913055419922, -71.8582992553711, 3.8549351692199707, 1.1823832988739014, -2.2422287464141846, -0.049058929085731506, 0.11779151111841202, 0.23968443274497986, -0.8480529556236764, -1.7550565782583476, 21.734105455388995, 9362.0, 15728.0, 35388.0, 9362.0, 7.9140496253967285, 0.031861234456300735, 0.10722146928310394, -0.21487897634506226, 0.022402189671993256, -0.07749813050031662, 0.99776691198349, -0.06516668945550919, -0.07543754577636719, 1.48974609375, 1.316162109375, 0.030517578125, 1.12939453125
114955, -0.20074643194675446, -0.7982280850410461, 0.7209498286247253, 77.57257843017578, 27.252079010009766, -71.97045135498047, 3.8617351055145264, 1.1841883659362793, -2.243809700012207, -0.04908384382724762, 0.11780915409326553, 0.2394236922264099, -1.555005193356275, -0.9444141273688444, 21.805332255042664, 9362.0, 15728.0, 35388.0, 9362.0, 7.8942155838012695, 0.031861234456300735, 0.10722146928310394, -0.21487897634506226, 0.01937827840447426, -0.07632845640182495, 0.9975255131721497, -0.07466541975736618, -0.15607833862304688, 1.483154296875, 1.273681640625, 0.0975494384765625, 1.12939453125
114995, -0.1999989002943039, -0.8020349144935608, 0.7229651808738708, 77.68849182128906, 27.287620544433594, -72.03778076171875, 3.8658008575439453, 1.185267686843872, -2.2451345920562744, -0.0490601509809494, 0.11787055432796478, 0.2397618144750595, -0.9761505342735574, -1.843608373100352, 21.698486992123414, 9362.0, 15728.0, 35388.0, 9362.0, 7.8942155838012695, -0.008065017871558666, 0.21777492761611938, -0.020083386451005936, 0.02144991047680378, -0.0769025906920433, 0.9955271482467651, -0.042685627937316895, -0.05751800537109375, 1.4912109375, 1.26708984375, 0.1136474609375, 1.12939453125
115045, -0.1991700977087021, -0.7959132790565491, 0.7201335430145264, 77.88195037841797, 27.3469295501709, -72.15007781982422, 3.8726112842559814, 1.1870604753494263, -2.246746063232422, -0.04905559867620468, 0.11779354512691498, 0.23966993391513824, -0.879451872751519, -1.7651418422158258, 21.722528640599684, 9362.0, 15728.0, 35388.0, 9362.0, 7.8942155838012695, -0.008065017871558666, 0.21777492761611938, -0.020083386451005936, 0.021341705694794655, -0.07535398006439209, 0.9960149526596069, -0.1256178617477417, -0.15607833862304688, 1.483154296875, 1.317626953125, 0.0291900634765625, 1.12939453125
