timeTick, roll, pitch, yaw, stateX, stateY, stateZ, stateVX, stateVY, stateVZ, otX0, otY0, otZ0, otRoll0, otPitch0, otYaw0, left wing, pitch motor, yaw motor, right wing, voltage, roll rate, pitch rate, yaw rate, A_x, A_y, A_z, current, i_raw, v_raw, airflow_voltage, airflow_speed, pot_Pitch
168578, 0.08192476630210876, -0.35044264793395996, -0.13208235800266266, 0, 0, 0, 0, 0, 0, -0.025049641728401184, 0.11855808645486832, 0.23986700177192688, -1.8669415065721846, 1.3996886347133, 5.410571410615135, 0, 0, 0, 0, 0, 0, 0, 0, 0, 0, 0, 0, 0, 0, 0, 0, 0
168588, 0.08171050995588303, -0.354555606842041, -0.13356316089630127, 2.9902403354644775, -0.5789760947227478, -4.045096397399902, 0.5352146625518799, -0.1041644960641861, -0.48169460892677307, -0.02507924661040306, 0.11857172101736069, 0.23987725377082825, -1.8309761558987017, 1.448465134671494, 5.43261333751198, 9362.0, 24903.0, 35388.0, 9362.0, 7.973554611206055, -0.10644517093896866, 0.23362630605697632, 0.09357277303934097, 0.0060938885435462, -0.0782294049859047, 0.9974907636642456, 0, 0, 0, 0, 0, 0
168598, 0.08099392801523209, -0.3576756715774536, -0.13348352909088135, 2.9955954551696777, -0.5800184607505798, -4.049914360046387, 0.5358201861381531, -0.10430555045604706, -0.48188161849975586, -0.02583325281739235, 0.11856329441070557, 0.23693719506263733, -3.386899178470721, -5.52300842981154, 5.771413997226463, 9362.0, 24903.0, 35388.0, 9362.0, 7.973554611206055, 0.03584785759449005, -0.18060876429080963, -0.16720756888389587, 0.006367011461406946, -0.07379695773124695, 0.9974365830421448, -0.10799765586853027, -0.10231781005859375, 1.487548828125, 1.333740234375, 0.0189361572265625, 1.359375
168608, 0.08206840604543686, -0.35625097155570984, -0.1351536512374878, 3.0009567737579346, -0.5810621976852417, -4.054734230041504, 0.5364309549331665, -0.10444535315036774, -0.48210224509239197, -0.025861751288175583, 0.11855591088533401, 0.2369004487991333, -3.4078160194878926, -5.5498020547342435, 5.803880413606886, 9362.0, 24903.0, 35388.0, 9362.0, 7.973554611206055, -0.023019909858703613, 0.03737574443221092, -0.03341386839747429, 0.006260714028030634, -0.07582029700279236, 0.9986546039581299, -0.10704240947961807, -0.10231781005859375, 1.487548828125, 1.291259765625, 0.0625457763671875, 1.35791015625
168618, 0.08205844461917877, -0.3555602431297302, -0.13627901673316956, 3.006324052810669, -0.5821073651313782, -4.059556484222412, 0.5370391607284546, -0.10458698123693466, -0.48233306407928467, -0.025832559913396835, 0.11856783181428909, 0.23699048161506653, -3.3864778000650873, -5.380714045181975, 5.799667868779232, 9362.0, 24903.0, 35388.0, 9362.0, 7.99338960647583, 0.1877809315919876, -0.15287980437278748, 0.1760963499546051, 0.006355319172143936, -0.07583515346050262, 0.996536374092102, -0.10768330097198486, -0.1291980743408203, 1.4853515625, 1.271484375, 0.1027679443359375, 1.353515625
168628, 0.08293551206588745, -0.3547375798225403, -0.13521552085876465, 3.01169753074646, -0.5831539630889893, -4.064380645751953, 0.5376464128494263, -0.10472863912582397, -0.4825347661972046, -0.02509336918592453, 0.11855284869670868, 0.23988863825798035, -1.83118055637458, 1.5310959062000506, 5.44044021217091, 9362.0, 24903.0, 35388.0, 9362.0, 7.99338960647583, -0.0486593060195446, 0.3498457968235016, 0.024068834260106087, 0.006896845996379852, -0.07576676458120346, 0.9950522184371948, -0.10810334980487823, -0.11127853393554688, 1.48681640625, 1.267822265625, 0.111724853515625, 1.35791015625
168638, 0.0827907845377922, -0.35691893100738525, -0.1340164840221405, 3.0170769691467285, -0.584201991558075, -4.069208145141602, 0.5382508635520935, -0.10487144440412521, -0.4829500615596771, -0.025077365338802338, 0.11854752153158188, 0.23987936973571777, -1.899976119364446, 1.4527383887821372, 5.42820210098277, 9362.0, 24903.0, 35388.0, 9362.0, 7.973554611206055, -0.04985196888446808, 0.16657601296901703, -0.09680189937353134, 0.00741154607385397, -0.07538299262523651, 0.9969009757041931, -0.10343938320875168, -0.12023735046386719, 1.486083984375, 1.269287109375, 0.1081085205078125, 1.35498046875
168648, 0.08174802362918854, -0.35762083530426025, -0.13370513916015625, 3.0224626064300537, -0.5852513909339905, -4.074039936065674, 0.5388588905334473, -0.10501397401094437, -0.4833984673023224, -0.025048168376088142, 0.11855507642030716, 0.23991607129573822, -1.802747690677652, 1.5356396973839423, 5.406721560729619, 9362.0, 24903.0, 35388.0, 9362.0, 7.973554611206055, -0.02575419843196869, 0.0623311884701252, 0.3910006284713745, 0.006182922050356865, -0.07498401403427124, 0.9983512163162231, -0.10400613397359848, -0.10231781005859375, 1.487548828125, 1.267822265625, 0.111724853515625, 1.35791015625
168658, 0.08176065981388092, -0.3561607599258423, -0.133017435669899, 3.0278542041778564, -0.5863022208213806, -4.0788750648498535, 0.5394695401191711, -0.10515505075454712, -0.48361045122146606, -0.02583913877606392, 0.11855120211839676, 0.23687216639518738, -3.4361035632846586, -5.639884781247503, 5.779119449324907, 9362.0, 24903.0, 35388.0, 9362.0, 7.973554611206055, 0.15570944547653198, -0.21626178920269012, 0.08038590103387833, 0.007005313411355019, -0.07542606443166733, 0.9992853999137878, -0.10552959144115448, -0.1291980743408203, 1.4853515625, 1.269287109375, 0.1081085205078125, 1.355712890625
168668, 0.08193518966436386, -0.3555951714515686, -0.13337095081806183, 3.033252000808716, -0.5873544812202454, -4.083711624145508, 0.5400785207748413, -0.10529633611440659, -0.48370248079299927, -0.02586350589990616, 0.11855372786521912, 0.23685339093208313, -3.4366291585124027, -5.763488595743013, 5.794661641660481, 9362.0, 24903.0, 35388.0, 9362.0, 7.99338960647583, -0.1606731116771698, 0.24900518357753754, -0.27821898460388184, 0.00438596261665225, -0.07586880773305893, 0.9954817295074463, -0.10779527574777603, -0.10231781005859375, 1.487548828125, 1.272216796875, 0.1009979248046875, 1.355712890625
168678, 0.08189970254898071, -0.3574022948741913, -0.1341162621974945, 3.0386557579040527, -0.5884081721305847, -4.088550090789795, 0.5406851768493652, -0.10543764382600784, -0.4839853346347809, -0.025070784613490105, 0.11854999512434006, 0.23987233638763428, -1.8227336838607302, 1.4890241155441402, 5.422736378146745, 9362.0, 24903.0, 35388.0, 9362.0, 7.99338960647583, -0.15402069687843323, -0.06929616630077362, -0.02494574896991253, 0.0036963019520044327, -0.07801207900047302, 0.9963501691818237, -0.10923264175653458, -0.1739978790283203, 1.481689453125, 1.226806640625, 0.2505340576171875, 1.35791015625
168688, 0.08190924674272537, -0.3558317720890045, -0.13414809107780457, 3.0440657138824463, -0.5894632339477539, -4.0933918952941895, 0.5412940382957458, -0.10557867586612701, -0.48441797494888306, -0.02584778517484665, 0.11856412887573242, 0.23692980408668518, -3.4183939072250604, -5.519228909758738, 5.7976958530113905, 9362.0, 24903.0, 35388.0, 9362.0, 7.973554611206055, -0.17209097743034363, 0.12296658754348755, 0.14018514752388, 0.004401820246130228, -0.07855156809091568, 0.9988609552383423, -0.11123144626617432, -0.09335899353027344, 1.48828125, 1.2333984375, 0.2232666015625, 1.354248046875
168698, 0.08033258467912674, -0.3562192916870117, -0.13288138806819916, 3.0494816303253174, -0.5905197262763977, -4.098237037658691, 0.5419020056724548, -0.10572011768817902, -0.4845770001411438, -0.0258297361433506, 0.11856383085250854, 0.2369280904531479, -3.416674869679156, -5.398225264827886, 5.7772387585356055, 9362.0, 24903.0, 35388.0, 9362.0, 7.99338960647583, -0.04912707209587097, 0.028154747560620308, 0.1692628413438797, 0.006857600063085556, -0.07564745098352432, 0.997194766998291, -0.10887140780687332, -0.09335899353027344, 1.48828125, 1.225341796875, 0.25689697265625, 1.357177734375
168708, 0.07935508340597153, -0.3568974435329437, -0.13237766921520233, 3.054903745651245, -0.5915776491165161, -4.103083610534668, 0.5425103306770325, -0.10585880279541016, -0.48478057980537415, -0.02508968859910965, 0.11856116354465485, 0.23978762328624725, -1.9178250453156687, 1.2511022531919025, 5.42093567049441, 9362.0, 24903.0, 35388.0, 9362.0, 7.973554611206055, 0.084901824593544, 0.4063093364238739, -0.15886786580085754, 0.0067793154157698154, -0.07474600523710251, 0.9958896040916443, -0.10837637633085251, -0.07543754577636719, 1.48974609375, 1.241455078125, 0.192626953125, 1.35791015625
168718, 0.07929842174053192, -0.3586362302303314, -0.13186031579971313, 3.0603318214416504, -0.5926369428634644, -4.107933521270752, 0.5431187748908997, -0.1059955358505249, -0.48515576124191284, -0.02582826092839241, 0.11855916678905487, 0.23685084283351898, -3.449968989224472, -5.889684136784808, 5.754058639333754, 9362.0, 24903.0, 35388.0, 9362.0, 7.99338960647583, 0.192238450050354, 0.40156131982803345, -0.1814686805009842, 0.005865762010216713, -0.07648950815200806, 0.9967890381813049, -0.10957732796669006, -0.06647872924804688, 1.490478515625, 1.242919921875, 0.1873626708984375, 1.355712890625
168728, 0.08062104135751724, -0.36108553409576416, -0.1327088624238968, 3.0657660961151123, -0.5936976075172424, -4.112786769866943, 0.5437304377555847, -0.10613226890563965, -0.48548024892807007, -0.025045687332749367, 0.1185489296913147, 0.23987630009651184, -1.8303875452373586, 1.3746860496049749, 5.395314335172951, 9362.0, 24903.0, 35388.0, 9362.0, 7.99338960647583, 0.21560503542423248, -0.23991043865680695, -0.2828175127506256, 0.0056669823825359344, -0.07606299966573715, 0.996008574962616, -0.10719991475343704, -0.12023735046386719, 1.486083984375, 1.23486328125, 0.2174835205078125, 1.359375
168738, 0.08171675354242325, -0.3600001335144043, -0.13519246876239777, 3.071206569671631, -0.5947596430778503, -4.117643356323242, 0.544346034526825, -0.10627122223377228, -0.4858599007129669, -0.025836031883955002, 0.11856802552938461, 0.23690804839134216, -3.3593406972641624, -5.595656341236662, 5.774421352359934, 9362.0, 24903.0, 35388.0, 9362.0, 7.99338960647583, -0.01460121851414442, -0.2662595212459564, -0.28936249017715454, 0.00559030007570982, -0.07400748133659363, 0.9975739121437073, -0.10750125348567963, -0.14711761474609375, 1.48388671875, 1.242919921875, 0.1873626708984375, 1.3564453125
168748, 0.08355041593313217, -0.35847947001457214, -0.13782672584056854, 3.076653003692627, -0.5958230495452881, -4.122503280639648, 0.5449603796005249, -0.10641223937273026, -0.4861200153827667, -0.025070153176784515, 0.11857027560472488, 0.2398913949728012, -1.8399593206777132, 1.3768615773719546, 5.439714177213377, 9362.0, 24903.0, 35388.0, 9362.0, 7.99338960647583, -0.13071198761463165, 0.10284429788589478, 0.04096190258860588, 0.005797019228339195, -0.07387777417898178, 0.9985210299491882, -0.1398163139820099, -0.12023735046386719, 1.486083984375, 1.23046875, 0.235137939453125, 1.3564453125
168758, 0.08245137333869934, -0.3568307161331177, -0.13732530176639557, 3.0821056365966797, -0.5968878865242004, -4.127365589141846, 0.5455726385116577, -0.1065564826130867, -0.4863002896308899, -0.02503601461648941, 0.11855510622262955, 0.23996376991271973, -1.801423827109125, 1.6815125434625031, 5.40050259987262, 9362.0, 24903.0, 35388.0, 9362.0, 7.99338960647583, 0.038377564400434494, -0.06400167942047119, 0.09934036433696747, 0.008267896249890327, -0.07597653567790985, 0.9963042140007019, -0.12936089932918549, -0.10231781005859375, 1.487548828125, 1.228271484375, 0.2443389892578125, 1.357177734375
168768, 0.08329237252473831, -0.3568935990333557, -0.13654819130897522, 3.087564468383789, -0.5979541540145874, -4.132229804992676, 0.5461814403533936, -0.10669870674610138, -0.4865795075893402, -0.02583538182079792, 0.11856149882078171, 0.23696956038475037, -3.367754552519365, -5.541056154435637, 5.768829258038134, 9362.0, 24903.0, 35388.0, 9362.0, 7.99338960647583, 0.0870424136519432, -0.03930935263633728, -0.08534888178110123, 0.005409440957009792, -0.07587237656116486, 0.9972599744796753, -0.12430255115032196, -0.10231781005859375, 1.487548828125, 1.329345703125, 0.02105712890625, 1.360107421875
168778, 0.08429612964391708, -0.35577112436294556, -0.13570933043956757, 3.093029260635376, -0.599021852016449, -4.137097358703613, 0.5467900633811951, -0.10684226453304291, -0.48692092299461365, -0.025847725570201874, 0.11855876445770264, 0.23687897622585297, -3.448300860899117, -5.6718667376686085, 5.789376475195439, 9362.0, 24903.0, 35388.0, 9362.0, 7.973554611206055, -0.13921314477920532, 0.16522812843322754, 0.33385100960731506, 0.00689984206110239, -0.07736441493034363, 0.9997314810752869, -0.12078522145748138, -0.14711761474609375, 1.48388671875, 1.235595703125, 0.214599609375, 1.352783203125
168788, 0.08284514397382736, -0.3575804531574249, -0.13580110669136047, 3.0985002517700195, -0.6000909805297852, -4.141966819763184, 0.5473983883857727, -0.10698788613080978, -0.48701733350753784, -0.025849338620901108, 0.1185702532529831, 0.23689110577106476, -3.4148408067114593, -5.826674142027343, 5.766875250599824, 9362.0, 24903.0, 35388.0, 9362.0, 7.99338960647583, 0.004655107390135527, -0.09570682793855667, -0.12374557554721832, 0.005703706294298172, -0.0761362835764885, 0.9968717694282532, -0.11558088660240173, -0.1650371551513672, 1.482421875, 1.330810546875, 0.0203399658203125, 1.3564453125
168798, 0.08253541588783264, -0.3581477403640747, -0.13647767901420593, 3.1039772033691406, -0.6011615991592407, -4.146838188171387, 0.5480090379714966, -0.10713092237710953, -0.48720985651016235, -0.025842271745204926, 0.1185460314154625, 0.23683816194534302, -3.4436205348157225, -5.721412083313226, 5.800010868861836, 9362.0, 24903.0, 35388.0, 9362.0, 7.99338960647583, 0.0705878734588623, 0.26790934801101685, 0.18911747634410858, 0.006663129199296236, -0.07541350275278091, 0.9947161078453064, -0.11367225646972656, -0.10231781005859375, 1.487548828125, 1.32861328125, 0.0214385986328125, 1.357177734375
168808, 0.08383482694625854, -0.3588548004627228, -0.1349545419216156, 3.1094603538513184, -0.6022336483001709, -4.151712417602539, 0.548619270324707, -0.10727305710315704, -0.48763906955718994, -0.025834551081061363, 0.1185721755027771, 0.23700030148029327, -3.3844639069696862, -5.402780041292743, 5.799679383516007, 9362.0, 24903.0, 35388.0, 9362.0, 7.99338960647583, 0.047947924584150314, 0.018339181318879128, 0.23513616621494293, 0.006010113283991814, -0.0773509070277214, 0.9948055148124695, -0.11106768250465393, -0.10231781005859375, 1.487548828125, 1.32861328125, 0.0214385986328125, 1.36083984375
168818, 0.08465481549501419, -0.360694020986557, -0.1343742311000824, 3.1149497032165527, -0.6033071279525757, -4.156591415405273, 0.5492299795150757, -0.10741723328828812, -0.4881792664527893, -0.02587227150797844, 0.11856591701507568, 0.2369031459093094, -3.4127316466516193, -5.580153900397875, 5.815442539854739, 9362.0, 24903.0, 35388.0, 9362.0, 7.973554611206055, 0.04913540557026863, 0.33820897340774536, 0.13790380954742432, 0.0047950767911970615, -0.07721981406211853, 0.9980435967445374, -0.11169527471065521, -0.15607833862304688, 1.483154296875, 1.335205078125, 0.018280029296875, 1.358642578125
168828, 0.08429247885942459, -0.3633538782596588, -0.133279487490654, 3.1204450130462646, -0.6043820381164551, -4.16147518157959, 0.5498448014259338, -0.10756303369998932, -0.4885658323764801, -0.025844208896160126, 0.11855649203062057, 0.23681452870368958, -3.4661714071651915, -5.8801807741032235, 5.782225940325492, 9362.0, 24903.0, 35388.0, 9362.0, 7.99338960647583, 0.1300022304058075, -0.23453441262245178, 0.0011580162681639194, 0.006521299947053194, -0.07760294526815414, 1.0006495714187622, -0.11021599173545837, -0.12023735046386719, 1.486083984375, 1.333740234375, 0.0189361572265625, 1.35791015625
168838, 0.08596579730510712, -0.36162447929382324, -0.13426931202411652, 3.125946521759033, -0.6054583787918091, -4.166360855102539, 0.5504666566848755, -0.10770883411169052, -0.48855060338974, -0.025065599009394646, 0.11853159964084625, 0.2398063987493515, -1.862290799669381, 1.4265665559502736, 5.416210558870297, 9362.0, 24903.0, 35388.0, 9362.0, 7.973554611206055, 0.04200803488492966, 0.3974885940551758, -0.03642522543668747, 0.007345817517489195, -0.07653313875198364, 0.9982995390892029, -0.11220591515302658, -0.13815879821777344, 1.484619140625, 1.3330078125, 0.0191650390625, 1.3564453125
168848, 0.08579348772764206, -0.3644322156906128, -0.1341593712568283, 3.1314542293548584, -0.6065362095832825, -4.171246528625488, 0.5510852336883545, -0.10785742849111557, -0.4885900020599365, -0.02587997354567051, 0.1185736209154129, 0.23686279356479645, -3.4077614798581237, -5.803024790664381, 5.794013770004924, 9362.0, 24903.0, 35388.0, 9362.0, 7.973554611206055, -0.049393411725759506, -0.15056152641773224, -0.02656073123216629, 0.004789093974977732, -0.07505060732364655, 0.9960330128669739, -0.10775185376405716, -0.04855918884277344, 1.491943359375, 1.330810546875, 0.0203399658203125, 1.3564453125
168858, 0.08526375144720078, -0.3642129898071289, -0.13304825127124786, 3.1369681358337402, -0.6076155304908752, -4.17613410949707, 0.5517070293426514, -0.10800531506538391, -0.48889198899269104, -0.025834867730736732, 0.11855759471654892, 0.23693415522575378, -3.382741250114648, -5.55275250881067, 5.795480977568786, 9362.0, 24903.0, 35388.0, 9362.0, 7.973554611206055, 0.11299573630094528, 0.09480836987495422, 0.21240362524986267, 0.006017603445798159, -0.073087178170681, 0.9967015385627747, -0.10851771384477615, -0.11127853393554688, 1.48681640625, 1.336669921875, 0.0177764892578125, 1.357177734375
168868, 0.08535570651292801, -0.3640415370464325, -0.13120678067207336, 3.1424882411956787, -0.6086963415145874, -4.18102502822876, 0.5523279309272766, -0.10815218836069107, -0.4892510771751404, -0.025839239358901978, 0.11856056749820709, 0.23691068589687347, -3.4097558414359543, -5.747765007403956, 5.7874531603943336, 9362.0, 24903.0, 35388.0, 9362.0, 7.973554611206055, 0.04716338962316513, -0.026951197534799576, -0.025686271488666534, 0.005927002523094416, -0.0742984488606453, 0.9960235953330994, -0.10859619826078415, -0.05751800537109375, 1.4912109375, 1.23046875, 0.235137939453125, 1.357177734375
168878, 0.08634141087532043, -0.3640414774417877, -0.13278022408485413, 3.148014545440674, -0.6097785830497742, -4.185919761657715, 0.5529481768608093, -0.10829910635948181, -0.48968446254730225, -0.025816427543759346, 0.11856456100940704, 0.23693929612636566, -3.3728429862111993, -5.62424628483646, 5.757443367942214, 9362.0, 24903.0, 35388.0, 9362.0, 7.99338960647583, -0.013839050196111202, 0.15592412650585175, -0.15682487189769745, 0.006358607206493616, -0.07334618270397186, 0.9972480535507202, -0.11126047372817993, -0.09335899353027344, 1.48828125, 1.242919921875, 0.1873626708984375, 1.35791015625
168888, 0.08609922230243683, -0.36451616883277893, -0.13211674988269806, 3.1535470485687256, -0.6108623147010803, -4.1908183097839355, 0.5535691976547241, -0.10844790935516357, -0.4899911880493164, -0.025871409103274345, 0.1185866966843605, 0.23687995970249176, -3.431649164385408, -5.62707103367643, 5.808578469421328, 9362.0, 24903.0, 35388.0, 9362.0, 7.973554611206055, 0.031954195350408554, 0.36028575897216797, 0.3577021658420563, 0.007840318605303764, -0.07371310889720917, 0.9970425963401794, -0.11272968351840973, -0.15607833862304688, 1.483154296875, 1.237060546875, 0.2089996337890625, 1.359375
168898, 0.08642170578241348, -0.3664824366569519, -0.1308671236038208, 3.159085750579834, -0.6119475364685059, -4.1957197189331055, 0.5541912317276001, -0.10859635472297668, -0.4902544617652893, -0.025067325681447983, 0.11858704686164856, 0.23981112241744995, -1.8301472555632787, 1.3321330786819772, 5.446347871699049, 9362.0, 24903.0, 35388.0, 9362.0, 7.973554611206055, 0.14462269842624664, 0.08476582914590836, -0.3175654113292694, 0.007495418656617403, -0.07482019066810608, 0.99612957239151, -0.11103504151105881, -0.06647872924804688, 1.490478515625, 1.225341796875, 0.25689697265625, 1.35791015625
168928, 0.0872453823685646, -0.3704107999801636, -0.1279134750366211, 3.164630889892578, -0.6130342483520508, -4.200623989105225, 0.5548163056373596, -0.1087452620267868, -0.49059343338012695, -0.025860439985990524, 0.11856970191001892, 0.23690369725227356, -3.362757047509005, -5.6339590791313015, 5.813424815507414, 9362.0, 24903.0, 35388.0, 9362.0, 7.99338960647583, -0.0178582314401865, -0.38815316557884216, -0.20554037392139435, 0.006961482111364603, -0.07657412439584732, 0.9964604377746582, -0.10964155942201614, -0.08439826965332031, 1.489013671875, 1.24072265625, 0.1952667236328125, 1.35791015625
168958, 0.08739578723907471, -0.3679957091808319, -0.12592671811580658, 3.1924502849578857, -0.6184901595115662, -4.225191116333008, 0.5579620003700256, -0.10948926210403442, -0.49228423833847046, -0.025039155036211014, 0.1185573861002922, 0.2399197220802307, -1.8146370475562077, 1.5321382851893475, 5.390161359096363, 9362.0, 24903.0, 35388.0, 9362.0, 7.973554611206055, 0.1121060699224472, -0.3614589273929596, -0.4261852204799652, 0.007252760697156191, -0.07529855519533157, 0.9970068335533142, -0.10964155942201614, -0.08439826965332031, 1.489013671875, 1.23193359375, 0.2292022705078125, 1.35791015625
168978, 0.0881895124912262, -0.36343449354171753, -0.12706294655799866, 3.2036221027374268, -0.620682954788208, -4.235042095184326, 0.559215247631073, -0.10979139059782028, -0.4927528202533722, -0.025044210255146027, 0.11855699121952057, 0.23980854451656342, -1.8539275251402554, 1.3296464598442412, 5.398556999395551, 9362.0, 24903.0, 35388.0, 9362.0, 7.973554611206055, 0.037615638226270676, 0.04142337664961815, 0.1888185292482376, 0.006029640324413776, -0.07624436169862747, 0.9984869956970215, -0.10964155942201614, -0.08439826965332031, 1.489013671875, 1.239990234375, 0.1979827880859375, 1.355712890625
168988, 0.08834712952375412, -0.3632662296295166, -0.12593473494052887, 3.2097771167755127, -0.6218915581703186, -4.240463733673096, 0.5598979592323303, -0.10995864868164062, -0.49298930168151855, -0.025843247771263123, 0.11856900155544281, 0.23690539598464966, -3.3943461795160292, -5.6475563922437, 5.7897440182758135, 9362.0, 24903.0, 35388.0, 9362.0, 7.973554611206055, -0.020634725689888, -0.05659378319978714, 0.06901615113019943, 0.006029640324413776, -0.07624436169862747, 0.9984869956970215, -0.10964155942201614, -0.08439826965332031, 1.489013671875, 1.239990234375, 0.1979827880859375, 1.355712890625
168998, 0.08939824998378754, -0.36430874466896057, -0.12485426664352417, 3.2097771167755127, -0.6218915581703186, -4.240463733673096, 0.5598979592323303, -0.10995864868164062, -0.49298930168151855, -0.025842959061264992, 0.11857319623231888, 0.23697637021541595, -3.4228280205303605, -5.3680445269940265, 5.822425319824073, 9362.0, 24903.0, 35388.0, 9362.0, 7.973554611206055, -0.19095954298973083, 0.4025949537754059, 0.5821938514709473, 0.006029640324413776, -0.07624436169862747, 0.9984869956970215, -0.10964155942201614, -0.08439826965332031, 1.489013671875, 1.239990234375, 0.1979827880859375, 1.3564453125
169038, 0.09020189940929413, -0.3704601526260376, -0.11917134374380112, 3.237849712371826, -0.6274086236953735, -4.265166759490967, 0.5630139112472534, -0.11072630435228348, -0.4952237010002136, -0.025038061663508415, 0.1185474693775177, 0.2399744987487793, -1.7661225885332956, 1.6773492610028313, 5.393976130159495, 9362.0, 24903.0, 35388.0, 9362.0, 7.99338960647583, -0.10314206779003143, -0.10767702013254166, -0.09429533034563065, 0.0066485218703746796, -0.07640547305345535, 0.9989162087440491, -0.10964155942201614, -0.08439826965332031, 1.489013671875, 1.244384765625, 0.18212890625, 1.3564453125
169048, 0.0896977111697197, -0.3712836503982544, -0.11795549094676971, 3.237849712371826, -0.6274086236953735, -4.265166759490967, 0.5630139112472534, -0.11072630435228348, -0.4952237010002136, -0.025853272527456284, 0.11855131387710571, 0.2368735820055008, -3.4401785389430315, -5.626158122295266, 5.808882229314117, 9362.0, 24903.0, 35388.0, 9362.0, 7.973554611206055, -0.10314206779003143, -0.10767702013254166, -0.09429533034563065, 0.006478377617895603, -0.0750313475728035, 0.9975483417510986, -0.10964155942201614, -0.08439826965332031, 1.489013671875, 1.244384765625, 0.18212890625, 1.3564453125
169068, 0.09060770273208618, -0.37120839953422546, -0.11731810867786407, 3.2547686100006104, -0.6307374238967896, -4.280032634735107, 0.5649123191833496, -0.11119337379932404, -0.4958683252334595, -0.025858905166387558, 0.11857658624649048, 0.23683542013168335, -3.434545648552883, -5.797898713609982, 5.808246645780601, 9362.0, 24903.0, 35388.0, 9362.0, 7.973554611206055, -0.08984147757291794, 0.07568957656621933, -0.26106807589530945, 0.006478377617895603, -0.0750313475728035, 0.9975483417510986, -0.10964155942201614, -0.08439826965332031, 1.489013671875, 1.330078125, 0.0206298828125, 1.3564453125
169088, 0.09021056443452835, -0.3748660683631897, -0.11810003221035004, 3.260420799255371, -0.6318501234054565, -4.284992218017578, 0.5655462741851807, -0.11134953051805496, -0.49606284499168396, -0.025061344727873802, 0.11855173110961914, 0.23991325497627258, -1.8141358361183173, 1.5372923469521425, 5.423556022554112, 9362.0, 24903.0, 35388.0, 9362.0, 7.99338960647583, -0.1322428584098816, -0.11538291722536087, 0.04974336177110672, 0.004770894534885883, -0.07542546093463898, 0.9976284503936768, -0.10964155942201614, -0.08439826965332031, 1.489013671875, 1.330078125, 0.0206298828125, 1.3564453125
169098, 0.08949293196201324, -0.37581488490104675, -0.11863888800144196, 3.2717444896698, -0.6340802311897278, -4.294917106628418, 0.5668231844902039, -0.11166069656610489, -0.49647384881973267, -0.025822918862104416, 0.11856327205896378, 0.23696503043174744, -3.3899571902942465, -5.4840024204337965, 5.787371902677088, 9362.0, 24903.0, 35388.0, 9362.0, 7.99338960647583, 0.049097102135419846, 0.00013618252705782652, -0.029062960296869278, 0.004770894534885883, -0.07542546093463898, 0.9976284503936768, -0.10964155942201614, -0.08439826965332031, 1.489013671875, 1.330078125, 0.0206298828125, 1.3564453125
169108, 0.0898878201842308, -0.37463366985321045, -0.11931829154491425, 3.2774159908294678, -0.635197639465332, -4.299882411956787, 0.5674654841423035, -0.11181506514549255, -0.49660933017730713, -0.025845827534794807, 0.11855169385671616, 0.2368631213903427, -3.390145426151924, -5.704800572528939, 5.7847845115189696, 9362.0, 24903.0, 35388.0, 9362.0, 7.99338960647583, 0.1496417224407196, -0.09493373334407806, -0.024422304704785347, 0.004770894534885883, -0.07542546093463898, 0.9976284503936768, -0.10964155942201614, -0.08439826965332031, 1.489013671875, 1.330078125, 0.0206298828125, 1.3564453125
169158, 0.09167216718196869, -0.3786526918411255, -0.11610216647386551, 3.3001656532287598, -0.6396827101707458, -4.319762229919434, 0.5700330138206482, -0.1124417632818222, -0.49723899364471436, -0.025061873719096184, 0.1185578778386116, 0.23989924788475037, -1.8158454543613736, 1.5513273235279996, 5.415712682375306, 9362.0, 24903.0, 35388.0, 9362.0, 7.99338960647583, 0.050194308161735535, 0.07815054804086685, -0.186172753572464, 0.005556138698011637, -0.07509033381938934, 0.9983429908752441, -0.10964155942201614, -0.08439826965332031, 1.489013671875, 1.237060546875, 0.2089996337890625, 1.358642578125
169168, 0.09133691340684891, -0.3799057602882385, -0.11714082956314087, 3.3001656532287598, -0.6396827101707458, -4.319762229919434, 0.5700330138206482, -0.1124417632818222, -0.49723899364471436, -0.025795143097639084, 0.11855100840330124, 0.23697972297668457, -3.356849887786447, -5.370356769055775, 5.737564988244329, 9362.0, 24903.0, 35388.0, 9362.0, 7.99338960647583, 0.050194308161735535, 0.07815054804086685, -0.186172753572464, 0.005756876897066832, -0.07398130744695663, 0.9980453848838806, -0.10964155942201614, -0.08439826965332031, 1.489013671875, 1.237060546875, 0.2089996337890625, 1.358642578125
169178, 0.09128875285387039, -0.37993502616882324, -0.11672363430261612, 3.317296028137207, -0.6430630683898926, -4.3346848487854, 0.5719770193099976, -0.11291516572237015, -0.497763991355896, -0.02584270015358925, 0.11856706440448761, 0.23693512380123138, -3.3945303493565917, -5.488411835648549, 5.781441771796042, 9362.0, 24903.0, 35388.0, 9362.0, 7.973554611206055, 0.1114434152841568, -0.08726207166910172, -0.07773138582706451, 0.005756876897066832, -0.07398130744695663, 0.9980453848838806, -0.10964155942201614, -0.08439826965332031, 1.489013671875, 1.237060546875, 0.2089996337890625, 1.358642578125
169208, 0.09061788767576218, -0.3831314146518707, -0.111836276948452, 3.3287484645843506, -0.6453244686126709, -4.344647407531738, 0.5732691287994385, -0.11322729289531708, -0.4985399842262268, -0.02506345883011818, 0.11854997277259827, 0.23988138139247894, -1.823497251574245, 1.547476839353294, 5.386647782528333, 9362.0, 24903.0, 35388.0, 9362.0, 7.99338960647583, 0.046395882964134216, -0.15994872152805328, 0.0005925634177401662, 0.008066381327807903, -0.07553235441446304, 0.9981871843338013, -0.10964155942201614, -0.08439826965332031, 1.489013671875, 1.15869140625, 0.6672515869140625, 1.358642578125
169228, 0.09189985692501068, -0.3798734247684479, -0.11451724171638489, 3.3287484645843506, -0.6453244686126709, -4.344647407531738, 0.5732691287994385, -0.11322729289531708, -0.4985399842262268, -0.025862354785203934, 0.1185651570558548, 0.23687732219696045, -3.456872353663565, -5.630688771704797, 5.8048244206855575, 9362.0, 24903.0, 35388.0, 9362.0, 7.99338960647583, 0.115388885140419, 0.2753360867500305, -0.14576895534992218, 0.006112411618232727, -0.0748714953660965, 0.9978324770927429, -0.10964155942201614, -0.08439826965332031, 1.489013671875, 1.15869140625, 0.6672515869140625, 1.361572265625
169278, 0.09430377930402756, -0.37502023577690125, -0.11849082261323929, 3.3690366744995117, -0.6532889604568481, -4.379599571228027, 0.5778174996376038, -0.11433221399784088, -0.5000790357589722, -0.02504710480570793, 0.11856354773044586, 0.23982594907283783, -1.8903180443211154, 1.402010781275692, 5.40937453154925, 9362.0, 24903.0, 35388.0, 9362.0, 7.99338960647583, 0.036430392414331436, -0.11938924342393875, -0.15237924456596375, 0.006412309594452381, -0.0752951130270958, 0.9971759915351868, -0.10964155942201614, -0.08439826965332031, 1.489013671875, 1.229736328125, 0.23822021484375, 1.360107421875
169288, 0.09424270689487457, -0.37417203187942505, -0.11866812407970428, 3.3690366744995117, -0.6532889604568481, -4.379599571228027, 0.5778174996376038, -0.11433221399784088, -0.5000790357589722, -0.025830017402768135, 0.11855339258909225, 0.23696906864643097, -3.380474383507369, -5.45003087686726, 5.741647742981661, 9362.0, 24903.0, 35388.0, 9362.0, 7.99338960647583, 0.1220661997795105, -0.09477591514587402, 0.0009867874905467033, 0.006412309594452381, -0.0752951130270958, 0.9971759915351868, -0.10964155942201614, -0.08439826965332031, 1.489013671875, 1.229736328125, 0.23822021484375, 1.360107421875
169308, 0.09591194242238998, -0.37594524025917053, -0.12014276534318924, 3.3690366744995117, -0.6532889604568481, -4.379599571228027, 0.5778174996376038, -0.11433221399784088, -0.5000790357589722, -0.02584923431277275, 0.11855448782444, 0.2369006723165512, -3.4280394226121573, -5.6584669706626585, 5.803449481391331, 9362.0, 24903.0, 35388.0, 9362.0, 7.973554611206055, -0.17600491642951965, 0.10947505384683609, 0.08557365834712982, 0.006412309594452381, -0.0752951130270958, 0.9971759915351868, -0.10964155942201614, -0.08439826965332031, 1.489013671875, 1.229736328125, 0.23822021484375, 1.360107421875
169328, 0.09613785892724991, -0.3770592212677002, -0.12045601010322571, 3.3690366744995117, -0.6532889604568481, -4.379599571228027, 0.5778174996376038, -0.11433221399784088, -0.5000790357589722, -0.025862663984298706, 0.1185777336359024, 0.23694469034671783, -3.3942276728938663, -5.491055565353349, 5.813457235119567, 9362.0, 24903.0, 35388.0, 9362.0, 7.973554611206055, -0.07219067215919495, 0.23969022929668427, 0.11912063509225845, 0.006412309594452381, -0.0752951130270958, 0.9971759915351868, -0.10964155942201614, -0.08439826965332031, 1.489013671875, 1.305908203125, 0.0413360595703125, 1.360107421875
169348, 0.09554857015609741, -0.3794330954551697, -0.11928117275238037, 3.4154670238494873, -0.6624875068664551, -4.419680595397949, 0.5829522013664246, -0.11564027518033981, -0.5021870732307434, -0.025056835263967514, 0.11854689568281174, 0.23987264931201935, -1.834918432269867, 1.5315559173737086, 5.4267151663756605, 9362.0, 24903.0, 35388.0, 9362.0, 7.99338960647583, -0.09130442142486572, 0.0439121387898922, 0.11446037143468857, 0.006412309594452381, -0.0752951130270958, 0.9971759915351868, -0.10964155942201614, -0.08439826965332031, 1.489013671875, 1.2333984375, 0.2232666015625, 1.360107421875
169408, 0.09566182643175125, -0.3859149217605591, -0.11568214744329453, 3.4446957111358643, -0.6682900786399841, -4.444820404052734, 0.5861929655075073, -0.11646080017089844, -0.5035195350646973, -0.025829017162322998, 0.11856484413146973, 0.23694202303886414, -3.399592969271726, -5.544425308896962, 5.774972455728421, 9362.0, 24903.0, 35388.0, 9362.0, 7.99338960647583, -0.06778337061405182, 0.07227285206317902, -0.1239054873585701, 0.004489258863031864, -0.07676150649785995, 0.9969081282615662, -0.10964155942201614, -0.08439826965332031, 1.489013671875, 1.1630859375, 0.6321258544921875, 1.357177734375
169458, 0.09701384603977203, -0.38509631156921387, -0.11653991043567657, 3.4799857139587402, -0.6753073334693909, -4.475080490112305, 0.5901448726654053, -0.11745097488164902, -0.5049188733100891, -0.02583174780011177, 0.11856810003519058, 0.23693445324897766, -3.4137807057295015, -5.546051020283187, 5.777833260054622, 9362.0, 24903.0, 35388.0, 9362.0, 7.99338960647583, 0.06742753088474274, 0.24618233740329742, 0.04190155118703842, 0.006255647167563438, -0.07552886754274368, 0.9997797012329102, -0.10964155942201614, -0.08439826965332031, 1.489013671875, 1.2802734375, 0.0831756591796875, 1.357177734375
169468, 0.09746212512254715, -0.38676318526268005, -0.11568668484687805, 3.4799857139587402, -0.6753073334693909, -4.475080490112305, 0.5901448726654053, -0.11745097488164902, -0.5049188733100891, -0.025080401450395584, 0.11853429675102234, 0.23980912566184998, -1.8985121477341746, 1.3100238267899442, 5.434364600803177, 9362.0, 24903.0, 35388.0, 9362.0, 7.99338960647583, -0.1364322006702423, -0.32833871245384216, -0.13682009279727936, 0.006255647167563438, -0.07552886754274368, 0.9997797012329102, -0.10964155942201614, -0.08439826965332031, 1.489013671875, 1.2802734375, 0.0831756591796875, 1.3564453125
169478, 0.09787791222333908, -0.38628455996513367, -0.11748760938644409, 3.4918017387390137, -0.6776596903800964, -4.48518180847168, 0.5914631485939026, -0.1177859976887703, -0.5052966475486755, -0.025059882551431656, 0.1185515820980072, 0.23978722095489502, -1.8657444000697483, 1.1544659079514474, 5.404751132046463, 9362.0, 24903.0, 35388.0, 9362.0, 7.99338960647583, -0.07744032889604568, -0.29480624198913574, -0.059278786182403564, 0.006255647167563438, -0.07552886754274368, 0.9997797012329102, -0.10964155942201614, -0.08439826965332031, 1.489013671875, 1.2802734375, 0.0831756591796875, 1.3564453125
169518, 0.09740517288446426, -0.38270583748817444, -0.11836271733045578, 3.5155129432678223, -0.6823846101760864, -4.50540018081665, 0.5940954089164734, -0.1184612438082695, -0.505837082862854, -0.025074303150177002, 0.11854369938373566, 0.2398303896188736, -1.8370718275456064, 1.2675269929967214, 5.445404735764711, 9362.0, 24903.0, 35388.0, 9362.0, 7.99338960647583, 0.17144358158111572, 0.05441395193338394, -0.0018601642223075032, 0.005316677037626505, -0.07327531278133392, 0.9982447624206543, -0.10964155942201614, -0.08439826965332031, 1.489013671875, 1.188720703125, 0.4511871337890625, 1.361572265625
169528, 0.09826884418725967, -0.3819614052772522, -0.11826257407665253, 3.5214571952819824, -0.6835700869560242, -4.510458946228027, 0.5947495698928833, -0.11862917989492416, -0.5059482455253601, -0.025848885998129845, 0.11858338862657547, 0.23690496385097504, -3.414237751303174, -5.608197555006825, 5.81177236282819, 9362.0, 24903.0, 35388.0, 9362.0, 7.99338960647583, 0.09483416378498077, 0.053483981639146805, 0.009716510772705078, 0.005316677037626505, -0.07327531278133392, 0.9982447624206543, -0.10964155942201614, -0.08439826965332031, 1.489013671875, 1.188720703125, 0.4511871337890625, 1.361572265625
169538, 0.09841472655534744, -0.38315361738204956, -0.11958103626966476, 3.5214571952819824, -0.6835700869560242, -4.510458946228027, 0.5947495698928833, -0.11862917989492416, -0.5059482455253601, -0.02581348456442356, 0.11855209618806839, 0.23691822588443756, -3.4024437109426744, -5.516834369098859, 5.749217620511022, 9362.0, 24903.0, 35388.0, 9362.0, 7.99338960647583, 0.17769873142242432, 0.14597800374031067, 0.06397487968206406, 0.005316677037626505, -0.07327531278133392, 0.9982447624206543, -0.10964155942201614, -0.08439826965332031, 1.489013671875, 1.188720703125, 0.4511871337890625, 1.357177734375
169588, 0.09891149401664734, -0.381276398897171, -0.12031625956296921, 3.5572597980499268, -0.6907183527946472, -4.540850639343262, 0.5986695885658264, -0.11964574456214905, -0.5070856809616089, -0.02505328506231308, 0.11855828762054443, 0.23979538679122925, -1.8700255230856044, 1.258201453573605, 5.400531524214804, 9362.0, 24903.0, 35388.0, 9362.0, 7.99338960647583, 0.1806500256061554, -0.21689438819885254, -0.048505574464797974, 0.006646376568824053, -0.07589295506477356, 0.9983097314834595, -0.10964155942201614, -0.08439826965332031, 1.489013671875, 1.342529296875, 0.0161895751953125, 1.3564453125
169638, 0.09921659529209137, -0.37775129079818726, -0.12190777063369751, 3.581258535385132, -0.6955178380012512, -4.5611572265625, 0.6012626886367798, -0.12032914906740189, -0.5082955360412598, -0.02584986574947834, 0.11855586618185043, 0.23685801029205322, -3.4328893208263347, -5.70732349466914, 5.789330609746349, 9362.0, 24903.0, 35388.0, 9362.0, 7.99338960647583, -0.07586973905563354, 0.020788922905921936, 0.2979535162448883, 0.009531265124678612, -0.07436982542276382, 0.996147871017456, -0.10602268576622009, -0.12023735046386719, 1.486083984375, 1.330078125, 0.0206298828125, 1.3564453125
169648, 0.0981808602809906, -0.37879982590675354, -0.12057255953550339, 3.581258535385132, -0.6955178380012512, -4.5611572265625, 0.6012626886367798, -0.12032914906740189, -0.5082955360412598, -0.025854792445898056, 0.1185629814863205, 0.23685114085674286, -3.4244979456347995, -5.7244869484964624, 5.812467821282755, 9362.0, 24903.0, 35388.0, 9362.0, 7.99338960647583, 0.21284905076026917, -0.019520321860909462, -0.00727016432210803, 0.009531265124678612, -0.07436982542276382, 0.996147871017456, -0.10602268576622009, -0.12023735046386719, 1.486083984375, 1.330078125, 0.0206298828125, 1.36083984375
169668, 0.0986357182264328, -0.3773435354232788, -0.11794627457857132, 3.581258535385132, -0.6955178380012512, -4.5611572265625, 0.6012626886367798, -0.12032914906740189, -0.5082955360412598, -0.02585594356060028, 0.11857094615697861, 0.23691633343696594, -3.3830681614495823, -5.618258451089218, 5.810042225345919, 9362.0, 24903.0, 35388.0, 9362.0, 7.99338960647583, -0.22174009680747986, 0.32728543877601624, 0.1403365284204483, 0.006892515812069178, -0.07638509571552277, 0.9989005923271179, -0.10602268576622009, -0.12023735046386719, 1.486083984375, 1.330078125, 0.0206298828125, 1.357177734375
169678, 0.09758345782756805, -0.37713730335235596, -0.11765508353710175, 3.581258535385132, -0.6955178380012512, -4.5611572265625, 0.6012626886367798, -0.12032914906740189, -0.5082955360412598, -0.02505362033843994, 0.11852795630693436, 0.2398582100868225, -1.8242297761201376, 1.3878477003784155, 5.368291770749484, 9362.0, 24903.0, 35388.0, 9362.0, 7.99338960647583, 0.0026942091062664986, 0.0015149974497035146, -0.08743281662464142, 0.006892515812069178, -0.07638509571552277, 0.9989005923271179, -0.10602268576622009, -0.12023735046386719, 1.486083984375, 1.330078125, 0.0206298828125, 1.357177734375
169688, 0.09758768230676651, -0.378182053565979, -0.11684337258338928, 3.581258535385132, -0.6955178380012512, -4.5611572265625, 0.6012626886367798, -0.12032914906740189, -0.5082955360412598, -0.025843575596809387, 0.11855575442314148, 0.23692020773887634, -3.3847369126505695, -5.511400873821827, 5.797001375953286, 9362.0, 24903.0, 35388.0, 9362.0, 7.99338960647583, -0.15791931748390198, 0.19021420180797577, -0.05179201439023018, 0.006892515812069178, -0.07638509571552277, 0.9989005923271179, -0.10602268576622009, -0.12023735046386719, 1.486083984375, 1.330078125, 0.0206298828125, 1.361572265625
169698, 0.09650373458862305, -0.37837550044059753, -0.1171867772936821, 3.581258535385132, -0.6955178380012512, -4.5611572265625, 0.6012626886367798, -0.12032914906740189, -0.5082955360412598, -0.02586425095796585, 0.118564672768116, 0.23690149188041687, -3.3650930526885054, -5.620572710039568, 5.827078813915931, 9362.0, 24903.0, 35388.0, 9362.0, 7.99338960647583, 0.09518670290708542, 0.16541646420955658, -0.020891817286610603, 0.006892515812069178, -0.07638509571552277, 0.9989005923271179, -0.10602268576622009, -0.12023735046386719, 1.486083984375, 1.335205078125, 0.018280029296875, 1.361572265625
169718, 0.09775347262620926, -0.3787238597869873, -0.11802054196596146, 3.581258535385132, -0.6955178380012512, -4.5611572265625, 0.6012626886367798, -0.12032914906740189, -0.5082955360412598, -0.025839027017354965, 0.11856506019830704, 0.2369273602962494, -3.4101319947607145, -5.553423434160436, 5.776552615786606, 9362.0, 24903.0, 35388.0, 9362.0, 7.99338960647583, 0.09625465422868729, -0.15805760025978088, 0.11466185748577118, 0.006892515812069178, -0.07638509571552277, 0.9989005923271179, -0.10602268576622009, -0.12023735046386719, 1.486083984375, 1.3271484375, 0.022308349609375, 1.357177734375
169758, 0.0992802307009697, -0.38245317339897156, -0.11569510400295258, 3.659968137741089, -0.7113037705421448, -4.627476692199707, 0.6096606850624084, -0.12253263592720032, -0.5116991996765137, -0.025063589215278625, 0.1185569316148758, 0.23983320593833923, -1.8385998113395399, 1.3673743417204491, 5.393871841598531, 9362.0, 24903.0, 35388.0, 9362.0, 7.99338960647583, -0.023850155994296074, -0.19757433235645294, -0.22089065611362457, 0.006892515812069178, -0.07638509571552277, 0.9989005923271179, -0.10602268576622009, -0.12023735046386719, 1.486083984375, 1.342529296875, 0.0161895751953125, 1.35791015625
169768, 0.09953321516513824, -0.3840632140636444, -0.11528679728507996, 3.659968137741089, -0.7113037705421448, -4.627476692199707, 0.6096606850624084, -0.12253263592720032, -0.5116991996765137, -0.02504638209939003, 0.11853116005659103, 0.23980534076690674, -1.8456572962422466, 1.2111079898629384, 5.381332452234291, 9362.0, 24903.0, 35388.0, 9362.0, 7.99338960647583, 0.0682700127363205, -0.19297119975090027, -0.23590195178985596, 0.006892515812069178, -0.07638509571552277, 0.9989005923271179, -0.10602268576622009, -0.12023735046386719, 1.486083984375, 1.342529296875, 0.0161895751953125, 1.3623046875
169778, 0.10012821108102798, -0.3839690387248993, -0.11557186394929886, 3.659968137741089, -0.7113037705421448, -4.627476692199707, 0.6096606850624084, -0.12253263592720032, -0.5116991996765137, -0.025842368602752686, 0.11855252087116241, 0.23681339621543884, -3.456131664696043, -5.8155193346648275, 5.763535545264634, 9362.0, 24903.0, 35388.0, 9362.0, 7.99338960647583, -0.26908665895462036, -0.17965449392795563, 0.3499746322631836, 0.006892515812069178, -0.07638509571552277, 0.9989005923271179, -0.10602268576622009, -0.12023735046386719, 1.486083984375, 1.342529296875, 0.0161895751953125, 1.35791015625
169818, 0.09941911697387695, -0.38543617725372314, -0.11358438432216644, 3.6844069957733154, -0.7162188291549683, -4.647955894470215, 0.6122793555259705, -0.12321700900793076, -0.512493908405304, -0.0250791534781456, 0.11856681108474731, 0.239850252866745, -1.8342707844898618, 1.4241124596330792, 5.432816066846206, 9362.0, 24903.0, 35388.0, 9362.0, 7.99338960647583, -0.07245801389217377, -0.12938527762889862, -0.46366754174232483, 0.007527918554842472, -0.07409188896417618, 0.9952147006988525, -0.10602268576622009, -0.12023735046386719, 1.486083984375, 1.245849609375, 0.1771087646484375, 1.3623046875
169828, 0.09995131939649582, -0.38566824793815613, -0.11608551442623138, 3.7028050422668457, -0.7199230194091797, -4.663351058959961, 0.6142486929893494, -0.12372830510139465, -0.5136407017707825, -0.025052258744835854, 0.1185687929391861, 0.23981185257434845, -1.8940522258496093, 1.243146953210129, 5.38929247461061, 9362.0, 24903.0, 35388.0, 9362.0, 7.99338960647583, -0.07245801389217377, -0.12938527762889862, -0.46366754174232483, 0.007527918554842472, -0.07409188896417618, 0.9952147006988525, -0.10602268576622009, -0.12023735046386719, 1.486083984375, 1.245849609375, 0.1771087646484375, 1.3623046875
169838, 0.10064224153757095, -0.38566336035728455, -0.11601743847131729, 3.7028050422668457, -0.7199230194091797, -4.663351058959961, 0.6142486929893494, -0.12372830510139465, -0.5136407017707825, -0.025874637067317963, 0.11856534332036972, 0.23687587678432465, -3.407737452163328, -5.670831054293757, 5.795221512113578, 9362.0, 24903.0, 35388.0, 9362.0, 7.99338960647583, -0.05946854501962662, 0.05703210085630417, 0.1914365291595459, 0.007527918554842472, -0.07409188896417618, 0.9952147006988525, -0.10602268576622009, -0.12023735046386719, 1.486083984375, 1.245849609375, 0.1771087646484375, 1.353515625
169858, 0.09931115061044693, -0.387572705745697, -0.11162332445383072, 3.7028050422668457, -0.7199230194091797, -4.663351058959961, 0.6142486929893494, -0.12372830510139465, -0.5136407017707825, -0.02504028007388115, 0.11854291707277298, 0.23987466096878052, -1.8028065996557785, 1.302601525217682, 5.3825608742149065, 9362.0, 24903.0, 35388.0, 9362.0, 7.973554611206055, 0.02617534063756466, 0.2786843180656433, -0.24264471232891083, 0.006152376066893339, -0.07758975028991699, 0.9973456263542175, -0.10602268576622009, -0.12023735046386719, 1.486083984375, 1.2802734375, 0.0831756591796875, 1.35791015625
169878, 0.09956411272287369, -0.38820680975914, -0.11234093457460403, 3.7335996627807617, -0.7261309027671814, -4.689075946807861, 0.6175466775894165, -0.12458667904138565, -0.5151255130767822, -0.02507937327027321, 0.11855945736169815, 0.23979133367538452, -1.8770055839048638, 1.294546252339046, 5.405786759254347, 9362.0, 24903.0, 35388.0, 9362.0, 7.99338960647583, 0.24177710711956024, 0.08988464623689651, -0.2032652050256729, 0.006362124811857939, -0.07560544461011887, 0.9969860911369324, -0.10602268576622009, -0.12023735046386719, 1.486083984375, 1.2802734375, 0.0831756591796875, 1.358642578125
169888, 0.10087276995182037, -0.38710904121398926, -0.11353102326393127, 3.7335996627807617, -0.7261309027671814, -4.689075946807861, 0.6175466775894165, -0.12458667904138565, -0.5151255130767822, -0.025072582066059113, 0.11853840202093124, 0.23987366259098053, -1.8080837779913317, 1.4207553647050588, 5.427903450967013, 9362.0, 24903.0, 35388.0, 9362.0, 7.973554611206055, 0.24177710711956024, 0.08988464623689651, -0.2032652050256729, 0.00688133342191577, -0.07884889841079712, 0.9958810210227966, -0.10602268576622009, -0.12023735046386719, 1.486083984375, 1.26123046875, 0.129302978515625, 1.358642578125
169908, 0.099344402551651, -0.3922716975212097, -0.11362656950950623, 3.7335996627807617, -0.7261309027671814, -4.689075946807861, 0.6175466775894165, -0.12458667904138565, -0.5151255130767822, -0.025842653587460518, 0.11858157068490982, 0.2369345873594284, -3.403453001766007, -5.511960806102707, 5.795441073768711, 9362.0, 24903.0, 35388.0, 9362.0, 7.99338960647583, 0.021394917741417885, -0.049940675497055054, 0.01607172191143036, 0.00688133342191577, -0.07884889841079712, 0.9958810210227966, -0.10602268576622009, -0.12023735046386719, 1.486083984375, 1.264892578125, 0.119354248046875, 1.360107421875
169928, 0.10044541209936142, -0.39175546169281006, -0.11592259258031845, 3.758354425430298, -0.7311280965805054, -4.709708213806152, 0.6202062964439392, -0.1252751648426056, -0.5163602232933044, -0.0250529907643795, 0.1185484230518341, 0.2398681640625, -1.8552384525971708, 1.3580485585332838, 5.393630904986185, 9362.0, 24903.0, 35388.0, 9362.0, 7.99338960647583, -0.03146656975150108, 0.011631482280790806, -0.011306521482765675, 0.00579194026067853, -0.07546830177307129, 0.9972736239433289, -0.10602268576622009, -0.12023735046386719, 1.486083984375, 1.264892578125, 0.119354248046875, 1.358642578125
169938, 0.1006261333823204, -0.39273613691329956, -0.11725363880395889, 3.758354425430298, -0.7311280965805054, -4.709708213806152, 0.6202062964439392, -0.1252751648426056, -0.5163602232933044, -0.025869213044643402, 0.1185460239648819, 0.236861452460289, -3.4325310654223147, -5.6536223182392575, 5.783558719125482, 9362.0, 24903.0, 35388.0, 9362.0, 7.99338960647583, 0.15100735425949097, 0.026674536988139153, -0.1526942104101181, 0.00579194026067853, -0.07546830177307129, 0.9972736239433289, -0.10602268576622009, -0.12023735046386719, 1.486083984375, 1.264892578125, 0.119354248046875, 1.359375
169958, 0.102028489112854, -0.3926747739315033, -0.11834821850061417, 3.758354425430298, -0.7311280965805054, -4.709708213806152, 0.6202062964439392, -0.1252751648426056, -0.5163602232933044, -0.025813639163970947, 0.11855391412973404, 0.23697450757026672, -3.413961071222368, -5.519713932769008, 5.767561591652565, 9362.0, 24903.0, 35388.0, 9362.0, 7.99338960647583, -0.16571451723575592, 0.05289776250720024, -0.0034580619540065527, 0.00579194026067853, -0.07546830177307129, 0.9972736239433289, -0.10602268576622009, -0.12023735046386719, 1.486083984375, 1.26416015625, 0.121337890625, 1.355712890625
169978, 0.10134641826152802, -0.3936266303062439, -0.1189563125371933, 3.795687198638916, -0.7386757731437683, -4.740743637084961, 0.6242234706878662, -0.12631738185882568, -0.5180750489234924, -0.025844920426607132, 0.11854586005210876, 0.23692739009857178, -3.3901264390180037, -5.5871553752194245, 5.7823501110627245, 9362.0, 24903.0, 35388.0, 9362.0, 7.99338960647583, -0.16571451723575592, 0.05289776250720024, -0.0034580619540065527, 0.005193972960114479, -0.07475961744785309, 0.9980618357658386, -0.10602268576622009, -0.12023735046386719, 1.486083984375, 1.271484375, 0.1027679443359375, 1.355712890625
170018, 0.10121560096740723, -0.39169690012931824, -0.12016528844833374, 3.8019328117370605, -0.73993980884552, -4.7459259033203125, 0.6248946785926819, -0.1264917254447937, -0.5184054374694824, -0.025056056678295135, 0.11854296922683716, 0.23977968096733093, -1.874998638084845, 1.2681244683873558, 5.418667177309126, 9362.0, 24903.0, 35388.0, 9362.0, 7.99338960647583, 0.030244093388319016, -0.10410483926534653, -0.09541352838277817, 0.005193972960114479, -0.07475961744785309, 0.9980618357658386, -0.10602268576622009, -0.12023735046386719, 1.486083984375, 1.271484375, 0.1027679443359375, 1.361572265625
170048, 0.10163620114326477, -0.39491885900497437, -0.12137020379304886, 3.833261728286743, -0.746286153793335, -4.7718892097473145, 0.6282550096511841, -0.1273634135723114, -0.5200298428535461, -0.0258419718593359, 0.11855733394622803, 0.2369140088558197, -3.4116322840710613, -5.686104875759213, 5.7596775445920265, 9362.0, 24903.0, 35388.0, 9362.0, 7.99338960647583, 0.002563157817348838, 0.2314969301223755, -0.11087827384471893, 0.00747282151132822, -0.07508829981088638, 0.9970883131027222, -0.10602268576622009, -0.12023735046386719, 1.486083984375, 1.271484375, 0.1027679443359375, 1.361572265625
170058, 0.10050749033689499, -0.3977579176425934, -0.12026941776275635, 3.833261728286743, -0.746286153793335, -4.7718892097473145, 0.6282550096511841, -0.1273634135723114, -0.5200298428535461, -0.02585620805621147, 0.11857166141271591, 0.23682737350463867, -3.446564325514968, -5.8169374171741595, 5.774374365541995, 9362.0, 24903.0, 35388.0, 9362.0, 7.99338960647583, -0.015459001064300537, 0.3108466565608978, 0.032956864684820175, 0.00747282151132822, -0.07508829981088638, 0.9970883131027222, -0.10602268576622009, -0.12023735046386719, 1.486083984375, 1.270751953125, 0.104522705078125, 1.361572265625
170118, 0.1015789583325386, -0.40175291895866394, -0.12555548548698425, 3.8647589683532715, -0.7526761293411255, -4.797928333282471, 0.6316436529159546, -0.12823565304279327, -0.5215551257133484, -0.025834454223513603, 0.1185527965426445, 0.23686182498931885, -3.4288675422649337, -5.7470958489692805, 5.754140201742046, 9362.0, 24903.0, 35388.0, 9362.0, 7.99338960647583, 0.025012973695993423, 0.1283862143754959, 0.16732117533683777, 0.005441934801638126, -0.07226252555847168, 0.9966234564781189, -0.10602268576622009, -0.12023735046386719, 1.486083984375, 1.2421875, 0.19000244140625, 1.3623046875
170128, 0.10190685838460922, -0.40120169520378113, -0.12626974284648895, 3.8900794982910156, -0.7578195333480835, -4.818817138671875, 0.6343827843666077, -0.12893645465373993, -0.5228301882743835, -0.025855358690023422, 0.11854581534862518, 0.2368459403514862, -3.429189951627323, -5.782687677285651, 5.7647210585193704, 9362.0, 24903.0, 35388.0, 9362.0, 7.99338960647583, 0.030422251671552658, -0.021674664691090584, -0.20996473729610443, 0.005441934801638126, -0.07226252555847168, 0.9966234564781189, -0.10602268576622009, -0.12023735046386719, 1.486083984375, 1.2421875, 0.19000244140625, 1.3623046875
170148, 0.10286424309015274, -0.4016970694065094, -0.12727347016334534, 3.8900794982910156, -0.7578195333480835, -4.818817138671875, 0.6343827843666077, -0.12893645465373993, -0.5228301882743835, -0.025828856974840164, 0.11855266243219376, 0.23694737255573273, -3.3993794552671774, -5.519825823364954, 5.767495814459774, 9362.0, 24903.0, 35388.0, 9362.0, 7.99338960647583, 0.019512176513671875, 0.04158332943916321, -0.29206398129463196, 0.005336207337677479, -0.07544814795255661, 0.9957917332649231, -0.10602268576622009, -0.12023735046386719, 1.486083984375, 1.234130859375, 0.2203521728515625, 1.3564453125
170198, 0.10403092950582504, -0.40392664074897766, -0.13318251073360443, 3.9282658100128174, -0.7655876278877258, -4.850239276885986, 0.6384950280189514, -0.13000287115573883, -0.5245720744132996, -0.025052428245544434, 0.11853978037834167, 0.2398219257593155, -1.8615950138817043, 1.272357921436111, 5.3881845403455335, 9362.0, 24903.0, 35388.0, 9362.0, 7.973554611206055, -0.1561274230480194, -0.10715827345848083, 0.17298735678195953, 0.005342010874301195, -0.07402189075946808, 0.9973526000976562, -0.10602268576622009, -0.12023735046386719, 1.486083984375, 1.237060546875, 0.2089996337890625, 1.3564453125
170208, 0.10325919836759567, -0.40157681703567505, -0.13298632204532623, 3.941049575805664, -0.7681912779808044, -4.860735893249512, 0.6398696899414062, -0.1303606480360031, -0.5250207781791687, -0.025836851447820663, 0.11855987459421158, 0.23686566948890686, -3.3961351914017897, -5.704994769178484, 5.7678373802837895, 9362.0, 24903.0, 35388.0, 9362.0, 7.99338960647583, -0.15841002762317657, -0.4261772930622101, -0.0029809281695634127, 0.005342010874301195, -0.07402189075946808, 0.9973526000976562, -0.10602268576622009, -0.12023735046386719, 1.486083984375, 1.237060546875, 0.2089996337890625, 1.3564453125
170238, 0.1030358076095581, -0.3981088697910309, -0.13425946235656738, 3.9602763652801514, -0.772110104560852, -4.876498222351074, 0.64192134141922, -0.13089081645011902, -0.5258824825286865, -0.025833766907453537, 0.11856462061405182, 0.23693262040615082, -3.3887331013533526, -5.522553916080142, 5.780894846396702, 9362.0, 24903.0, 35388.0, 9362.0, 7.99338960647583, -0.10315579921007156, -0.1649935245513916, -0.05120040848851204, 0.00572432903572917, -0.07509631663560867, 0.9965237975120544, -0.10602268576622009, -0.12023735046386719, 1.486083984375, 1.238525390625, 0.20343017578125, 1.3564453125
170248, 0.10217348486185074, -0.39499935507774353, -0.13562457263469696, 3.9602763652801514, -0.772110104560852, -4.876498222351074, 0.64192134141922, -0.13089081645011902, -0.5258824825286865, -0.025814292952418327, 0.1185685247182846, 0.23697572946548462, -3.373545264844675, -5.457971051993155, 5.753345313000387, 9362.0, 24903.0, 35388.0, 9362.0, 7.99338960647583, 0.14992889761924744, 0.04822435602545738, 0.14299798011779785, 0.005710383877158165, -0.07757484167814255, 0.9979300498962402, -0.10602268576622009, -0.12023735046386719, 1.486083984375, 1.238525390625, 0.20343017578125, 1.359375
170258, 0.10219809412956238, -0.3942282795906067, -0.13454246520996094, 3.9602763652801514, -0.772110104560852, -4.876498222351074, 0.64192134141922, -0.13089081645011902, -0.5258824825286865, -0.025042792782187462, 0.11854010075330734, 0.23979611694812775, -1.849527008374607, 1.256919160282962, 5.381744112330403, 9362.0, 24903.0, 35388.0, 9362.0, 7.99338960647583, -0.27828794717788696, -0.1880241185426712, -0.06035808473825455, 0.005710383877158165, -0.07757484167814255, 0.9979300498962402, -0.10602268576622009, -0.12023735046386719, 1.486083984375, 1.238525390625, 0.20343017578125, 1.358642578125
170268, 0.10135456919670105, -0.393810510635376, -0.13579857349395752, 3.9602763652801514, -0.772110104560852, -4.876498222351074, 0.64192134141922, -0.13089081645011902, -0.5258824825286865, -0.025069603696465492, 0.1185557171702385, 0.23988968133926392, -1.8509032325309707, 1.5130092057827653, 5.407900690835067, 9362.0, 24903.0, 35388.0, 9362.0, 7.973554611206055, -0.27828794717788696, -0.1880241185426712, -0.06035808473825455, 0.006123678758740425, -0.07507766038179398, 0.9969668388366699, -0.10602268576622009, -0.12023735046386719, 1.486083984375, 1.238525390625, 0.20343017578125, 1.355712890625
170318, 0.10168495774269104, -0.39990606904029846, -0.13611046969890594, 4.00537633895874, -0.7813155651092529, -4.913387775421143, 0.6466491222381592, -0.13211725652217865, -0.5280067324638367, -0.02505728043615818, 0.11853937804698944, 0.23987893760204315, -1.8204400240333654, 1.4246389945094506, 5.400996466692607, 9362.0, 24903.0, 35388.0, 9362.0, 7.973554611206055, -0.04558086395263672, -0.3815456032752991, -0.17972499132156372, 0.006396976299583912, -0.07558408379554749, 0.9993360042572021, -0.10602268576622009, -0.12023735046386719, 1.486083984375, 1.241455078125, 0.192626953125, 1.355712890625
170378, 0.1034882590174675, -0.39725297689437866, -0.13645093142986298, 4.050808429718018, -0.7906067371368408, -4.9504075050354, 0.6513999104499817, -0.1333497166633606, -0.5295168161392212, -0.025055639445781708, 0.11854348331689835, 0.23981758952140808, -1.849739329358782, 1.3958631166614168, 5.3948803324656875, 9362.0, 24903.0, 35388.0, 9362.0, 7.99338960647583, -0.09364291280508041, 0.2022664099931717, -0.04337279871106148, 0.0074722664430737495, -0.07326768338680267, 0.9977420568466187, -0.10602268576622009, -0.12023735046386719, 1.486083984375, 1.24072265625, 0.1952667236328125, 1.357177734375
170388, 0.10449090600013733, -0.39810821413993835, -0.13790039718151093, 4.050808429718018, -0.7906067371368408, -4.9504075050354, 0.6513999104499817, -0.1333497166633606, -0.5295168161392212, -0.025837814435362816, 0.11855939775705338, 0.23688477277755737, -3.3709774111105912, -5.6516101199212585, 5.781175037792788, 9362.0, 24903.0, 35388.0, 9362.0, 7.99338960647583, -0.18596717715263367, 0.1955571323633194, 0.15986163914203644, 0.0074722664430737495, -0.07326768338680267, 0.9977420568466187, -0.10602268576622009, -0.12023735046386719, 1.486083984375, 1.24072265625, 0.1952667236328125, 1.3623046875
170408, 0.10399147868156433, -0.4001285433769226, -0.1351195126771927, 4.050808429718018, -0.7906067371368408, -4.9504075050354, 0.6513999104499817, -0.1333497166633606, -0.5295168161392212, -0.025075826793909073, 0.11853573471307755, 0.23975026607513428, -1.8947756457169966, 1.156867319034319, 5.425517984559298, 9362.0, 24903.0, 35388.0, 9362.0, 7.99338960647583, -0.05056073144078255, -0.06404436379671097, -0.20650970935821533, 0.0074722664430737495, -0.07326768338680267, 0.9977420568466187, -0.10602268576622009, -0.12023735046386719, 1.486083984375, 1.2392578125, 0.20068359375, 1.357177734375
