timeTick, roll, pitch, yaw, stateX, stateY, stateZ, stateVX, stateVY, stateVZ, otX0, otY0, otZ0, otRoll0, otPitch0, otYaw0, left wing, pitch motor, yaw motor, right wing, voltage, roll rate, pitch rate, yaw rate, A_x, A_y, A_z, current, i_raw, v_raw, airflow_voltage, airflow_speed, pot_Pitch
192063, 0.0007436060695908964, -0.000516075175255537, 0.0001356429565930739, 0, 0, 0, 0, 0, 0, -0.008830435574054718, 0.11393226683139801, 0.2404375672340393, -2.4315209196555823, 1.808770546699094, -6.353928297023928, 0, 0, 0, 0, 0, 0, 0, 0, 0, 0, 0, 0, 0, 0, 0, 0, 0
192073, 0.0006122290506027639, 0.0012117569567635655, -9.485043119639158e-05, 0.0, 0.0, 3.132154233753681e-07, 5.64275459691288e-10, -8.130514039805803e-10, 6.264673720579594e-05, -0.009268751367926598, 0.11363827437162399, 0.24193722009658813, 0.0934763102737961, -1.606211806159024, -6.031633113560672, 9362.0, 31456.0, 35388.0, 9362.0, 8.271075248718262, 0, 0, 0, 0, 0, 0, 0, 0, 0, 0, 0, 0
192083, 0.001266999403014779, -6.475210830103606e-05, 0.0013094284804537892, 4.415006138458466e-09, -6.36147934329756e-09, -2.601882442831993e-08, 8.882444149094226e-07, -1.2719283404294401e-06, -0.00013010145630687475, -0.009264457039535046, 0.11365499347448349, 0.24191753566265106, 0.05387327395128418, -1.5359175902712252, -6.034398401793471, 9362.0, 31456.0, 35388.0, 9362.0, 8.271075248718262, 0.12628023326396942, 0.09443068504333496, 0.21596138179302216, 0.0019345518667250872, -0.06477250158786774, 0.9982719421386719, 0, 0, 0, 0, 0, 0
192093, 0.002375259529799223, 0.00022942489886190742, -0.0018425614107400179, 2.9438331772269066e-09, -2.4311798796361472e-08, -2.2760650608688593e-06, -1.18667310289311e-06, -2.316022118975525e-06, -0.00031950228731147945, -0.009253297932446003, 0.1136595830321312, 0.2419709861278534, 0.08537574794675837, -1.6447302254804868, -6.054530502435384, 9362.0, 31456.0, 35388.0, 9362.0, 8.271075248718262, 0.20097453892230988, -0.0300389863550663, -0.3646054267883301, 0.0019039566395804286, -0.0672919899225235, 0.9970407485961914, -0.10056932270526886, -0.1291980743408203, 1.4853515625, 1.493408203125, 0.1825714111328125, 1.52783203125
192103, 0.002146715996786952, -0.0010749774519354105, -0.002443297067657113, -8.369822168674546e-09, -5.8289121085408624e-08, -6.803515134379268e-06, -1.0748109389169258e-06, -4.474301931622904e-06, -0.0005855880444869399, -0.009248987771570683, 0.11365940421819687, 0.24195201694965363, 0.09490501207703463, -1.6406690291841244, -6.061061306761108, 9362.0, 31456.0, 35388.0, 9362.0, 8.271075248718262, -0.1362883597612381, 0.17658847570419312, -0.044918954372406006, 0.003083967138081789, -0.06733976304531097, 1.0000488758087158, -0.0882520005106926, -0.07543754577636719, 1.48974609375, 1.34619140625, 0.015594482421875, 1.528564453125
192113, 0.0022382023744285107, -0.0006974302232265472, -0.0015020266873762012, -2.1082360746049744e-08, -1.233632076491631e-07, -1.2733915355056524e-05, -1.4680692856927635e-06, -8.540569069737103e-06, -0.0006000949651934206, -0.009265286847949028, 0.1136578768491745, 0.24196386337280273, 0.07300641175315839, -1.5913333173527064, -6.055269164257467, 9362.0, 31456.0, 35388.0, 9362.0, 8.271075248718262, 0.08510599285364151, 0.017513221129775047, 0.29639190435409546, 0.0027968569193035364, -0.0668318122625351, 1.000679612159729, -0.08929084986448288, -0.07543754577636719, 1.48974609375, 1.297119140625, 0.0532379150390625, 1.525634765625
192123, 0.0014736450975760818, -0.0004941998049616814, -0.0017219665460288525, -2.6559531463021813e-08, -2.2715013869856193e-07, -1.865086960606277e-05, 3.7258189422573196e-07, -1.2216812137921806e-05, -0.0005829019355587661, -0.009266127832233906, 0.11365333199501038, 0.24192778766155243, 0.09931551443082694, -1.6320128633560387, -6.043417475634416, 9362.0, 31456.0, 35388.0, 9362.0, 8.271075248718262, 0.07581205666065216, -0.00894503016024828, -0.04896415397524834, 0.003425884060561657, -0.06656871736049652, 0.9988749623298645, -0.0943395271897316, -0.13815879821777344, 1.484619140625, 1.3388671875, 0.017120361328125, 1.52783203125
192133, 0.001964896684512496, -0.0024042229633778334, -0.0015459199203178287, -1.6869043051315202e-08, -3.684618832267006e-07, -2.4925946490839124e-05, 1.5658160918974318e-06, -1.604672615940217e-05, -0.0006717093056067824, -0.009253811091184616, 0.11367084830999374, 0.24201752245426178, 0.13874235781677027, -1.6684561372575786, -6.041138837468408, 9362.0, 31456.0, 35388.0, 9362.0, 8.271075248718262, 0.08466696739196777, 0.2848466634750366, -0.09671497344970703, 0.0030542409513145685, -0.06899723410606384, 0.9983765482902527, -0.14910511672496796, -0.14711761474609375, 1.48388671875, 1.4853515625, 0.1669921875, 1.525634765625
192143, 0.0032076402567327023, -0.0033593822736293077, -0.0037221782840788364, 3.0127580430416856e-09, -5.415247414930491e-07, -3.2426294637843966e-05, 2.405343593636644e-06, -1.856450762716122e-05, -0.0008279607864096761, -0.008814587257802486, 0.11393876373767853, 0.24043628573417664, -2.3697977550796847, 1.7601383056485531, -6.366482039847747, 9362.0, 31456.0, 35388.0, 9362.0, 8.271075248718262, 0.22896072268486023, 0.15414033830165863, -0.37128740549087524, 0.0026948119048029184, -0.06744976341724396, 0.9977391362190247, -0.22848032414913177, -0.13815879821777344, 1.484619140625, 1.3447265625, 0.0158538818359375, 1.528564453125
192153, 0.0026387881953269243, -0.0014607307966798544, -0.0028014997951686382, 4.7602270569768734e-08, -7.439541604981059e-07, -4.1794555727392435e-05, 6.508807928184979e-06, -2.1916828700341284e-05, -0.0010452955029904842, -0.009262876585125923, 0.11365009844303131, 0.2419349104166031, 0.10144253849084874, -1.6219088052442885, -6.0653507994934674, 9362.0, 31456.0, 35388.0, 9362.0, 8.271075248718262, -0.13636529445648193, -0.2237209975719452, 0.14669515192508698, 0.0005956771201454103, -0.06727688759565353, 0.9964348077774048, -0.19953954219818115, -0.10231781005859375, 1.487548828125, 1.322021484375, 0.0257415771484375, 1.529296875
192163, 0.0017716437578201294, -0.0013109702849760652, -0.0023266379721462727, 1.4134602110971173e-07, -9.904872513288865e-07, -5.398286157287657e-05, 1.2251516636752058e-05, -2.7393138225306757e-05, -0.001391966245137155, -0.008784493431448936, 0.11393089592456818, 0.24046511948108673, -2.3590821111350655, 1.7734323775646033, -6.368137554914593, 9362.0, 31456.0, 35388.0, 9362.0, 8.271075248718262, -0.1659906506538391, 0.14679047465324402, 0.11162104457616806, -0.00010008915705839172, -0.06735128164291382, 0.9985314607620239, -0.18107372522354126, -0.1291980743408203, 1.4853515625, 1.368896484375, 0.01885986328125, 1.52783203125
192173, 0.0011211938690394163, -0.0012141353217884898, -0.003211986506357789, 2.763383122328378e-07, -1.286960923607694e-06, -6.895777187310159e-05, 1.4747525710845366e-05, -3.1904757634038106e-05, -0.0016026146477088332, -0.009263291954994202, 0.11365770548582077, 0.24195323884487152, 0.08893367348860878, -1.5979087537119483, -6.052445710204259, 9362.0, 31456.0, 35388.0, 9362.0, 8.271075248718262, -0.1343981772661209, -0.11616465449333191, -0.11519481986761093, 0.00036254903534427285, -0.06727159023284912, 0.9970424175262451, -0.16670024394989014, -0.15607833862304688, 1.483154296875, 1.311767578125, 0.0348052978515625, 1.529296875
192183, 0.001207768451422453, -0.0010655481601133943, -0.0042939321137964725, 4.350048925516603e-07, -1.621133719709178e-06, -8.634277037344873e-05, 1.6986203263513744e-05, -3.4932912967633456e-05, -0.0018739928491413593, -0.00880159717053175, 0.11394087970256805, 0.24046418070793152, -2.327976321947733, 1.7004277788766728, -6.3634501508329855, 9362.0, 31456.0, 35388.0, 9362.0, 8.271075248718262, 0.08165249973535538, 0.05106741189956665, -0.03411822021007538, 0.0006458990392275155, -0.06664889305830002, 0.9984030723571777, -0.15636900067329407, -0.11127853393554688, 1.48681640625, 1.322021484375, 0.0257415771484375, 1.52783203125
192193, 0.0014458689838647842, -0.0008883217233233154, -0.004366274457424879, 6.152439482320915e-07, -1.980046590688289e-06, -0.00010586134158074856, 1.906197030621115e-05, -3.684946204884909e-05, -0.0020293190609663725, -0.008818410336971283, 0.11392681300640106, 0.24041154980659485, -2.395652471927486, 1.8199608526935265, -6.359427314254392, 9362.0, 31456.0, 35388.0, 9362.0, 8.271075248718262, 0.09183505922555923, 0.15535882115364075, 0.04696930572390556, 0.0017850284930318594, -0.06793277710676193, 0.9980042576789856, -0.14947214722633362, -0.1650371551513672, 1.482421875, 1.28466796875, 0.07440185546875, 1.528564453125
192203, 0.0017746154917404056, -0.0030166031792759895, -0.0037830770015716553, 8.149655741362949e-07, -2.358859546802705e-06, -0.00012719086953438818, 2.0882998796878383e-05, -3.891227243002504e-05, -0.002236191416159272, -0.009260318242013454, 0.1136573925614357, 0.24196024239063263, 0.10567288958283452, -1.6231380698563953, -6.034913090707138, 9362.0, 31456.0, 35388.0, 9362.0, 8.271075248718262, -0.06709377467632294, 0.1886690855026245, 0.13989119231700897, 0.0016975542530417442, -0.06596151739358902, 0.996842622756958, -0.13989895582199097, -0.10231781005859375, 1.487548828125, 1.332275390625, 0.019561767578125, 1.529296875
192213, 0.0017082628328353167, -0.005611203610897064, -0.004404300823807716, 1.031376655191707e-06, -2.7603236958384514e-06, -0.0001510186993982643, 2.2388376237358898e-05, -4.1378869354957715e-05, -0.002528971526771784, -0.008794063702225685, 0.11393555253744125, 0.24045337736606598, -2.2720784389965796, 1.6477811367190611, -6.387427290565146, 9362.0, 31456.0, 35388.0, 9362.0, 8.271075248718262, -0.11118096113204956, -0.037466395646333694, -0.016170527786016464, 0.002771824598312378, -0.06737694144248962, 0.9956534504890442, -0.134199857711792, -0.10231781005859375, 1.487548828125, 1.31396484375, 0.0325469970703125, 1.5322265625
192223, 0.0021526399068534374, -0.0048923552967607975, -0.004025608766824007, 1.2809750842279755e-06, -3.1892420793155907e-06, -0.00017838014173321426, 2.7512529413797893e-05, -4.440534394234419e-05, -0.0029429160058498383, -0.008787693455815315, 0.11393916606903076, 0.2404455691576004, -2.333854338497252, 1.7963275558951182, -6.370232594629804, 9362.0, 31456.0, 35388.0, 9362.0, 8.271075248718262, 0.01644490845501423, -0.07378272712230682, 0.15131442248821259, 0.001203243969939649, -0.06759506464004517, 0.9998596906661987, -0.12572678923606873, -0.05751800537109375, 1.4912109375, 1.32275390625, 0.0251312255859375, 1.5322265625
192233, 0.0019495032029226422, -0.0007487117545679212, -0.005924235563725233, 1.6040892205637647e-06, -3.6479091249930207e-06, -0.00020828595734201372, 3.7111520214239135e-05, -4.732728120870888e-05, -0.0030378468800336123, -0.009274624288082123, 0.11366790533065796, 0.24193717539310455, 0.04292000335208936, -1.5918171250137618, -6.047366065149228, 9362.0, 31456.0, 35388.0, 9362.0, 8.271075248718262, 0.04758918657898903, -0.40759924054145813, -0.34910398721694946, 0.0014486107975244522, -0.06859661638736725, 0.9991528987884521, -0.12425827980041504, -0.12023735046386719, 1.486083984375, 1.36962890625, 0.01910400390625, 1.5263671875
192243, 0.002610943280160427, -0.0006375507800839841, -0.005005031358450651, 2.0170662082819035e-06, -4.13960469813901e-06, -0.0002388944267295301, 4.548705692286603e-05, -5.101225906400941e-05, -0.0030834407079964876, -0.008820227347314358, 0.1139286458492279, 0.2403932511806488, -2.4182571477686046, 1.823578487394883, -6.368069216767308, 9362.0, 31456.0, 35388.0, 9362.0, 8.271075248718262, 0.23792654275894165, 0.042114198207855225, 0.1277824491262436, 0.0016753410454839468, -0.06678539514541626, 0.9984007477760315, -0.11634103208780289, -0.08439826965332031, 1.489013671875, 1.37841796875, 0.023406982421875, 1.530029296875
192253, 0.0031368909403681755, -0.001383730792440474, -0.003474740544334054, 2.478332817190676e-06, -4.666386757889995e-06, -0.0002706308150663972, 4.676668322645128e-05, -5.434203194454312e-05, -0.003263438818976283, -0.008810656145215034, 0.11393556743860245, 0.24048182368278503, -2.317042892132396, 1.7194234092075362, -6.351986101821479, 9362.0, 31456.0, 35388.0, 9362.0, 8.271075248718262, 0.07497001439332962, 0.02012600563466549, 0.04564124718308449, 0.003116243751719594, -0.06757067888975143, 1.0006482601165771, -0.10787476599216461, -0.06647872924804688, 1.490478515625, 1.370361328125, 0.0194549560546875, 1.529296875
192263, 0.0037658398505300283, -0.0024546184577047825, -0.0017533181235194206, 2.951455826405436e-06, -5.232159765000688e-06, -0.0003032551903743297, 4.785806231666356e-05, -5.881258039153181e-05, -0.0032610383350402117, -0.00879797711968422, 0.11393186450004578, 0.24047335982322693, -2.3387135057613277, 1.6750380061161536, -6.379103898717604, 9362.0, 31456.0, 35388.0, 9362.0, 8.271075248718262, 0.06849032640457153, 0.11362361907958984, 0.0779515951871872, 0.0027052469085901976, -0.06708625704050064, 0.9987466335296631, -0.10671060532331467, -0.09335899353027344, 1.48828125, 1.388671875, 0.03033447265625, 1.528564453125
192273, 0.004221916198730469, -0.0009722938993945718, -0.0007163624977692962, 3.4418660561641445e-06, -5.84710778639419e-06, -0.00033647046075202525, 5.022190816816874e-05, -6.417559052351862e-05, -0.0033816243521869183, -0.009245115332305431, 0.11365126818418503, 0.2419542372226715, 0.07216671657273463, -1.6466931850366961, -6.047509557711248, 9362.0, 31456.0, 35388.0, 9362.0, 8.271075248718262, -0.04480060935020447, -0.34676265716552734, 0.12788693606853485, 0.0017539688851684332, -0.06557528674602509, 0.9989389181137085, -0.10427000373601913, -0.15607833862304688, 1.483154296875, 1.37841796875, 0.023406982421875, 1.529296875
192283, 0.0032674381509423256, -0.0015142549527809024, -0.0007333934190683067, 3.9650749386055395e-06, -6.521067916764878e-06, -0.00037081894697621465, 5.442273322842084e-05, -7.06155551597476e-05, -0.003487673820927739, -0.009265918284654617, 0.11364644765853882, 0.24193373322486877, 0.0726799143526561, -1.6290966559023161, -6.057927200554292, 9362.0, 31456.0, 35388.0, 9362.0, 8.271075248718262, -0.19969457387924194, -0.04207398369908333, -0.028661338612437248, 0.002567240269854665, -0.06773103028535843, 0.9989113211631775, -0.1322048455476761, -0.08439826965332031, 1.489013671875, 1.37548828125, 0.021820068359375, 1.5263671875
192293, 0.0027908908668905497, -0.0015594838187098503, 0.002475007437169552, 4.517616162047489e-06, -7.2633265517652035e-06, -0.0004062379593960941, 5.608451465377584e-05, -7.783801265759394e-05, -0.0035957260988652706, -0.009266288951039314, 0.113651804625988, 0.24191930890083313, 0.03011294066598671, -1.5433056802165481, -6.056568700699761, 9362.0, 31456.0, 35388.0, 9362.0, 8.271075248718262, -0.343723863363266, -0.29821592569351196, 0.5731058120727539, 0.00013174964988138527, -0.06752903759479523, 0.9979879260063171, -0.1308448761701584, -0.15607833862304688, 1.483154296875, 1.382080078125, 0.0256195068359375, 1.528564453125
192303, 0.0023245932534337044, -0.004518838599324226, 0.002758009359240532, 5.091399998491397e-06, -8.069626346696168e-06, -0.00044310823432169855, 5.867245272384025e-05, -8.342341607203707e-05, -0.0037779263220727444, -0.00925486721098423, 0.11364885419607162, 0.24193105101585388, 0.07010202828924023, -1.6192302408870205, -6.059856630990066, 9362.0, 31456.0, 35388.0, 9362.0, 8.271075248718262, -0.026541776955127716, 0.28103500604629517, 0.08642395585775375, 0.0006194168818183243, -0.06861647218465805, 0.9983755946159363, -0.12912999093532562, -0.14711761474609375, 1.48388671875, 1.385009765625, 0.0276336669921875, 1.5263671875
192323, 0.0025744715239852667, -0.006897385697811842, 0.005269842687994242, 5.6914550441433676e-06, -8.927715498430189e-06, -0.0004816484288312495, 6.133080023573712e-05, -8.81955711520277e-05, -0.0039297170005738735, -0.009253913536667824, 0.11364913731813431, 0.24194414913654327, 0.08952501059298629, -1.6280826735525409, -6.069839362576719, 9362.0, 31456.0, 35388.0, 9362.0, 8.271075248718262, 0.02128501422703266, -0.1582506150007248, 0.11546898633241653, 0.001111268880777061, -0.06540120393037796, 0.9992548823356628, -0.1278706192970276, -0.13815879821777344, 1.484619140625, 1.382080078125, 0.0256195068359375, 1.527099609375
192333, 0.0029583501163870096, -0.007773502729833126, 0.006370397284626961, 5.6914550441433676e-06, -8.927715498430189e-06, -0.0004816484288312495, 6.133080023573712e-05, -8.81955711520277e-05, -0.0039297170005738735, -0.009257951751351357, 0.11363635957241058, 0.24196875095367432, 0.06087996160647947, -1.6129402105206907, -6.049322757857561, 9362.0, 31456.0, 35388.0, 9362.0, 8.271075248718262, 0.02128501422703266, -0.1582506150007248, 0.11546898633241653, 0.001111268880777061, -0.06540120393037796, 0.9992548823356628, -0.12095970660448074, -0.07543754577636719, 1.48974609375, 1.37255859375, 0.02044677734375, 1.527099609375
192343, 0.001996389590203762, -0.00837771687656641, 0.0052473577670753, 5.6914550441433676e-06, -8.927715498430189e-06, -0.0004816484288312495, 6.133080023573712e-05, -8.81955711520277e-05, -0.0039297170005738735, -0.009267267771065235, 0.11366179585456848, 0.2419699728488922, 0.0678952809275821, -1.6415691463195117, -6.077409173579145, 9362.0, 31456.0, 35388.0, 9362.0, 8.271075248718262, -0.17878498136997223, -0.07621686160564423, 0.017866749316453934, 0.001111268880777061, -0.06540120393037796, 0.9992548823356628, -0.12095970660448074, -0.07543754577636719, 1.48974609375, 1.37255859375, 0.02044677734375, 1.527099609375
192353, 0.0029487537685781717, -0.007134435698390007, 0.0044486792758107185, 5.6914550441433676e-06, -8.927715498430189e-06, -0.0004816484288312495, 6.133080023573712e-05, -8.81955711520277e-05, -0.0039297170005738735, -0.009254341013729572, 0.11364637315273285, 0.2419692873954773, 0.0931837000842233, -1.652687699721099, -6.051930437474684, 9362.0, 31456.0, 35388.0, 9362.0, 8.271075248718262, 0.09141586720943451, -0.2824363708496094, -0.05516314506530762, 0.0033582181204110384, -0.06671388447284698, 0.9991402626037598, -0.12095970660448074, -0.07543754577636719, 1.48974609375, 1.37255859375, 0.02044677734375, 1.527099609375
192363, 0.0015423926524817944, -0.005834953393787146, 0.0032821660861372948, 5.6914550441433676e-06, -8.927715498430189e-06, -0.0004816484288312495, 6.133080023573712e-05, -8.81955711520277e-05, -0.0039297170005738735, -0.009264227002859116, 0.11364410817623138, 0.24197010695934296, 0.11593646186393732, -1.620376954400001, -6.047138912078699, 9362.0, 31456.0, 35388.0, 9362.0, 8.271075248718262, 0.09141586720943451, -0.2824363708496094, -0.05516314506530762, 0.00012082108878530562, -0.06453898549079895, 0.9985910058021545, -0.12095970660448074, -0.07543754577636719, 1.48974609375, 1.343994140625, 0.015899658203125, 1.527099609375
192373, 0.0021366868168115616, -0.007908895611763, 0.0023935637436807156, 5.6914550441433676e-06, -8.927715498430189e-06, -0.0004816484288312495, 6.133080023573712e-05, -8.81955711520277e-05, -0.0039297170005738735, -0.00925897341221571, 0.1136520653963089, 0.24196888506412506, 0.12313495349660412, -1.6197457861943008, -6.047686271781991, 9362.0, 31456.0, 35388.0, 9362.0, 8.271075248718262, 0.2218542844057083, 0.13842014968395233, -0.1649848222732544, 0.00012082108878530562, -0.06453898549079895, 0.9985910058021545, -0.12095970660448074, -0.07543754577636719, 1.48974609375, 1.343994140625, 0.015899658203125, 1.529296875
192383, 0.0026938000228255987, -0.008013256825506687, 0.0012030049692839384, 5.6914550441433676e-06, -8.927715498430189e-06, -0.0004816484288312495, 6.133080023573712e-05, -8.81955711520277e-05, -0.0039297170005738735, -0.009244553744792938, 0.1136714443564415, 0.2419954538345337, 0.1197771006858029, -1.6148299975614009, -6.066394582616875, 9362.0, 31456.0, 35388.0, 9362.0, 8.271075248718262, 0.1794687956571579, -0.0007533968309871852, -0.2228989154100418, 0.00012082108878530562, -0.06453898549079895, 0.9985910058021545, -0.12095970660448074, -0.07543754577636719, 1.48974609375, 1.343994140625, 0.015899658203125, 1.53076171875
192393, 0.0031428076326847076, -0.008733722381293774, -0.0008984720916487277, 5.6914550441433676e-06, -8.927715498430189e-06, -0.0004816484288312495, 6.133080023573712e-05, -8.81955711520277e-05, -0.0039297170005738735, -0.009280862286686897, 0.11365409195423126, 0.2419576346874237, 0.1283638884331803, -1.6616620016191916, -6.04964723838831, 9362.0, 31456.0, 35388.0, 9362.0, 8.271075248718262, 0.1794687956571579, -0.0007533968309871852, -0.2228989154100418, 0.00012082108878530562, -0.06453898549079895, 0.9985910058021545, -0.12095970660448074, -0.07543754577636719, 1.48974609375, 1.308837890625, 0.0379486083984375, 1.53076171875
192403, 0.0035888536367565393, -0.009096833877265453, -0.0006355648511089385, 5.6914550441433676e-06, -8.927715498430189e-06, -0.0004816484288312495, 6.133080023573712e-05, -8.81955711520277e-05, -0.0039297170005738735, -0.009279635734856129, 0.1136423647403717, 0.24197852611541748, 0.08784983076740474, -1.6428269175470405, -6.049180764560311, 9362.0, 31456.0, 35388.0, 9362.0, 8.271075248718262, 0.1794687956571579, -0.0007533968309871852, -0.2228989154100418, 0.00012082108878530562, -0.06453898549079895, 0.9985910058021545, -0.09910500049591064, -0.06647872924804688, 1.490478515625, 1.322021484375, 0.0257415771484375, 1.53076171875
192413, 0.0028937666211277246, -0.009963015094399452, 7.323784666368738e-05, 5.6914550441433676e-06, -8.927715498430189e-06, -0.0004816484288312495, 6.133080023573712e-05, -8.81955711520277e-05, -0.0039297170005738735, -0.00926701445132494, 0.11364957690238953, 0.2420274317264557, 0.11079899918004646, -1.6287985378339442, -6.06254439868998, 9362.0, 31456.0, 35388.0, 9362.0, 8.271075248718262, 0.1794687956571579, -0.0007533968309871852, -0.2228989154100418, 0.00012082108878530562, -0.06453898549079895, 0.9985910058021545, -0.10278576612472534, -0.11127853393554688, 1.48681640625, 1.317626953125, 0.0291900634765625, 1.53076171875
192423, 0.0028079755138605833, -0.0084631172940135, -0.001057359972037375, 5.6914550441433676e-06, -8.927715498430189e-06, -0.0004816484288312495, 6.133080023573712e-05, -8.81955711520277e-05, -0.0039297170005738735, -0.009258495643734932, 0.11365623772144318, 0.24198085069656372, 0.07267465968357495, -1.6051102686462002, -6.053074466830135, 9362.0, 31456.0, 35388.0, 9362.0, 8.271075248718262, 0.1794687956571579, -0.0007533968309871852, -0.2228989154100418, 0.002205326920375228, -0.0673418641090393, 0.9982512593269348, -0.1017114520072937, -0.1291980743408203, 1.4853515625, 1.317626953125, 0.0291900634765625, 1.53076171875
192433, 0.0013000598410144448, -0.008272961713373661, -0.0005704982322640717, 5.6914550441433676e-06, -8.927715498430189e-06, -0.0004816484288312495, 6.133080023573712e-05, -8.81955711520277e-05, -0.0039297170005738735, -0.009275221265852451, 0.11366336047649384, 0.24198417365550995, 0.0611007806762191, -1.5753969913824903, -6.051871435982937, 9362.0, 31456.0, 35388.0, 9362.0, 8.271075248718262, 0.1794687956571579, -0.0007533968309871852, -0.2228989154100418, 0.002205326920375228, -0.0673418641090393, 0.9982512593269348, -0.10282348096370697, -0.07543754577636719, 1.48974609375, 1.31982421875, 0.0273590087890625, 1.53076171875
192443, 0.0006094842101447284, -0.009973549284040928, -0.0018677562475204468, 5.6914550441433676e-06, -8.927715498430189e-06, -0.0004816484288312495, 6.133080023573712e-05, -8.81955711520277e-05, -0.0039297170005738735, -0.009266063570976257, 0.11363352090120316, 0.24197693169116974, 0.1190353743202083, -1.6154571301279361, -6.060097802635673, 9362.0, 31456.0, 35388.0, 9362.0, 8.271075248718262, -0.11735186725854874, 0.11971155554056168, -0.23561538755893707, 0.002205326920375228, -0.0673418641090393, 0.9982512593269348, -0.10282348096370697, -0.07543754577636719, 1.48974609375, 1.322021484375, 0.0257415771484375, 1.53076171875
192453, -0.0008983636507764459, -0.011466816067695618, 0.0005375829641707242, 5.6914550441433676e-06, -8.927715498430189e-06, -0.0004816484288312495, 6.133080023573712e-05, -8.81955711520277e-05, -0.0039297170005738735, -0.009280342608690262, 0.11364084482192993, 0.2419651448726654, 0.10424585117276237, -1.6500818392469228, -6.036550776411091, 9362.0, 31456.0, 35388.0, 9362.0, 8.271075248718262, -0.11735186725854874, 0.11971155554056168, -0.23561538755893707, 0.001917933695949614, -0.06809011846780777, 0.9982373118400574, -0.09949115663766861, -0.030637741088867188, 1.493408203125, 1.322021484375, 0.0257415771484375, 1.53076171875
192463, -0.0006269565201364458, -0.011030509136617184, 0.0004868620599154383, 5.6914550441433676e-06, -8.927715498430189e-06, -0.0004816484288312495, 6.133080023573712e-05, -8.81955711520277e-05, -0.0039297170005738735, -0.009275799617171288, 0.11365464329719543, 0.2419661581516266, 0.09181565587633761, -1.588746005537132, -6.044030689750317, 9362.0, 31456.0, 35388.0, 9362.0, 8.271075248718262, 0.0957995355129242, -0.03855866566300392, -0.023117538541555405, 0.0005345608806237578, -0.06838787347078323, 0.9994058609008789, -0.09949115663766861, -0.030637741088867188, 1.493408203125, 1.322021484375, 0.0257415771484375, 1.53076171875
192473, -0.0011032817419618368, -0.011108393780887127, 0.0008933334029279649, 5.6914550441433676e-06, -8.927715498430189e-06, -0.0004816484288312495, 6.133080023573712e-05, -8.81955711520277e-05, -0.0039297170005738735, -0.00928187184035778, 0.11364554613828659, 0.2419593334197998, 0.0770424780769164, -1.5796667097738748, -6.03942861178994, 9362.0, 31456.0, 35388.0, 9362.0, 8.271075248718262, 0.0957995355129242, -0.03855866566300392, -0.023117538541555405, 0.0005345608806237578, -0.06838787347078323, 0.9994058609008789, -0.09949115663766861, -0.030637741088867188, 1.493408203125, 1.36376953125, 0.017181396484375, 1.5263671875
192483, -0.0002887019363697618, -0.013036164455115795, 0.002315341494977474, 5.6914550441433676e-06, -8.927715498430189e-06, -0.0004816484288312495, 6.133080023573712e-05, -8.81955711520277e-05, -0.0039297170005738735, -0.00927638541907072, 0.11364667862653732, 0.24193476140499115, 0.07428604542455237, -1.5900932857121006, -6.0479894881210745, 9362.0, 31456.0, 35388.0, 9362.0, 8.271075248718262, 0.0957995355129242, -0.03855866566300392, -0.023117538541555405, 0.0005345608806237578, -0.06838787347078323, 0.9994058609008789, -0.09949115663766861, -0.030637741088867188, 1.493408203125, 1.376953125, 0.0225982666015625, 1.5263671875
192493, -0.0010104592656716704, -0.01602744683623314, 0.00400352431461215, 5.6914550441433676e-06, -8.927715498430189e-06, -0.0004816484288312495, 6.133080023573712e-05, -8.81955711520277e-05, -0.0039297170005738735, -0.008806372992694378, 0.11391595005989075, 0.24049614369869232, -2.2908537586589564, 1.7383658506824133, -6.380940250415564, 9362.0, 31456.0, 35388.0, 9362.0, 8.271075248718262, 0.0957995355129242, -0.03855866566300392, -0.023117538541555405, 0.0005345608806237578, -0.06838787347078323, 0.9994058609008789, -0.10216876864433289, -0.1291980743408203, 1.4853515625, 1.376953125, 0.0225982666015625, 1.5263671875
192503, -0.0006780048715882003, -0.017501650378108025, 0.006591524928808212, 5.6914550441433676e-06, -8.927715498430189e-06, -0.0004816484288312495, 6.133080023573712e-05, -8.81955711520277e-05, -0.0039297170005738735, -0.009287269786000252, 0.11366536468267441, 0.24197176098823547, 0.10873937606701498, -1.6450995636004961, -6.049645181584005, 9362.0, 31456.0, 35388.0, 9362.0, 8.271075248718262, 0.0957995355129242, -0.03855866566300392, -0.023117538541555405, 0.002754729241132736, -0.06555479764938354, 0.996777355670929, -0.10216876864433289, -0.1291980743408203, 1.4853515625, 1.376953125, 0.0225982666015625, 1.5263671875
192513, -0.0014467715518549085, -0.018789708614349365, 0.00632516061887145, 5.6914550441433676e-06, -8.927715498430189e-06, -0.0004816484288312495, 6.133080023573712e-05, -8.81955711520277e-05, -0.0039297170005738735, -0.008817392401397228, 0.11394049227237701, 0.24044936895370483, -2.4064365754766506, 1.8087637282768014, -6.352299832866054, 9362.0, 31456.0, 35388.0, 9362.0, 8.271075248718262, 0.0957995355129242, -0.03855866566300392, -0.023117538541555405, 0.002754729241132736, -0.06555479764938354, 0.996777355670929, -0.10216876864433289, -0.1291980743408203, 1.4853515625, 1.2890625, 0.0663909912109375, 1.5263671875
192523, -0.002722820732742548, -0.01809106580913067, 0.0076298704370856285, 5.6914550441433676e-06, -8.927715498430189e-06, -0.0004816484288312495, 6.133080023573712e-05, -8.81955711520277e-05, -0.0039297170005738735, -0.009266713634133339, 0.11365001648664474, 0.2419765591621399, 0.09377791468439775, -1.5805422839291055, -6.059281667136327, 9362.0, 31456.0, 35388.0, 9362.0, 8.271075248718262, 0.0957995355129242, -0.03855866566300392, -0.023117538541555405, 0.004520461894571781, -0.06818284094333649, 0.99933922290802, -0.10216876864433289, -0.1291980743408203, 1.4853515625, 1.2890625, 0.0663909912109375, 1.5263671875
192533, -0.002246660180389881, -0.020605899393558502, 0.007734455168247223, 5.6914550441433676e-06, -8.927715498430189e-06, -0.0004816484288312495, 6.133080023573712e-05, -8.81955711520277e-05, -0.0039297170005738735, -0.00926829595118761, 0.11364667117595673, 0.24197885394096375, 0.11498204740995792, -1.608559911958622, -6.064796071622202, 9362.0, 31456.0, 35388.0, 9362.0, 8.271075248718262, 0.0957995355129242, -0.03855866566300392, -0.023117538541555405, 0.004520461894571781, -0.06818284094333649, 0.99933922290802, -0.10216876864433289, -0.1291980743408203, 1.4853515625, 1.2861328125, 0.0716094970703125, 1.5263671875
192543, -0.002156479749828577, -0.022420909255743027, 0.0077773649245500565, 5.6914550441433676e-06, -8.927715498430189e-06, -0.0004816484288312495, 6.133080023573712e-05, -8.81955711520277e-05, -0.0039297170005738735, -0.009263386949896812, 0.11365033686161041, 0.24198168516159058, 0.08021499716161601, -1.6518440079326524, -6.073099678719914, 9362.0, 31456.0, 35388.0, 9362.0, 8.271075248718262, 0.046150900423526764, 0.2340679168701172, -0.011396527290344238, 0.0016882289201021194, -0.06927056610584259, 0.9955822229385376, -0.11426303535699844, -0.15607833862304688, 1.483154296875, 1.2861328125, 0.0716094970703125, 1.5263671875
192553, -0.00201404164545238, -0.024346452206373215, 0.007319809403270483, 5.6914550441433676e-06, -8.927715498430189e-06, -0.0004816484288312495, 6.133080023573712e-05, -8.81955711520277e-05, -0.0039297170005738735, -0.009246543981134892, 0.11364438384771347, 0.24199602007865906, 0.1189694576621146, -1.656143068009925, -6.063002216885489, 9362.0, 31456.0, 35388.0, 9362.0, 8.271075248718262, 0.046150900423526764, 0.2340679168701172, -0.011396527290344238, 0.0016882289201021194, -0.06927056610584259, 0.9955822229385376, -0.11585371196269989, -0.13815879821777344, 1.484619140625, 1.28759765625, 0.068939208984375, 1.5263671875
192563, -0.0016800379380583763, -0.024834295734763145, 0.007607148494571447, 5.6914550441433676e-06, -8.927715498430189e-06, -0.0004816484288312495, 6.133080023573712e-05, -8.81955711520277e-05, -0.0039297170005738735, -0.009269792586565018, 0.11364570260047913, 0.24193939566612244, 0.061182892622877155, -1.56969052825238, -6.060568479499631, 9362.0, 31456.0, 35388.0, 9362.0, 8.271075248718262, 0.027056651189923286, 0.06826470792293549, -0.10615488141775131, 0.0016882289201021194, -0.06927056610584259, 0.9955822229385376, -0.11585371196269989, -0.13815879821777344, 1.484619140625, 1.28759765625, 0.068939208984375, 1.5263671875
192573, -0.0011400134535506368, -0.026450850069522858, 0.007494728080928326, 5.6914550441433676e-06, -8.927715498430189e-06, -0.0004816484288312495, 6.133080023573712e-05, -8.81955711520277e-05, -0.0039297170005738735, -0.009256972931325436, 0.11363222450017929, 0.2419520914554596, 0.09983342666293253, -1.6281913620365174, -6.073534175699838, 9362.0, 31456.0, 35388.0, 9362.0, 8.271075248718262, 0.027056651189923286, 0.06826470792293549, -0.10615488141775131, 0.0016882289201021194, -0.06927056610584259, 0.9955822229385376, -0.11585371196269989, -0.13815879821777344, 1.484619140625, 1.28759765625, 0.068939208984375, 1.5263671875
192583, -0.0009198542102240026, -0.024767721071839333, 0.009462260641157627, 5.6914550441433676e-06, -8.927715498430189e-06, -0.0004816484288312495, 6.133080023573712e-05, -8.81955711520277e-05, -0.0039297170005738735, -0.009270166046917439, 0.11365093290805817, 0.2419910728931427, 0.08846389922263685, -1.61977811650371, -6.044274526116658, 9362.0, 31456.0, 35388.0, 9362.0, 8.271075248718262, 0.020707713440060616, -0.36748620867729187, 0.0954722985625267, 0.0016882289201021194, -0.06927056610584259, 0.9955822229385376, -0.11585371196269989, -0.13815879821777344, 1.484619140625, 1.2861328125, 0.0716094970703125, 1.5263671875
192593, -0.0004686090396717191, -0.02583502233028412, 0.009596345014870167, 5.6914550441433676e-06, -8.927715498430189e-06, -0.0004816484288312495, 6.133080023573712e-05, -8.81955711520277e-05, -0.0039297170005738735, -0.009276666678488255, 0.11366461217403412, 0.24199463427066803, 0.09270400271191571, -1.6191707726201798, -6.049294565357417, 9362.0, 31456.0, 35388.0, 9362.0, 8.271075248718262, 0.020707713440060616, -0.36748620867729187, 0.0954722985625267, 0.0016882289201021194, -0.06927056610584259, 0.9955822229385376, -0.11585371196269989, -0.13815879821777344, 1.484619140625, 1.28466796875, 0.07440185546875, 1.5263671875
192603, -0.0010772041277959943, -0.024382947012782097, 0.009018713608384132, 5.6914550441433676e-06, -8.927715498430189e-06, -0.0004816484288312495, 6.133080023573712e-05, -8.81955711520277e-05, -0.0039297170005738735, -0.009279121644794941, 0.11364906281232834, 0.24191704392433167, 0.07620199061073221, -1.5442123413814102, -6.034200913247192, 9362.0, 31456.0, 35388.0, 9362.0, 8.271075248718262, 0.020707713440060616, -0.36748620867729187, 0.0954722985625267, 0.001377917011268437, -0.06603420525789261, 0.9966829419136047, -0.11585371196269989, -0.13815879821777344, 1.484619140625, 1.289794921875, 0.065032958984375, 1.5263671875
192613, -4.946757326251827e-05, -0.025784768164157867, 0.009520221501588821, 5.6914550441433676e-06, -8.927715498430189e-06, -0.0004816484288312495, 6.133080023573712e-05, -8.81955711520277e-05, -0.0039297170005738735, -0.009252915158867836, 0.11365131288766861, 0.2419779747724533, 0.09666392051733806, -1.6576734102428077, -6.061328087399799, 9362.0, 31456.0, 35388.0, 9362.0, 8.271075248718262, 0.020707713440060616, -0.36748620867729187, 0.0954722985625267, 0.0025093667209148407, -0.06619440764188766, 0.9968104958534241, -0.11585371196269989, -0.13815879821777344, 1.484619140625, 1.289794921875, 0.065032958984375, 1.5263671875
192623, 0.00024071679217740893, -0.025858696550130844, 0.0073213838040828705, 5.6914550441433676e-06, -8.927715498430189e-06, -0.0004816484288312495, 6.133080023573712e-05, -8.81955711520277e-05, -0.0039297170005738735, -0.008821261115372181, 0.11394049972295761, 0.2404516190290451, -2.408871920541562, 1.8426632344255722, -6.3598586677719435, 9362.0, 31456.0, 35388.0, 9362.0, 8.271075248718262, 0.020707713440060616, -0.36748620867729187, 0.0954722985625267, 0.001345642376691103, -0.0678328201174736, 1.0006762742996216, -0.11585371196269989, -0.13815879821777344, 1.484619140625, 1.289794921875, 0.065032958984375, 1.5263671875
192633, -0.0008660404128022492, -0.026921913027763367, 0.00950369331985712, 5.6914550441433676e-06, -8.927715498430189e-06, -0.0004816484288312495, 6.133080023573712e-05, -8.81955711520277e-05, -0.0039297170005738735, -0.009259125217795372, 0.11365337669849396, 0.24195878207683563, 0.10486552386203032, -1.643404579425436, -6.058667180727849, 9362.0, 31456.0, 35388.0, 9362.0, 8.271075248718262, 0.020707713440060616, -0.36748620867729187, 0.0954722985625267, 0.0029355220030993223, -0.06656025350093842, 0.9985543489456177, -0.10887591540813446, -0.13815879821777344, 1.484619140625, 1.289794921875, 0.065032958984375, 1.5263671875
192643, 0.0009945452911779284, -0.030046677216887474, 0.010774534195661545, 5.6914550441433676e-06, -8.927715498430189e-06, -0.0004816484288312495, 6.133080023573712e-05, -8.81955711520277e-05, -0.0039297170005738735, -0.009268577210605145, 0.11364881694316864, 0.24197307229042053, 0.09231963183878135, -1.6484622497081602, -6.038460870528503, 9362.0, 31456.0, 35388.0, 9362.0, 8.271075248718262, 0.020707713440060616, -0.36748620867729187, 0.0954722985625267, 0.002598672406747937, -0.0687890350818634, 0.9977446794509888, -0.11190511286258698, -0.14711761474609375, 1.48388671875, 1.289794921875, 0.065032958984375, 1.5263671875
192653, 0.0012858097907155752, -0.031373877078294754, 0.011190460994839668, 5.6914550441433676e-06, -8.927715498430189e-06, -0.0004816484288312495, 6.133080023573712e-05, -8.81955711520277e-05, -0.0039297170005738735, -0.009255352430045605, 0.11365044862031937, 0.24193961918354034, 0.08844983804493108, -1.6573926664797227, -6.052520575492285, 9362.0, 31456.0, 35388.0, 9362.0, 8.271075248718262, 0.020707713440060616, -0.36748620867729187, 0.0954722985625267, 0.002598672406747937, -0.0687890350818634, 0.9977446794509888, -0.11373171210289001, -0.08439826965332031, 1.489013671875, 1.3740234375, 0.0210723876953125, 1.5263671875
192663, 0.00042233802378177643, -0.03403913974761963, 0.010366380214691162, 5.6914550441433676e-06, -8.927715498430189e-06, -0.0004816484288312495, 6.133080023573712e-05, -8.81955711520277e-05, -0.0039297170005738735, -0.009267246350646019, 0.11364516615867615, 0.24197454750537872, 0.12395712438831553, -1.667291490370502, -6.060722802055582, 9362.0, 31456.0, 35388.0, 9362.0, 8.271075248718262, 0.020707713440060616, -0.36748620867729187, 0.0954722985625267, 0.0007718567503616214, -0.0688677728176117, 0.9987780451774597, -0.11338822543621063, -0.10231781005859375, 1.487548828125, 1.3740234375, 0.0210723876953125, 1.5263671875
192673, 0.0014136630343273282, -0.03397737443447113, 0.009248580783605576, 5.6914550441433676e-06, -8.927715498430189e-06, -0.0004816484288312495, 6.133080023573712e-05, -8.81955711520277e-05, -0.0039297170005738735, -0.009275779128074646, 0.1136353611946106, 0.24195218086242676, 0.10953267430939413, -1.620889409689454, -6.051527743872039, 9362.0, 31456.0, 35388.0, 9362.0, 8.271075248718262, 0.15840895473957062, 0.06343314051628113, -0.0698331892490387, 0.0022756713442504406, -0.06832505762577057, 0.9993689060211182, -0.11338822543621063, -0.10231781005859375, 1.487548828125, 1.3740234375, 0.0210723876953125, 1.5263671875
192683, 0.002377324039116502, -0.03272701054811478, 0.008064617402851582, 5.6914550441433676e-06, -8.927715498430189e-06, -0.0004816484288312495, 6.133080023573712e-05, -8.81955711520277e-05, -0.0039297170005738735, -0.00925323273986578, 0.11364807933568954, 0.2419462651014328, 0.09778929439218789, -1.6363053986854652, -6.045411826409251, 9362.0, 31456.0, 35388.0, 9362.0, 8.271075248718262, 0.15840895473957062, 0.06343314051628113, -0.0698331892490387, 0.0022756713442504406, -0.06832505762577057, 0.9993689060211182, -0.11338822543621063, -0.10231781005859375, 1.487548828125, 1.33740234375, 0.0175323486328125, 1.5263671875
192693, 0.0010586166754364967, -0.03201344609260559, 0.00848284550011158, 5.6914550441433676e-06, -8.927715498430189e-06, -0.0004816484288312495, 6.133080023573712e-05, -8.81955711520277e-05, -0.0039297170005738735, -0.008805188350379467, 0.11392958462238312, 0.2404845505952835, -2.331088833843327, 1.7609328466242857, -6.360320960584545, 9362.0, 31456.0, 35388.0, 9362.0, 8.271075248718262, 0.15840895473957062, 0.06343314051628113, -0.0698331892490387, 0.0022756713442504406, -0.06832505762577057, 0.9993689060211182, -0.1068250834941864, -0.12023735046386719, 1.486083984375, 1.32421875, 0.024139404296875, 1.5263671875
192703, 0.0020934692583978176, -0.034165430814027786, 0.007894087582826614, 5.6914550441433676e-06, -8.927715498430189e-06, -0.0004816484288312495, 6.133080023573712e-05, -8.81955711520277e-05, -0.0039297170005738735, -0.009256663732230663, 0.11364956945180893, 0.24193504452705383, 0.12239965734046185, -1.5893075831248495, -6.052677260426789, 9362.0, 31456.0, 35388.0, 9362.0, 8.271075248718262, 0.17553925514221191, 0.1949874311685562, -0.05753118544816971, 0.0023381493519991636, -0.06484018266201019, 0.9993246793746948, -0.1068250834941864, -0.12023735046386719, 1.486083984375, 1.32421875, 0.024139404296875, 1.5263671875
192713, 0.0021519402507692575, -0.03248545154929161, 0.008727334439754486, 5.6914550441433676e-06, -8.927715498430189e-06, -0.0004816484288312495, 6.133080023573712e-05, -8.81955711520277e-05, -0.0039297170005738735, -0.00925303902477026, 0.11366049945354462, 0.24196618795394897, 0.11630690622070543, -1.5991546789883273, -6.086295861676108, 9362.0, 31456.0, 35388.0, 9362.0, 8.271075248718262, -0.013874625787138939, -0.344247967004776, -0.010433411225676537, 0.001517917844466865, -0.06857170164585114, 0.996566116809845, -0.1068250834941864, -0.12023735046386719, 1.486083984375, 1.32421875, 0.024139404296875, 1.5263671875
192723, 0.0027952496893703938, -0.03454359248280525, 0.009736718609929085, 5.6914550441433676e-06, -8.927715498430189e-06, -0.0004816484288312495, 6.133080023573712e-05, -8.81955711520277e-05, -0.0039297170005738735, -0.009260667487978935, 0.11364708840847015, 0.24196085333824158, 0.1347377219734923, -1.6454704764981614, -6.054754415509966, 9362.0, 31456.0, 35388.0, 9362.0, 8.271075248718262, 0.07799722254276276, 0.15658968687057495, 0.20855191349983215, 0.001517917844466865, -0.06857170164585114, 0.996566116809845, -0.1068250834941864, -0.12023735046386719, 1.486083984375, 1.341796875, 0.0162811279296875, 1.5263671875
192733, 0.0032387760002166033, -0.03548164293169975, 0.009960340335965157, 5.6914550441433676e-06, -8.927715498430189e-06, -0.0004816484288312495, 6.133080023573712e-05, -8.81955711520277e-05, -0.0039297170005738735, -0.009243030101060867, 0.11365059018135071, 0.2419765442609787, 0.1261698719755806, -1.6488932579118512, -6.053569864917393, 9362.0, 31456.0, 35388.0, 9362.0, 8.271075248718262, 0.07799722254276276, 0.15658968687057495, 0.20855191349983215, 0.001517917844466865, -0.06857170164585114, 0.996566116809845, -0.1068250834941864, -0.12023735046386719, 1.486083984375, 1.333740234375, 0.0189361572265625, 1.528564453125
192743, 0.00372931151650846, -0.036182254552841187, 0.009916509501636028, 5.6914550441433676e-06, -8.927715498430189e-06, -0.0004816484288312495, 6.133080023573712e-05, -8.81955711520277e-05, -0.0039297170005738735, -0.008821319788694382, 0.11393390595912933, 0.24041494727134705, -2.3500992957529445, 1.80874046669814, -6.341904853166244, 9362.0, 31456.0, 35388.0, 9362.0, 8.271075248718262, 0.07799722254276276, 0.15658968687057495, 0.20855191349983215, 0.0016081137582659721, -0.0669240802526474, 0.9980238676071167, -0.1068250834941864, -0.12023735046386719, 1.486083984375, 1.333740234375, 0.0189361572265625, 1.528564453125
192753, 0.005495492834597826, -0.0371323861181736, 0.009718556888401508, 5.6914550441433676e-06, -8.927715498430189e-06, -0.0004816484288312495, 6.133080023573712e-05, -8.81955711520277e-05, -0.0039297170005738735, -0.009243225678801537, 0.11364901810884476, 0.2419363111257553, 0.10756151287899683, -1.6310405617227843, -6.073725083269351, 9362.0, 31456.0, 35388.0, 9362.0, 8.271075248718262, 0.12013068050146103, 0.1491997092962265, -0.032885801047086716, 0.0016081137582659721, -0.0669240802526474, 0.9980238676071167, -0.1068250834941864, -0.12023735046386719, 1.486083984375, 1.333740234375, 0.0189361572265625, 1.528564453125
192763, 0.004233228974044323, -0.03603372722864151, 0.008206893689930439, 5.6914550441433676e-06, -8.927715498430189e-06, -0.0004816484288312495, 6.133080023573712e-05, -8.81955711520277e-05, -0.0039297170005738735, -0.008791541680693626, 0.11392487585544586, 0.24047836661338806, -2.285137454258791, 1.6710304791932629, -6.365523455406834, 9362.0, 31456.0, 35388.0, 9362.0, 8.271075248718262, 0.12013068050146103, 0.1491997092962265, -0.032885801047086716, 0.001637425390072167, -0.06542446464300156, 0.9997467994689941, -0.1068250834941864, -0.12023735046386719, 1.486083984375, 1.333740234375, 0.0189361572265625, 1.528564453125
192773, 0.004992349073290825, -0.03268470615148544, 0.007093040272593498, 5.6914550441433676e-06, -8.927715498430189e-06, -0.0004816484288312495, 6.133080023573712e-05, -8.81955711520277e-05, -0.0039297170005738735, -0.009232188574969769, 0.11365031450986862, 0.24194636940956116, 0.12186751431828405, -1.5995410876437859, -6.043867771319838, 9362.0, 31456.0, 35388.0, 9362.0, 8.271075248718262, 0.16815601289272308, -0.4030502438545227, -0.055206235498189926, 0.0019974217284470797, -0.06326736509799957, 0.9979652762413025, -0.1068250834941864, -0.12023735046386719, 1.486083984375, 1.333740234375, 0.0189361572265625, 1.528564453125
192783, 0.003902703756466508, -0.031129948794841766, 0.006388016976416111, 5.6914550441433676e-06, -8.927715498430189e-06, -0.0004816484288312495, 6.133080023573712e-05, -8.81955711520277e-05, -0.0039297170005738735, -0.00925682857632637, 0.11363795399665833, 0.2419123351573944, 0.08435840800461814, -1.599771536535286, -6.049121996257323, 9362.0, 31456.0, 35388.0, 9362.0, 8.271075248718262, -0.1574898660182953, -0.2135806381702423, -0.25749772787094116, 0.0019974217284470797, -0.06326736509799957, 0.9979652762413025, -0.1068250834941864, -0.12023735046386719, 1.486083984375, 1.333740234375, 0.0189361572265625, 1.528564453125
192793, 0.0033390314783900976, -0.03322603553533554, 0.00714988773688674, 5.6914550441433676e-06, -8.927715498430189e-06, -0.0004816484288312495, 6.133080023573712e-05, -8.81955711520277e-05, -0.0039297170005738735, -0.008660770021378994, 0.11416925489902496, 0.24074944853782654, -1.8279500643461153, 0.9953185851533988, -6.674098812175851, 9362.0, 31456.0, 35388.0, 9362.0, 8.271075248718262, -0.1574898660182953, -0.2135806381702423, -0.25749772787094116, 0.0019974217284470797, -0.06326736509799957, 0.9979652762413025, -0.10904399305582047, -0.08439826965332031, 1.489013671875, 1.283203125, 0.0772247314453125, 1.528564453125
192803, 0.0029618344269692898, -0.034980032593011856, 0.006687111221253872, 5.6914550441433676e-06, -8.927715498430189e-06, -0.0004816484288312495, 6.133080023573712e-05, -8.81955711520277e-05, -0.0039297170005738735, -0.009240169078111649, 0.11363781988620758, 0.241954043507576, 0.09071489874223815, -1.6148965421056403, -6.058233331538469, 9362.0, 31456.0, 35388.0, 9362.0, 8.271075248718262, -0.1574898660182953, -0.2135806381702423, -0.25749772787094116, 0.0019974217284470797, -0.06326736509799957, 0.9979652762413025, -0.11007548123598099, -0.10231781005859375, 1.487548828125, 1.29052734375, 0.06378173828125, 1.528564453125
192813, 0.0029351585544645786, -0.03470885753631592, 0.006049976218491793, 5.6914550441433676e-06, -8.927715498430189e-06, -0.0004816484288312495, 6.133080023573712e-05, -8.81955711520277e-05, -0.0039297170005738735, -0.008800807408988476, 0.11393779516220093, 0.24040734767913818, -2.3909772527416244, 1.8621709891444311, -6.357654695990392, 9362.0, 31456.0, 35388.0, 9362.0, 8.271075248718262, -0.1574898660182953, -0.2135806381702423, -0.25749772787094116, 0.0019974217284470797, -0.06326736509799957, 0.9979652762413025, -0.1126343384385109, -0.11127853393554688, 1.48681640625, 1.278076171875, 0.087799072265625, 1.528564453125
192823, 0.0026944975834339857, -0.03523591160774231, 0.005441395565867424, 5.6914550441433676e-06, -8.927715498430189e-06, -0.0004816484288312495, 6.133080023573712e-05, -8.81955711520277e-05, -0.0039297170005738735, -0.008798807859420776, 0.11393897235393524, 0.24051402509212494, -2.2708780585809922, 1.6502628890782205, -6.368998557128396, 9362.0, 31456.0, 35388.0, 9362.0, 8.271075248718262, -0.1574898660182953, -0.2135806381702423, -0.25749772787094116, 0.0019974217284470797, -0.06326736509799957, 0.9979652762413025, -0.1126343384385109, -0.11127853393554688, 1.48681640625, 1.279541015625, 0.0847015380859375, 1.528564453125
192833, 0.00180804543197155, -0.034765154123306274, 0.0035135659854859114, 5.6914550441433676e-06, -8.927715498430189e-06, -0.0004816484288312495, 6.133080023573712e-05, -8.81955711520277e-05, -0.0039297170005738735, -0.009242268279194832, 0.11364204436540604, 0.24193844199180603, 0.10428410972904281, -1.603043273823829, -6.051653218392515, 9362.0, 31456.0, 35388.0, 9362.0, 8.271075248718262, -0.1574898660182953, -0.2135806381702423, -0.25749772787094116, 0.0033752985764294863, -0.06742201745510101, 0.9984948039054871, -0.1126343384385109, -0.11127853393554688, 1.48681640625, 1.279541015625, 0.0847015380859375, 1.528564453125
192843, 0.001056642853654921, -0.0330316498875618, 0.004057380370795727, 5.6914550441433676e-06, -8.927715498430189e-06, -0.0004816484288312495, 6.133080023573712e-05, -8.81955711520277e-05, -0.0039297170005738735, -0.00925157219171524, 0.11365162581205368, 0.2419504076242447, 0.10108803239075867, -1.6411956965405636, -6.069404445097776, 9362.0, 31456.0, 35388.0, 9362.0, 8.271075248718262, -0.05978894978761673, -0.1415703445672989, 0.08007313311100006, 0.0033752985764294863, -0.06742201745510101, 0.9984948039054871, -0.1126343384385109, -0.11127853393554688, 1.48681640625, 1.279541015625, 0.0847015380859375, 1.528564453125
192853, 0.0013905972009524703, -0.031874001026153564, 0.0036990416701883078, 5.6914550441433676e-06, -8.927715498430189e-06, -0.0004816484288312495, 6.133080023573712e-05, -8.81955711520277e-05, -0.0039297170005738735, -0.009248700924217701, 0.11364662647247314, 0.2419569045305252, 0.09162384220509386, -1.6421372667942933, -6.046387553321092, 9362.0, 31456.0, 35388.0, 9362.0, 8.271075248718262, 0.09242546558380127, -0.06769406795501709, -0.20034700632095337, 0.0033752985764294863, -0.06742201745510101, 0.9984948039054871, -0.1126343384385109, -0.11127853393554688, 1.48681640625, 1.279541015625, 0.0847015380859375, 1.522705078125
192863, 0.001729177194647491, -0.03479929640889168, 0.0033825007267296314, 5.6914550441433676e-06, -8.927715498430189e-06, -0.0004816484288312495, 6.133080023573712e-05, -8.81955711520277e-05, -0.0039297170005738735, -0.009251203387975693, 0.11365142464637756, 0.24195198714733124, 0.12969216975902575, -1.651099614566192, -6.052138515143862, 9362.0, 31456.0, 35388.0, 9362.0, 8.271075248718262, 0.09242546558380127, -0.06769406795501709, -0.20034700632095337, 0.002093966817483306, -0.06578750163316727, 0.997742235660553, -0.1126343384385109, -0.11127853393554688, 1.48681640625, 1.279541015625, 0.0847015380859375, 1.522705078125
192873, 0.0023139731492847204, -0.034922581166028976, 0.0023188830818980932, 5.6914550441433676e-06, -8.927715498430189e-06, -0.0004816484288312495, 6.133080023573712e-05, -8.81955711520277e-05, -0.0039297170005738735, -0.008780046366155148, 0.11391767859458923, 0.24053159356117249, -2.244758812080108, 1.6225260209450312, -6.382931508894174, 9362.0, 31456.0, 35388.0, 9362.0, 8.271075248718262, 0.01632913202047348, -0.12944935262203217, 0.05327162146568298, 0.002093966817483306, -0.06578750163316727, 0.997742235660553, -0.11688467860221863, -0.09335899353027344, 1.48828125, 1.279541015625, 0.0847015380859375, 1.522705078125
192893, 0.0019338511629030108, -0.03466813638806343, 0.004131549037992954, 5.6914550441433676e-06, -8.927715498430189e-06, -0.0004816484288312495, 6.133080023573712e-05, -8.81955711520277e-05, -0.0039297170005738735, -0.009241487830877304, 0.11365705728530884, 0.2419576793909073, 0.10679458542821234, -1.643119014411809, -6.066246288052236, 9362.0, 31456.0, 35388.0, 9362.0, 8.271075248718262, -0.008445069193840027, 0.05137265846133232, 0.40088844299316406, 0.002093966817483306, -0.06578750163316727, 0.997742235660553, -0.11688467860221863, -0.09335899353027344, 1.48828125, 1.33740234375, 0.0175323486328125, 1.522705078125
192903, 0.0016375950071960688, -0.03364567831158638, 0.0050502135418355465, 5.6914550441433676e-06, -8.927715498430189e-06, -0.0004816484288312495, 6.133080023573712e-05, -8.81955711520277e-05, -0.0039297170005738735, -0.008819147944450378, 0.11391989886760712, 0.24038927257061005, -2.395239450340229, 1.7733467085424195, -6.392241786705071, 9362.0, 31456.0, 35388.0, 9362.0, 8.271075248718262, 0.03740198165178299, -0.022518215700984, 0.2578951418399811, 0.002994203008711338, -0.06713197380304337, 1.000420331954956, -0.11688467860221863, -0.09335899353027344, 1.48828125, 1.33740234375, 0.0175323486328125, 1.522705078125
192913, 0.0013806162169203162, -0.03750619292259216, 0.0071913027204573154, 5.6914550441433676e-06, -8.927715498430189e-06, -0.0004816484288312495, 6.133080023573712e-05, -8.81955711520277e-05, -0.0039297170005738735, -0.009254032745957375, 0.1136494055390358, 0.24196039140224457, 0.08662729674315334, -1.6418236143899776, -6.070684196243152, 9362.0, 31456.0, 35388.0, 9362.0, 8.271075248718262, 0.03740198165178299, -0.022518215700984, 0.2578951418399811, 0.002994203008711338, -0.06713197380304337, 1.000420331954956, -0.11688467860221863, -0.09335899353027344, 1.48828125, 1.329345703125, 0.02105712890625, 1.522705078125
192923, 0.0007817326113581657, -0.03805859386920929, 0.008058655075728893, 5.6914550441433676e-06, -8.927715498430189e-06, -0.0004816484288312495, 6.133080023573712e-05, -8.81955711520277e-05, -0.0039297170005738735, -0.009250273928046227, 0.11366342008113861, 0.24201016128063202, 0.08739122848411374, -1.6497551115368765, -6.080816540644095, 9362.0, 31456.0, 35388.0, 9362.0, 8.271075248718262, 0.03740198165178299, -0.022518215700984, 0.2578951418399811, 0.002994203008711338, -0.06713197380304337, 1.000420331954956, -0.1158122718334198, -0.23671722412109375, 1.4765625, 1.335205078125, 0.018280029296875, 1.522705078125
192933, 0.00037858428549952805, -0.036948103457689285, 0.009711290709674358, 5.6914550441433676e-06, -8.927715498430189e-06, -0.0004816484288312495, 6.133080023573712e-05, -8.81955711520277e-05, -0.0039297170005738735, -0.009261641651391983, 0.11365105211734772, 0.24192573130130768, 0.10730108201234217, -1.6120270410217472, -6.049247727941897, 9362.0, 31456.0, 35388.0, 9362.0, 8.271075248718262, 0.03740198165178299, -0.022518215700984, 0.2578951418399811, 0.002994203008711338, -0.06713197380304337, 1.000420331954956, -0.1158122718334198, -0.23671722412109375, 1.4765625, 1.326416015625, 0.022705078125, 1.522705078125
192943, 0.0006501926691271365, -0.03930326923727989, 0.010208404622972012, 5.6914550441433676e-06, -8.927715498430189e-06, -0.0004816484288312495, 6.133080023573712e-05, -8.81955711520277e-05, -0.0039297170005738735, -0.009252291172742844, 0.11365393549203873, 0.24199289083480835, 0.11399706943247187, -1.6083112039637797, -6.063363946085188, 9362.0, 31456.0, 35388.0, 9362.0, 8.271075248718262, 0.03740198165178299, -0.022518215700984, 0.2578951418399811, 0.002994203008711338, -0.06713197380304337, 1.000420331954956, -0.1158122718334198, -0.23671722412109375, 1.4765625, 1.3359375, 0.01806640625, 1.522705078125
192953, 3.763549102586694e-05, -0.03687715157866478, 0.010908161289989948, 5.6914550441433676e-06, -8.927715498430189e-06, -0.0004816484288312495, 6.133080023573712e-05, -8.81955711520277e-05, -0.0039297170005738735, -0.009268383495509624, 0.11365581303834915, 0.24198202788829803, 0.1096278897632915, -1.6210890275564225, -6.068052050870168, 9362.0, 31456.0, 35388.0, 9362.0, 8.271075248718262, 0.03740198165178299, -0.022518215700984, 0.2578951418399811, 0.0012773866765201092, -0.06639357656240463, 1.000819444656372, -0.1158122718334198, -0.23671722412109375, 1.4765625, 1.3359375, 0.01806640625, 1.522705078125
192963, -1.7521339032100514e-05, -0.03928764909505844, 0.01189848966896534, 5.6914550441433676e-06, -8.927715498430189e-06, -0.0004816484288312495, 6.133080023573712e-05, -8.81955711520277e-05, -0.0039297170005738735, -0.009255778975784779, 0.11364219337701797, 0.24196934700012207, 0.12985960919785275, -1.6863716264994082, -6.068060978352994, 9362.0, 31456.0, 35388.0, 9362.0, 8.271075248718262, 0.03740198165178299, -0.022518215700984, 0.2578951418399811, 0.0012773866765201092, -0.06639357656240463, 1.000819444656372, -0.1158122718334198, -0.23671722412109375, 1.4765625, 1.327880859375, 0.0218353271484375, 1.522705078125
192973, 0.0008098897524178028, -0.038799550384283066, 0.012618772685527802, 5.6914550441433676e-06, -8.927715498430189e-06, -0.0004816484288312495, 6.133080023573712e-05, -8.81955711520277e-05, -0.0039297170005738735, -0.009255750104784966, 0.11364658921957016, 0.24197055399417877, 0.13488505245009, -1.6238242665000655, -6.060987308371359, 9362.0, 31456.0, 35388.0, 9362.0, 8.271075248718262, 0.03740198165178299, -0.022518215700984, 0.2578951418399811, 0.0019875543657690287, -0.0662074014544487, 0.9957712292671204, -0.1158122718334198, -0.23671722412109375, 1.4765625, 1.326416015625, 0.022705078125, 1.522705078125
192983, 0.0007512023439630866, -0.04064176231622696, 0.014943962916731834, 5.6914550441433676e-06, -8.927715498430189e-06, -0.0004816484288312495, 6.133080023573712e-05, -8.81955711520277e-05, -0.0039297170005738735, -0.00877718348056078, 0.11391713470220566, 0.2405817210674286, -2.195331313991527, 1.557666762106578, -6.394018737604698, 9362.0, 31456.0, 35388.0, 9362.0, 8.271075248718262, 0.03740198165178299, -0.022518215700984, 0.2578951418399811, 0.0024446011520922184, -0.06650378555059433, 0.9974343776702881, -0.1158122718334198, -0.23671722412109375, 1.4765625, 1.326416015625, 0.022705078125, 1.522705078125
192993, 0.0014031268656253815, -0.041086722165346146, 0.015820642933249474, 5.6914550441433676e-06, -8.927715498430189e-06, -0.0004816484288312495, 6.133080023573712e-05, -8.81955711520277e-05, -0.0039297170005738735, -0.00925509724766016, 0.11364570260047913, 0.24196207523345947, 0.07422853942883666, -1.6216550995622185, -6.054861935074795, 9362.0, 31456.0, 35388.0, 9362.0, 8.271075248718262, 0.03740198165178299, -0.022518215700984, 0.2578951418399811, 0.0024065941106528044, -0.06720039248466492, 0.9984559416770935, -0.1116194874048233, -0.09335899353027344, 1.48828125, 1.326416015625, 0.022705078125, 1.522705078125
193003, 0.0014620517613366246, -0.04102529212832451, 0.013508112169802189, 5.6914550441433676e-06, -8.927715498430189e-06, -0.0004816484288312495, 6.133080023573712e-05, -8.81955711520277e-05, -0.0039297170005738735, -0.009258192032575607, 0.11363420635461807, 0.2419479936361313, 0.08758237221712267, -1.6030669943787643, -6.044191922525017, 9362.0, 31456.0, 35388.0, 9362.0, 8.271075248718262, 0.03740198165178299, -0.022518215700984, 0.2578951418399811, 0.0024065941106528044, -0.06720039248466492, 0.9984559416770935, -0.1116194874048233, -0.09335899353027344, 1.48828125, 1.3798828125, 0.0243377685546875, 1.522705078125
193013, 0.0016769428038969636, -0.04236282408237457, 0.012449122034013271, 5.6914550441433676e-06, -8.927715498430189e-06, -0.0004816484288312495, 6.133080023573712e-05, -8.81955711520277e-05, -0.0039297170005738735, -0.009259296581149101, 0.11365215480327606, 0.24199414253234863, 0.11593502636411186, -1.614620836491241, -6.057771836258429, 9362.0, 31456.0, 35388.0, 9362.0, 8.271075248718262, -0.021277105435729027, 0.14632412791252136, -0.23145794868469238, 0.0017320953775197268, -0.06449683010578156, 0.998195469379425, -0.1116194874048233, -0.09335899353027344, 1.48828125, 1.3798828125, 0.0243377685546875, 1.522705078125
193023, 0.0026072359178215265, -0.043102897703647614, 0.011350294575095177, 5.6914550441433676e-06, -8.927715498430189e-06, -0.0004816484288312495, 6.133080023573712e-05, -8.81955711520277e-05, -0.0039297170005738735, -0.009260959923267365, 0.11364304274320602, 0.24197304248809814, 0.10258076325677483, -1.6593111173508248, -6.05959194433033, 9362.0, 31456.0, 35388.0, 9362.0, 8.271075248718262, 0.24440909922122955, 0.09836825728416443, -0.036078426986932755, 0.0017320953775197268, -0.06449683010578156, 0.998195469379425, -0.1116194874048233, -0.09335899353027344, 1.48828125, 1.3798828125, 0.0243377685546875, 1.522705078125
