timeTick, roll, pitch, yaw, stateX, stateY, stateZ, stateVX, stateVY, stateVZ, otX0, otY0, otZ0, otRoll0, otPitch0, otYaw0, left wing, pitch motor, yaw motor, right wing, voltage, roll rate, pitch rate, yaw rate, A_x, A_y, A_z, current, i_raw, v_raw, airflow_voltage, airflow_speed, pot_Pitch
112255, 0.06262427568435669, -0.32481130957603455, -0.17528189718723297, 0, 0, 0, 0, 0, 0, -0.022431539371609688, 0.11824895441532135, 0.23944322764873505, -1.758328714842985, 0.06782854357931001, 3.3456238943416183, 0, 0, 0, 0, 0, 0, 0, 0, 0, 0, 0, 0, 0, 0, 0, 0, 0
112265, 0.06238367781043053, -0.32590341567993164, -0.17306138575077057, 3.1028661727905273, -0.9814720153808594, -5.120738983154297, 0.537889301776886, -0.14034229516983032, -0.5445488095283508, -0.022413449361920357, 0.1182471513748169, 0.23943477869033813, -1.7436807321138976, 0.05617435373670787, 3.3566479987616376, 9362.0, 26214.0, 35388.0, 9362.0, 7.99338960647583, 0.020747004076838493, -0.05787257105112076, -0.19217228889465332, 0.0034566365648061037, -0.07481379061937332, 0.9972977042198181, -0.1046423390507698, -0.10231781005859375, 1.487548828125, 1.247314453125, 0.172119140625, 0
112275, 0.06228811293840408, -0.3245541453361511, -0.17440369725227356, 3.108247756958008, -0.9828760027885437, -5.126186370849609, 0.5384430289268494, -0.14045079052448273, -0.5449113249778748, -0.022431381046772003, 0.11824551224708557, 0.23942968249320984, -1.7284479819415097, 0.04574640144926434, 3.3611494246118725, 9362.0, 26214.0, 35388.0, 9362.0, 7.99338960647583, 0.1098749041557312, 0.13121511042118073, 0.1698862761259079, 0.005812968593090773, -0.07572041451931, 0.9959840178489685, -0.10610970109701157, -0.10231781005859375, 1.487548828125, 1.2451171875, 0.1796875, 1.392333984375
112285, 0.06327008455991745, -0.32474127411842346, -0.17401671409606934, 3.1136350631713867, -0.984281063079834, -5.131637096405029, 0.538999080657959, -0.14055895805358887, -0.5451964735984802, -0.022421525791287422, 0.11824239790439606, 0.23943360149860382, -1.7311946150870856, 0.0764992707946135, 3.343402365070088, 9362.0, 26214.0, 35388.0, 9362.0, 7.99338960647583, 0.12378447502851486, 0.21945421397686005, 0.2269231230020523, 0.005945080425590277, -0.07628177106380463, 0.9964677095413208, -0.10763628035783768, -0.11127853393554688, 1.48681640625, 1.245849609375, 0.1771087646484375, 1.396728515625
112295, 0.06405699253082275, -0.32686755061149597, -0.17278587818145752, 3.119027853012085, -0.9856871962547302, -5.137090682983398, 0.5395524501800537, -0.1406669020652771, -0.5455562472343445, -0.02243342064321041, 0.1182321310043335, 0.23946009576320648, -1.709789382760954, 0.014269686766311906, 3.3463182772338684, 9362.0, 26214.0, 35388.0, 9362.0, 7.99338960647583, -0.10600903630256653, 0.05550510063767433, -0.1979965716600418, 0.006925004534423351, -0.07535041868686676, 0.9976939558982849, -0.10895062237977982, -0.1291980743408203, 1.4853515625, 1.244384765625, 0.18212890625, 1.39599609375
112305, 0.06332163512706757, -0.3270801603794098, -0.17375630140304565, 3.1244261264801025, -0.9870944023132324, -5.142548084259033, 0.5401062369346619, -0.14077654480934143, -0.5458982586860657, -0.022428248077630997, 0.11824726313352585, 0.23945386707782745, -1.7278142413416848, 0.10570325950970982, 3.3577640940295392, 9362.0, 26214.0, 35388.0, 9362.0, 7.99338960647583, 0.059491876512765884, -0.18136493861675262, -0.43928778171539307, 0.005352746695280075, -0.07557537406682968, 0.9979634284973145, -0.11017660796642303, -0.12023735046386719, 1.486083984375, 1.247314453125, 0.172119140625, 1.387939453125
112315, 0.06422731280326843, -0.32563820481300354, -0.1765783727169037, 3.1298298835754395, -0.9885027408599854, -5.148008346557617, 0.5406641960144043, -0.14088766276836395, -0.5461146831512451, -0.02244233526289463, 0.11824686080217361, 0.2394544929265976, -1.693865964072179, -0.013940473739893378, 3.353078070835585, 9362.0, 26214.0, 35388.0, 9362.0, 7.99338960647583, 0.23478202521800995, -0.25082311034202576, 0.15186545252799988, 0.005931278225034475, -0.07530808448791504, 0.9970204830169678, -0.10763757675886154, -0.10231781005859375, 1.487548828125, 1.24365234375, 0.1847381591796875, 1.395263671875
112325, 0.06605465710163116, -0.3245770037174225, -0.17618344724178314, 3.135239362716675, -0.9899121522903442, -5.153470516204834, 0.5412227511405945, -0.14099757373332977, -0.546323299407959, -0.02243587002158165, 0.11824272572994232, 0.2394150048494339, -1.7674871523870723, 0.07763744792993066, 3.3397326499685396, 9362.0, 26214.0, 35388.0, 9362.0, 7.99338960647583, -0.0997052863240242, -0.17319652438163757, -0.25309282541275024, 0.00586390495300293, -0.07685653120279312, 0.993705153465271, -0.10620591044425964, -0.06647872924804688, 1.490478515625, 1.2421875, 0.19000244140625, 1.39013671875
112335, 0.06523995101451874, -0.32391324639320374, -0.17825841903686523, 3.1406543254852295, -0.9913226962089539, -5.158935070037842, 0.5417782664299011, -0.141108900308609, -0.5466216802597046, -0.022432299330830574, 0.11825483292341232, 0.23944610357284546, -1.7513906287546424, 0.07138914093891913, 3.36778438117105, 9362.0, 26214.0, 35388.0, 9362.0, 7.99338960647583, 0.009747152216732502, 0.3549104332923889, 0.36505046486854553, 0.0045275455340743065, -0.07617844641208649, 0.9947086572647095, -0.1051064282655716, -0.10231781005859375, 1.487548828125, 1.2421875, 0.19000244140625, 1.386474609375
112345, 0.06599386781454086, -0.325997531414032, -0.1765371561050415, 3.1460747718811035, -0.9927343726158142, -5.164404392242432, 0.5423303246498108, -0.14122304320335388, -0.5472086071968079, -0.022425688803195953, 0.11824791133403778, 0.23943908512592316, -1.718404377282534, 0.042709001080851294, 3.3494433558252728, 9362.0, 26214.0, 35388.0, 9362.0, 7.99338960647583, 0.08813079446554184, 0.013341249898076057, -0.04836870729923248, 0.00500894570723176, -0.07378567010164261, 0.9970491528511047, -0.10510817915201187, -0.08439826965332031, 1.489013671875, 1.241455078125, 0.192626953125, 1.39306640625
112355, 0.06693719327449799, -0.32675880193710327, -0.1765379160642624, 3.151500940322876, -0.9941471815109253, -5.169878959655762, 0.5428816676139832, -0.1413358449935913, -0.5477234125137329, -0.022431308403611183, 0.11823873221874237, 0.23941709101200104, -1.7220190379225409, 0.046684728444489565, 3.3465104816994424, 9362.0, 26214.0, 35388.0, 9362.0, 7.99338960647583, -0.1663542091846466, 0.3034474849700928, 0.2396729290485382, 0.005432676058262587, -0.07374366372823715, 0.9969133138656616, -0.10453326255083084, -0.10231781005859375, 1.487548828125, 1.245849609375, 0.1771087646484375, 1.389404296875
112365, 0.06598258018493652, -0.328685998916626, -0.1743186116218567, 3.1569325923919678, -0.9955611228942871, -5.175357341766357, 0.5434379577636719, -0.14145024120807648, -0.5479943156242371, -0.022431347519159317, 0.11825483292341232, 0.2394251674413681, -1.7776193884993985, 0.04465649784009429, 3.339246076293595, 9362.0, 26214.0, 35388.0, 9362.0, 7.99338960647583, 0.021432243287563324, 0.06615647673606873, -0.20602336525917053, 0.005277134478092194, -0.07356639951467514, 0.9948986768722534, -0.10623247921466827, -0.14711761474609375, 1.48388671875, 1.244384765625, 0.18212890625, 1.38720703125
112375, 0.06571853905916214, -0.3288045823574066, -0.17495350539684296, 3.162369728088379, -0.9969761967658997, -5.180838584899902, 0.5439954996109009, -0.1415662318468094, -0.5482724905014038, -0.02244947850704193, 0.1182604730129242, 0.23942191898822784, -1.7358699620408211, 0.0493175947437976, 3.3623571928054283, 9362.0, 26214.0, 35388.0, 9362.0, 7.99338960647583, -0.1421215534210205, -0.31268593668937683, 0.02319381944835186, 0.006502074655145407, -0.07436183840036392, 0.9981752634048462, -0.10693144053220749, -0.12023735046386719, 1.486083984375, 1.26708984375, 0.1136474609375, 1.3916015625
112385, 0.06516808271408081, -0.3258480727672577, -0.1752086877822876, 3.1678125858306885, -0.9983924031257629, -5.186323642730713, 0.5445552468299866, -0.14168038964271545, -0.5487402677536011, -0.022439515218138695, 0.11823481321334839, 0.2394714057445526, -1.705529784990891, 0.03470718935218997, 3.3502681423498735, 9362.0, 26214.0, 35388.0, 9362.0, 7.99338960647583, -0.10102701932191849, 0.1449003517627716, -0.05231454223394394, 0.005388758145272732, -0.07547897845506668, 0.9978878498077393, -0.1069350615143776, -0.1291980743408203, 1.4853515625, 1.26416015625, 0.121337890625, 1.3916015625
112395, 0.06503945589065552, -0.32599949836730957, -0.17678320407867432, 3.1732609272003174, -0.9998098015785217, -5.191812038421631, 0.5451167225837708, -0.1417943835258484, -0.5489438772201538, -0.022419914603233337, 0.11823739111423492, 0.23940829932689667, -1.7872082337114212, 0.10064194594286846, 3.343116972845757, 9362.0, 26214.0, 35388.0, 9362.0, 7.99338960647583, -0.03914818912744522, -0.12786735594272614, -0.09599173069000244, 0.004837442189455032, -0.07450377196073532, 0.9961661100387573, -0.11031334102153778, -0.06647872924804688, 1.490478515625, 1.259033203125, 0.135589599609375, 1.392333984375
112405, 0.06561190634965897, -0.3241247832775116, -0.17808450758457184, 3.1787149906158447, -1.0012283325195312, -5.197302341461182, 0.545673131942749, -0.1419074684381485, -0.5491530895233154, -0.02244292013347149, 0.11825990676879883, 0.23943910002708435, -1.7447200231840148, 0.024724365243088187, 3.344710265683127, 9362.0, 26214.0, 35388.0, 9362.0, 7.99338960647583, -0.17327584326267242, -0.04679446294903755, -0.1375502496957779, 0.00502353347837925, -0.07407335937023163, 0.9971255660057068, -0.11123748868703842, -0.08439826965332031, 1.489013671875, 1.31689453125, 0.0298919677734375, 1.390869140625
112415, 0.06556636095046997, -0.32413792610168457, -0.1794295608997345, 3.1841745376586914, -1.0026479959487915, -5.202795505523682, 0.5462288856506348, -0.1420201063156128, -0.5495074987411499, -0.022433912381529808, 0.1182376965880394, 0.23942068219184875, -1.7247226914235585, 0.052389122795773346, 3.347178104377781, 9362.0, 26214.0, 35388.0, 9362.0, 7.99338960647583, -0.2146943360567093, -0.0367872454226017, 0.05004076659679413, 0.00581211457028985, -0.0751873180270195, 0.9957966804504395, -0.10814336687326431, -0.06647872924804688, 1.490478515625, 1.31982421875, 0.0273590087890625, 1.388671875
112425, 0.06363639235496521, -0.3231801688671112, -0.17865829169750214, 3.1896395683288574, -1.0040687322616577, -5.208292007446289, 0.5467818975448608, -0.14213386178016663, -0.5498008131980896, -0.022434284910559654, 0.11823052912950516, 0.23943929374217987, -1.7472211000762101, 0.0709961381228652, 3.3716567093819525, 9362.0, 26214.0, 35388.0, 9362.0, 7.99338960647583, 0.1604461371898651, 0.5233402252197266, 0.2781596779823303, 0.006458513904362917, -0.07545256614685059, 0.9972040057182312, -0.10910163074731827, -0.10231781005859375, 1.487548828125, 1.206298828125, 0.3491363525390625, 1.388671875
112435, 0.06430631875991821, -0.32556846737861633, -0.17771290242671967, 3.1951100826263428, -1.0054906606674194, -5.213791847229004, 0.5473343133926392, -0.14224740862846375, -0.5501888990402222, -0.02243403159081936, 0.11824222654104233, 0.23943369090557098, -1.754473616021285, 0.05674871242518975, 3.3552236794457597, 9362.0, 26214.0, 35388.0, 9362.0, 7.99338960647583, 0.0551719069480896, 0.2560926675796509, 0.1200866550207138, 0.006983053404837847, -0.07577488571405411, 0.9982589483261108, -0.10714605450630188, -0.1739978790283203, 1.481689453125, 1.20263671875, 0.368988037109375, 1.393798828125
112445, 0.06415673345327377, -0.3265514075756073, -0.17815540730953217, 3.2005860805511475, -1.006913661956787, -5.219295501708984, 0.547885537147522, -0.142357736825943, -0.5505079627037048, -0.022425467148423195, 0.11823998391628265, 0.23945483565330505, -1.7484476871755574, 0.06170759569192796, 3.3415715799580683, 9362.0, 26214.0, 35388.0, 9362.0, 7.99338960647583, -0.12565620243549347, 0.24192103743553162, 0.1547597348690033, 0.005853591952472925, -0.07415207475423813, 0.9960958361625671, -0.10285384953022003, -0.08439826965332031, 1.489013671875, 1.20556640625, 0.3530731201171875, 1.392333984375
112455, 0.06333127617835999, -0.3285166621208191, -0.17700113356113434, 3.2060678005218506, -1.0083378553390503, -5.224801540374756, 0.5484413504600525, -0.14246930181980133, -0.5507281422615051, -0.022438686341047287, 0.11823989450931549, 0.23943114280700684, -1.75417998015451, 0.04840161654820463, 3.360739952664156, 9362.0, 26214.0, 35388.0, 9362.0, 7.99338960647583, -0.18347179889678955, -0.2400423288345337, -0.06640683114528656, 0.0051088579930365086, -0.0755542516708374, 0.9987593293190002, -0.10295078903436661, -0.06647872924804688, 1.490478515625, 1.2041015625, 0.3609771728515625, 1.39306640625
112465, 0.06278574466705322, -0.3283919394016266, -0.1772439330816269, 3.211555004119873, -1.0097631216049194, -5.230310440063477, 0.5489981174468994, -0.14258049428462982, -0.5510821342468262, -0.022422486916184425, 0.1182447150349617, 0.2394462525844574, -1.777575982781043, 0.0650548898022123, 3.331756302505552, 9362.0, 26214.0, 35388.0, 9362.0, 7.99338960647583, -0.10963346809148788, -0.38282325863838196, -0.01691272482275963, 0.004827221855521202, -0.07638874650001526, 0.9961255788803101, -0.10418429225683212, -0.11127853393554688, 1.48681640625, 1.203369140625, 0.3649749755859375, 1.39013671875
112475, 0.06268090754747391, -0.32656222581863403, -0.17741040885448456, 3.217047691345215, -1.0111894607543945, -5.2358222007751465, 0.5495592355728149, -0.1426904797554016, -0.5512608289718628, -0.02242906205356121, 0.11824022233486176, 0.2394060492515564, -1.7383245323471237, 0.08256108001273788, 3.359837945636834, 9362.0, 26214.0, 35388.0, 9362.0, 7.99338960647583, 0.07268698513507843, 0.16019992530345917, 0.02114303782582283, 0.004827369935810566, -0.07545359432697296, 0.9974797964096069, -0.10382931679487228, -0.10231781005859375, 1.487548828125, 1.20556640625, 0.3530731201171875, 1.392333984375
112485, 0.06320122629404068, -0.3277965486049652, -0.1773250252008438, 3.222546100616455, -1.0126168727874756, -5.241336345672607, 0.5501193404197693, -0.14279936254024506, -0.5515885353088379, -0.02242281660437584, 0.11824338883161545, 0.2394629418849945, -1.7777142751587172, 0.08575632618155282, 3.3505956438523765, 9362.0, 26214.0, 35388.0, 9362.0, 7.99338960647583, -0.001989343436434865, 0.07142705470323563, 0.06619080901145935, 0.004165070131421089, -0.07303816825151443, 0.9981659650802612, -0.10166832059621811, -0.08439826965332031, 1.489013671875, 1.20703125, 0.34527587890625, 1.39013671875
112495, 0.06379374861717224, -0.3283959925174713, -0.17635518312454224, 3.2280499935150146, -1.0140453577041626, -5.246853351593018, 0.5506766438484192, -0.14290812611579895, -0.5518413186073303, -0.022424254566431046, 0.11823642253875732, 0.23944523930549622, -1.7122779040064795, 0.02417908047164019, 3.349405698809842, 9362.0, 26214.0, 35388.0, 9362.0, 7.99338960647583, 0.024745214730501175, -0.058452267199754715, 0.05769868940114975, 0.005388192366808653, -0.07460031658411026, 0.9976367354393005, -0.10293851792812347, -0.10231781005859375, 1.487548828125, 1.206298828125, 0.3491363525390625, 1.39013671875
112505, 0.06373276561498642, -0.3274441063404083, -0.17676809430122375, 3.2335596084594727, -1.0154750347137451, -5.252372741699219, 0.5512365102767944, -0.14301785826683044, -0.5520138740539551, -0.022412637248635292, 0.11824895441532135, 0.2394406646490097, -1.7587755697075604, 0.04448916104306022, 3.344394444355574, 9362.0, 26214.0, 35388.0, 9362.0, 7.99338960647583, -0.05404399707913399, 0.16352702677249908, -0.3129960298538208, 0.006124281324446201, -0.07490991055965424, 0.9973627924919128, -0.10179135203361511, -0.10231781005859375, 1.487548828125, 1.20263671875, 0.368988037109375, 1.39306640625
112515, 0.06416207551956177, -0.3276316821575165, -0.17907293140888214, 3.23907470703125, -1.0169057846069336, -5.257894039154053, 0.551797091960907, -0.14312857389450073, -0.5522380471229553, -0.02241799235343933, 0.11823591589927673, 0.23943714797496796, -1.7161503935333895, 0.002264163245314421, 3.3468749767252945, 9362.0, 26214.0, 35388.0, 9362.0, 7.99338960647583, 0.09748298674821854, -0.256832480430603, 0.035678066313266754, 0.006149620749056339, -0.07479436695575714, 0.9969346523284912, -0.10292556881904602, -0.14711761474609375, 1.48388671875, 1.206298828125, 0.3491363525390625, 1.39013671875
112525, 0.06528502702713013, -0.32591286301612854, -0.17873968183994293, 3.244595527648926, -1.018337607383728, -5.263417720794678, 0.5523561239242554, -0.14323918521404266, -0.5524781942367554, -0.022435765713453293, 0.11825069785118103, 0.2394522726535797, -1.7092472783238932, 0.009744788924905379, 3.3519659765426333, 9362.0, 26214.0, 35388.0, 9362.0, 7.99338960647583, 0.09748298674821854, -0.256832480430603, 0.035678066313266754, 0.004552650731056929, -0.07585595548152924, 0.9951392412185669, -0.10292556881904602, -0.14711761474609375, 1.48388671875, 1.206298828125, 0.3491363525390625, 1.392333984375
112535, 0.06504750996828079, -0.330198734998703, -0.177220419049263, 3.250121831893921, -1.0197705030441284, -5.268943786621094, 0.5529152154922485, -0.1433504968881607, -0.552739143371582, -0.02243710309267044, 0.1182527244091034, 0.23946183919906616, -1.7291343819901142, 0.062060918888249716, 3.3522196501849972, 9362.0, 26214.0, 35388.0, 9362.0, 7.99338960647583, 0.050444360822439194, 0.1580246090888977, -0.04531119018793106, 0.004552650731056929, -0.07585595548152924, 0.9951392412185669, -0.09764190018177032, -0.11127853393554688, 1.48681640625, 1.206298828125, 0.3491363525390625, 1.392333984375
112555, 0.06400461494922638, -0.332488089799881, -0.176885724067688, 3.2611913681030273, -1.0226397514343262, -5.280004978179932, 0.5540350079536438, -0.143576517701149, -0.5532441735267639, -0.022419946268200874, 0.1182480975985527, 0.23944126069545746, -1.70967472507114, 0.0748712926908297, 3.3368285079275157, 9362.0, 26214.0, 35388.0, 9362.0, 7.99338960647583, 0.050444360822439194, 0.1580246090888977, -0.04531119018793106, 0.005208526737987995, -0.07558120787143707, 0.9957032799720764, -0.09789077192544937, -0.09335899353027344, 1.48828125, 1.206298828125, 0.3491363525390625, 1.392333984375
112565, 0.06596540659666061, -0.3337956368923187, -0.18003039062023163, 3.2611913681030273, -1.0226397514343262, -5.280004978179932, 0.5540350079536438, -0.143576517701149, -0.5532441735267639, -0.02243587002158165, 0.11824391037225723, 0.239442378282547, -1.7432486975634098, 0.04623355868858425, 3.356138248012197, 9362.0, 26214.0, 35388.0, 9362.0, 7.99338960647583, 0.05914642661809921, -0.19873866438865662, 0.13345776498317719, 0.005208526737987995, -0.07558120787143707, 0.9957032799720764, -0.15369847416877747, -0.08439826965332031, 1.489013671875, 1.206298828125, 0.3491363525390625, 1.392333984375
112575, 0.06607912480831146, -0.3334007263183594, -0.17930540442466736, 3.2611913681030273, -1.0226397514343262, -5.280004978179932, 0.5540350079536438, -0.143576517701149, -0.5532441735267639, -0.02242548018693924, 0.11824510991573334, 0.23944033682346344, -1.7202864660956965, 0.0067482858175367255, 3.3526997171371384, 9362.0, 26214.0, 35388.0, 9362.0, 7.99338960647583, -0.032603275030851364, 0.1611042469739914, 0.2134125530719757, 0.005509288981556892, -0.07585156708955765, 0.9962186813354492, -0.15369847416877747, -0.08439826965332031, 1.489013671875, 1.206298828125, 0.3491363525390625, 1.392333984375
112585, 0.06546947360038757, -0.33521097898483276, -0.17777001857757568, 3.2778379917144775, -1.0269521474838257, -5.296616554260254, 0.5557365417480469, -0.14391516149044037, -0.5542858839035034, -0.022435933351516724, 0.11823935061693192, 0.23943477869033813, -1.7388373860306525, 0.059992586813791604, 3.352150104972824, 9362.0, 26214.0, 35388.0, 9362.0, 7.99338960647583, 0.0631391704082489, 0.16659674048423767, 0.02691292017698288, 0.005509288981556892, -0.07585156708955765, 0.9962186813354492, -0.13054777681827545, -0.10231781005859375, 1.487548828125, 1.206298828125, 0.3491363525390625, 1.392333984375
112625, 0.06492577493190765, -0.33720922470092773, -0.18081720173358917, 3.3001129627227783, -1.0327178239822388, -5.318819046020508, 0.5580205917358398, -0.14437127113342285, -0.55572509765625, -0.02243325114250183, 0.11824493110179901, 0.2394474744796753, -1.70162320999881, 0.06428849158371008, 3.3447362776549854, 9362.0, 26214.0, 35388.0, 9362.0, 7.99338960647583, 0.12049149721860886, -0.13465651869773865, -0.060541555285453796, 0.004492172971367836, -0.07738164067268372, 0.9971132278442383, -0.11342786252498627, -0.15607833862304688, 1.483154296875, 1.206298828125, 0.3491363525390625, 1.393798828125
112645, 0.0638570562005043, -0.33493149280548096, -0.18188710510730743, 3.3112847805023193, -1.0356074571609497, -5.3299384117126465, 0.5591711401939392, -0.1445973515510559, -0.5561516284942627, -0.02242502011358738, 0.11825424432754517, 0.23943746089935303, -1.7141690724571539, 0.05781018519209624, 3.3381319258201816, 9362.0, 26214.0, 35388.0, 9362.0, 7.99338960647583, 0.12049149721860886, -0.13465651869773865, -0.060541555285453796, 0.0035326387733221054, -0.07707641273736954, 0.997430682182312, -0.11229786276817322, -0.10231781005859375, 1.487548828125, 1.206298828125, 0.3491363525390625, 1.393798828125
112685, 0.06409046798944473, -0.3333090841770172, -0.18261495232582092, 3.3336973190307617, -1.0414001941680908, -5.352216720581055, 0.5614650249481201, -0.1450391262769699, -0.5579487085342407, -0.02243947796523571, 0.11824177950620651, 0.23943954706192017, -1.7112957707412286, 0.018551902201465964, 3.351263887348526, 9362.0, 26214.0, 35388.0, 9362.0, 7.99338960647583, 0.12049149721860886, -0.13465651869773865, -0.060541555285453796, 0.005072412546724081, -0.07276206463575363, 0.9982590079307556, -0.1026730090379715, -0.04855918884277344, 1.491943359375, 1.206298828125, 0.3491363525390625, 1.393798828125
112695, 0.06449117511510849, -0.33268412947654724, -0.18131326138973236, 3.3336973190307617, -1.0414001941680908, -5.352216720581055, 0.5614650249481201, -0.1450391262769699, -0.5579487085342407, -0.02243695594370365, 0.11822929233312607, 0.23944054543972015, -1.7401655342448679, 0.035271363788126564, 3.3416494370967587, 9362.0, 26214.0, 35388.0, 9362.0, 7.99338960647583, 0.14803388714790344, 0.2415315806865692, -0.10946961492300034, 0.005072412546724081, -0.07276206463575363, 0.9982590079307556, -0.10477044433355331, -0.07543754577636719, 1.48974609375, 1.206298828125, 0.3491363525390625, 1.393798828125
112765, 0.06707106530666351, -0.3370343744754791, -0.18625138700008392, 3.378796339035034, -1.053039312362671, -5.396920204162598, 0.566015362739563, -0.1459447741508484, -0.5601140260696411, -0.022422941401600838, 0.1182439848780632, 0.23943498730659485, -1.733874003497189, 0.03942759460917955, 3.3542915453756925, 9362.0, 26214.0, 35388.0, 9362.0, 7.99338960647583, 0.1413426697254181, 0.20762915909290314, 0.15302985906600952, 0.005072412546724081, -0.07276206463575363, 0.9982590079307556, -0.10780362039804459, -0.11127853393554688, 1.48681640625, 1.31689453125, 0.0298919677734375, 1.3916015625
112775, 0.06839554011821747, -0.33936360478401184, -0.18624916672706604, 3.378796339035034, -1.053039312362671, -5.396920204162598, 0.566015362739563, -0.1459447741508484, -0.5601140260696411, -0.02242831513285637, 0.11823771893978119, 0.23943780362606049, -1.696339807387843, 0.043524480431614165, 3.3404708316105145, 9362.0, 26214.0, 35388.0, 9362.0, 7.99338960647583, 0.09403113275766373, 0.19987566769123077, -0.14695525169372559, 0.005072412546724081, -0.07276206463575363, 0.9982590079307556, -0.10780362039804459, -0.11127853393554688, 1.48681640625, 1.31689453125, 0.0298919677734375, 1.3916015625
112785, 0.06934693455696106, -0.34090831875801086, -0.1875482052564621, 3.3901281356811523, -1.0559605360031128, -5.4081292152404785, 0.5671636462211609, -0.14617830514907837, -0.560783326625824, -0.022432170808315277, 0.11823932826519012, 0.23943722248077393, -1.7326687374349903, 0.08113093007941075, 3.35248717132262, 9362.0, 26214.0, 35388.0, 9362.0, 7.99338960647583, 0.09403113275766373, 0.19987566769123077, -0.14695525169372559, 0.0039846510626375675, -0.07478205114603043, 0.9954826831817627, -0.10780362039804459, -0.11127853393554688, 1.48681640625, 1.31689453125, 0.0298919677734375, 1.3916015625
112805, 0.06936786323785782, -0.3430686891078949, -0.18690389394760132, 3.4014830589294434, -1.0588864088058472, -5.419356346130371, 0.5683212876319885, -0.14641667902469635, -0.561832070350647, -0.02241739071905613, 0.11824433505535126, 0.239446759223938, -1.7379130446556135, 0.051113051457662095, 3.357610877289062, 9362.0, 26214.0, 35388.0, 9362.0, 7.99338960647583, -0.04972207546234131, 0.3021085560321808, 0.03216041252017021, 0.006277334410697222, -0.07487527281045914, 0.9960004091262817, -0.11003310233354568, -0.12023735046386719, 1.486083984375, 1.31689453125, 0.0298919677734375, 1.3916015625
112825, 0.06963352859020233, -0.3441254198551178, -0.18620485067367554, 3.4128611087799072, -1.0618170499801636, -5.430600643157959, 0.5694900751113892, -0.14665769040584564, -0.5625416040420532, -0.022441020235419273, 0.1182415708899498, 0.23942841589450836, -1.7647919738112428, 0.07171773950693705, 3.3559676842066914, 9362.0, 26214.0, 35388.0, 9362.0, 7.99338960647583, -0.0071519301272928715, 0.2413569539785385, -0.3167977035045624, 0.006277334410697222, -0.07487527281045914, 0.9960004091262817, -0.10755835473537445, -0.06647872924804688, 1.490478515625, 1.31689453125, 0.0298919677734375, 1.392333984375
112855, 0.06966373324394226, -0.3429443836212158, -0.19026653468608856, 3.4299724102020264, -1.0662223100662231, -5.447486400604248, 0.5712565779685974, -0.14702025055885315, -0.563136100769043, -0.022439535707235336, 0.11824844032526016, 0.2394331991672516, -1.7231530322778572, 0.021697811382750842, 3.355566906792381, 9362.0, 26214.0, 35388.0, 9362.0, 7.99338960647583, -0.0071519301272928715, 0.2413569539785385, -0.3167977035045624, 0.006531958002597094, -0.07792997360229492, 0.9968381524085999, -0.1084802970290184, -0.10231781005859375, 1.487548828125, 1.3154296875, 0.03118896484375, 1.392333984375
112885, 0.0686689242720604, -0.3458220660686493, -0.19143091142177582, 3.447136402130127, -1.0706382989883423, -5.464394569396973, 0.5730129480361938, -0.1473819613456726, -0.5640863180160522, -0.022422252222895622, 0.11824560910463333, 0.23944348096847534, -1.720469437272227, 0.06860513620679853, 3.3556980389532187, 9362.0, 26214.0, 35388.0, 9362.0, 7.99338960647583, -0.04684269800782204, -0.10971096903085709, -0.09405136108398438, 0.004936537239700556, -0.07523731887340546, 0.9972291588783264, -0.1098354384303093, -0.10231781005859375, 1.487548828125, 1.3154296875, 0.03118896484375, 1.392333984375
112945, 0.06829934567213058, -0.34867528080940247, -0.19194991886615753, 3.481623411178589, -1.0795024633407593, -5.498292922973633, 0.5765603184700012, -0.14809884130954742, -0.5657767653465271, -0.02242971956729889, 0.11824283748865128, 0.23945559561252594, -1.722081302539063, 0.04245422719185399, 3.341156528232556, 9362.0, 26214.0, 35388.0, 9362.0, 7.99338960647583, 0.36456042528152466, 0.25506553053855896, 0.1343454271554947, 0.004731306806206703, -0.07811591774225235, 0.9976896047592163, -0.10400345921516418, -0.09335899353027344, 1.48828125, 1.3154296875, 0.03118896484375, 1.390869140625
112955, 0.06987615674734116, -0.3502292037010193, -0.19175568222999573, 3.487391948699951, -1.0809839963912964, -5.5039520263671875, 0.5771554708480835, -0.14821770787239075, -0.5660219788551331, -0.022434698417782784, 0.11824215948581696, 0.23944610357284546, -1.7222684637835388, 0.009842285485518687, 3.3436571767095424, 9362.0, 26214.0, 35388.0, 9362.0, 7.99338960647583, 0.36456042528152466, 0.25506553053855896, 0.1343454271554947, 0.007195176091045141, -0.07510555535554886, 0.9980248212814331, -0.10400345921516418, -0.09335899353027344, 1.48828125, 1.3154296875, 0.03118896484375, 1.390869140625
113105, 0.0724419355392456, -0.35968539118766785, -0.1907753199338913, 3.5746359825134277, -1.1033517122268677, -5.58917236328125, 0.5861321687698364, -0.1500239074230194, -0.5704861283302307, -0.022431345656514168, 0.11823640763759613, 0.23940977454185486, -1.765706758276446, 0.06360447332187391, 3.3476690970050798, 9362.0, 26214.0, 35388.0, 9362.0, 7.99338960647583, 0.05142556503415108, 0.21471284329891205, 0.17144738137722015, 0.004947142209857702, -0.07654517889022827, 0.9963191747665405, -0.11164182424545288, -0.06647872924804688, 1.490478515625, 1.3154296875, 0.03118896484375, 1.392333984375
113135, 0.07142719626426697, -0.35833269357681274, -0.18943387269973755, 3.592247486114502, -1.1078580617904663, -5.606302261352539, 0.5879706144332886, -0.1504012793302536, -0.5714635252952576, -0.022427942603826523, 0.11823839694261551, 0.23941485583782196, -1.745310318211339, 0.05555005346545272, 3.3476379588333955, 9362.0, 26214.0, 35388.0, 9362.0, 7.99338960647583, -0.01257736049592495, 0.24708479642868042, 0.32964977622032166, 0.005919008050113916, -0.07610476762056351, 0.9990720152854919, -0.10406384617090225, -0.07543754577636719, 1.48974609375, 1.3154296875, 0.03118896484375, 1.3916015625
113155, 0.07067074626684189, -0.3610345125198364, -0.18807676434516907, 3.6040191650390625, -1.1108685731887817, -5.617733955383301, 0.5891942381858826, -0.15064965188503265, -0.5716938376426697, -0.022424183785915375, 0.11824838817119598, 0.23945307731628418, -1.7148166301229564, 0.05827313168191495, 3.3461219397635444, 9362.0, 26214.0, 35388.0, 9362.0, 7.99338960647583, 0.03135071322321892, 0.07827317714691162, 0.044752247631549835, 0.005919008050113916, -0.07610476762056351, 0.9990720152854919, -0.10233834385871887, -0.1291980743408203, 1.4853515625, 1.3154296875, 0.03118896484375, 1.3916015625
113175, 0.07098715752363205, -0.3632013201713562, -0.19045455753803253, 3.6158154010772705, -1.1138840913772583, -5.6291728019714355, 0.5904260277748108, -0.15089580416679382, -0.5721760392189026, -0.022427551448345184, 0.11824173480272293, 0.23942960798740387, -1.7559460845066168, 0.06501532496446316, 3.347416163730123, 9362.0, 26214.0, 35388.0, 9362.0, 7.99338960647583, 0.13456110656261444, -0.1396704465150833, -0.20985040068626404, 0.005620445124804974, -0.07422484457492828, 0.9976740479469299, -0.1024642214179039, -0.10231781005859375, 1.487548828125, 1.3154296875, 0.03118896484375, 1.3916015625
113185, 0.07138609886169434, -0.3630480468273163, -0.191252201795578, 3.6158154010772705, -1.1138840913772583, -5.6291728019714355, 0.5904260277748108, -0.15089580416679382, -0.5721760392189026, -0.022447653114795685, 0.11823295801877975, 0.23943044245243073, -1.738574766103517, 0.09280715467352252, 3.357892579046695, 9362.0, 26214.0, 35388.0, 9362.0, 7.99338960647583, 0.07983916252851486, 0.598969578742981, 0.007167492527514696, 0.005620445124804974, -0.07422484457492828, 0.9976740479469299, -0.09979742765426636, -0.1291980743408203, 1.4853515625, 1.3154296875, 0.03118896484375, 1.3916015625
113225, 0.07201170921325684, -0.36795052886009216, -0.19086243212223053, 3.645414113998413, -1.1214443445205688, -5.6578145027160645, 0.5935368537902832, -0.15151964128017426, -0.5735119581222534, -0.02244671992957592, 0.11823757737874985, 0.23944534361362457, -1.7378636194669241, 0.07373337003346592, 3.3607804096224543, 9362.0, 26214.0, 35388.0, 9362.0, 7.99338960647583, -0.3180631697177887, 0.038682982325553894, -0.25066375732421875, 0.006040382664650679, -0.07420957833528519, 0.9961428046226501, -0.10405979305505753, -0.1291980743408203, 1.4853515625, 1.3154296875, 0.03118896484375, 1.3916015625
113235, 0.07269266247749329, -0.36822396516799927, -0.18834616243839264, 3.651352643966675, -1.1229602098464966, -5.663551330566406, 0.5941630005836487, -0.15164698660373688, -0.5738853216171265, -0.022436030209064484, 0.11825651675462723, 0.23942416906356812, -1.722572459676597, 0.06548411430946999, 3.337881048105064, 9362.0, 26214.0, 35388.0, 9362.0, 7.99338960647583, -0.3180631697177887, 0.038682982325553894, -0.25066375732421875, 0.006040382664650679, -0.07420957833528519, 0.9961428046226501, -0.10307550430297852, -0.03959846496582031, 1.49267578125, 1.3154296875, 0.03118896484375, 1.3916015625
113255, 0.07363402098417282, -0.37037116289138794, -0.18800804018974304, 3.663248300552368, -1.1259956359863281, -5.675036430358887, 0.5954176783561707, -0.15189789235591888, -0.5746577978134155, -0.022428473457694054, 0.11824512481689453, 0.2394189089536667, -1.7312604159533247, 0.026075050954858625, 3.3504051572703597, 9362.0, 26214.0, 35388.0, 9362.0, 7.99338960647583, -0.09038380533456802, 0.2204161435365677, -0.2782505452632904, 0.004819057881832123, -0.0749034658074379, 0.9995165467262268, -0.10307550430297852, -0.03959846496582031, 1.49267578125, 1.3154296875, 0.03118896484375, 1.3916015625
113295, 0.07333502173423767, -0.37177005410194397, -0.19087998569011688, 3.6871156692504883, -1.1320816278457642, -5.698034763336182, 0.5979523062705994, -0.1524057388305664, -0.5754856467247009, -0.022422008216381073, 0.11824026703834534, 0.23942974209785461, -1.776677104847238, 0.09350730898543702, 3.3505933939378285, 9362.0, 26214.0, 35388.0, 9362.0, 7.99338960647583, -0.1372554749250412, 0.06746503710746765, -0.22370871901512146, 0.005635288078337908, -0.07716786116361618, 0.998771071434021, -0.10295142978429794, -0.1291980743408203, 1.4853515625, 1.3154296875, 0.03118896484375, 1.3916015625
113305, 0.0727899968624115, -0.37236487865448, -0.19125868380069733, 3.693098306655884, -1.1336063146591187, -5.703790664672852, 0.5985884070396423, -0.15253157913684845, -0.5757209658622742, -0.022419027984142303, 0.11823039501905441, 0.2394440770149231, -1.7411310619213676, 0.05613479540389221, 3.3513516707062596, 9362.0, 26214.0, 35388.0, 9362.0, 7.99338960647583, 0.21407245099544525, 0.16411758959293365, 0.14206545054912567, 0.005635288078337908, -0.07716786116361618, 0.998771071434021, -0.10474707186222076, -0.07543754577636719, 1.48974609375, 1.3154296875, 0.03118896484375, 1.3916015625
113365, 0.07602100819349289, -0.3711002469062805, -0.19250039756298065, 3.729128122329712, -1.142781138420105, -5.738377094268799, 0.6023933291435242, -0.15329277515411377, -0.5776317119598389, -0.022425875067710876, 0.11824274808168411, 0.2394580990076065, -1.7341478688901897, 0.04020145733969116, 3.3502537412191287, 9362.0, 26214.0, 35388.0, 9362.0, 7.99338960647583, 0.13022273778915405, 0.2905242443084717, 0.11254013329744339, 0.006126579362899065, -0.074516162276268, 0.9982039332389832, -0.10476426780223846, -0.06647872924804688, 1.490478515625, 1.3154296875, 0.03118896484375, 1.3916015625
113395, 0.07459792494773865, -0.37518012523651123, -0.18666160106658936, 3.7472283840179443, -1.1473859548568726, -5.755716800689697, 0.6042895913124084, -0.15368594229221344, -0.5784030556678772, -0.022420009598135948, 0.11824303865432739, 0.23943942785263062, -1.7162793223289405, 0.028847287329995197, 3.343722704706939, 9362.0, 26214.0, 35388.0, 9362.0, 7.99338960647583, 0.14598773419857025, -0.008838092908263206, 0.14428992569446564, 0.004867014940828085, -0.07447125017642975, 0.9959102869033813, -0.10015277564525604, -0.14711761474609375, 1.48388671875, 1.3154296875, 0.03118896484375, 1.3916015625
113425, 0.0735468864440918, -0.3781382143497467, -0.18348512053489685, 3.765385866165161, -1.1520023345947266, -5.773082256317139, 0.606207013130188, -0.15407563745975494, -0.5794059634208679, -0.022422807291150093, 0.11823707073926926, 0.23945866525173187, -1.721882676901866, 0.04955850434194531, 3.3376614198154333, 9362.0, 26214.0, 35388.0, 9362.0, 7.99338960647583, -0.07145331054925919, 0.0775122195482254, -0.11435845494270325, 0.0036556567065417767, -0.0768977478146553, 0.9952850937843323, -0.10992151498794556, -0.1291980743408203, 1.4853515625, 1.3154296875, 0.03118896484375, 1.3916015625
113435, 0.0737195760011673, -0.37889015674591064, -0.18417829275131226, 3.765385866165161, -1.1520023345947266, -5.773082256317139, 0.606207013130188, -0.15407563745975494, -0.5794059634208679, -0.02243516407907009, 0.11825819313526154, 0.23947376012802124, -1.7012975752676458, 0.03338982571017368, 3.3492199363293538, 9362.0, 26214.0, 35388.0, 9362.0, 7.99338960647583, -0.19970566034317017, -0.07563038170337677, 0.17010213434696198, 0.0036556567065417767, -0.0768977478146553, 0.9952850937843323, -0.11153968423604965, -0.1291980743408203, 1.4853515625, 1.3154296875, 0.03118896484375, 1.3916015625
113465, 0.0739736407995224, -0.3755614161491394, -0.18599249422550201, 3.7896859645843506, -1.1581755876541138, -5.7962870597839355, 0.6087836623191833, -0.15458811819553375, -0.5809425115585327, -0.0224260576069355, 0.11825024336576462, 0.2394530326128006, -1.7245748931028413, 0.05534517163752639, 3.3471473368802718, 9362.0, 26214.0, 35388.0, 9362.0, 7.99338960647583, -0.19970566034317017, -0.07563038170337677, 0.17010213434696198, 0.004852494224905968, -0.07683484256267548, 0.9939274191856384, -0.11066886782646179, -0.07543754577636719, 1.48974609375, 1.3154296875, 0.03118896484375, 1.3916015625
113485, 0.0737108662724495, -0.37741202116012573, -0.18603600561618805, 3.8018746376037598, -1.1612699031829834, -5.80791711807251, 0.6100633144378662, -0.15484540164470673, -0.5820232629776001, -0.02242758870124817, 0.11824067682027817, 0.23947380483150482, -1.7668006083884207, 0.08021523352121562, 3.349780659910238, 9362.0, 26214.0, 35388.0, 9362.0, 7.99338960647583, 0.06080044060945511, 0.0022389471996575594, -0.3307105600833893, 0.004852494224905968, -0.07683484256267548, 0.9939274191856384, -0.10511595010757446, -0.07543754577636719, 1.48974609375, 1.3154296875, 0.03118896484375, 1.3916015625
113545, 0.06978501379489899, -0.37738996744155884, -0.18997998535633087, 3.8385937213897705, -1.170583724975586, -5.842904090881348, 0.6139088273048401, -0.15560410916805267, -0.5843381285667419, -0.022435840219259262, 0.11824381351470947, 0.23942917585372925, -1.742780122444398, 0.051695110474497596, 3.344609036063366, 9362.0, 26214.0, 35388.0, 9362.0, 7.99338960647583, 0.11681349575519562, 0.09248927235603333, -0.013108652085065842, 0.004652073606848717, -0.07437662780284882, 0.995203971862793, -0.10608173906803131, -0.12023735046386719, 1.486083984375, 1.3154296875, 0.03118896484375, 1.3916015625
113555, 0.07075715810060501, -0.37721651792526245, -0.19035857915878296, 3.8385937213897705, -1.170583724975586, -5.842904090881348, 0.6139088273048401, -0.15560410916805267, -0.5843381285667419, -0.02242862991988659, 0.11824911832809448, 0.23945358395576477, -1.7123776097405554, 0.03364742783372776, 3.3404693118450397, 9362.0, 26214.0, 35388.0, 9362.0, 7.99338960647583, -0.18314452469348907, 0.12217088043689728, -0.024763336405158043, 0.004652073606848717, -0.07437662780284882, 0.995203971862793, -0.10516954213380814, -0.12023735046386719, 1.486083984375, 1.3154296875, 0.03118896484375, 1.3916015625
113585, 0.07209954410791397, -0.3768220841884613, -0.19287808239459991, 3.863201856613159, -1.1768176555633545, -5.866306781768799, 0.6164801120758057, -0.1560913473367691, -0.5857185125350952, -0.022419828921556473, 0.11824730783700943, 0.23943549394607544, -1.7206143081867427, 0.0720939174146622, 3.3569649871866334, 9362.0, 26214.0, 35388.0, 9362.0, 7.99338960647583, 0.13057813048362732, -0.02173006720840931, -0.02353702113032341, 0.005352962762117386, -0.07661227136850357, 0.9974104762077332, -0.1327587068080902, -0.14711761474609375, 1.48388671875, 1.3154296875, 0.03118896484375, 1.3916015625
113635, 0.07361001521348953, -0.3776586949825287, -0.19319789111614227, 3.894106388092041, -1.1846379041671753, -5.895627498626709, 0.619693398475647, -0.15671886503696442, -0.5872679352760315, -0.022413546219468117, 0.11824911087751389, 0.23945185542106628, -1.7165709201890025, 0.052694659931972865, 3.3479650202566207, 9362.0, 26214.0, 35388.0, 9362.0, 7.99338960647583, 0.04901207983493805, -0.1483524739742279, -0.14279815554618835, 0.00389028899371624, -0.07545007765293121, 0.9980239272117615, -0.11676259338855743, -0.10231781005859375, 1.487548828125, 1.3154296875, 0.03118896484375, 1.3916015625
113695, 0.07738238573074341, -0.37712615728378296, -0.1967402845621109, 3.925171136856079, -1.1924899816513062, -5.92502498626709, 0.6229062080383301, -0.15736933052539825, -0.588671863079071, -0.022427015006542206, 0.11823616921901703, 0.23945674300193787, -1.743530765187572, 0.02196197946992129, 3.3452787578474052, 9362.0, 26214.0, 35388.0, 9362.0, 7.99338960647583, -0.2911350429058075, 0.2559879720211029, -0.17519746720790863, 0.00455726170912385, -0.07543262839317322, 0.998985230922699, -0.11306583136320114, -0.13815879821777344, 1.484619140625, 1.259033203125, 0.135589599609375, 1.39013671875
113715, 0.07663139700889587, -0.3786312937736511, -0.19648252427577972, 3.943887233734131, -1.1972171068191528, -5.942695617675781, 0.6248306035995483, -0.15777046978473663, -0.5892413258552551, -0.02243255078792572, 0.11824165284633636, 0.23945482075214386, -1.7358478536169364, 0.06671283372969583, 3.3495215811277212, 9362.0, 26214.0, 35388.0, 9362.0, 7.99338960647583, -0.2911350429058075, 0.2559879720211029, -0.17519746720790863, 0.004873615689575672, -0.07479739189147949, 0.9975683093070984, -0.11428914219141006, -0.15607833862304688, 1.483154296875, 1.259033203125, 0.135589599609375, 1.39013671875
113745, 0.07773182541131973, -0.37816062569618225, -0.1951865404844284, 3.9626612663269043, -1.2019562721252441, -5.960382461547852, 0.6267691254615784, -0.15817123651504517, -0.5898838639259338, -0.022416474297642708, 0.11825070530176163, 0.23944668471813202, -1.7244812027918048, 0.09315908419728203, 3.342459238986113, 9362.0, 26214.0, 35388.0, 9362.0, 7.99338960647583, -0.2911350429058075, 0.2559879720211029, -0.17519746720790863, 0.004811013117432594, -0.07649742066860199, 0.9957315921783447, -0.11267317086458206, -0.1291980743408203, 1.4853515625, 1.259033203125, 0.135589599609375, 1.39013671875
113755, 0.0772540494799614, -0.3782395124435425, -0.19525767862796783, 3.9689321517944336, -1.2035386562347412, -5.966283321380615, 0.6274175643920898, -0.15830418467521667, -0.5902616381645203, -0.02242322638630867, 0.11822537332773209, 0.23944182693958282, -1.7278681598132122, 0.0805776824711586, 3.351264107327436, 9362.0, 26214.0, 35388.0, 9362.0, 7.99338960647583, -0.2911350429058075, 0.2559879720211029, -0.17519746720790863, 0.004811013117432594, -0.07649742066860199, 0.9957315921783447, -0.11166683584451675, -0.08439826965332031, 1.489013671875, 1.259033203125, 0.135589599609375, 1.39013671875
113785, 0.07625585049390793, -0.37900254130363464, -0.19591571390628815, 3.987783432006836, -1.2082937955856323, -5.984010696411133, 0.6293506622314453, -0.15870557725429535, -0.5916526913642883, -0.02242368459701538, 0.11825854331254959, 0.23943208158016205, -1.738776999225472, 0.05525978683758126, 3.351452801087502, 9362.0, 26214.0, 35388.0, 9362.0, 7.99338960647583, 0.07947151362895966, -0.04998776316642761, 0.10405556857585907, 0.005308936350047588, -0.07525209337472916, 0.9978249073028564, -0.10933483392000198, -0.10231781005859375, 1.487548828125, 1.260498046875, 0.1313934326171875, 1.39013671875
113795, 0.07631009072065353, -0.3796800673007965, -0.1950090378522873, 3.987783432006836, -1.2082937955856323, -5.984010696411133, 0.6293506622314453, -0.15870557725429535, -0.5916526913642883, -0.02242414839565754, 0.11824775487184525, 0.239444762468338, -1.7585833684436156, 0.06782800294783442, 3.351221563798925, 9362.0, 26214.0, 35388.0, 9362.0, 7.99338960647583, 0.07947151362895966, -0.04998776316642761, 0.10405556857585907, 0.0036643510684370995, -0.07556724548339844, 0.9972912669181824, -0.10933483392000198, -0.10231781005859375, 1.487548828125, 1.260498046875, 0.1313934326171875, 1.39013671875
113825, 0.07534877210855484, -0.3784158229827881, -0.1960136592388153, 4.013009071350098, -1.21465265750885, -6.007697105407715, 0.6319387555122375, -0.15923510491847992, -0.5926210284233093, -0.022420518100261688, 0.11824478209018707, 0.23947222530841827, -1.7280769638151439, 0.023131585416336975, 3.358835344078948, 9362.0, 26214.0, 35388.0, 9362.0, 7.99338960647583, 0.1933097243309021, 0.003866529790684581, 0.04393794387578964, 0.004562153480947018, -0.07518705725669861, 0.9961264133453369, -0.10508757829666138, -0.10231781005859375, 1.487548828125, 1.26123046875, 0.129302978515625, 1.39013671875
113855, 0.07597504556179047, -0.3827444911003113, -0.1953112632036209, 4.031996250152588, -1.2194355726242065, -6.025486946105957, 0.633880615234375, -0.1596313714981079, -0.5934110283851624, -0.022419292479753494, 0.11824105679988861, 0.2394498586654663, -1.7186733102210754, 0.06614488008230524, 3.357013484843096, 9362.0, 26214.0, 35388.0, 9362.0, 7.99338960647583, -0.1242770105600357, 0.16606347262859344, 0.14634793996810913, 0.005187980365008116, -0.07634329795837402, 0.9976478219032288, -0.10823699831962585, -0.04855918884277344, 1.491943359375, 1.26123046875, 0.129302978515625, 1.39013671875
113865, 0.07524529844522476, -0.3836463689804077, -0.19452248513698578, 4.031996250152588, -1.2194355726242065, -6.025486946105957, 0.633880615234375, -0.1596313714981079, -0.5934110283851624, -0.02241024188697338, 0.11824844777584076, 0.2394530326128006, -1.7409772031039965, 0.05545407681023562, 3.3457367372035947, 9362.0, 26214.0, 35388.0, 9362.0, 7.99338960647583, -0.1242770105600357, 0.16606347262859344, 0.14634793996810913, 0.005312725901603699, -0.07834187150001526, 0.9975706338882446, -0.10823699831962585, -0.04855918884277344, 1.491943359375, 1.26123046875, 0.129302978515625, 1.39013671875
113895, 0.07466882467269897, -0.38358232378959656, -0.1972964107990265, 4.057403564453125, -1.225831389427185, -6.049246311187744, 0.6364957690238953, -0.1601569801568985, -0.5946269035339355, -0.022428864613175392, 0.11825240403413773, 0.23947776854038239, -1.719818809267047, 0.05882163584311684, 3.357123768046271, 9362.0, 26214.0, 35388.0, 9362.0, 7.99338960647583, -0.07633940130472183, -0.48232501745224, -0.27029740810394287, 0.004224954638630152, -0.07522767037153244, 0.9982954859733582, -0.1145087406039238, -0.1739978790283203, 1.481689453125, 1.26123046875, 0.129302978515625, 1.39013671875
113945, 0.07529313862323761, -0.37817811965942383, -0.20077760517597198, 4.089310169219971, -1.2338553667068481, -6.079000949859619, 0.6397636532783508, -0.1608123481273651, -0.5954335331916809, -0.022433651611208916, 0.11823884397745132, 0.23943224549293518, -1.7513991699076814, 0.07853221109982655, 3.3468902897308377, 9362.0, 26214.0, 35388.0, 9362.0, 7.99338960647583, 0.09297136962413788, -0.12175633013248444, 0.006031529977917671, 0.0037863529287278652, -0.07398466020822525, 0.999424934387207, -0.10872623324394226, -0.1291980743408203, 1.4853515625, 1.26123046875, 0.129302978515625, 1.39013671875
113965, 0.07556233555078506, -0.3779307007789612, -0.20246769487857819, 4.089310169219971, -1.2338553667068481, -6.079000949859619, 0.6397636532783508, -0.1608123481273651, -0.5954335331916809, -0.022415736690163612, 0.1182451993227005, 0.23946049809455872, -1.715029770277767, 0.0723572066456768, 3.342971053445356, 9362.0, 26214.0, 35388.0, 9362.0, 7.99338960647583, -0.1646822839975357, -0.024222688749432564, -0.03742120787501335, 0.006245063617825508, -0.07522649317979813, 0.9957907199859619, -0.10919187217950821, -0.13815879821777344, 1.484619140625, 1.26123046875, 0.129302978515625, 1.39013671875
113975, 0.07496322691440582, -0.37777993083000183, -0.20280687510967255, 4.089310169219971, -1.2338553667068481, -6.079000949859619, 0.6397636532783508, -0.1608123481273651, -0.5954335331916809, -0.022406138479709625, 0.11824404448270798, 0.2394266128540039, -1.733221959209795, 0.0491693574694807, 3.3443765918775004, 9362.0, 26214.0, 35388.0, 9362.0, 7.99338960647583, -0.1646822839975357, -0.024222688749432564, -0.03742120787501335, 0.006245063617825508, -0.07522649317979813, 0.9957907199859619, -0.10936297476291656, -0.08439826965332031, 1.489013671875, 1.26123046875, 0.129302978515625, 1.39013671875
114015, 0.07619337737560272, -0.3789706826210022, -0.20435397326946259, 4.134252071380615, -1.245144009590149, -6.120770454406738, 0.6442763209342957, -0.16172538697719574, -0.5978476405143738, -0.02239646203815937, 0.11824735999107361, 0.23946823179721832, -1.7193199740540475, 0.09363739767707102, 3.3528041476945982, 9362.0, 26214.0, 35388.0, 9362.0, 7.99338960647583, 0.3204755485057831, 0.054981596767902374, -0.1907820999622345, 0.006221245042979717, -0.07673989981412888, 0.9968274831771851, -0.1115683913230896, -0.11127853393554688, 1.48681640625, 1.26123046875, 0.129302978515625, 1.3916015625
114065, 0.0744372010231018, -0.37772706151008606, -0.1974731981754303, 4.160074710845947, -1.251623511314392, -6.144710540771484, 0.6468544602394104, -0.16225148737430573, -0.5991199612617493, -0.022413335740566254, 0.11824561655521393, 0.2394457459449768, -1.750153531034144, 0.07619779936919713, 3.341391925991331, 9362.0, 26214.0, 35388.0, 9362.0, 7.99338960647583, 0.0143392039462924, -0.01995798759162426, -0.08741259574890137, 0.004388618282973766, -0.07733947783708572, 0.996259331703186, -0.11267108470201492, -0.10231781005859375, 1.487548828125, 1.26123046875, 0.129302978515625, 1.3916015625
114085, 0.07582659274339676, -0.3763859272003174, -0.19603705406188965, 4.179509162902832, -1.2564969062805176, -6.162692070007324, 0.6487842202186584, -0.16264595091342926, -0.5997551679611206, -0.02241988107562065, 0.11824719607830048, 0.23943941295146942, -1.7482584522126254, 0.11995347893900998, 3.335931907917426, 9362.0, 26214.0, 35388.0, 9362.0, 7.99338960647583, 0.0143392039462924, -0.01995798759162426, -0.08741259574890137, 0.003034458262845874, -0.07505171746015549, 0.9957682490348816, -0.10618703812360764, -0.1291980743408203, 1.4853515625, 1.26123046875, 0.129302978515625, 1.3916015625
114095, 0.07519563287496567, -0.37481844425201416, -0.1959434449672699, 4.186000347137451, -1.2581239938735962, -6.168691635131836, 0.6494280695915222, -0.16277644038200378, -0.6001861691474915, -0.02243559993803501, 0.11824250966310501, 0.23944301903247833, -1.7257481525413028, 0.06574267896604624, 3.349439114280734, 9362.0, 26214.0, 35388.0, 9362.0, 7.99338960647583, 0.020920738577842712, 0.13669081032276154, -0.020261021330952644, 0.003034458262845874, -0.07505171746015549, 0.9957682490348816, -0.10618703812360764, -0.1291980743408203, 1.4853515625, 1.26123046875, 0.129302978515625, 1.3916015625
114135, 0.07610273361206055, -0.37277957797050476, -0.19940051436424255, 4.212028980255127, -1.2646454572677612, -6.192729473114014, 0.6519913077354431, -0.16330263018608093, -0.6015926003456116, -0.02241360768675804, 0.11824434250593185, 0.23944281041622162, -1.713121535060162, 0.06026875741230242, 3.3486002524446423, 9362.0, 26214.0, 35388.0, 9362.0, 7.99338960647583, -0.019080106168985367, -0.1647607684135437, 0.11731582134962082, 0.006011146120727062, -0.07498149573802948, 0.9947309494018555, -0.10800719261169434, -0.05751800537109375, 1.4912109375, 1.26123046875, 0.129302978515625, 1.3916015625
114165, 0.07583819329738617, -0.37336280941963196, -0.20077195763587952, 4.231617450714111, -1.2695503234863281, -6.21079158782959, 0.6538975238800049, -0.16369754076004028, -0.6026095747947693, -0.022429533302783966, 0.11825896799564362, 0.2394675612449646, -1.751817826287008, 0.030692538020048232, 3.355038827278029, 9362.0, 26214.0, 35388.0, 9362.0, 7.99338960647583, 0.04071643948554993, -0.16430702805519104, -0.10233551263809204, 0.004357471596449614, -0.07542705535888672, 0.9984289407730103, -0.10087743401527405, -0.03959846496582031, 1.49267578125, 1.26123046875, 0.129302978515625, 1.3916015625
114205, 0.07628894597291946, -0.3737402856349945, -0.20314420759677887, 4.258480548858643, -1.2762730121612549, -6.2355146408081055, 0.656511127948761, -0.16423478722572327, -0.6035241484642029, -0.02242501825094223, 0.11822714656591415, 0.23942378163337708, -1.7332287718757118, 0.036545098662713826, 3.3522420680802765, 9362.0, 26214.0, 35388.0, 9362.0, 7.99338960647583, -0.009034322574734688, 0.2676500380039215, -0.03650527074933052, 0.004357471596449614, -0.07542705535888672, 0.9984289407730103, -0.10517967492341995, -0.11127853393554688, 1.48681640625, 1.26123046875, 0.129302978515625, 1.3916015625
114225, 0.07618115097284317, -0.3746365010738373, -0.2050752192735672, 4.271623611450195, -1.2795604467391968, -6.247592926025391, 0.6577895283699036, -0.16449818015098572, -0.6042322516441345, -0.022415228188037872, 0.1182442232966423, 0.23946328461170197, -1.7631537795807426, 0.028967626632237398, 3.3429433112828373, 9362.0, 26214.0, 35388.0, 9362.0, 7.99338960647583, -0.07129856944084167, -0.04070228338241577, -0.0014788799453526735, 0.005786560475826263, -0.07386514544487, 0.99387127161026, -0.10811089724302292, -0.1291980743408203, 1.4853515625, 1.26123046875, 0.129302978515625, 1.3916015625
114235, 0.07651367783546448, -0.3734762668609619, -0.20702853798866272, 4.278204917907715, -1.2812061309814453, -6.253636837005615, 0.6584283113479614, -0.16463083028793335, -0.6045917868614197, -0.022424809634685516, 0.1182456761598587, 0.23946180939674377, -1.7548688730898063, 0.06379286920378036, 3.352655711129889, 9362.0, 26214.0, 35388.0, 9362.0, 7.99338960647583, -0.07129856944084167, -0.04070228338241577, -0.0014788799453526735, 0.005312279332429171, -0.0734902024269104, 0.9955020546913147, -0.10830959677696228, -0.1650371551513672, 1.482421875, 1.26123046875, 0.129302978515625, 1.3916015625
114255, 0.07753492891788483, -0.37710511684417725, -0.20723700523376465, 4.291386127471924, -1.2845014333724976, -6.265739440917969, 0.6597016453742981, -0.16489554941654205, -0.6055982708930969, -0.022427650168538094, 0.11823717504739761, 0.2394510954618454, -1.7318568615885006, 0.040352803396046966, 3.342959766193934, 9362.0, 26214.0, 35388.0, 9362.0, 7.99338960647583, -0.07129856944084167, -0.04070228338241577, -0.0014788799453526735, 0.00269637955352664, -0.07719816267490387, 0.9985308051109314, -0.1046178862452507, -0.11127853393554688, 1.48681640625, 1.201904296875, 0.373077392578125, 1.39013671875
114275, 0.07737109065055847, -0.3783212900161743, -0.20767739415168762, 4.304593086242676, -1.28780198097229, -6.2778544425964355, 0.66098552942276, -0.165165975689888, -0.6059118509292603, -0.022426793351769447, 0.11824233084917068, 0.23944047093391418, -1.729847321745621, 0.01185065110450978, 3.3481898296033044, 9362.0, 26214.0, 35388.0, 9362.0, 7.99338960647583, 0.26001277565956116, 0.21715372800827026, 0.4259550869464874, 0.00269637955352664, -0.07719816267490387, 0.9985308051109314, -0.09989331662654877, -0.03959846496582031, 1.49267578125, 1.201904296875, 0.373077392578125, 1.39013671875
114285, 0.07824252545833588, -0.38142576813697815, -0.20601554214954376, 4.311206340789795, -1.2894543409347534, -6.283915042877197, 0.6616319417953491, -0.16530132293701172, -0.6061743497848511, -0.02241171896457672, 0.11824581027030945, 0.23945467174053192, -1.7292716543177624, 0.06866760022421659, 3.363539722763579, 9362.0, 26214.0, 35388.0, 9362.0, 7.99338960647583, 0.26001277565956116, 0.21715372800827026, 0.4259550869464874, 0.00269637955352664, -0.07719816267490387, 0.9985308051109314, -0.09871046245098114, -0.11127853393554688, 1.48681640625, 1.201904296875, 0.373077392578125, 1.39013671875
114325, 0.07905823737382889, -0.38559454679489136, -0.2094944566488266, 4.337723255157471, -1.2960771322250366, -6.308197975158691, 0.6642350554466248, -0.16584520041942596, -0.6078341603279114, -0.02240888960659504, 0.11823742091655731, 0.23944661021232605, -1.7363068271255375, 0.08749834059949535, 3.3469922301958115, 9362.0, 26214.0, 35388.0, 9362.0, 7.99338960647583, -0.0487334243953228, -0.41199618577957153, -0.2644810080528259, 0.00440266914665699, -0.07414363324642181, 0.9959209561347961, -0.09277593344449997, -0.07543754577636719, 1.48974609375, 1.198974609375, 0.38958740234375, 1.39013671875
114335, 0.07806789875030518, -0.38212311267852783, -0.2119082659482956, 4.337723255157471, -1.2960771322250366, -6.308197975158691, 0.6642350554466248, -0.16584520041942596, -0.6078341603279114, -0.022418245673179626, 0.1182476133108139, 0.23945464193820953, -1.7376634880789061, 0.0529400103863793, 3.3442761814289903, 9362.0, 26214.0, 35388.0, 9362.0, 7.99338960647583, -0.0487334243953228, -0.41199618577957153, -0.2644810080528259, 0.00440266914665699, -0.07414363324642181, 0.9959209561347961, -0.09226703643798828, -0.09335899353027344, 1.48828125, 1.198974609375, 0.38958740234375, 1.39013671875
114355, 0.0769805759191513, -0.38247379660606384, -0.2135065644979477, 4.357679843902588, -1.3010586500167847, -6.326446056365967, 0.6662029027938843, -0.16625453531742096, -0.60871422290802, -0.022413603961467743, 0.11825237423181534, 0.2394496351480484, -1.7484730665219543, 0.06681311385329991, 3.3423963880801226, 9362.0, 26214.0, 35388.0, 9362.0, 7.99338960647583, -0.0487334243953228, -0.41199618577957153, -0.2644810080528259, 0.006054125260561705, -0.07661105692386627, 0.9947240948677063, -0.0872407853603363, -0.09335899353027344, 1.48828125, 1.198974609375, 0.38958740234375, 1.39013671875
114505, 0.07414952665567398, -0.3920672833919525, -0.20950189232826233, 4.458349704742432, -1.3261463642120361, -6.4181413650512695, 0.6761038899421692, -0.168234720826149, -0.6133277416229248, -0.022400978952646255, 0.11824414134025574, 0.23944681882858276, -1.7249391309920943, 0.07530325172515973, 3.347845229660894, 9362.0, 26214.0, 35388.0, 9362.0, 7.99338960647583, -0.006395384203642607, -0.23140233755111694, -0.2700335383415222, 0.005138659384101629, -0.07486357539892197, 0.9952718615531921, -0.09739593416452408, -0.10231781005859375, 1.487548828125, 1.198974609375, 0.38958740234375, 1.39013671875
114515, 0.07418813556432724, -0.3899410367012024, -0.21116328239440918, 4.458349704742432, -1.3261463642120361, -6.4181413650512695, 0.6761038899421692, -0.168234720826149, -0.6133277416229248, -0.022425144910812378, 0.11825571954250336, 0.23946711421012878, -1.7403027674207356, 0.05469583645654552, 3.3403728938521815, 9362.0, 26214.0, 35388.0, 9362.0, 7.99338960647583, -0.10832194238901138, 0.11106640845537186, -0.0248271431773901, 0.005138659384101629, -0.07486357539892197, 0.9952718615531921, -0.09411834180355072, -0.10231781005859375, 1.487548828125, 1.198974609375, 0.38958740234375, 1.39013671875
114525, 0.07379985600709915, -0.3898816704750061, -0.21183283627033234, 4.4718852043151855, -1.329513669013977, -6.430417060852051, 0.6774382591247559, -0.16849061846733093, -0.6142997741699219, -0.022414792329072952, 0.11822586506605148, 0.23944596946239471, -1.7273484394803233, 0.010018581176296948, 3.34595997722967, 9362.0, 26214.0, 35388.0, 9362.0, 7.99338960647583, -0.10832194238901138, 0.11106640845537186, -0.0248271431773901, 0.005138659384101629, -0.07486357539892197, 0.9952718615531921, -0.09361841529607773, -0.07543754577636719, 1.48974609375, 1.198974609375, 0.38958740234375, 1.39013671875
114545, 0.07232723385095596, -0.39079549908638, -0.2090417742729187, 4.485447406768799, -1.332885980606079, -6.44271183013916, 0.678766667842865, -0.16874781250953674, -0.6151717901229858, -0.022411363199353218, 0.11825184524059296, 0.23944750428199768, -1.7426931037670057, 0.06388130374003254, 3.3492643150259993, 9362.0, 26214.0, 35388.0, 9362.0, 7.99338960647583, 0.02970629744231701, -0.2581116855144501, -0.1667274832725525, 0.00411056587472558, -0.07732947170734406, 0.9984317421913147, -0.09361841529607773, -0.07543754577636719, 1.48974609375, 1.198974609375, 0.38958740234375, 1.39013671875
114575, 0.07318374514579773, -0.3851820230484009, -0.21098867058753967, 4.50584077835083, -1.3379541635513306, -6.461180210113525, 0.6807586550712585, -0.1691267192363739, -0.6159281730651855, -0.022429591044783592, 0.11824304610490799, 0.23945382237434387, -1.7442447854329228, 0.028973955248829952, 3.3653804292928116, 9362.0, 26214.0, 35388.0, 9362.0, 7.99338960647583, -0.1488044559955597, -0.02947685867547989, -0.0035666986368596554, 0.00411056587472558, -0.07732947170734406, 0.9984317421913147, -0.0933469608426094, -0.13815879821777344, 1.484619140625, 1.198974609375, 0.38958740234375, 1.39013671875
