timeTick, roll, pitch, yaw, stateX, stateY, stateZ, stateVX, stateVY, stateVZ, otX0, otY0, otZ0, otRoll0, otPitch0, otYaw0, left wing, pitch motor, yaw motor, right wing, voltage, roll rate, pitch rate, yaw rate, A_x, A_y, A_z, current, i_raw, v_raw, airflow_voltage, airflow_speed, pot_Pitch
273365, 0.04783565178513527, -0.1205422654747963, -0.01628715731203556, 0, 0, 0, 0, 0, 0, -0.0329720564186573, 0.11875993758440018, 0.23750342428684235, -2.2839472906364944, -7.752025479449202, 10.772579067127419, 0, 0, 0, 0, 0, 0, 0, 0, 0, 0, 0, 0, 0, 0, 0, 0, 0
273375, 0.04752378165721893, -0.11994485557079315, -0.014604516327381134, 0.3733939528465271, -0.09350205957889557, -1.0360499620437622, 0.11959955096244812, -0.034490760415792465, -0.24700559675693512, -0.03296778351068497, 0.11875452846288681, 0.23748907446861267, -2.2977963328455395, -7.7267500169486425, 10.776306058688384, 9362.0, 22281.0, 35388.0, 9362.0, 7.973554611206055, -0.07437106966972351, 0.07323018461465836, 0.0717368870973587, 0, 0, 0, 0, 0, 0, 0, 0, 0
273385, 0.04608208313584328, -0.1215125173330307, -0.013588210567831993, 0.37459099292755127, -0.0938473790884018, -1.0385209321975708, 0.11980556696653366, -0.03457256406545639, -0.2471829652786255, -0.03299727290868759, 0.11875604838132858, 0.23741310834884644, -2.3467183599377925, -7.919207075984417, 10.796817160110432, 9362.0, 22281.0, 35388.0, 9362.0, 7.973554611206055, -0.02487451396882534, 0.06868263334035873, -0.08648132532835007, 0.00973622128367424, -0.07485618442296982, 0.9969914555549622, -0.16124072670936584, -0.03959846496582031, 1.49267578125, 1.245849609375, 0.1771087646484375, 1.29052734375
273395, 0.045017827302217484, -0.1217791810631752, -0.011878687888383865, 0.3757900595664978, -0.09419351071119308, -1.0409942865371704, 0.12001022696495056, -0.03465372696518898, -0.24749931693077087, -0.03299987316131592, 0.11874677240848541, 0.23744212090969086, -2.2870854677295074, -7.923029255396187, 10.78641112291605, 9362.0, 22281.0, 35388.0, 9362.0, 7.973554611206055, -0.1215098574757576, 0.2720072269439697, 0.1624324768781662, 0.007042328827083111, -0.07595296949148178, 0.9951962232589722, -0.14548040926456451, -0.04855918884277344, 1.491943359375, 1.160888671875, 0.6495208740234375, 1.292724609375
273405, 0.044742219150066376, -0.12236091494560242, -0.011477332562208176, 0.3769911825656891, -0.09454043954610825, -1.0434716939926147, 0.1202172189950943, -0.034732285887002945, -0.24798668920993805, -0.032968103885650635, 0.11876010149717331, 0.23745156824588776, -2.338211770473671, -7.765445803470016, 10.793349636262779, 9362.0, 22281.0, 35388.0, 9362.0, 7.973554611206055, -0.01748931035399437, 0.020758461207151413, -0.1679554134607315, 0.008259174413979053, -0.07672169804573059, 0.9950869679450989, -0.1326897144317627, -0.10231781005859375, 1.487548828125, 1.24658203125, 0.1746063232421875, 1.29052734375
273415, 0.044191278517246246, -0.12032043188810349, -0.013410317711532116, 0.3781943917274475, -0.09488814324140549, -1.0459538698196411, 0.12042474001646042, -0.03480904549360275, -0.24844402074813843, -0.03297264873981476, 0.11875241994857788, 0.23746506869792938, -2.308642924427952, -7.777121473207728, 10.795427481722163, 9362.0, 22281.0, 35388.0, 9362.0, 7.973554611206055, 0.1536012887954712, -0.027877654880285263, -0.038626883178949356, 0.008213451132178307, -0.07707467675209045, 0.997575581073761, -0.1942087709903717, -0.1291980743408203, 1.4853515625, 1.196044921875, 0.4066162109375, 1.29345703125
273425, 0.045399658381938934, -0.12100159376859665, -0.01426648162305355, 0.37939968705177307, -0.09523661434650421, -1.0484395027160645, 0.12063373625278473, -0.034885529428720474, -0.24867622554302216, -0.032957449555397034, 0.11877384036779404, 0.2375502735376358, -2.222948588699438, -7.561035480589709, 10.793300422928663, 9362.0, 22281.0, 35388.0, 9362.0, 7.973554611206055, 0.11136382073163986, 0.016258273273706436, -0.07731592655181885, 0.007302900310605764, -0.07645830512046814, 0.9988979697227478, -0.1732008159160614, -0.05751800537109375, 1.4912109375, 1.171875, 0.5655364990234375, 1.2919921875
273435, 0.04729527607560158, -0.12132226675748825, -0.015208183787763119, 0.3806070387363434, -0.09558584541082382, -1.0509268045425415, 0.12083946913480759, -0.034961145371198654, -0.24879533052444458, -0.0330100879073143, 0.11874385923147202, 0.237364262342453, -2.3644907228147756, -8.08713587961978, 10.81096535026988, 9362.0, 22281.0, 35388.0, 9362.0, 7.973554611206055, -0.0839737132191658, -0.29821404814720154, -0.021263450384140015, 0.009275730699300766, -0.07474955916404724, 0.9979326128959656, -0.15511387586593628, -0.10231781005859375, 1.487548828125, 1.165283203125, 0.615020751953125, 1.292724609375
273445, 0.04678678512573242, -0.12041202932596207, -0.015191782265901566, 0.38181647658348083, -0.09593584388494492, -1.0534155368804932, 0.121046282351017, -0.03503879904747009, -0.24895289540290833, -0.03301519900560379, 0.1187572032213211, 0.23737281560897827, -2.369214967053609, -8.05292713338892, 10.81531098794981, 9362.0, 22281.0, 35388.0, 9362.0, 7.973554611206055, -0.1597902625799179, 0.2079230695962906, 0.016472412273287773, 0.009442618116736412, -0.07433518022298813, 0.9991611242294312, -0.14498184621334076, -0.14711761474609375, 1.48388671875, 1.1748046875, 0.5444488525390625, 1.286865234375
273455, 0.046122971922159195, -0.12160947173833847, -0.01548150647431612, 0.38302797079086304, -0.09628663957118988, -1.0559059381484985, 0.12125362455844879, -0.035119686275720596, -0.24912811815738678, -0.03297512233257294, 0.11875419318675995, 0.23744909465312958, -2.3054895129006066, -7.812885722861466, 10.776848911650411, 9362.0, 22281.0, 35388.0, 9362.0, 7.973554611206055, 0.07556052505970001, 0.15164490044116974, 0.005661437287926674, 0.010373516008257866, -0.07291246950626373, 0.9954332709312439, -0.13444244861602783, -0.10231781005859375, 1.487548828125, 1.1689453125, 0.5872039794921875, 1.2861328125
273465, 0.04691419377923012, -0.12435212731361389, -0.01614287495613098, 0.38424152135849, -0.09663823246955872, -1.0583994388580322, 0.12145883589982986, -0.035199493169784546, -0.24957001209259033, -0.033014699816703796, 0.11875631660223007, 0.2373904436826706, -2.349025534905049, -8.008133986555947, 10.783970792676548, 9362.0, 22281.0, 35388.0, 9362.0, 7.973554611206055, 0.07088723033666611, -0.16157861053943634, 0.02819332666695118, 0.008995351381599903, -0.07607673108577728, 0.995322048664093, -0.12193694710731506, -0.07543754577636719, 1.48974609375, 1.171875, 0.5655364990234375, 1.289794921875
273475, 0.046986162662506104, -0.12476260215044022, -0.01580856926739216, 0.3854571580886841, -0.09699062258005142, -1.0608974695205688, 0.12166605144739151, -0.03527815267443657, -0.2500261664390564, -0.032989274710416794, 0.1187448799610138, 0.237405464053154, -2.351753287586155, -7.881360247209187, 10.790038206628333, 9362.0, 22281.0, 35388.0, 9362.0, 7.973554611206055, 0.3818667531013489, 0.0035267535131424665, 0.09135759621858597, 0.009632522240281105, -0.0794018805027008, 0.9946944713592529, -0.2292025089263916, -4.689818382263184, 1.112548828125, 1.288330078125, 0.0676116943359375, 1.289794921875
273485, 0.0477420873939991, -0.12511104345321655, -0.01735238917171955, 0.3866748809814453, -0.0973438024520874, -1.0634000301361084, 0.12187793850898743, -0.035358160734176636, -0.2504849135875702, -0.033001139760017395, 0.11875627189874649, 0.2373833954334259, -2.3409750490531667, -7.995883051965421, 10.799394286837142, 9362.0, 22281.0, 35388.0, 9362.0, 7.973554611206055, 0.11198394745588303, 0.12484794855117798, -0.28870120644569397, 0.009243292734026909, -0.0766889676451683, 0.9976195096969604, -0.28629010915756226, -0.04855918884277344, 1.491943359375, 1.1337890625, 0.890838623046875, 1.291259765625
273495, 0.04905790090560913, -0.12365610152482986, -0.01910293474793434, 0.38789471983909607, -0.09769778698682785, -1.0659065246582031, 0.12209083884954453, -0.035438407212495804, -0.2508029043674469, -0.033026598393917084, 0.11875084042549133, 0.23738844692707062, -2.3327873265830834, -8.017612417682955, 10.813078192745033, 9362.0, 22281.0, 35388.0, 9362.0, 7.973554611206055, 0.0724065974354744, -0.3086665868759155, -0.13336820900440216, 0.00921494048088789, -0.07463013380765915, 0.9948956966400146, -0.24670766294002533, -0.09335899353027344, 1.48828125, 1.241455078125, 0.192626953125, 1.291259765625
273505, 0.049417644739151, -0.12192512303590775, -0.021464571356773376, 0.38911670446395874, -0.09805257618427277, -1.068416714668274, 0.12230408191680908, -0.035519856959581375, -0.25123411417007446, -0.03297620266675949, 0.11874624341726303, 0.23744644224643707, -2.2899855528922957, -7.837693708700726, 10.784982737185254, 9362.0, 22281.0, 35388.0, 9362.0, 7.973554611206055, -0.3628440797328949, 0.10612229257822037, -0.22330816090106964, 0.011504554189741611, -0.07726190984249115, 0.9991715550422668, -0.27044257521629333, -2.4498281478881836, 1.295654296875, 1.190185546875, 0.441986083984375, 1.269287109375
273515, 0.048408109694719315, -0.12170103937387466, -0.020172374323010445, 0.39034080505371094, -0.09840819239616394, -1.0709292888641357, 0.12251567095518112, -0.03560388833284378, -0.2512813210487366, -0.0329950749874115, 0.11873631924390793, 0.23744621872901917, -2.3133612747547194, -7.846123843332606, 10.778719620975508, 9362.0, 22281.0, 35388.0, 9362.0, 7.973554611206055, 0.0630398616194725, -0.09634710103273392, 0.5674449801445007, 0.010435789823532104, -0.07606080174446106, 1.000553846359253, -0.3311198055744171, -0.12023735046386719, 1.486083984375, 1.3125, 0.034027099609375, 1.2890625
273525, 0.04830438643693924, -0.1213507354259491, -0.018004976212978363, 0.3915669918060303, -0.09876465797424316, -1.0734421014785767, 0.12272440642118454, -0.035688575357198715, -0.2512703239917755, -0.03299540653824806, 0.11874173581600189, 0.23742550611495972, -2.340968323424053, -7.951347340164773, 10.805016540315021, 9362.0, 22281.0, 35388.0, 9362.0, 7.973554611206055, -0.04738336056470871, -0.15275336802005768, -0.048949018120765686, 0.009428638033568859, -0.0736042708158493, 0.9979656338691711, -0.2808906137943268, -0.07543754577636719, 1.48974609375, 1.1630859375, 0.6321258544921875, 1.294189453125
273535, 0.04915662482380867, -0.12014471739530563, -0.01733734831213951, 0.39279526472091675, -0.09912195801734924, -1.075955867767334, 0.12293228507041931, -0.035771340131759644, -0.2514931857585907, -0.03301393240690231, 0.11873288452625275, 0.23732419312000275, -2.4123167795593936, -8.204675976014187, 10.79515948442313, 9362.0, 22281.0, 35388.0, 9362.0, 7.973554611206055, -0.10302846133708954, -0.004406619817018509, 0.247554749250412, 0.007466313429176807, -0.07467463612556458, 0.9974066019058228, -0.23931428790092468, -0.09335899353027344, 1.48828125, 1.251708984375, 0.1577606201171875, 1.294921875
273545, 0.048974648118019104, -0.12116336077451706, -0.015742594376206398, 0.39402562379837036, -0.09948008507490158, -1.0784720182418823, 0.12313951551914215, -0.03585389256477356, -0.25174716114997864, -0.03299322724342346, 0.11873990297317505, 0.23739798367023468, -2.337077535758885, -7.92146935062965, 10.790313662880873, 9362.0, 22281.0, 35388.0, 9362.0, 7.973554611206055, -0.10576323419809341, 0.11289583146572113, 0.11797404289245605, 0.007552857045084238, -0.07414264231920242, 0.9974008202552795, -0.2071465402841568, -0.09335899353027344, 1.48828125, 1.223876953125, 0.2634124755859375, 1.286865234375
273555, 0.04750847443938255, -0.12182200700044632, -0.015377876348793507, 0.3952580392360687, -0.09983904659748077, -1.0809909105300903, 0.12334457784891129, -0.03593786060810089, -0.2520347237586975, -0.033011212944984436, 0.11874941736459732, 0.23730802536010742, -2.427899895043766, -8.076414314098258, 10.793774419141021, 9362.0, 22281.0, 35388.0, 9362.0, 7.973554611206055, 0.00671079196035862, 0.10000880062580109, 0.24182440340518951, 0.009936624206602573, -0.07486876845359802, 0.9964625835418701, -0.18350020051002502, -0.03959846496582031, 1.49267578125, 1.1279296875, 0.9498291015625, 1.289794921875
273565, 0.04877207800745964, -0.12263346463441849, -0.013085195794701576, 0.39649251103401184, -0.10019884258508682, -1.083512783050537, 0.1235513687133789, -0.03602151945233345, -0.25233688950538635, -0.0330057367682457, 0.118749238550663, 0.23738208413124084, -2.3539392410203046, -7.999851096888534, 10.858223920985713, 9362.0, 22281.0, 35388.0, 9362.0, 7.973554611206055, 0.269725501537323, -0.012956627644598484, -0.22439901530742645, 0.009883048944175243, -0.07479153573513031, 0.996842622756958, -0.16390053927898407, -0.10231781005859375, 1.487548828125, 1.1630859375, 0.6321258544921875, 1.2919921875
273575, 0.05008603259921074, -0.12284237146377563, -0.015237665735185146, 0.3977290689945221, -0.10055946558713913, -1.0860377550125122, 0.12375926226377487, -0.036102645099163055, -0.2526499032974243, -0.03296153247356415, 0.11873519420623779, 0.2374468445777893, -2.3198511687150525, -7.686273120891116, 10.781303647720758, 9362.0, 22281.0, 35388.0, 9362.0, 7.973554611206055, -0.013506189920008183, 0.1796419322490692, 0.1477528065443039, 0.009339589625597, -0.0753091350197792, 0.9963675737380981, -0.148397758603096, -0.10231781005859375, 1.487548828125, 1.175537109375, 0.5392303466796875, 1.28759765625
273585, 0.04960997402667999, -0.12233283370733261, -0.014139551669359207, 0.3989677131175995, -0.1009209081530571, -1.0885658264160156, 0.12396852672100067, -0.03618592396378517, -0.2529706358909607, -0.03301411494612694, 0.11874382197856903, 0.23738723993301392, -2.319339194371638, -8.054616340171549, 10.809877708878087, 9362.0, 22281.0, 35388.0, 9362.0, 7.973554611206055, 0.0884079560637474, -0.11036182940006256, 0.31130409240722656, 0.010200056247413158, -0.07498202472925186, 0.9969388246536255, -0.14395329356193542, -0.10231781005859375, 1.487548828125, 1.175537109375, 0.5392303466796875, 1.29345703125
273595, 0.050197768956422806, -0.12071780860424042, -0.014230641536414623, 0.400208443403244, -0.10128319263458252, -1.0910967588424683, 0.12417828291654587, -0.036271512508392334, -0.2532244026660919, -0.03297927603125572, 0.11874367296695709, 0.23744800686836243, -2.337664386981691, -7.822067572678492, 10.787758285945515, 9362.0, 22281.0, 35388.0, 9362.0, 7.973554611206055, -0.06408770382404327, -0.1171737089753151, 0.09335023164749146, 0.008112671785056591, -0.07678048312664032, 0.9987634420394897, -0.13536731898784637, -0.11127853393554688, 1.48681640625, 1.1689453125, 0.5872039794921875, 1.286865234375
273605, 0.049864184111356735, -0.12304705381393433, -0.012967877089977264, 0.4014512598514557, -0.10164633393287659, -1.0936298370361328, 0.12438734620809555, -0.03635634854435921, -0.2533997595310211, -0.0330004021525383, 0.11875060200691223, 0.2374701052904129, -2.2968405795356026, -7.85999066516024, 10.814453810041002, 9362.0, 22281.0, 35388.0, 9362.0, 7.973554611206055, -0.24358971416950226, 0.40808627009391785, 0.2756787836551666, 0.009813863784074783, -0.0747806504368782, 0.9977557063102722, -0.12849006056785583, -0.10231781005859375, 1.487548828125, 1.17041015625, 0.5762939453125, 1.288330078125
273615, 0.04917110875248909, -0.1257188767194748, -0.01176234520971775, 0.4026961624622345, -0.1020103245973587, -1.0961651802062988, 0.12459343671798706, -0.0364421047270298, -0.2536723017692566, -0.03299139440059662, 0.11874502152204514, 0.23739615082740784, -2.331197501586765, -7.9701721812809865, 10.793104561012678, 9362.0, 22281.0, 35388.0, 9362.0, 7.973554611206055, 0.051766302436590195, 0.45519113540649414, 0.12773942947387695, 0.010091540403664112, -0.07796362787485123, 0.9955816864967346, -0.12054938077926636, -0.05751800537109375, 1.4912109375, 1.174072265625, 0.5496826171875, 1.2919921875
273625, 0.048727769404649734, -0.12828278541564941, -0.00965926144272089, 0.40394315123558044, -0.10237517207860947, -1.09870445728302, 0.12480297684669495, -0.036527082324028015, -0.25418493151664734, -0.032997529953718185, 0.11876209080219269, 0.23742812871932983, -2.321403589804298, -7.929335756013785, 10.801616827690793, 9362.0, 22281.0, 35388.0, 9362.0, 7.973554611206055, -0.05082976073026657, -0.1509491354227066, -0.26322633028030396, 0.010845781303942204, -0.07651451975107193, 0.9941039681434631, -0.11951462179422379, -0.11127853393554688, 1.48681640625, 1.171875, 0.5655364990234375, 1.2919921875
273655, 0.05045095831155777, -0.13071440160274506, -0.00973967183381319, 0.4064435064792633, -0.10310738533735275, -1.10379958152771, 0.12523533403873444, -0.03669382631778717, -0.2552991509437561, -0.03301437571644783, 0.11875878274440765, 0.2373744398355484, -2.370552363271593, -8.023709009611707, 10.81797685218839, 9362.0, 22281.0, 35388.0, 9362.0, 7.973554611206055, -0.21814611554145813, 0.069296695291996, 0.21906526386737823, 0.010845781303942204, -0.07651451975107193, 0.9941039681434631, -0.11951462179422379, -0.11127853393554688, 1.48681640625, 1.16748046875, 0.598236083984375, 1.29345703125
273675, 0.04877603426575661, -0.13213478028774261, -0.01073180790990591, 0.40895262360572815, -0.10384294390678406, -1.1089130640029907, 0.12567561864852905, -0.036862533539533615, -0.25608837604522705, -0.03300721198320389, 0.11875924468040466, 0.23743659257888794, -2.333614413515443, -7.983308006351791, 10.791675936483498, 9362.0, 22281.0, 35388.0, 9362.0, 7.973554611206055, -0.013402863405644894, 0.1518503874540329, -0.2123786360025406, 0.010845781303942204, -0.07651451975107193, 0.9941039681434631, -0.10353519767522812, -0.08439826965332031, 1.489013671875, 1.16748046875, 0.598236083984375, 1.29345703125
273695, 0.049240510910749435, -0.13527052104473114, -0.008823687210679054, 0.41273295879364014, -0.10495264828205109, -1.1166120767593384, 0.1263488233089447, -0.03711606562137604, -0.25703489780426025, -0.032985202968120575, 0.11874993145465851, 0.2374357283115387, -2.345403029035836, -7.803111349988285, 10.785598683837204, 9362.0, 22281.0, 35388.0, 9362.0, 7.973554611206055, 0.09800738841295242, 0.2285875827074051, 0.11269684880971909, 0.010845781303942204, -0.07651451975107193, 0.9941039681434631, -0.10499237477779388, -0.1291980743408203, 1.4853515625, 1.16748046875, 0.598236083984375, 1.29345703125
273705, 0.04906034842133522, -0.13477730751037598, -0.009350523352622986, 0.41273295879364014, -0.10495264828205109, -1.1166120767593384, 0.1263488233089447, -0.03711606562137604, -0.25703489780426025, -0.0330004058778286, 0.11873563379049301, 0.23742343485355377, -2.3087552169470316, -7.87673965568132, 10.791397940198063, 9362.0, 22281.0, 35388.0, 9362.0, 7.973554611206055, 0.09800738841295242, 0.2285875827074051, 0.11269684880971909, 0.010845781303942204, -0.07651451975107193, 0.9941039681434631, -0.10499237477779388, -0.1291980743408203, 1.4853515625, 1.16748046875, 0.598236083984375, 1.29345703125
273715, 0.047683894634246826, -0.13605642318725586, -0.008147758431732655, 0.4152645170688629, -0.10569664090871811, -1.1217577457427979, 0.12680894136428833, -0.03728380799293518, -0.2575359046459198, -0.032994579523801804, 0.11875000596046448, 0.23739738762378693, -2.3513919182771033, -7.98186403759081, 10.789025918645857, 9362.0, 22281.0, 35388.0, 9362.0, 7.973554611206055, 0.09800738841295242, 0.2285875827074051, 0.11269684880971909, 0.008690949529409409, -0.07402369379997253, 0.9970122575759888, -0.10499237477779388, -0.1291980743408203, 1.4853515625, 1.16748046875, 0.598236083984375, 1.29345703125
273725, 0.04859534651041031, -0.1363176554441452, -0.007759376894682646, 0.4152645170688629, -0.10569664090871811, -1.1217577457427979, 0.12680894136428833, -0.03728380799293518, -0.2575359046459198, -0.032975152134895325, 0.11876855790615082, 0.2374660223722458, -2.3087434991867926, -7.861345889037381, 10.782942585088135, 9362.0, 22281.0, 35388.0, 9362.0, 7.973554611206055, 0.09800738841295242, 0.2285875827074051, 0.11269684880971909, 0.008690949529409409, -0.07402369379997253, 0.9970122575759888, -0.10570913553237915, -0.14711761474609375, 1.48388671875, 1.16748046875, 0.598236083984375, 1.2919921875
273735, 0.049590833485126495, -0.13421790301799774, -0.007587342523038387, 0.4178053140640259, -0.10644398629665375, -1.1269134283065796, 0.12727156281471252, -0.03744914382696152, -0.257982075214386, -0.032993096858263016, 0.118743397295475, 0.23742133378982544, -2.302882613000343, -8.02774582145679, 10.783448471563206, 9362.0, 22281.0, 35388.0, 9362.0, 7.973554611206055, 0.09800738841295242, 0.2285875827074051, 0.11269684880971909, 0.008690949529409409, -0.07402369379997253, 0.9970122575759888, -0.10570913553237915, -0.14711761474609375, 1.48388671875, 1.171875, 0.5655364990234375, 1.2919921875
273745, 0.049238480627536774, -0.13370747864246368, -0.006995414849370718, 0.4190791845321655, -0.10681889206171036, -1.1294937133789062, 0.12750475108623505, -0.03753230348229408, -0.258066862821579, -0.03301524370908737, 0.11874657869338989, 0.23735550045967102, -2.354113506437009, -8.047026061784067, 10.812164884688402, 9362.0, 22281.0, 35388.0, 9362.0, 7.973554611206055, 0.09800738841295242, 0.2285875827074051, 0.11269684880971909, 0.008690949529409409, -0.07402369379997253, 0.9970122575759888, -0.10570913553237915, -0.14711761474609375, 1.48388671875, 1.171875, 0.5655364990234375, 1.292724609375
273755, 0.0498967207968235, -0.1344662755727768, -0.007839847356081009, 0.4203553795814514, -0.10719463974237442, -1.1320762634277344, 0.12773366272449493, -0.03761691600084305, -0.25844523310661316, -0.0330238901078701, 0.11874742060899734, 0.23730643093585968, -2.4018101563436867, -8.179972065665737, 10.796397599676393, 9362.0, 22281.0, 35388.0, 9362.0, 7.973554611206055, 0.0678938627243042, 0.10207458585500717, 0.07209081202745438, 0.008690949529409409, -0.07402369379997253, 0.9970122575759888, -0.10570913553237915, -0.14711761474609375, 1.48388671875, 1.171875, 0.5655364990234375, 1.29052734375
273775, 0.050047408789396286, -0.13484670221805573, -0.006139757577329874, 0.42163386940956116, -0.10757122933864594, -1.1346629858016968, 0.12796153128147125, -0.03770085796713829, -0.2588973939418793, -0.03298414126038551, 0.11876015365123749, 0.2374613732099533, -2.299380108882887, -7.818078371045516, 10.810365186093883, 9362.0, 22281.0, 35388.0, 9362.0, 7.973554611206055, 0.02775694616138935, 0.28307589888572693, 0.23246440291404724, 0.008690949529409409, -0.07402369379997253, 0.9970122575759888, -0.10318781435489655, -0.10231781005859375, 1.487548828125, 1.171875, 0.5655364990234375, 1.294189453125
273795, 0.0512954406440258, -0.13653035461902618, -0.005168309900909662, 0.4241976737976074, -0.10832694917917252, -1.1398481130599976, 0.12842001020908356, -0.03787236288189888, -0.2595682144165039, -0.032970260828733444, 0.11874475330114365, 0.23746588826179504, -2.3000605676524395, -7.850818081227089, 10.768523538739208, 9362.0, 22281.0, 35388.0, 9362.0, 7.973554611206055, 0.1965411901473999, -0.028187593445181847, 0.10051482915878296, 0.008690949529409409, -0.07402369379997253, 0.9970122575759888, -0.10318781435489655, -0.10231781005859375, 1.487548828125, 1.174072265625, 0.5496826171875, 1.29052734375
273805, 0.05161599442362785, -0.1379900574684143, -0.005961139686405659, 0.4267706871032715, -0.10908611863851547, -1.1450456380844116, 0.12888433039188385, -0.03804505243897438, -0.26012736558914185, -0.03300090879201889, 0.11876287311315536, 0.23742806911468506, -2.325032719905809, -7.953102343788373, 10.796537574530223, 9362.0, 22281.0, 35388.0, 9362.0, 7.973554611206055, 0.1965411901473999, -0.028187593445181847, 0.10051482915878296, 0.008690949529409409, -0.07402369379997253, 0.9970122575759888, -0.10318781435489655, -0.10231781005859375, 1.487548828125, 1.174072265625, 0.5496826171875, 1.292724609375
273815, 0.051243338733911514, -0.13765834271907806, -0.005374777130782604, 0.42806071043014526, -0.10946700721979141, -1.1476478576660156, 0.12911765277385712, -0.03813273459672928, -0.2603147327899933, -0.03299270570278168, 0.11875621974468231, 0.2373487800359726, -2.383056617190551, -7.966005233104028, 10.802291274458888, 9362.0, 22281.0, 35388.0, 9362.0, 7.973554611206055, 0.1965411901473999, -0.028187593445181847, 0.10051482915878296, 0.008690949529409409, -0.07402369379997253, 0.9970122575759888, -0.10318781435489655, -0.10231781005859375, 1.487548828125, 1.1748046875, 0.5444488525390625, 1.292724609375
273825, 0.05112474411725998, -0.1367441862821579, -0.006260596681386232, 0.4293530583381653, -0.10984877496957779, -1.150252342224121, 0.12935321033000946, -0.038220878690481186, -0.26059359312057495, -0.033007796853780746, 0.11874698847532272, 0.2374030202627182, -2.3226654720994433, -8.01239331019454, 10.806811206512975, 9362.0, 22281.0, 35388.0, 9362.0, 7.973554611206055, 0.1965411901473999, -0.028187593445181847, 0.10051482915878296, 0.008690949529409409, -0.07402369379997253, 0.9970122575759888, -0.10318781435489655, -0.10231781005859375, 1.487548828125, 1.1748046875, 0.5444488525390625, 1.292724609375
273845, 0.050787750631570816, -0.13334403932094574, -0.00928013026714325, 0.4319448173046112, -0.11061494052410126, -1.155469298362732, 0.12982185184955597, -0.03839576244354248, -0.2610864043235779, -0.033017612993717194, 0.1187557652592659, 0.23736058175563812, -2.3636846665783495, -8.153746554719675, 10.813075957490389, 9362.0, 22281.0, 35388.0, 9362.0, 7.973554611206055, 0.1965411901473999, -0.028187593445181847, 0.10051482915878296, 0.008690949529409409, -0.07402369379997253, 0.9970122575759888, -0.10468282550573349, -0.07543754577636719, 1.48974609375, 1.174072265625, 0.5496826171875, 1.292724609375
273895, 0.050066716969013214, -0.1325387805700302, -0.009549303911626339, 0.4384644627571106, -0.11254555732011795, -1.168549656867981, 0.1309603750705719, -0.03882906585931778, -0.2622166872024536, -0.03300970047712326, 0.11875183880329132, 0.23735128343105316, -2.3527171133517255, -8.105667434834658, 10.822681046645581, 9362.0, 22281.0, 35388.0, 9362.0, 7.973554611206055, 0.07735048234462738, -0.15230591595172882, 0.03080660291016102, 0.008690949529409409, -0.07402369379997253, 0.9970122575759888, -0.10513011366128922, -0.10231781005859375, 1.487548828125, 1.171875, 0.5655364990234375, 1.2919921875
273915, 0.05074957385659218, -0.13241083920001984, -0.008263610303401947, 0.4410881996154785, -0.1133238673210144, -1.173801064491272, 0.1314127892255783, -0.039001062512397766, -0.2629415988922119, -0.03298484906554222, 0.11875111609697342, 0.23740963637828827, -2.3720971807692415, -7.9482663497240935, 10.80384445746223, 9362.0, 22281.0, 35388.0, 9362.0, 7.973554611206055, 0.06442319601774216, -0.25868460536003113, -0.13628403842449188, 0.008690949529409409, -0.07402369379997253, 0.9970122575759888, -0.09884517639875412, -0.10231781005859375, 1.487548828125, 1.171875, 0.5655364990234375, 1.294921875
273925, 0.050509363412857056, -0.13410593569278717, -0.008075842633843422, 0.4424034655094147, -0.1137143075466156, -1.1764317750930786, 0.1316385269165039, -0.03908698633313179, -0.2631984055042267, -0.03298480063676834, 0.11874163150787354, 0.23741458356380463, -2.3455458671484246, -7.948138854085926, 10.78462556095762, 9362.0, 22281.0, 35388.0, 9362.0, 7.973554611206055, 0.06442319601774216, -0.25868460536003113, -0.13628403842449188, 0.009310353547334671, -0.07454318553209305, 0.9970114827156067, -0.09884517639875412, -0.10231781005859375, 1.487548828125, 1.171875, 0.5655364990234375, 1.294921875
273935, 0.049910012632608414, -0.13653051853179932, -0.007440658751875162, 0.4437209665775299, -0.11410561203956604, -1.1790653467178345, 0.13186447322368622, -0.03917362540960312, -0.2635219991207123, -0.032980456948280334, 0.11874561756849289, 0.23737439513206482, -2.3864585397527134, -7.991426664922727, 10.785023553442342, 9362.0, 22281.0, 35388.0, 9362.0, 7.973554611206055, 0.06442319601774216, -0.25868460536003113, -0.13628403842449188, 0.009310353547334671, -0.07454318553209305, 0.9970114827156067, -0.09884517639875412, -0.10231781005859375, 1.487548828125, 1.172607421875, 0.5602874755859375, 1.294921875
273945, 0.04875214770436287, -0.13247953355312347, -0.007602110039442778, 0.445040762424469, -0.11449778079986572, -1.1817023754119873, 0.1320931762456894, -0.039259810000658035, -0.263893187046051, -0.03298603743314743, 0.11875028163194656, 0.23743481934070587, -2.3245074079824106, -7.881526329227114, 10.783205823005689, 9362.0, 22281.0, 35388.0, 9362.0, 7.973554611206055, 0.1403636634349823, -0.04765826091170311, 0.05701521784067154, 0.009310353547334671, -0.07454318553209305, 0.9970114827156067, -0.1027119979262352, -0.1291980743408203, 1.4853515625, 1.172607421875, 0.5602874755859375, 1.2890625
273955, 0.04953180253505707, -0.13138866424560547, -0.009196807630360126, 0.445040762424469, -0.11449778079986572, -1.1817023754119873, 0.1320931762456894, -0.039259810000658035, -0.263893187046051, -0.033001530915498734, 0.11873891204595566, 0.23726806044578552, -2.4007955212525633, -8.20777248450392, 10.80332070986141, 9362.0, 22281.0, 35388.0, 9362.0, 7.973554611206055, 0.136572003364563, -0.14371821284294128, -0.12152932584285736, 0.009310353547334671, -0.07454318553209305, 0.9970114827156067, -0.1027119979262352, -0.1291980743408203, 1.4853515625, 1.171875, 0.5655364990234375, 1.29345703125
273965, 0.049868930131196976, -0.1333390474319458, -0.009149378165602684, 0.4476872384548187, -0.11528467386960983, -1.1869864463806152, 0.13255244493484497, -0.03942832350730896, -0.2644534409046173, -0.03301981836557388, 0.11873948574066162, 0.23730315268039703, -2.386494559022369, -8.269668961960008, 10.806765117012235, 9362.0, 22281.0, 35388.0, 9362.0, 7.973554611206055, 0.136572003364563, -0.14371821284294128, -0.12152932584285736, 0.009310353547334671, -0.07454318553209305, 0.9970114827156067, -0.1027119979262352, -0.1291980743408203, 1.4853515625, 1.171875, 0.5655364990234375, 1.29345703125
273985, 0.04989650100469589, -0.13318859040737152, -0.008944982662796974, 0.4503428041934967, -0.11607493460178375, -1.1922818422317505, 0.13300393521785736, -0.03959795460104942, -0.26519012451171875, -0.03302533179521561, 0.11873284727334976, 0.2373908907175064, -2.361428498394184, -8.127171783580195, 10.820169382794592, 9362.0, 22281.0, 35388.0, 9362.0, 7.973554611206055, -0.009830771014094353, -0.22862130403518677, 0.0804726853966713, 0.008284054696559906, -0.07589958608150482, 0.9959157705307007, -0.1027119979262352, -0.1291980743408203, 1.4853515625, 1.118408203125, 1.0510711669921875, 1.29345703125
273995, 0.04987437278032303, -0.1305782049894333, -0.010928694158792496, 0.4516739845275879, -0.11647133529186249, -1.1949355602264404, 0.13323214650154114, -0.039681944996118546, -0.2655564546585083, -0.0329613983631134, 0.1187535971403122, 0.23748596012592316, -2.284411827608826, -7.8153613762540886, 10.797813405970107, 9362.0, 22281.0, 35388.0, 9362.0, 7.973554611206055, -0.056040674448013306, 0.17666620016098022, -0.2196561098098755, 0.008284054696559906, -0.07589958608150482, 0.9959157705307007, -0.10315577685832977, -0.11127853393554688, 1.48681640625, 1.118408203125, 1.0510711669921875, 1.2919921875
274005, 0.04978916049003601, -0.13201157748699188, -0.011674115434288979, 0.45300742983818054, -0.11686857789754868, -1.1975919008255005, 0.13345985114574432, -0.03976729139685631, -0.2657052278518677, -0.03300818055868149, 0.11873434484004974, 0.23734256625175476, -2.323226098993568, -8.13871923879907, 10.788379586825894, 9362.0, 22281.0, 35388.0, 9362.0, 7.973554611206055, -0.2176881581544876, 0.016377879306674004, -0.049974389374256134, 0.008284054696559906, -0.07589958608150482, 0.9959157705307007, -0.09860175848007202, -0.06647872924804688, 1.490478515625, 1.118408203125, 1.0510711669921875, 1.28759765625
274015, 0.0497916154563427, -0.13306649029254913, -0.010032299906015396, 0.45434314012527466, -0.11726667732000351, -1.2002499103546143, 0.1336829662322998, -0.0398525632917881, -0.26590022444725037, -0.033008918166160583, 0.11875534802675247, 0.2374083697795868, -2.3410648441740816, -7.98128809118694, 10.797422352725508, 9362.0, 22281.0, 35388.0, 9362.0, 7.973554611206055, -0.2176881581544876, 0.016377879306674004, -0.049974389374256134, 0.008284054696559906, -0.07589958608150482, 0.9959157705307007, -0.09860175848007202, -0.06647872924804688, 1.490478515625, 1.11181640625, 1.125274658203125, 1.291259765625
274025, 0.050452638417482376, -0.130523219704628, -0.01074608601629734, 0.45568108558654785, -0.11766562610864639, -1.2029104232788086, 0.1339082568883896, -0.0399375781416893, -0.26620587706565857, -0.033001936972141266, 0.11875425279140472, 0.23743753135204315, -2.3182268557802908, -7.956538254264899, 10.790941374594476, 9362.0, 22281.0, 35388.0, 9362.0, 7.973554611206055, -0.2176881581544876, 0.016377879306674004, -0.049974389374256134, 0.008284054696559906, -0.07589958608150482, 0.9959157705307007, -0.09880448877811432, -0.13815879821777344, 1.484619140625, 1.11181640625, 1.125274658203125, 1.291259765625
274035, 0.05012456700205803, -0.12954169511795044, -0.011051448993384838, 0.45568108558654785, -0.11766562610864639, -1.2029104232788086, 0.1339082568883896, -0.0399375781416893, -0.26620587706565857, -0.03300058841705322, 0.11877116560935974, 0.23745235800743103, -2.3172307196717092, -7.824663485140007, 10.804767172578313, 9362.0, 22281.0, 35388.0, 9362.0, 7.973554611206055, -0.2176881581544876, 0.016377879306674004, -0.049974389374256134, 0.008284054696559906, -0.07589958608150482, 0.9959157705307007, -0.09840589016675949, -0.021678924560546875, 1.494140625, 1.119873046875, 1.0350341796875, 1.291259765625
274045, 0.05002802237868309, -0.1317363828420639, -0.010650080628693104, 0.45836377143859863, -0.1184660792350769, -1.2082408666610718, 0.134358212351799, -0.040108777582645416, -0.26679834723472595, -0.033023323863744736, 0.118746817111969, 0.23734787106513977, -2.3448771365855583, -8.183301691936919, 10.824638279558584, 9362.0, 22281.0, 35388.0, 9362.0, 7.973554611206055, -0.2176881581544876, 0.016377879306674004, -0.049974389374256134, 0.008284054696559906, -0.07589958608150482, 0.9959157705307007, -0.09763125330209732, -0.08439826965332031, 1.489013671875, 1.119873046875, 1.0350341796875, 1.291259765625
274055, 0.050564609467983246, -0.13355235755443573, -0.010897374711930752, 0.45970845222473145, -0.11886759847402573, -1.2109102010726929, 0.1345793604850769, -0.04019440338015556, -0.2670746147632599, -0.03301567584276199, 0.11873656511306763, 0.23733127117156982, -2.424291691347226, -8.013391324994956, 10.785483752152944, 9362.0, 22281.0, 35388.0, 9362.0, 7.973554611206055, -0.21661889553070068, 0.11802896112203598, 0.06351517885923386, 0.008284054696559906, -0.07589958608150482, 0.9959157705307007, -0.0925137847661972, -0.08439826965332031, 1.489013671875, 1.119873046875, 1.0350341796875, 1.292724609375
274065, 0.04969263821840286, -0.13545125722885132, -0.010562107898294926, 0.46105536818504333, -0.1192699670791626, -1.2135828733444214, 0.13480399549007416, -0.04027976840734482, -0.26745307445526123, -0.03302164748311043, 0.11873036623001099, 0.23728543519973755, -2.4031595202074625, -8.20632633394851, 10.804015088195733, 9362.0, 22281.0, 35388.0, 9362.0, 7.973554611206055, -0.02348875068128109, 0.19257144629955292, -0.28469809889793396, 0.008284054696559906, -0.07589958608150482, 0.9959157705307007, -0.0925137847661972, -0.08439826965332031, 1.489013671875, 1.118408203125, 1.0510711669921875, 1.292724609375
274075, 0.04899436980485916, -0.13535648584365845, -0.011552490293979645, 0.4624045491218567, -0.11967319995164871, -1.2162588834762573, 0.13503198325634003, -0.04036613181233406, -0.26774194836616516, -0.03299178183078766, 0.11874186992645264, 0.23734965920448303, -2.3582879993914125, -8.045780477083241, 10.790535140249142, 9362.0, 22281.0, 35388.0, 9362.0, 7.973554611206055, -0.013226848095655441, 0.19579730927944183, 0.17263974249362946, 0.008284054696559906, -0.07589958608150482, 0.9959157705307007, -0.0925137847661972, -0.08439826965332031, 1.489013671875, 1.118408203125, 1.0510711669921875, 1.2919921875
274085, 0.048470351845026016, -0.13514912128448486, -0.011738013476133347, 0.4637560248374939, -0.12007728964090347, -1.2189373970031738, 0.1352633833885193, -0.04045107960700989, -0.2679575979709625, -0.03299174830317497, 0.11875133216381073, 0.2373875379562378, -2.3856569201242883, -7.980806931898229, 10.793490510900345, 9362.0, 22281.0, 35388.0, 9362.0, 7.973554611206055, -0.013226848095655441, 0.19579730927944183, 0.17263974249362946, 0.008284054696559906, -0.07589958608150482, 0.9959157705307007, -0.0925137847661972, -0.08439826965332031, 1.489013671875, 1.118408203125, 1.0510711669921875, 1.29052734375
274095, 0.04824259877204895, -0.13659928739070892, -0.012139381840825081, 0.46510982513427734, -0.12048222124576569, -1.2216181755065918, 0.13549456000328064, -0.040534816682338715, -0.2681903541088104, -0.03297565504908562, 0.11875279992818832, 0.23748551309108734, -2.30708838400723, -7.789841625964783, 10.751684145940358, 9362.0, 22281.0, 35388.0, 9362.0, 7.973554611206055, -0.013226848095655441, 0.19579730927944183, 0.17263974249362946, 0.008284054696559906, -0.07589958608150482, 0.9959157705307007, -0.09155276417732239, -0.05751800537109375, 1.4912109375, 1.118408203125, 1.0510711669921875, 1.29052734375
274105, 0.048491090536117554, -0.13487321138381958, -0.012741077691316605, 0.46646592020988464, -0.12088798731565475, -1.2243008613586426, 0.13572557270526886, -0.04061772674322128, -0.26834553480148315, -0.03301382064819336, 0.11874936521053314, 0.23737464845180511, -2.360404941779165, -8.051127274005523, 10.808812694547411, 9362.0, 22281.0, 35388.0, 9362.0, 7.973554611206055, 0.13816511631011963, 0.005522643215954304, -0.23724357783794403, 0.008284054696559906, -0.07589958608150482, 0.9959157705307007, -0.09164294600486755, -0.10231781005859375, 1.487548828125, 1.118408203125, 1.0510711669921875, 1.285400390625
274115, 0.04789106920361519, -0.13403542339801788, -0.012421290390193462, 0.4678243398666382, -0.12129457294940948, -1.2269856929779053, 0.13595879077911377, -0.040700145065784454, -0.2686197757720947, -0.03303893655538559, 0.1187434047460556, 0.2373330444097519, -2.364442062653497, -8.203465006563505, 10.820373632964495, 9362.0, 22281.0, 35388.0, 9362.0, 7.973554611206055, 0.13816511631011963, 0.005522643215954304, -0.23724357783794403, 0.009743175469338894, -0.07676906138658524, 0.996600329875946, -0.09164294600486755, -0.10231781005859375, 1.487548828125, 1.118408203125, 1.0510711669921875, 1.285400390625
274125, 0.047877319157123566, -0.13348767161369324, -0.011336968280375004, 0.46918508410453796, -0.12170198559761047, -1.2296733856201172, 0.13618898391723633, -0.04078296944499016, -0.26892152428627014, -0.033009499311447144, 0.11875290423631668, 0.2373371422290802, -2.372367908129642, -8.1803829551273, 10.807660690111907, 9362.0, 22281.0, 35388.0, 9362.0, 7.973554611206055, -0.07021265476942062, -0.015800541266798973, 0.18024671077728271, 0.009743175469338894, -0.07676906138658524, 0.996600329875946, -0.0923445001244545, -0.021678924560546875, 1.494140625, 1.118408203125, 1.0510711669921875, 1.2890625
274135, 0.047650519758462906, -0.13449537754058838, -0.011103869415819645, 0.46918508410453796, -0.12170198559761047, -1.2296733856201172, 0.13618898391723633, -0.04078296944499016, -0.26892152428627014, -0.032995522022247314, 0.11874860525131226, 0.2374614030122757, -2.3089312932525563, -7.894882106947222, 10.779728005616004, 9362.0, 22281.0, 35388.0, 9362.0, 7.973554611206055, -0.07021265476942062, -0.015800541266798973, 0.18024671077728271, 0.009743175469338894, -0.07676906138658524, 0.996600329875946, -0.09548816829919815, -0.12023735046386719, 1.486083984375, 1.118408203125, 1.0510711669921875, 1.2890625
274155, 0.04921568185091019, -0.13694924116134644, -0.011910681612789631, 0.47328105568885803, -0.1229291558265686, -1.237749457359314, 0.13687598705291748, -0.04102820158004761, -0.2694636583328247, -0.03299279138445854, 0.1187523826956749, 0.23742233216762543, -2.3212279094579436, -7.898699848799964, 10.788093634119674, 9362.0, 22281.0, 35388.0, 9362.0, 7.973554611206055, 0.13538062572479248, 0.33033132553100586, 0.09004950523376465, 0.009743175469338894, -0.07676906138658524, 0.996600329875946, -0.09849585592746735, -0.10231781005859375, 1.487548828125, 1.118408203125, 1.0510711669921875, 1.291259765625
274165, 0.050752509385347366, -0.13651934266090393, -0.01665588654577732, 0.47328105568885803, -0.1229291558265686, -1.237749457359314, 0.13687598705291748, -0.04102820158004761, -0.2694636583328247, -0.03297223150730133, 0.11875782161951065, 0.23746773600578308, -2.302685954646007, -7.7289343481198785, 10.777170496277268, 9362.0, 22281.0, 35388.0, 9362.0, 7.973554611206055, -0.0245424322783947, -0.07499652355909348, -0.22120359539985657, 0.009743175469338894, -0.07676906138658524, 0.996600329875946, -0.09849585592746735, -0.10231781005859375, 1.487548828125, 1.1044921875, 1.2117767333984375, 1.291259765625
274175, 0.05056412145495415, -0.13536806404590607, -0.016242990270256996, 0.47602325677871704, -0.12375139445066452, -1.2431457042694092, 0.1373433619737625, -0.04119591787457466, -0.2700955867767334, -0.03300230950117111, 0.11875919252634048, 0.23738083243370056, -2.3583627914091436, -8.090041504184683, 10.826297416853652, 9362.0, 22281.0, 35388.0, 9362.0, 7.973554611206055, -0.08533764630556107, 0.019067920744419098, -0.04004150256514549, 0.009743175469338894, -0.07676906138658524, 0.996600329875946, -0.09849585592746735, -0.10231781005859375, 1.487548828125, 1.1103515625, 1.1422271728515625, 1.291259765625
274185, 0.05038059502840042, -0.13486804068088531, -0.016331704333424568, 0.47602325677871704, -0.12375139445066452, -1.2431457042694092, 0.1373433619737625, -0.04119591787457466, -0.2700955867767334, -0.03300804644823074, 0.11877141892910004, 0.23737691342830658, -2.36129776070455, -8.064594639175482, 10.798010666122009, 9362.0, 22281.0, 35388.0, 9362.0, 7.973554611206055, -0.08533764630556107, 0.019067920744419098, -0.04004150256514549, 0.009743175469338894, -0.07676906138658524, 0.996600329875946, -0.09849585592746735, -0.10231781005859375, 1.487548828125, 1.10302734375, 1.229583740234375, 1.291259765625
274195, 0.051578305661678314, -0.13312597572803497, -0.016719607636332512, 0.4787747859954834, -0.12457705289125443, -1.2485485076904297, 0.13780838251113892, -0.041369348764419556, -0.2702862322330475, -0.032973844558000565, 0.11874190717935562, 0.237374410033226, -2.356817526468308, -8.084135926474943, 10.781093485447464, 9362.0, 22281.0, 35388.0, 9362.0, 7.973554611206055, -0.08533764630556107, 0.019067920744419098, -0.04004150256514549, 0.008140550926327705, -0.07778045535087585, 0.9970434904098511, -0.09849585592746735, -0.10231781005859375, 1.487548828125, 1.10302734375, 1.229583740234375, 1.291259765625
274205, 0.05075303092598915, -0.13393741846084595, -0.015826676040887833, 0.48015400767326355, -0.12499117851257324, -1.2512528896331787, 0.13803856074810028, -0.041455406695604324, -0.27058684825897217, -0.033000048249959946, 0.11875021457672119, 0.237388014793396, -2.3311908169398836, -8.05878887116367, 10.77358696289364, 9362.0, 22281.0, 35388.0, 9362.0, 7.973554611206055, -0.08804410696029663, 0.028885476291179657, 0.13511449098587036, 0.008140550926327705, -0.07778045535087585, 0.9970434904098511, -0.10284263640642166, -0.03959846496582031, 1.49267578125, 1.10302734375, 1.229583740234375, 1.294189453125
274215, 0.0501268208026886, -0.13264276087284088, -0.014516578987240791, 0.48153552412986755, -0.1254061758518219, -1.2539600133895874, 0.138265922665596, -0.041543565690517426, -0.2708263099193573, -0.03299055993556976, 0.11876130104064941, 0.23746860027313232, -2.3195143999569328, -7.862747677111088, 10.784110926600864, 9362.0, 22281.0, 35388.0, 9362.0, 7.973554611206055, -0.08804410696029663, 0.028885476291179657, 0.13511449098587036, 0.008140550926327705, -0.07778045535087585, 0.9970434904098511, -0.10284263640642166, -0.03959846496582031, 1.49267578125, 1.10302734375, 1.229583740234375, 1.294189453125
274225, 0.051624756306409836, -0.13481417298316956, -0.014499995857477188, 0.4829193353652954, -0.125822052359581, -1.256669044494629, 0.13849489390850067, -0.041630398482084274, -0.2709742486476898, -0.03296647220849991, 0.11874767392873764, 0.237460196018219, -2.3316260580081622, -7.808373897007527, 10.780897241465265, 9362.0, 22281.0, 35388.0, 9362.0, 7.973554611206055, -0.08804410696029663, 0.028885476291179657, 0.13511449098587036, 0.008140550926327705, -0.07778045535087585, 0.9970434904098511, -0.10029610991477966, -0.09335899353027344, 1.48828125, 1.10302734375, 1.229583740234375, 1.29052734375
274235, 0.051978833973407745, -0.13697975873947144, -0.014702415093779564, 0.4829193353652954, -0.125822052359581, -1.256669044494629, 0.13849489390850067, -0.041630398482084274, -0.2709742486476898, -0.032989613711833954, 0.11876579374074936, 0.23737582564353943, -2.342143720868904, -7.966603793495324, 10.799716677162454, 9362.0, 22281.0, 35388.0, 9362.0, 7.973554611206055, -0.08804410696029663, 0.028885476291179657, 0.13511449098587036, 0.008140550926327705, -0.07778045535087585, 0.9970434904098511, -0.10029610991477966, -0.09335899353027344, 1.48828125, 1.10302734375, 1.229583740234375, 1.288330078125
274245, 0.05253186449408531, -0.1378074586391449, -0.013998371548950672, 0.4856937825679779, -0.12665638327598572, -1.262094259262085, 0.13895125687122345, -0.04180415719747543, -0.2716059982776642, -0.032982729375362396, 0.11874629557132721, 0.23741935193538666, -2.3427102736508894, -7.855758354372313, 10.779910573833908, 9362.0, 22281.0, 35388.0, 9362.0, 7.973554611206055, 0.1116715595126152, 0.21887925267219543, -0.07542598247528076, 0.008140550926327705, -0.07778045535087585, 0.9970434904098511, -0.10029610991477966, -0.09335899353027344, 1.48828125, 1.172607421875, 0.5602874755859375, 1.289794921875
274275, 0.054338522255420685, -0.135293111205101, -0.016337430104613304, 0.48987287282943726, -0.12791453301906586, -1.2702538967132568, 0.13965202867984772, -0.04207504540681839, -0.2723585069179535, -0.03298225998878479, 0.11875049769878387, 0.23742783069610596, -2.3665416381054167, -7.878423380099036, 10.789932103511633, 9362.0, 22281.0, 35388.0, 9362.0, 7.973554611206055, -0.04564729332923889, 0.05482292175292969, -0.061132799834012985, 0.00963579211384058, -0.07849857211112976, 0.9961053133010864, -0.10029610991477966, -0.09335899353027344, 1.48828125, 1.17333984375, 0.554962158203125, 1.2890625
274285, 0.053764063864946365, -0.13638712465763092, -0.014779423363506794, 0.4912705719470978, -0.12833575904369354, -1.2729792594909668, 0.13988752663135529, -0.0421689972281456, -0.2727089524269104, -0.03297105059027672, 0.11875202506780624, 0.23742876946926117, -2.326404680618585, -7.891305588191557, 10.839544150508333, 9362.0, 22281.0, 35388.0, 9362.0, 7.973554611206055, 0.013559861108660698, 0.08083265274763107, -0.04480311647057533, 0.00963579211384058, -0.07849857211112976, 0.9961053133010864, -0.09768296033143997, -0.10231781005859375, 1.487548828125, 1.17333984375, 0.554962158203125, 1.28759765625
274305, 0.054338887333869934, -0.13416513800621033, -0.015924062579870224, 0.49407294392585754, -0.12918098270893097, -1.2784361839294434, 0.14035187661647797, -0.04235390946269035, -0.2730364203453064, -0.03300223499536514, 0.11873681098222733, 0.23736540973186493, -2.3652491393152544, -8.073180067723086, 10.813491394740073, 9362.0, 22281.0, 35388.0, 9362.0, 7.973554611206055, 0.04546622931957245, -0.06098296120762825, 0.07512480020523071, 0.00963579211384058, -0.07849857211112976, 0.9961053133010864, -0.09970079362392426, -0.08439826965332031, 1.489013671875, 1.32568359375, 0.0232086181640625, 1.28759765625
274315, 0.05375249683856964, -0.1348990499973297, -0.015535639598965645, 0.4954776167869568, -0.1296049803495407, -1.281167984008789, 0.14058257639408112, -0.042446162551641464, -0.27332061529159546, -0.033012859523296356, 0.11876034736633301, 0.23738566040992737, -2.3249759310385745, -8.116856913742424, 10.797588575422923, 9362.0, 22281.0, 35388.0, 9362.0, 7.973554611206055, 0.04546622931957245, -0.06098296120762825, 0.07512480020523071, 0.00963579211384058, -0.07849857211112976, 0.9961053133010864, -0.10136014223098755, -0.07543754577636719, 1.48974609375, 1.32568359375, 0.0232086181640625, 1.291259765625
274325, 0.05229484289884567, -0.13372090458869934, -0.016398955136537552, 0.4968845844268799, -0.13002990186214447, -1.2839022874832153, 0.1408117264509201, -0.042539045214653015, -0.2735510766506195, -0.03299586847424507, 0.1187434196472168, 0.237423837184906, -2.3207182734107916, -7.954266280720304, 10.80481016280594, 9362.0, 22281.0, 35388.0, 9362.0, 7.973554611206055, 0.04546622931957245, -0.06098296120762825, 0.07512480020523071, 0.00963579211384058, -0.07849857211112976, 0.9961053133010864, -0.10094309598207474, -0.07543754577636719, 1.48974609375, 1.32568359375, 0.0232086181640625, 1.291259765625
274335, 0.05245673283934593, -0.13463053107261658, -0.016716189682483673, 0.49829384684562683, -0.13045574724674225, -1.2866382598876953, 0.14104245603084564, -0.04263106733560562, -0.2736380398273468, -0.032999537885189056, 0.118756502866745, 0.23740865290164948, -2.2991339593183846, -7.981842584962408, 10.79759101915603, 9362.0, 22281.0, 35388.0, 9362.0, 7.973554611206055, 0.04546622931957245, -0.06098296120762825, 0.07512480020523071, 0.00963579211384058, -0.07849857211112976, 0.9961053133010864, -0.10094309598207474, -0.07543754577636719, 1.48974609375, 1.3154296875, 0.03118896484375, 1.291259765625
274345, 0.05230963975191116, -0.13748225569725037, -0.01582927629351616, 0.49970540404319763, -0.13088250160217285, -1.2893766164779663, 0.1412704437971115, -0.04272029548883438, -0.2740434408187866, -0.03299358859658241, 0.11875490844249725, 0.2374374121427536, -2.319480578885762, -7.926066552098092, 10.790728782847388, 9362.0, 22281.0, 35388.0, 9362.0, 7.973554611206055, 0.04546622931957245, -0.06098296120762825, 0.07512480020523071, 0.00963579211384058, -0.07849857211112976, 0.9961053133010864, -0.10094309598207474, -0.07543754577636719, 1.48974609375, 1.3154296875, 0.03118896484375, 1.294189453125
274355, 0.05332724750041962, -0.13853946328163147, -0.014319062232971191, 0.5011192560195923, -0.13131015002727509, -1.292119026184082, 0.14149999618530273, -0.04280981793999672, -0.27443480491638184, -0.03298579901456833, 0.1187487468123436, 0.2374282032251358, -2.348837584823297, -7.835393661800822, 10.792511991269883, 9362.0, 22281.0, 35388.0, 9362.0, 7.973554611206055, 0.06812725216150284, -0.20619694888591766, -0.43556663393974304, 0.00963579211384058, -0.07849857211112976, 0.9961053133010864, -0.1028888151049614, -0.08439826965332031, 1.489013671875, 1.3154296875, 0.03118896484375, 1.2919921875
274375, 0.05534316226840019, -0.13769087195396423, -0.015505596995353699, 0.5039539337158203, -0.13216814398765564, -1.2976100444793701, 0.14197179675102234, -0.04299053177237511, -0.2747313678264618, -0.03302314504981041, 0.11875498294830322, 0.23729321360588074, -2.3935043287128654, -8.247013179991995, 10.809661106616995, 9362.0, 22281.0, 35388.0, 9362.0, 7.973554611206055, 0.06812725216150284, -0.20619694888591766, -0.43556663393974304, 0.00963579211384058, -0.07849857211112976, 0.9961053133010864, -0.103182353079319, -0.09335899353027344, 1.48828125, 1.3154296875, 0.03118896484375, 1.292724609375
274385, 0.05547833442687988, -0.1382649838924408, -0.016345616430044174, 0.5053748488426208, -0.13259851932525635, -1.3003588914871216, 0.1422082632780075, -0.04308352619409561, -0.27504464983940125, -0.0329936221241951, 0.11874290555715561, 0.2374492734670639, -2.32668981043905, -7.977592442315824, 10.79205663572379, 9362.0, 22281.0, 35388.0, 9362.0, 7.973554611206055, 0.06812725216150284, -0.20619694888591766, -0.43556663393974304, 0.00963579211384058, -0.07849857211112976, 0.9961053133010864, -0.103182353079319, -0.09335899353027344, 1.48828125, 1.3154296875, 0.03118896484375, 1.294189453125
274395, 0.055128175765275955, -0.1364460438489914, -0.013950657099485397, 0.5053748488426208, -0.13259851932525635, -1.3003588914871216, 0.1422082632780075, -0.04308352619409561, -0.27504464983940125, -0.032985787838697433, 0.11875077337026596, 0.2373790144920349, -2.380726937663333, -7.946760461506557, 10.787582197243452, 9362.0, 22281.0, 35388.0, 9362.0, 7.973554611206055, 0.06812725216150284, -0.20619694888591766, -0.43556663393974304, 0.00963579211384058, -0.07849857211112976, 0.9961053133010864, -0.103182353079319, -0.09335899353027344, 1.48828125, 1.168212890625, 0.59271240234375, 1.294189453125
274405, 0.05553034693002701, -0.13485677540302277, -0.014984920620918274, 0.5082237124443054, -0.1334620863199234, -1.305864930152893, 0.14267952740192413, -0.04327293112874031, -0.27552473545074463, -0.03296397998929024, 0.118741974234581, 0.2373923510313034, -2.376116575233165, -7.851927810687101, 10.772332814793375, 9362.0, 22281.0, 35388.0, 9362.0, 7.973554611206055, 0.06812725216150284, -0.20619694888591766, -0.43556663393974304, 0.00963579211384058, -0.07849857211112976, 0.9961053133010864, -0.10642746090888977, -0.11127853393554688, 1.48681640625, 1.168212890625, 0.59271240234375, 1.294189453125
274415, 0.05641947314143181, -0.13665162026882172, -0.013167720288038254, 0.5096516609191895, -0.13389529287815094, -1.308620810508728, 0.1429128795862198, -0.04336727038025856, -0.27564185857772827, -0.03300544619560242, 0.11874187737703323, 0.23736371099948883, -2.352842233270881, -8.041150148757055, 10.789975790572177, 9362.0, 22281.0, 35388.0, 9362.0, 7.973554611206055, 0.031486690044403076, -0.13988377153873444, -0.09013436734676361, 0.00963579211384058, -0.07849857211112976, 0.9961053133010864, -0.10642746090888977, -0.11127853393554688, 1.48681640625, 1.171875, 0.5655364990234375, 1.29345703125
274425, 0.05513826012611389, -0.1374942660331726, -0.012631842866539955, 0.5096516609191895, -0.13389529287815094, -1.308620810508728, 0.1429128795862198, -0.04336727038025856, -0.27564185857772827, -0.03298055753111839, 0.11874830722808838, 0.23745352029800415, -2.31951363079877, -7.845073475564703, 10.78763074275726, 9362.0, 22281.0, 35388.0, 9362.0, 7.973554611206055, 0.031486690044403076, -0.13988377153873444, -0.09013436734676361, 0.00963579211384058, -0.07849857211112976, 0.9961053133010864, -0.10642746090888977, -0.11127853393554688, 1.48681640625, 1.17626953125, 0.534088134765625, 1.29345703125
274435, 0.0549311637878418, -0.13827098906040192, -0.013012178242206573, 0.5125145316123962, -0.13476453721523285, -1.3141404390335083, 0.14337609708309174, -0.043558403849601746, -0.27630382776260376, -0.03299364820122719, 0.1187451109290123, 0.23741833865642548, -2.342404431538729, -8.010155055886571, 10.797510896021183, 9362.0, 22281.0, 35388.0, 9362.0, 7.973554611206055, 0.031486690044403076, -0.13988377153873444, -0.09013436734676361, 0.00963579211384058, -0.07849857211112976, 0.9961053133010864, -0.10642746090888977, -0.11127853393554688, 1.48681640625, 1.178466796875, 0.5187835693359375, 1.29345703125
274445, 0.05344518646597862, -0.1409054696559906, -0.011865680105984211, 0.5125145316123962, -0.13476453721523285, -1.3141404390335083, 0.14337609708309174, -0.043558403849601746, -0.27630382776260376, -0.03298740088939667, 0.11875782907009125, 0.23740346729755402, -2.355231612224823, -7.88687201289784, 10.805717097452506, 9362.0, 22281.0, 35388.0, 9362.0, 7.973554611206055, 0.031486690044403076, -0.13988377153873444, -0.09013436734676361, 0.00963579211384058, -0.07849857211112976, 0.9961053133010864, -0.10642746090888977, -0.11127853393554688, 1.48681640625, 1.17919921875, 0.513763427734375, 1.29345703125
274455, 0.05466326326131821, -0.14117470383644104, -0.009797208942472935, 0.5153867602348328, -0.1356375813484192, -1.3196731805801392, 0.14384675025939941, -0.043746381998062134, -0.2769145369529724, -0.032997582107782364, 0.11874078959226608, 0.23737959563732147, -2.368367104591125, -8.057702728797153, 10.843256556689893, 9362.0, 22281.0, 35388.0, 9362.0, 7.973554611206055, 0.031486690044403076, -0.13988377153873444, -0.09013436734676361, 0.00963579211384058, -0.07849857211112976, 0.9961053133010864, -0.10642746090888977, -0.11127853393554688, 1.48681640625, 1.17919921875, 0.513763427734375, 1.29345703125
274465, 0.05532402917742729, -0.14208170771598816, -0.009802194312214851, 0.5168264508247375, -0.13607549667358398, -1.3224437236785889, 0.14408732950687408, -0.04383767396211624, -0.27718496322631836, -0.032992348074913025, 0.11874434351921082, 0.23735514283180237, -2.374857905756072, -8.023641746101902, 10.81757540722113, 9362.0, 22281.0, 35388.0, 9362.0, 7.973554611206055, 0.031486690044403076, -0.13988377153873444, -0.09013436734676361, 0.00963579211384058, -0.07849857211112976, 0.9961053133010864, -0.0988837406039238, -0.07543754577636719, 1.48974609375, 1.17919921875, 0.513763427734375, 1.29345703125
274475, 0.05548720806837082, -0.1408570408821106, -0.010210669599473476, 0.5182685256004333, -0.1365143358707428, -1.3252166509628296, 0.14432846009731293, -0.043931085616350174, -0.27741071581840515, -0.0329817570745945, 0.1187494620680809, 0.2374081015586853, -2.3462348841182155, -7.980628803140178, 10.802673009090475, 9362.0, 22281.0, 35388.0, 9362.0, 7.973554611206055, 0.031486690044403076, -0.13988377153873444, -0.09013436734676361, 0.00963579211384058, -0.07849857211112976, 0.9961053133010864, -0.10275395959615707, -0.10231781005859375, 1.487548828125, 1.17919921875, 0.513763427734375, 1.29345703125
274485, 0.05501452088356018, -0.14015433192253113, -0.009686299599707127, 0.5197130441665649, -0.13695411384105682, -1.3279924392700195, 0.14457088708877563, -0.04402552917599678, -0.27775153517723083, -0.03299710527062416, 0.11875103414058685, 0.23741364479064941, -2.326391641992612, -7.980512104279853, 10.78725853346198, 9362.0, 22281.0, 35388.0, 9362.0, 7.973554611206055, 0.031486690044403076, -0.13988377153873444, -0.09013436734676361, 0.00963579211384058, -0.07849857211112976, 0.9961053133010864, -0.10275395959615707, -0.10231781005859375, 1.487548828125, 1.11474609375, 1.0919036865234375, 1.29052734375
274495, 0.05437915027141571, -0.13966546952724457, -0.011499262414872646, 0.5197130441665649, -0.13695411384105682, -1.3279924392700195, 0.14457088708877563, -0.04402552917599678, -0.27775153517723083, -0.03299323096871376, 0.11875063925981522, 0.23742440342903137, -2.3414028287543274, -7.930344450860559, 10.785934534271185, 9362.0, 22281.0, 35388.0, 9362.0, 7.973554611206055, 0.031486690044403076, -0.13988377153873444, -0.09013436734676361, 0.00963579211384058, -0.07849857211112976, 0.9961053133010864, -0.10275395959615707, -0.10231781005859375, 1.487548828125, 1.105224609375, 1.202972412109375, 1.29052734375
274515, 0.0533655621111393, -0.14384202659130096, -0.011982718482613564, 0.5240609049797058, -0.13827912509441376, -1.336338996887207, 0.14528843760490417, -0.04430693760514259, -0.27884700894355774, -0.03297632932662964, 0.11875096708536148, 0.23743915557861328, -2.3279898691512337, -7.953507199369568, 10.793622532888156, 9362.0, 22281.0, 35388.0, 9362.0, 7.973554611206055, -0.09731338918209076, 0.406643807888031, -0.1471618115901947, 0.00963579211384058, -0.07849857211112976, 0.9961053133010864, -0.10441352427005768, -0.08439826965332031, 1.489013671875, 1.116943359375, 1.0672607421875, 1.291259765625
274525, 0.05382467061281204, -0.1443919986486435, -0.012148374691605568, 0.5240609049797058, -0.13827912509441376, -1.336338996887207, 0.14528843760490417, -0.04430693760514259, -0.27884700894355774, -0.032990507781505585, 0.11875418573617935, 0.2374183088541031, -2.3311584769655096, -8.041856130605282, 10.809315015469137, 9362.0, 22281.0, 35388.0, 9362.0, 7.973554611206055, -0.09731338918209076, 0.406643807888031, -0.1471618115901947, 0.00963579211384058, -0.07849857211112976, 0.9961053133010864, -0.10441352427005768, -0.08439826965332031, 1.489013671875, 1.1220703125, 1.01129150390625, 1.291259765625
