timeTick, roll, pitch, yaw, stateX, stateY, stateZ, stateVX, stateVY, stateVZ, otX0, otY0, otZ0, otRoll0, otPitch0, otYaw0, left wing, pitch motor, yaw motor, right wing, voltage, roll rate, pitch rate, yaw rate, A_x, A_y, A_z, current, i_raw, v_raw, airflow_voltage, airflow_speed, pot_Pitch
579048, 0.32996538281440735, -1.1775871515274048, 0.397877961397171, 0, 0, 0, 0, 0, 0, 0.006586075760424137, 0.10885947942733765, 0.24059830605983734, -1.7635675538170614, 1.4223766861872775, -18.55140095826372, 0, 0, 0, 0, 0, 0, 0, 0, 0, 0, 0, 0, 0, 0, 0, 0, 0
579058, 0.3291912376880646, -1.1763180494308472, 0.4004119336605072, 13.21330451965332, -3.635737895965576, -2.946993589401245, 1.994783639907837, -0.5495857000350952, -0.31679069995880127, 0.0065740239806473255, 0.10885805636644363, 0.24061259627342224, -1.7876565938606213, 1.4298097047519036, -18.556079985556412, 9362.0, 39321.0, 35388.0, 9362.0, 8.211570739746094, -0.07123588025569916, 0.19654296338558197, -0.14693978428840637, 0, 0, 0, 0, 0, 0, 0, 0, 0
579068, 0.32926416397094727, -1.1784104108810425, 0.40055033564567566, 13.233262062072754, -3.6412365436553955, -2.950162649154663, 1.9967995882034302, -0.5501354932785034, -0.3170228898525238, 0.0065788994543254375, 0.10850705951452255, 0.24066640436649323, -1.6912915823522023, 1.2862742406950929, -18.319315552581184, 9362.0, 39321.0, 35388.0, 9362.0, 8.211570739746094, 0.02095024660229683, 0.277647465467453, 0.03451261669397354, -0.00311871781013906, -0.06921590119600296, 0.9990407824516296, -0.09233134984970093, -0.10231781005859375, 1.487548828125, 1.5, 0.19561767578125, 1.72265625
579078, 0.3298472762107849, -1.180210828781128, 0.40138599276542664, 13.253240585327148, -3.646740674972534, -2.9533333778381348, 1.9988151788711548, -0.5506845116615295, -0.3171321153640747, 0.006586721166968346, 0.10887230187654495, 0.2405979186296463, -1.8120798715909416, 1.4116411528828507, -18.543550124358216, 9362.0, 39321.0, 35388.0, 9362.0, 8.211570739746094, -0.0021647729445248842, -0.016352392733097076, 0.21712680160999298, -0.005096231587231159, -0.07029253244400024, 0.9973817467689514, -0.0963391363620758, -0.11127853393554688, 1.48681640625, 1.505859375, 0.2073974609375, 1.740234375
579088, 0.33033323287963867, -1.1795060634613037, 0.40286320447921753, 13.273239135742188, -3.652250289916992, -2.9565060138702393, 2.0008323192596436, -0.5512328743934631, -0.3173767328262329, 0.006567260716110468, 0.10886213183403015, 0.24057988822460175, -1.819067088796702, 1.4631096802640968, -18.551521360977862, 9362.0, 39321.0, 35388.0, 9362.0, 8.211570739746094, -0.0036304346285760403, 0.36449897289276123, 0.11809302121400833, -0.005695790518075228, -0.06800760328769684, 1.0006805658340454, -0.10061461478471756, -0.10231781005859375, 1.487548828125, 1.5263671875, 0.2502899169921875, 1.720458984375
579098, 0.32971304655075073, -1.182620882987976, 0.4043617248535156, 13.293257713317871, -3.6577653884887695, -2.9596800804138184, 2.002856492996216, -0.5517833232879639, -0.3174131512641907, 0.0065809316001832485, 0.10887409746646881, 0.240599125623703, -1.8081189604895012, 1.438823231689156, -18.536824556377358, 9362.0, 39321.0, 35388.0, 9362.0, 8.211570739746094, -0.0038834731094539165, 0.11249222606420517, -0.02710050903260708, -0.005814953241497278, -0.06809279322624207, 0.9978421926498413, -0.09609565883874893, -0.11127853393554688, 1.48681640625, 1.505126953125, 0.205902099609375, 1.758544921875
579108, 0.32937154173851013, -1.1835339069366455, 0.4038984179496765, 13.315300941467285, -3.6638383865356445, -2.9631729125976562, 2.005078077316284, -0.5523886680603027, -0.3176390826702118, 0.006564984563738108, 0.10888046771287918, 0.24058715999126434, -1.7961194534250728, 1.429648154064381, -18.543953685722677, 9362.0, 39321.0, 35388.0, 9362.0, 8.211570739746094, -0.01671653427183628, -0.2671070396900177, 0.02561039850115776, -0.007242331746965647, -0.06933095306158066, 0.9970592260360718, -0.101912721991539, -0.1291980743408203, 1.4853515625, 1.494140625, 0.183990478515625, 1.717529296875
579118, 0.32908371090888977, -1.1820675134658813, 0.40274837613105774, 13.33536148071289, -3.6693649291992188, -2.966350793838501, 2.00710129737854, -0.5529374480247498, -0.31792357563972473, 0.006567706353962421, 0.1088637039065361, 0.2406015694141388, -1.7851188094403327, 1.401334331592352, -18.53437596152129, 9362.0, 39321.0, 35388.0, 9362.0, 8.211570739746094, -0.038439229130744934, 0.22632475197315216, 0.17790822684764862, -0.005838821642100811, -0.06895056366920471, 0.9989086389541626, -0.10857994109392166, -0.1739978790283203, 1.481689453125, 1.491943359375, 0.179656982421875, 1.723388671875
579128, 0.32945516705513, -1.1849188804626465, 0.40307703614234924, 13.355443000793457, -3.6748969554901123, -2.9695310592651367, 2.009127378463745, -0.5534860491752625, -0.31812214851379395, 0.006581492256373167, 0.10887162387371063, 0.2406129539012909, -1.7788936394651278, 1.419717757439173, -18.56603676484004, 9362.0, 39321.0, 35388.0, 9362.0, 8.211570739746094, 0.068831667304039, 0.09407370537519455, 0.26280900835990906, -0.006453340873122215, -0.06748291105031967, 0.9987243413925171, -0.11112343519926071, -0.10231781005859375, 1.487548828125, 1.487548828125, 0.1712188720703125, 1.71826171875
579138, 0.33009570837020874, -1.1874568462371826, 0.40504908561706543, 13.375544548034668, -3.680434465408325, -2.972712993621826, 2.011152744293213, -0.5540345311164856, -0.31827786564826965, 0.0065707736648619175, 0.10887416452169418, 0.24057671427726746, -1.7871594373906106, 1.3897372298106347, -18.546286443303245, 9362.0, 39321.0, 35388.0, 9362.0, 8.211570739746094, -0.08180715888738632, 0.3091110289096832, 0.14746643602848053, -0.005727316252887249, -0.06777606904506683, 1.000356912612915, -0.105052150785923, 0.11272048950195312, 1.505126953125, 1.4912109375, 0.178253173828125, 1.721923828125
579148, 0.33024802803993225, -1.190126895904541, 0.4057660400867462, 13.395666122436523, -3.6859774589538574, -2.975895881652832, 2.0131852626800537, -0.554584264755249, -0.3182941675186157, 0.006573256105184555, 0.10850264877080917, 0.24065543711185455, -1.6912695570154774, 1.3326425201198617, -18.331137407540442, 9362.0, 39321.0, 35388.0, 9362.0, 8.191736221313477, 0.09122329205274582, -0.08868934214115143, 0.2626343369483948, -0.004044005647301674, -0.07143954932689667, 1.00065279006958, -0.0631011500954628, 0.1396007537841797, 1.50732421875, 1.494873046875, 0.185455322265625, 1.72265625
579158, 0.33088356256484985, -1.191375732421875, 0.4070797562599182, 13.415807723999023, -3.691526174545288, -2.979078531265259, 2.015223264694214, -0.5551354289054871, -0.3182436525821686, 0.006580190733075142, 0.10887471586465836, 0.240606427192688, -1.7807275106290752, 1.4423763927427444, -18.540356805784434, 9362.0, 39321.0, 35388.0, 9362.0, 8.211570739746094, 0.04095885157585144, -0.23032264411449432, -0.22794821858406067, -0.0030826288275420666, -0.06882433593273163, 1.0008991956710815, 0.0041824388317763805, -0.10231781005859375, 1.487548828125, 1.34033203125, 0.0166168212890625, 1.694091796875
579168, 0.33231040835380554, -1.1917322874069214, 0.40547531843185425, 13.435970306396484, -3.697080373764038, -2.9822604656219482, 2.017267942428589, -0.5556872487068176, -0.31814101338386536, 0.006574266590178013, 0.10886179655790329, 0.2406066656112671, -1.7888006182508085, 1.382813011956273, -18.541002417718747, 9362.0, 39321.0, 35388.0, 9362.0, 8.211570739746094, -0.0016018332680687308, -0.08573378622531891, -0.33800941705703735, -0.00365274166688323, -0.0698787197470665, 0.9988269209861755, -0.02587152272462845, -0.05751800537109375, 1.4912109375, 1.329345703125, 0.02105712890625, 1.718994140625
579178, 0.33265119791030884, -1.19123375415802, 0.4023693799972534, 13.45615291595459, -3.7026400566101074, -2.9854423999786377, 2.0193097591400146, -0.5562388300895691, -0.3182438611984253, 0.006579546723514795, 0.10888587683439255, 0.24061799049377441, -1.8025841797658675, 1.3987668122680645, -18.547765029715574, 9362.0, 39321.0, 35388.0, 9362.0, 8.211570739746094, -0.040481772273778915, -0.11955524981021881, -0.00495559349656105, -0.005573765840381384, -0.06948649138212204, 0.9975612163543701, -0.0435333251953125, -0.07543754577636719, 1.48974609375, 1.335205078125, 0.018280029296875, 1.718994140625
579188, 0.33313560485839844, -1.1903845071792603, 0.40118977427482605, 13.476356506347656, -3.708205223083496, -2.98862624168396, 2.021348476409912, -0.5567920207977295, -0.31851282715797424, 0.0065642306581139565, 0.10850924998521805, 0.2406294345855713, -1.7273868403582673, 1.3193690047779114, -18.313364453393472, 9362.0, 39321.0, 35388.0, 9362.0, 8.211570739746094, -0.29145151376724243, -0.29359546303749084, -0.16045483946800232, -0.005715828388929367, -0.06799978762865067, 0.9977983236312866, -0.062213171273469925, -0.14711761474609375, 1.48388671875, 1.33740234375, 0.0175323486328125, 1.72119140625
579198, 0.3311994969844818, -1.1879596710205078, 0.4004132151603699, 13.496580123901367, -3.713775873184204, -2.9918124675750732, 2.0233876705169678, -0.5573462247848511, -0.31873512268066406, 0.006581511348485947, 0.10887880623340607, 0.24058841168880463, -1.793631030612582, 1.4156721866546889, -18.543483882074753, 9362.0, 39321.0, 35388.0, 9362.0, 8.211570739746094, -0.13410498201847076, 0.062154050916433334, 0.25047677755355835, -0.004699531942605972, -0.06808287650346756, 0.999925434589386, -0.0669485405087471, -0.11127853393554688, 1.48681640625, 1.49853515625, 0.1927032470703125, 1.7197265625
579208, 0.3305799961090088, -1.1888014078140259, 0.4024927318096161, 13.516823768615723, -3.7193520069122314, -2.9950003623962402, 2.025428295135498, -0.5579018592834473, -0.31882616877555847, 0.006579699460417032, 0.10886981338262558, 0.24057814478874207, -1.7907880154479645, 1.3849225228390196, -18.539430116396176, 9362.0, 39321.0, 35388.0, 9362.0, 8.211570739746094, 0.06563715636730194, -0.04393727332353592, -0.056313008069992065, -0.0047249458730220795, -0.0710088461637497, 0.999727725982666, -0.07854956388473511, -0.1291980743408203, 1.4853515625, 1.51318359375, 0.2224273681640625, 1.72265625
579218, 0.3314889371395111, -1.1885091066360474, 0.4021649658679962, 13.537088394165039, -3.7249338626861572, -2.9981887340545654, 2.027466058731079, -0.5584545731544495, -0.3188607394695282, 0.0065727196633815765, 0.1088806614279747, 0.24056370556354523, -1.7881568154588885, 1.3879202225978133, -18.548740498690663, 9362.0, 39321.0, 35388.0, 9362.0, 8.211570739746094, -0.16906091570854187, 0.20334076881408691, 0.16915379464626312, -0.004777154419571161, -0.06916841119527817, 0.9983844757080078, -0.08556236326694489, -0.1739978790283203, 1.481689453125, 1.505126953125, 0.205902099609375, 1.75634765625
579228, 0.330658495426178, -1.1898069381713867, 0.4047272503376007, 13.557373046875, -3.7305212020874023, -3.001378059387207, 2.0295019149780273, -0.5590054988861084, -0.3190186023712158, 0.006592468358576298, 0.10886645317077637, 0.24062882363796234, -1.776573461190875, 1.4082505203437563, -18.546165224608856, 9362.0, 39321.0, 35388.0, 9362.0, 8.211570739746094, -0.1262386292219162, -0.20053867995738983, -0.06973409652709961, -0.004785172641277313, -0.06808207184076309, 0.9968522191047668, -0.08492553979158401, 0.014162063598632812, 1.4970703125, 1.4677734375, 0.1347198486328125, 1.718994140625
579238, 0.32919514179229736, -1.1894686222076416, 0.4057628810405731, 13.577678680419922, -3.736114025115967, -3.0045697689056396, 2.031534433364868, -0.5595570802688599, -0.3193361759185791, 0.006573074497282505, 0.10886647552251816, 0.24058036506175995, -1.8161583353853608, 1.4085701895123748, -18.564947950103505, 9362.0, 39321.0, 35388.0, 9362.0, 8.211570739746094, 0.0074248239398002625, 0.1491861492395401, 0.3131302297115326, -0.005502093117684126, -0.06883785873651505, 0.9983535408973694, -0.07926321774721146, -0.10231781005859375, 1.487548828125, 1.4912109375, 0.178253173828125, 1.72119140625
579248, 0.32899558544158936, -1.1920684576034546, 0.40804392099380493, 13.598004341125488, -3.7417123317718506, -3.0077641010284424, 2.033571720123291, -0.5601077675819397, -0.3195349872112274, 0.006584680173546076, 0.10888419300317764, 0.24061769247055054, -1.8066704239789098, 1.437572653727159, -18.553344206598567, 9362.0, 39321.0, 35388.0, 9362.0, 8.211570739746094, 0.16753268241882324, -0.325086385011673, -0.07555878162384033, -0.006181534379720688, -0.06672108918428421, 0.9984623193740845, -0.0884818583726883, -0.1291980743408203, 1.4853515625, 1.49560546875, 0.1868743896484375, 1.721923828125
579258, 0.32987913489341736, -1.1911700963974, 0.40880852937698364, 13.6183500289917, -3.7473161220550537, -3.010960340499878, 2.035609245300293, -0.5606560707092285, -0.3196994960308075, 0.006605085451155901, 0.10886100679636002, 0.24060149490833282, -1.7879009870301827, 1.3859989110874267, -18.54936619911069, 9362.0, 39321.0, 35388.0, 9362.0, 8.211570739746094, 0.25217708945274353, 0.049003247171640396, 0.03220197930932045, -0.0054235076531767845, -0.06828054785728455, 1.0000666379928589, -0.09162306785583496, -0.08439826965332031, 1.489013671875, 1.494873046875, 0.185455322265625, 1.73583984375
579268, 0.3310987055301666, -1.191025972366333, 0.4099029004573822, 13.638716697692871, -3.752925395965576, -3.01415753364563, 2.0376532077789307, -0.5612045526504517, -0.31975701451301575, 0.006566910073161125, 0.10887254774570465, 0.240607351064682, -1.8227020999306995, 1.423322210750399, -18.544261669510522, 9362.0, 39321.0, 35388.0, 9362.0, 8.211570739746094, 0.03381893411278725, 0.004993620328605175, -0.02234753966331482, -0.004610238131135702, -0.07234874367713928, 0.9976808428764343, -0.09746412187814713, -0.15607833862304688, 1.483154296875, 1.500732421875, 0.1970977783203125, 1.717529296875
579278, 0.3317717909812927, -1.191162347793579, 0.40938621759414673, 13.659103393554688, -3.758540153503418, -3.0173559188842773, 2.0396931171417236, -0.5617539286613464, -0.31994014978408813, 0.006583797745406628, 0.10887652635574341, 0.24059662222862244, -1.748975943140516, 1.3942891228635972, -18.562956108478623, 9362.0, 39321.0, 35388.0, 9362.0, 8.211570739746094, -0.0019349146168679, 0.20494753122329712, 0.27797287702560425, -0.004929658956825733, -0.06989690661430359, 0.9969440698623657, -0.09997891634702682, -0.1291980743408203, 1.4853515625, 1.505126953125, 0.205902099609375, 1.7197265625
579288, 0.3327449858188629, -1.1934003829956055, 0.41064855456352234, 13.679510116577148, -3.764160394668579, -3.020556926727295, 2.0417299270629883, -0.5623044967651367, -0.32026079297065735, 0.006994461175054312, 0.10865481942892075, 0.23987190425395966, -3.0780197405531418, 3.142778732499835, -18.63472513824584, 9362.0, 39321.0, 35388.0, 9362.0, 8.211570739746094, -0.07591917365789413, 0.5511109828948975, 0.11169447749853134, -0.00839270930737257, -0.06965868920087814, 0.9997820854187012, -0.0927758440375328, -0.1291980743408203, 1.4853515625, 1.281005859375, 0.0816650390625, 1.72412109375
579298, 0.33190417289733887, -1.1974483728408813, 0.411609947681427, 13.69993782043457, -3.7697861194610596, -3.0237598419189453, 2.0437722206115723, -0.5628576278686523, -0.32034584879875183, 0.0065907943062484264, 0.10887262225151062, 0.24059835076332092, -1.8228355617069394, 1.415400999297617, -18.554419670705958, 9362.0, 39321.0, 35388.0, 9362.0, 8.211570739746094, -0.24280214309692383, 0.03419318050146103, 0.32033848762512207, -0.006973843555897474, -0.07074946165084839, 1.000036597251892, -0.10130458325147629, -0.10231781005859375, 1.487548828125, 1.2744140625, 0.0959014892578125, 1.72265625
579308, 0.33074212074279785, -1.1976566314697266, 0.41337648034095764, 13.720385551452637, -3.7754175662994385, -3.026963472366333, 2.045818567276001, -0.5634124875068665, -0.3203900456428528, 0.006570760160684586, 0.10885882377624512, 0.240581214427948, -1.7581198222226897, 1.3673397186977923, -18.55180424640613, 9362.0, 39321.0, 35388.0, 9362.0, 8.211570739746094, 0.13096094131469727, -0.11854690313339233, -0.08084762841463089, -0.005319020710885525, -0.06960702687501907, 0.9992313981056213, -0.10432585328817368, -0.12023735046386719, 1.486083984375, 1.265625, 0.1174468994140625, 1.724853515625
579318, 0.3311217427253723, -1.1968132257461548, 0.4129350781440735, 13.740854263305664, -3.7810544967651367, -3.030167818069458, 2.0478711128234863, -0.5639654994010925, -0.3204961121082306, 0.0065897805616259575, 0.1088864728808403, 0.2406233698129654, -1.7832683810954921, 1.3934593162124145, -18.539520659925667, 9362.0, 39321.0, 35388.0, 9362.0, 8.191736221313477, -0.016236288473010063, -0.24835869669914246, -0.006845171097666025, -0.0029583454597741365, -0.06857815384864807, 0.9993022084236145, -0.08331485092639923, -0.09335899353027344, 1.48828125, 1.28759765625, 0.068939208984375, 1.72265625
579328, 0.330636203289032, -1.1959775686264038, 0.41298720240592957, 13.761343002319336, -3.7866969108581543, -3.0333731174468994, 2.049924373626709, -0.5645167231559753, -0.32058119773864746, 0.006579821929335594, 0.10886942595243454, 0.24061912298202515, -1.7877931619254066, 1.3728133796073791, -18.549165867088444, 9362.0, 39321.0, 35388.0, 9362.0, 8.211570739746094, 0.06953001767396927, 0.18081285059452057, -0.06995543092489243, -0.004139474127441645, -0.07089559733867645, 0.9979848861694336, -0.09032895416021347, -0.15607833862304688, 1.483154296875, 1.28173828125, 0.0802001953125, 1.72119140625
579338, 0.3311522901058197, -1.1980692148208618, 0.412448525428772, 13.781852722167969, -3.792344808578491, -3.0365798473358154, 2.051973819732666, -0.5650678873062134, -0.32077667117118835, 0.00659768283367157, 0.10887058824300766, 0.24063323438167572, -1.7591844682601931, 1.3910840953575985, -18.54300310504514, 9362.0, 39321.0, 35388.0, 9362.0, 8.211570739746094, -0.08264174312353134, 0.10109224170446396, 0.09368053823709488, -0.004372429568320513, -0.07073456048965454, 0.9981858730316162, -0.09741704910993576, -0.12023735046386719, 1.486083984375, 1.27294921875, 0.099334716796875, 1.72412109375
579348, 0.3302193284034729, -1.2000997066497803, 0.4129684567451477, 13.802382469177246, -3.7979981899261475, -3.0397887229919434, 2.0540213584899902, -0.565618097782135, -0.3209894895553589, 0.006584565155208111, 0.10887740552425385, 0.2406172901391983, -1.8120330219257579, 1.4076189713686915, -18.562291423591706, 9362.0, 39321.0, 35388.0, 9362.0, 8.211570739746094, -0.05124148726463318, -0.20320500433444977, -0.16867028176784515, -0.0047326902858912945, -0.07142607122659683, 0.9988349080085754, -0.08447873592376709, 0.2919197082519531, 1.519775390625, 1.2626953125, 0.1252593994140625, 1.72119140625
579358, 0.3296271562576294, -1.2006051540374756, 0.4123007357120514, 13.822933197021484, -3.803657054901123, -3.042999267578125, 2.0560739040374756, -0.5661695599555969, -0.32113632559776306, 0.006585787516087294, 0.10887233912944794, 0.2405829131603241, -1.8154123723171136, 1.435369913461983, -18.54956916367906, 9362.0, 39321.0, 35388.0, 9362.0, 8.211570739746094, 0.3419644832611084, 0.5949706435203552, 0.18592849373817444, -0.006203054916113615, -0.07044541090726852, 0.9980186820030212, -0.081352099776268, 0.10376167297363281, 1.50439453125, 1.259033203125, 0.135589599609375, 1.72119140625
579378, 0.3310791850090027, -1.2073439359664917, 0.4152248799800873, 13.843503952026367, -3.809321403503418, -3.0462117195129395, 2.058128833770752, -0.5667191743850708, -0.32133033871650696, 0.00667431578040123, 0.1087907999753952, 0.2407018095254898, -1.8023079105690722, 1.3863216813212489, -18.54798925124089, 9362.0, 39321.0, 35388.0, 9362.0, 8.211570739746094, -0.03979354724287987, -0.34154075384140015, 0.02061665616929531, -0.005364043638110161, -0.06863634288311005, 0.9978793859481812, -0.07748322933912277, -0.10231781005859375, 1.487548828125, 1.264892578125, 0.119354248046875, 1.71533203125
579388, 0.3313136100769043, -1.2065215110778809, 0.4156450629234314, 13.843503952026367, -3.809321403503418, -3.0462117195129395, 2.058128833770752, -0.5667191743850708, -0.32133033871650696, 0.006567221134901047, 0.10888075083494186, 0.24063019454479218, -1.7873520078069352, 1.4255371181848773, -18.552257454159776, 9362.0, 39321.0, 35388.0, 9362.0, 8.211570739746094, -0.03979354724287987, -0.34154075384140015, 0.02061665616929531, -0.005364043638110161, -0.06863634288311005, 0.9978793859481812, -0.07748322933912277, -0.10231781005859375, 1.487548828125, 1.264892578125, 0.119354248046875, 1.7197265625
579398, 0.3314386308193207, -1.2071181535720825, 0.41524821519851685, 13.843503952026367, -3.809321403503418, -3.0462117195129395, 2.058128833770752, -0.5667191743850708, -0.32133033871650696, 0.006567119620740414, 0.10885688662528992, 0.24060790240764618, -1.7819989709893458, 1.4001266943631947, -18.5536405146899, 9362.0, 39321.0, 35388.0, 9362.0, 8.211570739746094, -0.03979354724287987, -0.34154075384140015, 0.02061665616929531, -0.005364043638110161, -0.06863634288311005, 0.9978793859481812, -0.07863462716341019, -0.09335899353027344, 1.48828125, 1.264892578125, 0.119354248046875, 1.72119140625
579408, 0.33101686835289, -1.2078384160995483, 0.4163280427455902, 13.843503952026367, -3.809321403503418, -3.0462117195129395, 2.058128833770752, -0.5667191743850708, -0.32133033871650696, 0.00658373162150383, 0.10887904465198517, 0.2406187504529953, -1.773752687436303, 1.4069783515784593, -18.553728546132916, 9362.0, 39321.0, 35388.0, 9362.0, 8.211570739746094, -0.03979354724287987, -0.34154075384140015, 0.02061665616929531, -0.005364043638110161, -0.06863634288311005, 0.9978793859481812, -0.07863462716341019, -0.09335899353027344, 1.48828125, 1.2568359375, 0.1420135498046875, 1.72119140625
579418, 0.330485999584198, -1.206529974937439, 0.4174596071243286, 13.843503952026367, -3.809321403503418, -3.0462117195129395, 2.058128833770752, -0.5667191743850708, -0.32133033871650696, 0.006589110475033522, 0.10887929797172546, 0.24061670899391174, -1.800785356522155, 1.4561990364096289, -18.563695372992786, 9362.0, 39321.0, 35388.0, 9362.0, 8.211570739746094, -0.03979354724287987, -0.34154075384140015, 0.02061665616929531, -0.005364043638110161, -0.06863634288311005, 0.9978793859481812, -0.07514148950576782, -0.12023735046386719, 1.486083984375, 1.318359375, 0.028656005859375, 1.720458984375
579428, 0.330272376537323, -1.2067738771438599, 0.41708680987358093, 13.843503952026367, -3.809321403503418, -3.0462117195129395, 2.058128833770752, -0.5667191743850708, -0.32133033871650696, 0.006577352061867714, 0.10886634886264801, 0.24061591923236847, -1.753942568783902, 1.4073012717478548, -18.545263386992534, 9362.0, 39321.0, 35388.0, 9362.0, 8.211570739746094, 0.03551238775253296, 0.31662264466285706, 0.10668938606977463, -0.005364043638110161, -0.06863634288311005, 0.9978793859481812, -0.06883862614631653, 0.08584022521972656, 1.5029296875, 1.333740234375, 0.0189361572265625, 1.720458984375
579438, 0.33050137758255005, -1.2100273370742798, 0.41703373193740845, 13.843503952026367, -3.809321403503418, -3.0462117195129395, 2.058128833770752, -0.5667191743850708, -0.32133033871650696, 0.0065831635147333145, 0.10887288302183151, 0.24060583114624023, -1.799774767988659, 1.4125527150790447, -18.554689456292497, 9362.0, 39321.0, 35388.0, 9362.0, 8.211570739746094, 0.03551238775253296, 0.31662264466285706, 0.10668938606977463, -0.005364043638110161, -0.06863634288311005, 0.9978793859481812, -0.06863822042942047, -0.09335899353027344, 1.48828125, 1.333740234375, 0.0189361572265625, 1.7197265625
579448, 0.3312528431415558, -1.2103866338729858, 0.41697001457214355, 13.843503952026367, -3.809321403503418, -3.0462117195129395, 2.058128833770752, -0.5667191743850708, -0.32133033871650696, 0.006656148005276918, 0.10881531983613968, 0.24069686233997345, -1.7819198974176944, 1.3691279086558552, -18.541638510563246, 9362.0, 39321.0, 35388.0, 9362.0, 8.211570739746094, 0.03551238775253296, 0.31662264466285706, 0.10668938606977463, -0.005364043638110161, -0.06863634288311005, 0.9978793859481812, -0.06616754084825516, -0.10231781005859375, 1.487548828125, 1.333740234375, 0.0189361572265625, 1.71826171875
579458, 0.3316340148448944, -1.2124079465866089, 0.41775935888290405, 13.843503952026367, -3.809321403503418, -3.0462117195129395, 2.058128833770752, -0.5667191743850708, -0.32133033871650696, 0.006580546498298645, 0.1088712140917778, 0.24062587320804596, -1.7865257221903552, 1.3735249359113766, -18.544355485785935, 9362.0, 39321.0, 35388.0, 9362.0, 8.211570739746094, 0.03551238775253296, 0.31662264466285706, 0.10668938606977463, -0.007372116204351187, -0.06914044916629791, 0.9974880814552307, -0.06616754084825516, -0.10231781005859375, 1.487548828125, 1.4267578125, 0.070709228515625, 1.720458984375
579478, 0.33235999941825867, -1.218636393547058, 0.41890621185302734, 13.843503952026367, -3.809321403503418, -3.0462117195129395, 2.058128833770752, -0.5667191743850708, -0.32133033871650696, 0.006585201248526573, 0.10887055099010468, 0.24059875309467316, -1.8238822735034168, 1.4035089115107553, -18.549842295872995, 9362.0, 39321.0, 35388.0, 9362.0, 8.211570739746094, 0.011921005323529243, 0.4984982907772064, 0.011016367003321648, -0.007372116204351187, -0.06914044916629791, 0.9974880814552307, -0.07043445855379105, -0.14711761474609375, 1.48388671875, 1.43994140625, 0.089324951171875, 1.71826171875
579488, 0.3311673104763031, -1.2201082706451416, 0.4192204475402832, 14.091965675354004, -3.8777236938476562, -3.0849270820617676, 2.0829436779022217, -0.57332444190979, -0.32411783933639526, 0.00656959367915988, 0.10885932296514511, 0.24059945344924927, -1.7850416233968145, 1.3808267268157408, -18.544185646745003, 9362.0, 39321.0, 35388.0, 9362.0, 8.211570739746094, -0.08549588918685913, 0.05208586901426315, -0.2713771462440491, -0.007372116204351187, -0.06914044916629791, 0.9974880814552307, -0.0751832127571106, -0.07543754577636719, 1.48974609375, 1.43994140625, 0.089324951171875, 1.71826171875
579498, 0.3311101496219635, -1.2205079793930054, 0.41795429587364197, 14.091965675354004, -3.8777236938476562, -3.0849270820617676, 2.0829436779022217, -0.57332444190979, -0.32411783933639526, 0.006591286975890398, 0.10887401551008224, 0.24059826135635376, -1.7883871761972854, 1.4083980917510246, -18.553470222555188, 9362.0, 39321.0, 35388.0, 9362.0, 8.211570739746094, -0.08549588918685913, 0.05208586901426315, -0.2713771462440491, -0.007372116204351187, -0.06914044916629791, 0.9974880814552307, -0.0751832127571106, -0.07543754577636719, 1.48974609375, 1.43994140625, 0.089324951171875, 1.72119140625
579508, 0.3304711580276489, -1.2182471752166748, 0.4176429212093353, 14.091965675354004, -3.8777236938476562, -3.0849270820617676, 2.0829436779022217, -0.57332444190979, -0.32411783933639526, 0.006583089008927345, 0.108864426612854, 0.24064156413078308, -1.7597061122510613, 1.394771420214056, -18.547951362592364, 9362.0, 39321.0, 35388.0, 9362.0, 8.211570739746094, -0.08549588918685913, 0.05208586901426315, -0.2713771462440491, -0.007372116204351187, -0.06914044916629791, 0.9974880814552307, -0.07692550122737885, -0.11127853393554688, 1.48681640625, 1.43994140625, 0.089324951171875, 1.749755859375
579518, 0.33019351959228516, -1.214306354522705, 0.4187106192111969, 14.091965675354004, -3.8777236938476562, -3.0849270820617676, 2.0829436779022217, -0.57332444190979, -0.32411783933639526, 0.006582697853446007, 0.10887188464403152, 0.24062705039978027, -1.7645625963238938, 1.352989285173436, -18.56057882861046, 9362.0, 39321.0, 35388.0, 9362.0, 8.211570739746094, -0.08549588918685913, 0.05208586901426315, -0.2713771462440491, -0.007372116204351187, -0.06914044916629791, 0.9974880814552307, -0.07798710465431213, -0.11127853393554688, 1.48681640625, 1.43994140625, 0.089324951171875, 1.726318359375
579538, 0.3320751190185547, -1.2149993181228638, 0.4153054356575012, 14.091965675354004, -3.8777236938476562, -3.0849270820617676, 2.0829436779022217, -0.57332444190979, -0.32411783933639526, 0.006599667016416788, 0.10886295884847641, 0.24066144227981567, -1.8028157022401858, 1.4363965081598167, -18.55132058936321, 9362.0, 39321.0, 35388.0, 9362.0, 8.211570739746094, -0.08549588918685913, 0.05208586901426315, -0.2713771462440491, -0.006903523113578558, -0.0680769607424736, 0.999268114566803, -0.08145947754383087, -0.12023735046386719, 1.486083984375, 1.4853515625, 0.1669921875, 1.720458984375
579568, 0.3337322175502777, -1.216550350189209, 0.4154648184776306, 14.091965675354004, -3.8777236938476562, -3.0849270820617676, 2.0829436779022217, -0.57332444190979, -0.32411783933639526, 0.006577956490218639, 0.10885953158140182, 0.24060097336769104, -1.7964391258780907, 1.3734054912908107, -18.55366453882884, 9362.0, 39321.0, 35388.0, 9362.0, 8.211570739746094, -0.05065646022558212, 0.3230210542678833, -0.1414659023284912, -0.006903523113578558, -0.0680769607424736, 0.999268114566803, -0.0762992575764656, -0.10231781005859375, 1.487548828125, 1.46337890625, 0.1270751953125, 1.7197265625
579588, 0.3338491916656494, -1.2189154624938965, 0.4139500558376312, 14.091965675354004, -3.8777236938476562, -3.0849270820617676, 2.0829436779022217, -0.57332444190979, -0.32411783933639526, 0.0065774209797382355, 0.10888928920030594, 0.24063721299171448, -1.740899959669104, 1.4003095581870468, -18.555912145356054, 9362.0, 39321.0, 35388.0, 9362.0, 8.211570739746094, 0.11774393171072006, 0.019874202087521553, -0.09555741399526596, -0.006903523113578558, -0.0680769607424736, 0.999268114566803, -0.08005951344966888, -0.08439826965332031, 1.489013671875, 1.48095703125, 0.1587677001953125, 1.7197265625
579608, 0.33368057012557983, -1.2183594703674316, 0.4124169945716858, 14.091965675354004, -3.8777236938476562, -3.0849270820617676, 2.0829436779022217, -0.57332444190979, -0.32411783933639526, 0.006592267658561468, 0.10887704789638519, 0.2406301498413086, -1.7870219900981332, 1.3845913460453119, -18.552948972746684, 9362.0, 39321.0, 35388.0, 9362.0, 8.211570739746094, 0.03521260619163513, 0.24586807191371918, 0.3448031544685364, -0.006903523113578558, -0.0680769607424736, 0.999268114566803, -0.07685164362192154, -0.09335899353027344, 1.48828125, 1.346923828125, 0.015472412109375, 1.717529296875
579618, 0.33328720927238464, -1.2200369834899902, 0.4139261841773987, 14.091965675354004, -3.8777236938476562, -3.0849270820617676, 2.0829436779022217, -0.57332444190979, -0.32411783933639526, 0.0073600877076387405, 0.10884159803390503, 0.24172928929328918, -1.722917509704284, 1.427623800562941, -18.574471705812634, 9362.0, 39321.0, 35388.0, 9362.0, 8.211570739746094, 0.017772410064935684, -0.29256463050842285, -0.14354729652404785, -0.006903523113578558, -0.0680769607424736, 0.999268114566803, -0.07225272059440613, -0.15607833862304688, 1.483154296875, 1.346923828125, 0.015472412109375, 1.717529296875
579628, 0.333424836397171, -1.2186100482940674, 0.4134998917579651, 14.091965675354004, -3.8777236938476562, -3.0849270820617676, 2.0829436779022217, -0.57332444190979, -0.32411783933639526, 0.006577612366527319, 0.10886718332767487, 0.24065180122852325, -1.7991984281824527, 1.4206201060096362, -18.544579472608675, 9362.0, 39321.0, 35388.0, 9362.0, 8.211570739746094, 0.017772410064935684, -0.29256463050842285, -0.14354729652404785, -0.006903523113578558, -0.0680769607424736, 0.999268114566803, -0.07223857939243317, -0.15607833862304688, 1.483154296875, 1.346923828125, 0.015472412109375, 1.718994140625
579638, 0.33457672595977783, -1.2185451984405518, 0.41236987709999084, 14.091965675354004, -3.8777236938476562, -3.0849270820617676, 2.0829436779022217, -0.57332444190979, -0.32411783933639526, 0.006587588228285313, 0.10887739062309265, 0.2406216561794281, -1.805033820524611, 1.420787368793924, -18.530407508022506, 9362.0, 39321.0, 35388.0, 9362.0, 8.211570739746094, 0.017772410064935684, -0.29256463050842285, -0.14354729652404785, -0.006903523113578558, -0.0680769607424736, 0.999268114566803, -0.07223857939243317, -0.15607833862304688, 1.483154296875, 1.3154296875, 0.03118896484375, 1.7197265625
579658, 0.3357807695865631, -1.221602439880371, 0.41191425919532776, 14.091965675354004, -3.8777236938476562, -3.0849270820617676, 2.0829436779022217, -0.57332444190979, -0.32411783933639526, 0.006590178702026606, 0.10886351764202118, 0.2405962347984314, -1.7934379168113166, 1.4258022629922777, -18.54886208773015, 9362.0, 39321.0, 35388.0, 9362.0, 8.211570739746094, -0.05265801399946213, 0.12462347000837326, -0.10915838181972504, -0.006903523113578558, -0.0680769607424736, 0.999268114566803, -0.07124190777540207, -0.06647872924804688, 1.490478515625, 1.3095703125, 0.037139892578125, 1.721923828125
579668, 0.33481916785240173, -1.22151780128479, 0.4132640063762665, 14.091965675354004, -3.8777236938476562, -3.0849270820617676, 2.0829436779022217, -0.57332444190979, -0.32411783933639526, 0.00658079981803894, 0.10886505991220474, 0.24064195156097412, -1.8046462645651404, 1.4220644990141977, -18.53668692198196, 9362.0, 39321.0, 35388.0, 9362.0, 8.211570739746094, -0.05265801399946213, 0.12462347000837326, -0.10915838181972504, -0.006903523113578558, -0.0680769607424736, 0.999268114566803, -0.07124190777540207, -0.06647872924804688, 1.490478515625, 1.3095703125, 0.037139892578125, 1.490478515625
579678, 0.33549439907073975, -1.2181339263916016, 0.411980003118515, 14.091965675354004, -3.8777236938476562, -3.0849270820617676, 2.0829436779022217, -0.57332444190979, -0.32411783933639526, 0.006594518199563026, 0.10887257009744644, 0.24062585830688477, -1.802134478582193, 1.397369994309031, -18.545516714243824, 9362.0, 39321.0, 35388.0, 9362.0, 8.211570739746094, 0.37279871106147766, 0.4764217138290405, -0.1139851063489914, -0.006903523113578558, -0.0680769607424736, 0.999268114566803, -0.021668653935194016, -0.13815879821777344, 1.484619140625, 1.3095703125, 0.037139892578125, 1.7197265625
579698, 0.33794689178466797, -1.223915696144104, 0.41258272528648376, 14.091965675354004, -3.8777236938476562, -3.0849270820617676, 2.0829436779022217, -0.57332444190979, -0.32411783933639526, 0.0065764752216637135, 0.10889223963022232, 0.2406291514635086, -1.7871250776970216, 1.3739579229927017, -18.542722355770962, 9362.0, 39321.0, 35388.0, 9362.0, 8.211570739746094, 0.07835567742586136, 0.22262178361415863, 0.08248980343341827, -0.006903523113578558, -0.0680769607424736, 0.999268114566803, -0.04833805188536644, -0.09335899353027344, 1.48828125, 1.3095703125, 0.037139892578125, 1.7197265625
579708, 0.3384339511394501, -1.2237284183502197, 0.4113621413707733, 14.091965675354004, -3.8777236938476562, -3.0849270820617676, 2.0829436779022217, -0.57332444190979, -0.32411783933639526, 0.006605447269976139, 0.10887227207422256, 0.24065065383911133, -1.8025262005022011, 1.4271066017923886, -18.562834121443426, 9362.0, 39321.0, 35388.0, 9362.0, 8.211570739746094, 0.07835567742586136, 0.22262178361415863, 0.08248980343341827, -0.006903523113578558, -0.0680769607424736, 0.999268114566803, -0.08607824146747589, -0.13815879821777344, 1.484619140625, 1.37841796875, 0.023406982421875, 1.7197265625
579758, 0.3399950861930847, -1.2228633165359497, 0.4136399030685425, 14.640575408935547, -4.028659343719482, -3.1699817180633545, 2.137188196182251, -0.5877758860588074, -0.3301762640476227, 0.006599282845854759, 0.10885420441627502, 0.2406710982322693, -1.763705145044685, 1.376119574346859, -18.537420317615126, 9362.0, 39321.0, 35388.0, 9362.0, 8.211570739746094, -0.07723212987184525, 0.13025301694869995, -0.03637673333287239, -0.0069640823639929295, -0.06420756876468658, 0.9961352348327637, -0.09425431489944458, -0.14711761474609375, 1.48388671875, 1.490478515625, 0.1768646240234375, 1.72119140625
579768, 0.3393658399581909, -1.2249572277069092, 0.4136556088924408, 14.640575408935547, -4.028659343719482, -3.1699817180633545, 2.137188196182251, -0.5877758860588074, -0.3301762640476227, 0.006596270948648453, 0.1088680848479271, 0.2406066507101059, -1.802652400412186, 1.4034454795099975, -18.564150141626698, 9362.0, 39321.0, 35388.0, 9362.0, 8.211570739746094, -0.07723212987184525, 0.13025301694869995, -0.03637673333287239, -0.0069640823639929295, -0.06420756876468658, 0.9961352348327637, -0.09425431489944458, -0.14711761474609375, 1.48388671875, 1.49560546875, 0.1868743896484375, 1.72265625
579778, 0.3389294743537903, -1.2261186838150024, 0.4115506708621979, 14.640575408935547, -4.028659343719482, -3.1699817180633545, 2.137188196182251, -0.5877758860588074, -0.3301762640476227, 0.006595910526812077, 0.10887673497200012, 0.24063533544540405, -1.7812413131367815, 1.4091496390998373, -18.541715815069775, 9362.0, 39321.0, 35388.0, 9362.0, 8.211570739746094, -0.07723212987184525, 0.13025301694869995, -0.03637673333287239, -0.0069640823639929295, -0.06420756876468658, 0.9961352348327637, -0.09425431489944458, -0.14711761474609375, 1.48388671875, 1.53369140625, 0.265960693359375, 1.71826171875
579788, 0.33814117312431335, -1.2263892889022827, 0.41193413734436035, 14.640575408935547, -4.028659343719482, -3.1699817180633545, 2.137188196182251, -0.5877758860588074, -0.3301762640476227, 0.006583234295248985, 0.10886875540018082, 0.24062801897525787, -1.7705642533793142, 1.41692085153241, -18.54669366181346, 9362.0, 39321.0, 35388.0, 9362.0, 8.211570739746094, -0.07723212987184525, 0.13025301694869995, -0.03637673333287239, -0.0069640823639929295, -0.06420756876468658, 0.9961352348327637, -0.058514554053545, -0.09335899353027344, 1.48828125, 1.53369140625, 0.265960693359375, 1.75341796875
579808, 0.33727169036865234, -1.2263156175613403, 0.4139377474784851, 14.640575408935547, -4.028659343719482, -3.1699817180633545, 2.137188196182251, -0.5877758860588074, -0.3301762640476227, 0.006593178026378155, 0.1088649109005928, 0.24060435593128204, -1.7921591137358983, 1.419747018779617, -18.56134800394456, 9362.0, 39321.0, 35388.0, 9362.0, 8.211570739746094, -0.0018791212933138013, -0.2705329954624176, -0.15372957289218903, -0.005609128624200821, -0.06777942925691605, 0.9977574944496155, -0.0373556949198246, -0.10231781005859375, 1.487548828125, 1.53369140625, 0.265960693359375, 1.765869140625
579828, 0.3380706310272217, -1.22752046585083, 0.4123375713825226, 14.640575408935547, -4.028659343719482, -3.1699817180633545, 2.137188196182251, -0.5877758860588074, -0.3301762640476227, 0.0065963189117610455, 0.10886511206626892, 0.2406446486711502, -1.8088588429750063, 1.390335320984292, -18.55879753306971, 9362.0, 39321.0, 35388.0, 9362.0, 8.211570739746094, -0.0018791212933138013, -0.2705329954624176, -0.15372957289218903, -0.005021672695875168, -0.06757102161645889, 0.9983634948730469, -0.04065155237913132, -0.11127853393554688, 1.48681640625, 1.53369140625, 0.265960693359375, 1.765869140625
579848, 0.33909517526626587, -1.2275551557540894, 0.4075820744037628, 14.640575408935547, -4.028659343719482, -3.1699817180633545, 2.137188196182251, -0.5877758860588074, -0.3301762640476227, 0.0065846070647239685, 0.10887136310338974, 0.24063901603221893, -1.8104914435813368, 1.4170871454682867, -18.550082777193502, 9362.0, 39321.0, 35388.0, 9362.0, 8.211570739746094, -0.0018791212933138013, -0.2705329954624176, -0.15372957289218903, -0.005021672695875168, -0.06757102161645889, 0.9983634948730469, -0.07091027498245239, -0.10231781005859375, 1.487548828125, 1.50146484375, 0.1985626220703125, 1.720458984375
579858, 0.33993175625801086, -1.2281372547149658, 0.40932050347328186, 14.640575408935547, -4.028659343719482, -3.1699817180633545, 2.137188196182251, -0.5877758860588074, -0.3301762640476227, 0.006586119532585144, 0.10886890441179276, 0.24061591923236847, -1.759058533487042, 1.3567949948540274, -18.539826632715275, 9362.0, 39321.0, 35388.0, 9362.0, 8.211570739746094, -0.0018791212933138013, -0.2705329954624176, -0.15372957289218903, -0.005021672695875168, -0.06757102161645889, 0.9983634948730469, -0.08440089225769043, -0.12023735046386719, 1.486083984375, 1.50146484375, 0.1985626220703125, 1.7197265625
579868, 0.33814865350723267, -1.227207899093628, 0.4084661304950714, 14.640575408935547, -4.028659343719482, -3.1699817180633545, 2.137188196182251, -0.5877758860588074, -0.3301762640476227, 0.00658620847389102, 0.10886944085359573, 0.24061965942382812, -1.796799891944558, 1.3948171920383743, -18.551180254979357, 9362.0, 39321.0, 35388.0, 9362.0, 8.211570739746094, -0.10173589736223221, 0.2754489481449127, 0.0778064876794815, -0.005021672695875168, -0.06757102161645889, 0.9983634948730469, -0.09291142225265503, -0.07543754577636719, 1.48974609375, 1.50146484375, 0.1985626220703125, 1.716064453125
579878, 0.338468462228775, -1.2283403873443604, 0.40863755345344543, 14.640575408935547, -4.028659343719482, -3.1699817180633545, 2.137188196182251, -0.5877758860588074, -0.3301762640476227, 0.006582621484994888, 0.10887419432401657, 0.24061737954616547, -1.7790815642572604, 1.3963882867417965, -18.554475353717883, 9362.0, 39321.0, 35388.0, 9362.0, 8.211570739746094, -0.10173589736223221, 0.2754489481449127, 0.0778064876794815, -0.005021672695875168, -0.06757102161645889, 0.9983634948730469, -0.10392116010189056, -0.1291980743408203, 1.4853515625, 1.50146484375, 0.1985626220703125, 1.723388671875
579898, 0.33785703778266907, -1.226436734199524, 0.41170573234558105, 14.640575408935547, -4.028659343719482, -3.1699817180633545, 2.137188196182251, -0.5877758860588074, -0.3301762640476227, 0.006581690162420273, 0.10886763781309128, 0.2406262755393982, -1.8113718001906502, 1.415082268366291, -18.549525130716077, 9362.0, 39321.0, 35388.0, 9362.0, 8.211570739746094, -0.009371493943035603, 0.16214750707149506, -0.06168152019381523, -0.005021672695875168, -0.06757102161645889, 0.9983634948730469, -0.1146010309457779, -0.11127853393554688, 1.48681640625, 1.335205078125, 0.018280029296875, 1.716796875
579908, 0.3384556770324707, -1.2292128801345825, 0.41212669014930725, 14.640575408935547, -4.028659343719482, -3.1699817180633545, 2.137188196182251, -0.5877758860588074, -0.3301762640476227, 0.006588781718164682, 0.10887015610933304, 0.24063973128795624, -1.789899443585978, 1.384053799337977, -18.5563832458642, 9362.0, 39321.0, 35388.0, 9362.0, 8.211570739746094, -0.009371493943035603, 0.16214750707149506, -0.06168152019381523, -0.005021672695875168, -0.06757102161645889, 0.9983634948730469, -0.11754845827817917, -0.20087814331054688, 1.4794921875, 1.314697265625, 0.0319061279296875, 1.716796875
579918, 0.3399135172367096, -1.2297496795654297, 0.4115161597728729, 14.640575408935547, -4.028659343719482, -3.1699817180633545, 2.137188196182251, -0.5877758860588074, -0.3301762640476227, 0.007358049042522907, 0.10884741693735123, 0.24169208109378815, -1.753591154634193, 1.412652042919916, -18.565827185714692, 9362.0, 39321.0, 35388.0, 9362.0, 8.211570739746094, -0.009371493943035603, 0.16214750707149506, -0.06168152019381523, -0.005021672695875168, -0.06757102161645889, 0.9983634948730469, -0.1202968880534172, -0.12023735046386719, 1.486083984375, 1.314697265625, 0.0319061279296875, 1.716796875
579928, 0.34067460894584656, -1.2314271926879883, 0.41219496726989746, 14.640575408935547, -4.028659343719482, -3.1699817180633545, 2.137188196182251, -0.5877758860588074, -0.3301762640476227, 0.006607539020478725, 0.10886962711811066, 0.24061644077301025, -1.7959064092010995, 1.4137008543416698, -18.559084380962847, 9362.0, 39321.0, 35388.0, 9362.0, 8.211570739746094, 0.14277976751327515, 0.013333190232515335, -0.10521230846643448, -0.005021672695875168, -0.06757102161645889, 0.9983634948730469, -0.12100344896316528, -0.14711761474609375, 1.48388671875, 1.314697265625, 0.0319061279296875, 1.718994140625
579948, 0.34353095293045044, -1.2320393323898315, 0.4108675420284271, 14.640575408935547, -4.028659343719482, -3.1699817180633545, 2.137188196182251, -0.5877758860588074, -0.3301762640476227, 0.006598214153200388, 0.10886672139167786, 0.24061369895935059, -1.7949703270734316, 1.4174931338479269, -18.55010519024276, 9362.0, 39321.0, 35388.0, 9362.0, 8.211570739746094, 0.1898295283317566, -0.05725432559847832, 0.09066437184810638, -0.005021672695875168, -0.06757102161645889, 0.9983634948730469, -0.12275129556655884, -0.1291980743408203, 1.4853515625, 1.3125, 0.034027099609375, 1.7197265625
579968, 0.34378737211227417, -1.2344298362731934, 0.41518673300743103, 14.640575408935547, -4.028659343719482, -3.1699817180633545, 2.137188196182251, -0.5877758860588074, -0.3301762640476227, 0.00660143094137311, 0.10885900259017944, 0.2406264692544937, -1.7799166159511361, 1.3807502590146612, -18.563532371912956, 9362.0, 39321.0, 35388.0, 9362.0, 8.211570739746094, 0.11033841222524643, -0.16777576506137848, 0.2624083459377289, -0.005021672695875168, -0.06757102161645889, 0.9983634948730469, -0.12592272460460663, -0.05751800537109375, 1.4912109375, 1.311767578125, 0.0348052978515625, 1.72119140625
579978, 0.3448076546192169, -1.2341551780700684, 0.4144041836261749, 14.640575408935547, -4.028659343719482, -3.1699817180633545, 2.137188196182251, -0.5877758860588074, -0.3301762640476227, 0.007373944390565157, 0.10884509235620499, 0.24170377850532532, -1.7193923767733348, 1.3977074727751528, -18.58133189039746, 9362.0, 39321.0, 35388.0, 9362.0, 8.211570739746094, 0.11033841222524643, -0.16777576506137848, 0.2624083459377289, -0.005021672695875168, -0.06757102161645889, 0.9983634948730469, -0.11433154344558716, -0.1291980743408203, 1.4853515625, 1.31689453125, 0.0298919677734375, 1.7197265625
579988, 0.34421348571777344, -1.2335501909255981, 0.4151459336280823, 14.640575408935547, -4.028659343719482, -3.1699817180633545, 2.137188196182251, -0.5877758860588074, -0.3301762640476227, 0.006610413081943989, 0.10887185484170914, 0.2405884712934494, -1.771297924968964, 1.4119808929673638, -18.554870081511236, 9362.0, 39321.0, 35388.0, 9362.0, 8.211570739746094, 0.11033841222524643, -0.16777576506137848, 0.2624083459377289, -0.005021672695875168, -0.06757102161645889, 0.9983634948730469, -0.11075368523597717, -0.13815879821777344, 1.484619140625, 1.31689453125, 0.0298919677734375, 1.72412109375
579998, 0.3443942666053772, -1.2369012832641602, 0.4146858751773834, 14.640575408935547, -4.028659343719482, -3.1699817180633545, 2.137188196182251, -0.5877758860588074, -0.3301762640476227, 0.006595970597118139, 0.1088671162724495, 0.2406160831451416, -1.8093254101054543, 1.4124810725230361, -18.558896475260873, 9362.0, 39321.0, 35388.0, 9362.0, 8.211570739746094, 0.11033841222524643, -0.16777576506137848, 0.2624083459377289, -0.005021672695875168, -0.06757102161645889, 0.9983634948730469, -0.1084330603480339, -0.10231781005859375, 1.487548828125, 1.31689453125, 0.0298919677734375, 1.72412109375
580008, 0.3442269265651703, -1.237247347831726, 0.41409674286842346, 14.640575408935547, -4.028659343719482, -3.1699817180633545, 2.137188196182251, -0.5877758860588074, -0.3301762640476227, 0.0066010248847305775, 0.10887548327445984, 0.24062445759773254, -1.800352532947548, 1.4074996694776587, -18.550263041979544, 9362.0, 39321.0, 35388.0, 9362.0, 8.211570739746094, 0.08699692040681839, 0.05466258525848389, 0.08969366550445557, -0.005021672695875168, -0.06757102161645889, 0.9983634948730469, -0.11033692955970764, -0.11127853393554688, 1.48681640625, 1.341064453125, 0.01654052734375, 1.72412109375
580018, 0.3443656861782074, -1.2384722232818604, 0.4142855107784271, 14.640575408935547, -4.028659343719482, -3.1699817180633545, 2.137188196182251, -0.5877758860588074, -0.3301762640476227, 0.006590280681848526, 0.10887672007083893, 0.24060842394828796, -1.8101134328751856, 1.4579273569983968, -18.537287461289594, 9362.0, 39321.0, 35388.0, 9362.0, 8.211570739746094, 0.08699692040681839, 0.05466258525848389, 0.08969366550445557, -0.005021672695875168, -0.06757102161645889, 0.9983634948730469, -0.1078450158238411, -0.10231781005859375, 1.487548828125, 1.341064453125, 0.01654052734375, 1.749755859375
580038, 0.3441568911075592, -1.2435686588287354, 0.4158369302749634, 14.640575408935547, -4.028659343719482, -3.1699817180633545, 2.137188196182251, -0.5877758860588074, -0.3301762640476227, 0.006597121246159077, 0.10887279361486435, 0.24060913920402527, -1.818253046669409, 1.398310966759169, -18.55210882527069, 9362.0, 39321.0, 35388.0, 9362.0, 8.211570739746094, 0.03198259323835373, 0.6084561347961426, 0.08350464701652527, -0.005021672695875168, -0.06757102161645889, 0.9983634948730469, -0.11004918068647385, -0.12023735046386719, 1.486083984375, 1.3212890625, 0.026214599609375, 1.72119140625
580048, 0.34464627504348755, -1.2431888580322266, 0.416240394115448, 14.640575408935547, -4.028659343719482, -3.1699817180633545, 2.137188196182251, -0.5877758860588074, -0.3301762640476227, 0.006603272631764412, 0.10887909680604935, 0.2405959665775299, -1.7981004591676437, 1.3614138386736556, -18.564633278143887, 9362.0, 39321.0, 35388.0, 9362.0, 8.211570739746094, -0.15454688668251038, 0.15426942706108093, -0.10211853682994843, -0.005021672695875168, -0.06757102161645889, 0.9983634948730469, -0.11446475982666016, -0.09335899353027344, 1.48828125, 1.3212890625, 0.026214599609375, 1.72119140625
580058, 0.3443075120449066, -1.2455708980560303, 0.41516104340553284, 14.640575408935547, -4.028659343719482, -3.1699817180633545, 2.137188196182251, -0.5877758860588074, -0.3301762640476227, 0.006614329759031534, 0.1088743805885315, 0.24061892926692963, -1.7938449610233616, 1.4239554270178019, -18.553325676913477, 9362.0, 39321.0, 35388.0, 9362.0, 8.211570739746094, -0.15454688668251038, 0.15426942706108093, -0.10211853682994843, -0.005021672695875168, -0.06757102161645889, 0.9983634948730469, -0.11446475982666016, -0.09335899353027344, 1.48828125, 1.33740234375, 0.0175323486328125, 1.72119140625
580068, 0.3448311686515808, -1.2464622259140015, 0.4164187014102936, 14.640575408935547, -4.028659343719482, -3.1699817180633545, 2.137188196182251, -0.5877758860588074, -0.3301762640476227, 0.006601983681321144, 0.10886650532484055, 0.24060215055942535, -1.7942360406625464, 1.4313421966022588, -18.553966435145913, 9362.0, 39321.0, 35388.0, 9362.0, 8.211570739746094, -0.15454688668251038, 0.15426942706108093, -0.10211853682994843, -0.005021672695875168, -0.06757102161645889, 0.9983634948730469, -0.11468178033828735, -0.11127853393554688, 1.48681640625, 1.33740234375, 0.0175323486328125, 1.720458984375
580078, 0.34483131766319275, -1.244696855545044, 0.41550931334495544, 14.640575408935547, -4.028659343719482, -3.1699817180633545, 2.137188196182251, -0.5877758860588074, -0.3301762640476227, 0.006607553921639919, 0.10887101292610168, 0.2406514585018158, -1.7901258803253792, 1.4267178116927823, -18.547298900605746, 9362.0, 39321.0, 35388.0, 9362.0, 8.211570739746094, -0.15454688668251038, 0.15426942706108093, -0.10211853682994843, -0.005021672695875168, -0.06757102161645889, 0.9983634948730469, -0.10170863568782806, -0.14711761474609375, 1.48388671875, 1.33740234375, 0.0175323486328125, 1.72412109375
580088, 0.34531474113464355, -1.2439621686935425, 0.41657304763793945, 14.640575408935547, -4.028659343719482, -3.1699817180633545, 2.137188196182251, -0.5877758860588074, -0.3301762640476227, 0.006604677997529507, 0.10886911302804947, 0.24061794579029083, -1.8014313941262472, 1.4409157297290562, -18.539812302585286, 9362.0, 39321.0, 35388.0, 9362.0, 8.211570739746094, -0.15454688668251038, 0.15426942706108093, -0.10211853682994843, -0.005021672695875168, -0.06757102161645889, 0.9983634948730469, -0.09062163531780243, -0.1739978790283203, 1.481689453125, 1.320556640625, 0.02685546875, 1.72412109375
580108, 0.34669730067253113, -1.2462571859359741, 0.4169098138809204, 14.640575408935547, -4.028659343719482, -3.1699817180633545, 2.137188196182251, -0.5877758860588074, -0.3301762640476227, 0.006584337912499905, 0.10886748135089874, 0.24059118330478668, -1.7875370523634764, 1.404707535094417, -18.546090450853807, 9362.0, 39321.0, 35388.0, 9362.0, 8.211570739746094, 0.027577588334679604, 0.03316944092512131, 0.24808092415332794, -0.005021672695875168, -0.06757102161645889, 0.9983634948730469, -0.07629469782114029, -0.030637741088867188, 1.493408203125, 1.319091796875, 0.0279998779296875, 1.72412109375
580118, 0.34649449586868286, -1.2465064525604248, 0.4190186560153961, 14.640575408935547, -4.028659343719482, -3.1699817180633545, 2.137188196182251, -0.5877758860588074, -0.3301762640476227, 0.006596988532692194, 0.10886802524328232, 0.24059836566448212, -1.7806083316175048, 1.3908141482846759, -18.548409589005136, 9362.0, 39321.0, 35388.0, 9362.0, 8.211570739746094, 0.027577588334679604, 0.03316944092512131, 0.24808092415332794, -0.005021672695875168, -0.06757102161645889, 0.9983634948730469, -0.06524206697940826, -0.10231781005859375, 1.487548828125, 1.319091796875, 0.0279998779296875, 1.720458984375
580138, 0.3467080891132355, -1.2484935522079468, 0.422018438577652, 14.640575408935547, -4.028659343719482, -3.1699817180633545, 2.137188196182251, -0.5877758860588074, -0.3301762640476227, 0.006616470403969288, 0.10887959599494934, 0.24062612652778625, -1.7975833380809685, 1.4164291783248188, -18.570148532495804, 9362.0, 39321.0, 35388.0, 9362.0, 8.211570739746094, -0.16094060242176056, 0.01795998401939869, 0.22847290337085724, -0.005021672695875168, -0.06757102161645889, 0.9983634948730469, -0.02536643296480179, -0.13815879821777344, 1.484619140625, 1.317626953125, 0.0291900634765625, 1.72265625
580148, 0.3466239869594574, -1.2506662607192993, 0.424373596906662, 14.640575408935547, -4.028659343719482, -3.1699817180633545, 2.137188196182251, -0.5877758860588074, -0.3301762640476227, 0.006592263467609882, 0.10886553674936295, 0.24060578644275665, -1.784050701034179, 1.4190056775617848, -18.54846556205649, 9362.0, 39321.0, 35388.0, 9362.0, 8.211570739746094, -0.16094060242176056, 0.01795998401939869, 0.22847290337085724, -0.005021672695875168, -0.06757102161645889, 0.9983634948730469, -0.03426491841673851, -0.11127853393554688, 1.48681640625, 1.317626953125, 0.0291900634765625, 1.72265625
580158, 0.34550169110298157, -1.2492533922195435, 0.4243886172771454, 14.640575408935547, -4.028659343719482, -3.1699817180633545, 2.137188196182251, -0.5877758860588074, -0.3301762640476227, 0.006611115299165249, 0.10887838155031204, 0.24063126742839813, -1.7888222149589315, 1.3762690437282288, -18.54689251758949, 9362.0, 39321.0, 35388.0, 9362.0, 8.211570739746094, -0.16094060242176056, 0.01795998401939869, 0.22847290337085724, -0.005021672695875168, -0.06757102161645889, 0.9983634948730469, -0.04908956587314606, -0.1291980743408203, 1.4853515625, 1.317626953125, 0.0291900634765625, 1.72119140625
580178, 0.3451771140098572, -1.2493261098861694, 0.42742919921875, 14.640575408935547, -4.028659343719482, -3.1699817180633545, 2.137188196182251, -0.5877758860588074, -0.3301762640476227, 0.006601050496101379, 0.10888263583183289, 0.24059775471687317, -1.7456747060942979, 1.3659925562140245, -18.554103331505143, 9362.0, 39321.0, 35388.0, 9362.0, 8.211570739746094, -0.11532139778137207, 0.1446784883737564, -0.05357138812541962, -0.005021672695875168, -0.06757102161645889, 0.9983634948730469, -0.04908956587314606, -0.1291980743408203, 1.4853515625, 1.326416015625, 0.022705078125, 1.714599609375
580188, 0.3450530171394348, -1.250999093055725, 0.4272666275501251, 14.640575408935547, -4.028659343719482, -3.1699817180633545, 2.137188196182251, -0.5877758860588074, -0.3301762640476227, 0.006597105413675308, 0.10887440294027328, 0.24060775339603424, -1.7744081044425928, 1.397840017360835, -18.55221452628096, 9362.0, 39321.0, 35388.0, 9362.0, 8.211570739746094, 0.2728426456451416, -0.011219067499041557, 0.06370007246732712, -0.005021672695875168, -0.06757102161645889, 0.9983634948730469, -0.04908956587314606, -0.1291980743408203, 1.4853515625, 1.31103515625, 0.0355682373046875, 1.714599609375
580198, 0.3466366231441498, -1.2510589361190796, 0.4285416603088379, 14.640575408935547, -4.028659343719482, -3.1699817180633545, 2.137188196182251, -0.5877758860588074, -0.3301762640476227, 0.0066101099364459515, 0.10886505246162415, 0.24064747989177704, -1.7916354102901604, 1.385312250895197, -18.55511424799746, 9362.0, 39321.0, 35388.0, 9362.0, 8.211570739746094, 0.2728426456451416, -0.011219067499041557, 0.06370007246732712, -0.005021672695875168, -0.06757102161645889, 0.9983634948730469, -0.08887869119644165, -0.11127853393554688, 1.48681640625, 1.31103515625, 0.0355682373046875, 1.73876953125
580208, 0.3478730320930481, -1.251226782798767, 0.42862468957901, 14.640575408935547, -4.028659343719482, -3.1699817180633545, 2.137188196182251, -0.5877758860588074, -0.3301762640476227, 0.00660821795463562, 0.10888504236936569, 0.24063830077648163, -1.7779959050272263, 1.4389628213072854, -18.547609254805238, 9362.0, 39321.0, 35388.0, 9362.0, 8.211570739746094, 0.2728426456451416, -0.011219067499041557, 0.06370007246732712, -0.005021672695875168, -0.06757102161645889, 0.9983634948730469, -0.09622504562139511, -0.18295860290527344, 1.48095703125, 1.3095703125, 0.037139892578125, 1.73876953125
580218, 0.3480464220046997, -1.2504671812057495, 0.4304324984550476, 14.640575408935547, -4.028659343719482, -3.1699817180633545, 2.137188196182251, -0.5877758860588074, -0.3301762640476227, 0.006613097153604031, 0.10888568311929703, 0.2406335175037384, -1.7851948242941629, 1.426276410014708, -18.55634377749628, 9362.0, 39321.0, 35388.0, 9362.0, 8.211570739746094, 0.2728426456451416, -0.011219067499041557, 0.06370007246732712, -0.005021672695875168, -0.06757102161645889, 0.9983634948730469, -0.10289124399423599, -0.14711761474609375, 1.48388671875, 1.3095703125, 0.037139892578125, 1.716064453125
580228, 0.3483540713787079, -1.250287652015686, 0.4303032457828522, 14.640575408935547, -4.028659343719482, -3.1699817180633545, 2.137188196182251, -0.5877758860588074, -0.3301762640476227, 0.0066155120730400085, 0.10886865854263306, 0.2406381368637085, -1.765508830033197, 1.3933751266993681, -18.557803763063326, 9362.0, 39321.0, 35388.0, 9362.0, 8.211570739746094, 0.2728426456451416, -0.011219067499041557, 0.06370007246732712, -0.005021672695875168, -0.06757102161645889, 0.9983634948730469, -0.10884059220552444, -0.07543754577636719, 1.48974609375, 1.311767578125, 0.0348052978515625, 1.716064453125
580238, 0.34832367300987244, -1.2517576217651367, 0.4293028712272644, 14.640575408935547, -4.028659343719482, -3.1699817180633545, 2.137188196182251, -0.5877758860588074, -0.3301762640476227, 0.006600671913474798, 0.10887202620506287, 0.2406010776758194, -1.7790716192609763, 1.3931222155429168, -18.537940376123235, 9362.0, 39321.0, 35388.0, 9362.0, 8.211570739746094, 0.2728426456451416, -0.011219067499041557, 0.06370007246732712, -0.005021672695875168, -0.06757102161645889, 0.9983634948730469, -0.11620030552148819, -0.1739978790283203, 1.481689453125, 1.311767578125, 0.0348052978515625, 1.720458984375
580258, 0.34865790605545044, -1.2554107904434204, 0.4297691881656647, 14.640575408935547, -4.028659343719482, -3.1699817180633545, 2.137188196182251, -0.5877758860588074, -0.3301762640476227, 0.006603908259421587, 0.10887300968170166, 0.24061857163906097, -1.7811252021032449, 1.404371854495821, -18.548169482602148, 9362.0, 39321.0, 35388.0, 9362.0, 8.211570739746094, 0.2728426456451416, -0.011219067499041557, 0.06370007246732712, -0.005021672695875168, -0.06757102161645889, 0.9983634948730469, -0.10795507580041885, -0.15607833862304688, 1.483154296875, 1.314697265625, 0.0319061279296875, 1.716064453125
580278, 0.34878435730934143, -1.2535738945007324, 0.42838090658187866, 14.640575408935547, -4.028659343719482, -3.1699817180633545, 2.137188196182251, -0.5877758860588074, -0.3301762640476227, 0.006583862937986851, 0.10886413604021072, 0.24062515795230865, -1.7691678255469274, 1.3717023053569335, -18.55117894100149, 9362.0, 39321.0, 35388.0, 9362.0, 8.211570739746094, 0.22662349045276642, 0.022530430927872658, -0.13965213298797607, -0.005021672695875168, -0.06757102161645889, 0.9983634948730469, -0.11133702099323273, -0.07543754577636719, 1.48974609375, 1.31689453125, 0.0298919677734375, 1.7197265625
