timeTick, roll, pitch, yaw, stateX, stateY, stateZ, stateVX, stateVY, stateVZ, otX0, otY0, otZ0, otRoll0, otPitch0, otYaw0, left wing, pitch motor, yaw motor, right wing, voltage, roll rate, pitch rate, yaw rate, A_x, A_y, A_z, current, i_raw, v_raw, airflow_voltage, airflow_speed, pot_Pitch
27559, 0.32114627957344055, 2.493924617767334, 1.8285657167434692, 0, 0, 0, 0, 0, 0, -0.04409508407115936, 0.11884435266256332, 0.23934966325759888, -1.2342820502659095, -1.1866277818916728, 17.493760495896236, 0, 0, 0, 0, 0, 0, 0, 0, 0, 0, 0, 0, 0, 0, 0, 0, 0
27569, 0.3209918737411499, 2.4952006340026855, 1.826194405555725, 0.000429197825724259, 6.92597241140902e-05, -13.473273277282715, 0.040797460824251175, 0.006583311595022678, -1.0383881330490112, -0.04405316337943077, 0.11881190538406372, 0.23932640254497528, -0.991908571571363, -1.2194003265213667, 17.491796896123848, 9362.0, 18349.0, 35388.0, 9362.0, 7.933885097503662, -0.02234690450131893, 0.36425846815109253, 0.27848848700523376, 0.01597709208726883, -0.07593204826116562, 0.9989741444587708, 0, 0, 0, 0, 0, 0
27579, 0.3205183446407318, 2.493584156036377, 1.8277534246444702, 0.0008159232093021274, 0.00013166316784918308, -13.483657836914062, 0.036547593772411346, 0.005897555500268936, -1.038460612297058, -0.044095948338508606, 0.11884605884552002, 0.23936985433101654, -1.257675778164276, -1.1623736997352978, 17.498664637153798, 9362.0, 18349.0, 35388.0, 9362.0, 7.9537200927734375, -0.17471179366111755, 0.0805538222193718, -0.034660231322050095, 0.017437554895877838, -0.07632173597812653, 0.99765944480896, -0.0991007536649704, -0.1739978790283203, 1.481689453125, 1.0400390625, 2.17547607421875, 1.1923828125
27589, 0.31926506757736206, 2.493535280227661, 1.8278614282608032, 0.0011601638980209827, 0.00018721494416240603, -13.494043350219727, 0.03230055794119835, 0.005212684161961079, -1.038648247718811, -0.04397483915090561, 0.1181907057762146, 0.23863942921161652, -1.4051248625935084, -1.1074585751308064, 17.7236010537759, 9362.0, 18349.0, 35388.0, 9362.0, 7.933885097503662, 0.11845359206199646, 0.008321539498865604, -0.09979499131441116, 0.018532099202275276, -0.0754697397351265, 0.9971659779548645, -0.09705051779747009, -0.10231781005859375, 1.487548828125, 1.02099609375, 2.53790283203125, 1.1953125
27599, 0.32032516598701477, 2.493445634841919, 1.8270422220230103, 0.0014619666617363691, 0.00023592490470036864, -13.504430770874023, 0.028059981763362885, 0.004529299680143595, -1.0389217138290405, -0.04410292208194733, 0.11884282529354095, 0.23937250673770905, -1.2070704310874711, -1.1717045204502199, 17.528210094267187, 9362.0, 18349.0, 35388.0, 9362.0, 7.9537200927734375, 0.01857004314661026, 0.14712488651275635, -0.0890679880976677, 0.01872551068663597, -0.0777762234210968, 0.9964776039123535, -0.09526527673006058, -0.12023735046386719, 1.486083984375, 1.018798828125, 2.5822601318359375, 1.1923828125
27609, 0.32141903042793274, 2.4913065433502197, 1.82564115524292, 0.0017213826067745686, 0.0002778147463686764, -13.514822006225586, 0.023823194205760956, 0.0038487326819449663, -1.0392824411392212, -0.04409616068005562, 0.1188562735915184, 0.23936766386032104, -1.2487618573007804, -1.1206816830925277, 17.539635907470142, 9362.0, 18349.0, 35388.0, 9362.0, 7.933885097503662, -0.008138864301145077, 0.014718218706548214, 0.27430570125579834, 0.016933292150497437, -0.07645191997289658, 0.9985711574554443, -0.09407166391611099, -0.09335899353027344, 1.48828125, 1.0224609375, 2.5086517333984375, 1.1953125
27619, 0.32054829597473145, 2.491730213165283, 1.8266472816467285, 0.001938446657732129, 0.00031289260368794203, -13.525217056274414, 0.01958956941962242, 0.0031669465824961662, -1.039711833000183, -0.044086944311857224, 0.11879400163888931, 0.23931190371513367, -1.027060336946944, -1.1758641837228367, 17.495938054732807, 9362.0, 18349.0, 35388.0, 9362.0, 7.933885097503662, 0.31748563051223755, 0.5169235467910767, 0.2278585284948349, 0.017703693360090256, -0.07607583701610565, 0.9970787167549133, -0.09627663344144821, -0.08439826965332031, 1.489013671875, 1.030517578125, 2.3518829345703125, 1.193115234375
27629, 0.32268813252449036, 2.488386869430542, 1.8280022144317627, 0.0021131562534719706, 0.0003411384823266417, -13.535615921020508, 0.01535237766802311, 0.002482152311131358, -1.0399727821350098, -0.04401373863220215, 0.11828575283288956, 0.23869451880455017, -1.6730722643648654, -1.0704441710384742, 17.733352697392665, 9362.0, 18349.0, 35388.0, 9362.0, 7.9537200927734375, 0.3789026439189911, -0.13404284417629242, 0.05775474011898041, 0.017970848828554153, -0.07404574006795883, 0.9978212714195251, -0.09193380177021027, -0.04855918884277344, 1.491943359375, 1.024658203125, 2.4651947021484375, 1.19091796875
27639, 0.3249141573905945, 2.488727569580078, 1.8295068740844727, 0.002245502546429634, 0.00036254533915780485, -13.54601764678955, 0.01111686322838068, 0.001799121149815619, -1.040290117263794, -0.04409315809607506, 0.11879835277795792, 0.23929867148399353, -1.0838835288630595, -1.1237488208292632, 17.505647765932434, 9362.0, 18349.0, 35388.0, 9362.0, 7.9537200927734375, -0.02174857258796692, -0.126192107796669, -0.3633039593696594, 0.017444640398025513, -0.0758003443479538, 0.9980398416519165, -0.09123969823122025, -0.021678924560546875, 1.494140625, 1.0224609375, 2.5086517333984375, 1.1923828125
27649, 0.32469606399536133, 2.489500045776367, 1.8281482458114624, 0.0023355227895081043, 0.0003771040355786681, -13.556422233581543, 0.006887214723974466, 0.0011125103337690234, -1.0406075716018677, -0.044073160737752914, 0.11880388110876083, 0.2393062859773636, -1.0574923435685724, -1.1232341184958727, 17.502374745581836, 9362.0, 18349.0, 35388.0, 9362.0, 7.933885097503662, 0.06589046120643616, -0.18554039299488068, 0.11194540560245514, 0.017637500539422035, -0.07698525488376617, 0.9963116645812988, -0.09210649877786636, -0.030637741088867188, 1.493408203125, 1.018798828125, 2.5822601318359375, 1.19384765625
27659, 0.3261219263076782, 2.4907944202423096, 1.828603744506836, 0.002383234677836299, 0.00038477536872960627, -13.566829681396484, 0.0026551312766969204, 0.00042185510392300785, -1.0408796072006226, -0.04411036893725395, 0.11879637837409973, 0.2392757683992386, -1.0538284799199753, -1.1205584484366398, 17.5040281586243, 9362.0, 18349.0, 35388.0, 9362.0, 7.933885097503662, -0.03538708761334419, -0.19537453353405, -0.15481634438037872, 0.018111633136868477, -0.07619532942771912, 0.9981215596199036, -0.09162146598100662, -0.11127853393554688, 1.48681640625, 1.02099609375, 2.53790283203125, 1.19384765625
27669, 0.3251093327999115, 2.4928348064422607, 1.8277175426483154, 0.0023886533454060555, 0.00038554792990908027, -13.577240943908691, -0.0015713624889031053, -0.00026737115695141256, -1.041311502456665, -0.04407425597310066, 0.11878406256437302, 0.23925679922103882, -1.131895549947436, -1.116101151865962, 17.51166263028301, 9362.0, 18349.0, 35388.0, 9362.0, 7.933885097503662, 0.11003671586513519, 0.003652986604720354, -0.22371889650821686, 0.019175665453076363, -0.07612299919128418, 0.9976058602333069, -0.08900639414787292, -0.10231781005859375, 1.487548828125, 1.03857421875, 2.2020111083984375, 1.187255859375
27679, 0.3259880244731903, 2.4925591945648193, 1.8269134759902954, 0.0023517736699432135, 0.00037941179471090436, -13.587656021118164, -0.0058045899495482445, -0.0009597910102456808, -1.0416374206542969, -0.04400365427136421, 0.11828282475471497, 0.23869355022907257, -1.6097071496242974, -1.1440314592665857, 17.72427995511536, 9362.0, 18349.0, 35388.0, 9362.0, 7.9537200927734375, 0.09368469566106796, -0.1702939122915268, -0.18463614583015442, 0.018381964415311813, -0.07605282962322235, 0.9967169761657715, -0.08655505627393723, -0.08439826965332031, 1.489013671875, 1.024658203125, 2.4651947021484375, 1.189453125
27689, 0.32592976093292236, 2.4929850101470947, 1.8260153532028198, 0.0022725451271981, 0.0003663600655272603, -13.598073959350586, -0.010041149333119392, -0.0016504967352375388, -1.0419683456420898, -0.04409787058830261, 0.1188589558005333, 0.23938363790512085, -1.2084020026865838, -1.2157079087821785, 17.51723784425847, 9362.0, 18349.0, 35388.0, 9362.0, 7.933885097503662, -0.08837919682264328, -0.13394023478031158, 0.2938431203365326, 0.01757916808128357, -0.07562248408794403, 0.9983264803886414, -0.08618360757827759, -0.08439826965332031, 1.489013671875, 1.031982421875, 2.324127197265625, 1.193115234375
27699, 0.325748473405838, 2.49367618560791, 1.8278576135635376, 0.0021509728394448757, 0.0003463973116595298, -13.608495712280273, -0.014273329637944698, -0.0023419889621436596, -1.042388916015625, -0.044082168489694595, 0.11878731101751328, 0.23931436240673065, -1.0283812704593194, -1.2344456110608348, 17.492102966844758, 9362.0, 18349.0, 35388.0, 9362.0, 7.9537200927734375, 0.12394027411937714, -0.13399600982666016, -0.250279039144516, 0.01643206924200058, -0.07763312011957169, 1.0007282495498657, -0.08090551942586899, -0.01271820068359375, 1.494873046875, 1.0283203125, 2.39398193359375, 1.18798828125
27709, 0.32555705308914185, 2.494652509689331, 1.8261090517044067, 0.0019870479591190815, 0.0003195159079041332, -13.618921279907227, -0.018511639907956123, -0.0030344268307089806, -1.0426841974258423, -0.04407504200935364, 0.11878703534603119, 0.23929943144321442, -1.0955266114730349, -1.148242692079549, 17.501738620150462, 9362.0, 18349.0, 35388.0, 9362.0, 7.9537200927734375, -0.13317441940307617, 0.22739611566066742, -0.050879526883363724, 0.018243230879306793, -0.07619287073612213, 0.9967800974845886, -0.08556397259235382, -0.11127853393554688, 1.48681640625, 1.0224609375, 2.5086517333984375, 1.19384765625
27719, 0.3242506682872772, 2.4928972721099854, 1.8271340131759644, 0.0017806815449148417, 0.00028570223366841674, -13.629348754882812, -0.02276168204843998, -0.003728180658072233, -1.0427368879318237, -0.04409762844443321, 0.11878369748592377, 0.23927059769630432, -1.0803882479424987, -1.035538022165639, 17.50567183863257, 9362.0, 18349.0, 35388.0, 9362.0, 7.9537200927734375, 0.14183373749256134, -0.39639338850975037, -0.08634251356124878, 0.0146534638479352, -0.0750259980559349, 0.9977614283561707, -0.08351949602365494, -0.11127853393554688, 1.48681640625, 1.024658203125, 2.4651947021484375, 1.193115234375
27729, 0.32531580328941345, 2.495504856109619, 1.8262522220611572, 0.0015318576479330659, 0.00024496144033037126, -13.639777183532715, -0.027003081515431404, -0.004420056473463774, -1.043027400970459, -0.04409671947360039, 0.11880572140216827, 0.23926497995853424, -1.1057240119934135, -1.099811640349941, 17.526113256794133, 9362.0, 18349.0, 35388.0, 9362.0, 7.933885097503662, -0.2095123827457428, -0.024067698046565056, 0.05841098353266716, 0.015094644390046597, -0.0741741806268692, 0.9994277954101562, -0.08575613796710968, -0.08439826965332031, 1.489013671875, 1.024658203125, 2.4651947021484375, 1.1923828125
27739, 0.32422012090682983, 2.496138572692871, 1.8254667520523071, 0.0012406476307660341, 0.0001973152975551784, -13.650209426879883, -0.03123890422284603, -0.005109102930873632, -1.0433790683746338, -0.044085413217544556, 0.11878608167171478, 0.23929350078105927, -1.03925809909324, -1.1460264042756592, 17.513267125127072, 9362.0, 18349.0, 35388.0, 9362.0, 7.933885097503662, 0.18872278928756714, -0.029249850660562515, -0.26607224345207214, 0.019732525572180748, -0.07729897648096085, 0.9976415634155273, -0.08664257824420929, -0.07543754577636719, 1.48974609375, 1.0693359375, 1.6899566650390625, 1.193115234375
27749, 0.3251352906227112, 2.497379779815674, 1.824035882949829, 0.0009070216910913587, 0.00014276336878538132, -13.66064453125, -0.03548629209399223, -0.005801222287118435, -1.0435659885406494, -0.04408916458487511, 0.11886510998010635, 0.23937873542308807, -1.2431790272574257, -1.1987393876463557, 17.52011116552658, 9362.0, 18349.0, 35388.0, 9362.0, 7.933885097503662, 0.09153269976377487, -0.2018619328737259, 0.04541056230664253, 0.018243661150336266, -0.07572056353092194, 0.9962111115455627, -0.08834420144557953, -0.12023735046386719, 1.486083984375, 1.100830078125, 1.2566680908203125, 1.191650390625
27759, 0.3254680335521698, 2.4984254837036133, 1.8238657712936401, 0.0005309240659698844, 8.130104106385261e-05, -13.67108154296875, -0.03973323851823807, -0.0064911372028291225, -1.0437891483306885, -0.0440768301486969, 0.11877764016389847, 0.2392876148223877, -1.043455029943826, -1.152277291902294, 17.502498515000322, 9362.0, 18349.0, 35388.0, 9362.0, 7.933885097503662, 0.17038750648498535, -0.3287926912307739, -0.19851438701152802, 0.01802988164126873, -0.07582666724920273, 0.9991534948348999, -0.08869090676307678, -0.06647872924804688, 1.490478515625, 1.100830078125, 1.2566680908203125, 1.1923828125
27769, 0.32623425126075745, 2.5003464221954346, 1.8225876092910767, 0.00011240242747589946, 1.294103276450187e-05, -13.68152141571045, -0.043971072882413864, -0.007180850021541119, -1.0442705154418945, -0.04399941861629486, 0.11820603162050247, 0.23866261541843414, -1.4340747043284838, -1.1271113924858582, 17.738923745029908, 9362.0, 18349.0, 35388.0, 9362.0, 7.933885097503662, 0.05423881858587265, 0.1583380103111267, 0.2756187915802002, 0.018522262573242188, -0.07599085569381714, 0.9992371201515198, -0.09059137850999832, -0.08439826965332031, 1.489013671875, 1.094970703125, 1.3307952880859375, 1.19677734375
27779, 0.32719433307647705, 2.4986302852630615, 1.8249468803405762, -0.00034854805562645197, -6.23259402345866e-05, -13.691965103149414, -0.04821903258562088, -0.007872449234127998, -1.0445598363876343, -0.04399559274315834, 0.11829886585474014, 0.23871108889579773, -1.6011140716341548, -1.138920400472898, 17.71773585624523, 9362.0, 18349.0, 35388.0, 9362.0, 7.933885097503662, -0.05900990590453148, -0.05549144744873047, 0.18439604341983795, 0.0174235999584198, -0.07585016638040543, 0.9970892667770386, -0.09028653055429459, -0.04855918884277344, 1.491943359375, 1.0986328125, 1.2841033935546875, 1.194580078125
27789, 0.32769307494163513, 2.4989073276519775, 1.8262192010879517, -0.0008520273840986192, -0.00014452089089900255, -13.702411651611328, -0.05247681960463524, -0.008566715754568577, -1.0446969270706177, -0.04341597110033035, 0.11849290132522583, 0.2398138791322708, -1.0736622439942405, -1.4257611339279492, 17.648438082668115, 9362.0, 18349.0, 35388.0, 9362.0, 7.933885097503662, 0.04333030804991722, 0.1830141544342041, 0.016643118113279343, 0.01654413342475891, -0.07342881709337234, 0.9956551790237427, -0.09186114370822906, -0.09335899353027344, 1.48828125, 1.1044921875, 1.2117767333984375, 1.1923828125
27799, 0.3275213837623596, 2.498384952545166, 1.8267053365707397, -0.0013980269432067871, -0.0002336601901333779, -13.712860107421875, -0.05672308802604675, -0.00926123559474945, -1.0450299978256226, -0.04401925206184387, 0.11821642518043518, 0.2386242002248764, -1.483498808528913, -1.0585479530529085, 17.7352628059188, 9362.0, 18349.0, 35388.0, 9362.0, 7.933885097503662, 0.044639814645051956, 0.16462233662605286, 0.11108174920082092, 0.01842471770942211, -0.07613413780927658, 0.9977025389671326, -0.0984949991106987, -0.14711761474609375, 1.48388671875, 1.100830078125, 1.2566680908203125, 1.19384765625
27809, 0.327185720205307, 2.497168779373169, 1.8283934593200684, -0.0019864479545503855, -0.0003297423536423594, -13.723313331604004, -0.060961149632930756, -0.009955239482223988, -1.0455626249313354, -0.0441005602478981, 0.11877632141113281, 0.23927688598632812, -1.040721690859546, -1.1636933808311767, 17.506288116215984, 9362.0, 18349.0, 35388.0, 9362.0, 7.933885097503662, 0.06044190749526024, -0.19413477182388306, -0.32256582379341125, 0.0173794012516737, -0.07782985270023346, 0.9982662200927734, -0.09874270856380463, -0.10231781005859375, 1.487548828125, 1.1044921875, 1.2117767333984375, 1.1923828125
27819, 0.3279271423816681, 2.498293876647949, 1.826886773109436, -0.0026172841899096966, -0.00043276953510940075, -13.733770370483398, -0.06520607322454453, -0.010650319047272205, -1.0459156036376953, -0.043998610228300095, 0.11819905787706375, 0.2385954111814499, -1.4487185224209442, -1.040649398619962, 17.728791098738764, 9362.0, 18349.0, 35388.0, 9362.0, 7.933885097503662, -0.024209488183259964, -0.3745292127132416, -0.3205013871192932, 0.017431994900107384, -0.0770367980003357, 0.9981013536453247, -0.09634112566709518, -0.06647872924804688, 1.490478515625, 1.0986328125, 1.2841033935546875, 1.1923828125
27829, 0.3278091847896576, 2.499525785446167, 1.8252620697021484, -0.0032905819825828075, -0.0005427486612461507, -13.744231224060059, -0.06945348531007767, -0.011345390230417252, -1.0461643934249878, -0.044117867946624756, 0.1188599094748497, 0.23934783041477203, -1.2599588878525492, -1.1582761349465613, 17.540813763968274, 9362.0, 18349.0, 35388.0, 9362.0, 7.933885097503662, 0.06472978740930557, 0.19914714992046356, 0.371029794216156, 0.017688633874058723, -0.07803978770971298, 0.9979573488235474, -0.09685295075178146, -0.10231781005859375, 1.487548828125, 1.102294921875, 1.23858642578125, 1.1923828125
27839, 0.3274475634098053, 2.4978256225585938, 1.8280682563781738, -0.004006355535238981, -0.0006596832536160946, -13.754693984985352, -0.07370121777057648, -0.012041409499943256, -1.0464500188827515, -0.04408397898077965, 0.11879989504814148, 0.23927754163742065, -1.0698272485398255, -1.1498637626590948, 17.51988092261835, 9362.0, 18349.0, 35388.0, 9362.0, 7.933885097503662, 0.009092731401324272, -0.1395227462053299, -0.023015053942799568, 0.01659662462770939, -0.07755845040082932, 0.9972140789031982, -0.09456459432840347, -0.10231781005859375, 1.487548828125, 1.1044921875, 1.2117767333984375, 1.196044921875
27859, 0.3278478682041168, 2.498373031616211, 1.8290953636169434, -0.00556533969938755, -0.0009144250652752817, -13.775629043579102, -0.08219592273235321, -0.013432650826871395, -1.0470681190490723, -0.044082459062337875, 0.11878488212823868, 0.2392917275428772, -1.074249907023632, -1.137142146357661, 17.488597567874553, 9362.0, 18349.0, 35388.0, 9362.0, 7.933885097503662, -0.055935122072696686, 0.04394281655550003, -0.06141851097345352, 0.018251052126288414, -0.07845700532197952, 0.9979202151298523, -0.09456459432840347, -0.10231781005859375, 1.487548828125, 1.1044921875, 1.2117767333984375, 1.196044921875
27869, 0.32799991965293884, 2.4982495307922363, 1.8284168243408203, -0.006408540531992912, -0.0010522239608690143, -13.786101341247559, -0.08644423633813858, -0.014127095229923725, -1.0473687648773193, -0.043981727212667465, 0.11821027845144272, 0.23865993320941925, -1.406008633680092, -1.1145728401650956, 17.733143968370523, 9362.0, 18349.0, 35388.0, 9362.0, 7.933885097503662, -0.055935122072696686, 0.04394281655550003, -0.06141851097345352, 0.016871245577931404, -0.07505587488412857, 0.9973135590553284, -0.09456459432840347, -0.10231781005859375, 1.487548828125, 1.1044921875, 1.2117767333984375, 1.196044921875
27909, 0.329459011554718, 2.498197078704834, 1.8287017345428467, -0.010205980390310287, -0.0016730090137571096, -13.828022003173828, -0.10341494530439377, -0.016911853104829788, -1.0488349199295044, -0.04409851133823395, 0.11877740174531937, 0.2393117994070053, -1.0217016125497034, -1.1784007987884593, 17.516339024467268, 9362.0, 18349.0, 35388.0, 9362.0, 7.933885097503662, 0.008413325063884258, 0.13704350590705872, 0.13622599840164185, 0.01917240582406521, -0.0768589973449707, 0.9985185861587524, -0.09456459432840347, -0.10231781005859375, 1.487548828125, 1.1044921875, 1.2117767333984375, 1.196044921875
27919, 0.32995542883872986, 2.497373342514038, 1.8305729627609253, -0.011261350475251675, -0.0018456272082403302, -13.83851146697998, -0.1076589897274971, -0.017611674964427948, -1.0490870475769043, -0.043964825570583344, 0.1182212084531784, 0.23864537477493286, -1.4422025831218293, -1.1067834422220528, 17.7036037235519, 9362.0, 18349.0, 35388.0, 9362.0, 7.933885097503662, 0.008413325063884258, 0.13704350590705872, 0.13622599840164185, 0.017447378486394882, -0.07692981511354446, 0.9989924430847168, -0.09456459432840347, -0.10231781005859375, 1.487548828125, 1.1044921875, 1.2117767333984375, 1.196044921875
27929, 0.33015090227127075, 2.4992287158966064, 1.8324662446975708, -0.012359155341982841, -0.0020252347458153963, -13.849004745483398, -0.11190202832221985, -0.018309978768229485, -1.0494728088378906, -0.04401763156056404, 0.1182880699634552, 0.2386850118637085, -1.6452504693480003, -1.0520513171702532, 17.72686310244527, 9362.0, 18349.0, 35388.0, 9362.0, 7.933885097503662, 0.013071316294372082, 0.05313868820667267, -0.2875588834285736, 0.017447378486394882, -0.07692981511354446, 0.9989924430847168, -0.09456459432840347, -0.10231781005859375, 1.487548828125, 1.1044921875, 1.2117767333984375, 1.196044921875
27939, 0.33002808690071106, 2.499343156814575, 1.8306903839111328, -0.01349941547960043, -0.0022118352353572845, -13.859500885009766, -0.11615006625652313, -0.019010286778211594, -1.0497108697891235, -0.04399494454264641, 0.1182783916592598, 0.23873628675937653, -1.6216734958683432, -1.1600499720478865, 17.727433327894193, 9362.0, 18349.0, 35388.0, 9362.0, 7.933885097503662, -0.14321713149547577, -0.2289048433303833, -0.08201853185892105, 0.018636776134371758, -0.07676786929368973, 0.9966684579849243, -0.09456459432840347, -0.10231781005859375, 1.487548828125, 1.1044921875, 1.2117767333984375, 1.196044921875
27959, 0.3287353217601776, 2.4994428157806396, 1.833340048789978, -0.015907445922493935, -0.002606053603813052, -13.880499839782715, -0.12464892119169235, -0.020410772413015366, -1.0502734184265137, -0.04397578164935112, 0.11820390075445175, 0.2386644184589386, -1.3848100492845468, -1.1636985858830542, 17.729526431770484, 9362.0, 18349.0, 35388.0, 9362.0, 7.933885097503662, -0.14321713149547577, -0.2289048433303833, -0.08201853185892105, 0.01832754723727703, -0.07657259702682495, 0.9977061748504639, -0.09456459432840347, -0.10231781005859375, 1.487548828125, 1.1044921875, 1.2117767333984375, 1.196044921875
27969, 0.3294433653354645, 2.5024354457855225, 1.831503987312317, -0.015907445922493935, -0.002606053603813052, -13.880499839782715, -0.12464892119169235, -0.020410772413015366, -1.0502734184265137, -0.044120099395513535, 0.11885467171669006, 0.23938816785812378, -1.2333283435027433, -1.191424967182627, 17.517199131847697, 9362.0, 18349.0, 35388.0, 9362.0, 7.933885097503662, -0.00017874308105092496, -0.28608694672584534, -0.12788529694080353, 0.01832754723727703, -0.07657259702682495, 0.9977061748504639, -0.09456459432840347, -0.10231781005859375, 1.487548828125, 1.1044921875, 1.2117767333984375, 1.196044921875
28009, 0.3301575481891632, 2.5083539485931396, 1.8333468437194824, -0.022671442478895187, -0.0037139393389225006, -13.933050155639648, -0.14591732621192932, -0.023904239758849144, -1.0518629550933838, -0.04409151151776314, 0.11879770457744598, 0.23932281136512756, -1.0528271099094977, -1.1407805980666978, 17.51591589084357, 9362.0, 18349.0, 35388.0, 9362.0, 7.933885097503662, 0.2045392245054245, -0.21066798269748688, 0.1725706309080124, 0.016300255432724953, -0.0767139345407486, 0.9962020516395569, -0.09456459432840347, -0.10231781005859375, 1.487548828125, 1.03271484375, 2.3103179931640625, 1.196044921875
28049, 0.32887235283851624, 2.514887571334839, 1.8354015350341797, -0.02884882688522339, -0.004726068116724491, -13.975157737731934, -0.16297367215156555, -0.026703741401433945, -1.0531519651412964, -0.044094838201999664, 0.11879932880401611, 0.23930056393146515, -1.1142077919962534, -1.0731569583287808, 17.49843201846673, 9362.0, 18349.0, 35388.0, 9362.0, 7.933885097503662, 0.024733226746320724, 0.06753046810626984, -0.0018829844193533063, 0.016871845349669456, -0.07490807771682739, 0.99680095911026, -0.09456459432840347, -0.10231781005859375, 1.487548828125, 1.03271484375, 2.3103179931640625, 1.196044921875
28099, 0.3307572901248932, 2.515613079071045, 1.833004355430603, -0.037531036883592606, -0.006148509681224823, -14.027868270874023, -0.18431586027145386, -0.030196750536561012, -1.055351734161377, -0.044071175158023834, 0.11878077685832977, 0.2393285185098648, -1.0425242655742046, -1.16477452255333, 17.498899076832423, 9362.0, 18349.0, 35388.0, 9362.0, 7.933885097503662, 0.026554979383945465, -0.41681885719299316, -0.20773428678512573, 0.019318658858537674, -0.07729078084230423, 0.9983838200569153, -0.09456459432840347, -0.10231781005859375, 1.487548828125, 1.03271484375, 2.3103179931640625, 1.196044921875
28109, 0.3306257724761963, 2.517387628555298, 1.8331931829452515, -0.03939563035964966, -0.006453992798924446, -14.038422584533691, -0.18860286474227905, -0.03089982457458973, -1.0554546117782593, -0.04400630295276642, 0.11828526109457016, 0.23871511220932007, -1.6712010361812821, -1.0960453923677562, 17.72461256365912, 9362.0, 18349.0, 35388.0, 9362.0, 7.933885097503662, 0.026554979383945465, -0.41681885719299316, -0.20773428678512573, 0.020092444494366646, -0.07612138986587524, 0.9971314072608948, -0.09456459432840347, -0.10231781005859375, 1.487548828125, 1.03271484375, 2.3103179931640625, 1.196044921875
28129, 0.3302166163921356, 2.5206830501556396, 1.834686517715454, -0.04325331375002861, -0.007086047902703285, -14.05953598022461, -0.19716326892375946, -0.032305143773555756, -1.0559519529342651, -0.04411014914512634, 0.11885762214660645, 0.23936496675014496, -1.2657201872880581, -1.144182941837414, 17.512974843124013, 9362.0, 18349.0, 35388.0, 9362.0, 7.933885097503662, 0.13508617877960205, -0.42429161071777344, -0.07515056431293488, 0.01747504249215126, -0.07458513975143433, 0.9982011914253235, -0.09456459432840347, -0.10231781005859375, 1.487548828125, 1.03271484375, 2.3103179931640625, 1.196044921875
28189, 0.33358174562454224, 2.5252201557159424, 1.8328369855880737, -0.05585474148392677, -0.009150906465947628, -14.122941970825195, -0.2228889912366867, -0.03652738034725189, -1.0576423406600952, -0.04409464821219444, 0.11877788603305817, 0.23925799131393433, -1.1089892277820879, -1.029400513667639, 17.498756433677947, 9362.0, 18349.0, 35388.0, 9362.0, 7.9537200927734375, 0.24441532790660858, 0.5471304059028625, 0.28161147236824036, 0.018798930570483208, -0.07804979383945465, 0.9992062449455261, -0.09456459432840347, -0.10231781005859375, 1.487548828125, 1.03271484375, 2.3103179931640625, 1.196044921875
28209, 0.3355877697467804, 2.5221316814422607, 1.836690902709961, -0.05585474148392677, -0.009150906465947628, -14.122941970825195, -0.2228889912366867, -0.03652738034725189, -1.0576423406600952, -0.044094763696193695, 0.11886599659919739, 0.23936399817466736, -1.2542939518856102, -1.1698031877184292, 17.505152091293294, 9362.0, 18349.0, 35388.0, 9362.0, 7.9537200927734375, 0.24441532790660858, 0.5471304059028625, 0.28161147236824036, 0.015511264093220234, -0.07587176561355591, 0.9990164637565613, -0.2606159746646881, -0.08439826965332031, 1.489013671875, 1.03271484375, 2.3103179931640625, 1.196044921875
28219, 0.33521854877471924, 2.522042989730835, 1.8372514247894287, -0.06273461878299713, -0.010278627276420593, -14.154681205749512, -0.23576973378658295, -0.038655079901218414, -1.0582356452941895, -0.044069044291973114, 0.11879822611808777, 0.23935310542583466, -0.9996821239701488, -1.2049082492478647, 17.49980448923669, 9362.0, 18349.0, 35388.0, 9362.0, 7.9537200927734375, 0.10606536269187927, -0.08465442061424255, -0.28871989250183105, 0.015511264093220234, -0.07587176561355591, 0.9990164637565613, -0.2606159746646881, -0.08439826965332031, 1.489013671875, 1.03271484375, 2.3103179931640625, 1.196044921875
28259, 0.3367769718170166, 2.5199313163757324, 1.8365000486373901, -0.07000080496072769, -0.011470309458673, -14.18643856048584, -0.24864248931407928, -0.04079165682196617, -1.0588868856430054, -0.0440836101770401, 0.11879125982522964, 0.23930443823337555, -1.01440934469915, -1.229430389542614, 17.514124631171036, 9362.0, 18349.0, 35388.0, 9362.0, 7.933885097503662, -0.053970564156770706, 0.16536609828472137, 0.09192147105932236, 0.018860863521695137, -0.07755882292985916, 0.9973758459091187, -0.2606159746646881, -0.08439826965332031, 1.489013671875, 1.03271484375, 2.3103179931640625, 1.196044921875
28299, 0.3380051851272583, 2.5154223442077637, 1.8385374546051025, -0.08296877145767212, -0.01359897293150425, -14.239413261413574, -0.27006593346595764, -0.04435615614056587, -1.0601680278778076, -0.04409100115299225, 0.11885594576597214, 0.23939938843250275, -1.1765363029409417, -1.2298020376525756, 17.518281395770092, 9362.0, 18349.0, 35388.0, 9362.0, 7.9537200927734375, 0.2616022825241089, -0.5886229872703552, -0.052115630358457565, 0.01528239343315363, -0.07578518986701965, 0.996909499168396, -0.2606159746646881, -0.08439826965332031, 1.489013671875, 1.03271484375, 2.3103179931640625, 1.196044921875
28319, 0.33924856781959534, 2.5175325870513916, 1.8398411273956299, -0.08845560252666473, -0.014500370249152184, -14.26062297821045, -0.2786138355731964, -0.045784056186676025, -1.060853123664856, -0.04399161785840988, 0.11821955442428589, 0.2386133223772049, -1.47758676536811, -1.0742459331337102, 17.72463049325495, 9362.0, 18349.0, 35388.0, 9362.0, 7.933885097503662, -0.054038334637880325, 0.12416389584541321, -0.09605760127305984, 0.018558742478489876, -0.07615946978330612, 0.9969708919525146, -0.2606159746646881, -0.08439826965332031, 1.489013671875, 1.03271484375, 2.3103179931640625, 1.196044921875
28339, 0.33975985646247864, 2.5202391147613525, 1.8379758596420288, -0.09411328285932541, -0.015430362895131111, -14.281850814819336, -0.28715649247169495, -0.04721564054489136, -1.0618523359298706, -0.04408906400203705, 0.11877691745758057, 0.23928289115428925, -1.114934590633867, -1.0967009469124491, 17.501045318836436, 9362.0, 18349.0, 35388.0, 9362.0, 7.933885097503662, -0.054038334637880325, 0.12416389584541321, -0.09605760127305984, 0.017277201637625694, -0.07547786831855774, 0.9970268607139587, -0.2606159746646881, -0.08439826965332031, 1.489013671875, 1.03271484375, 2.3103179931640625, 1.196044921875
28389, 0.3383544683456421, 2.523144006729126, 1.8434754610061646, -0.10900627076625824, -0.017880879342556, -14.33498764038086, -0.3085726499557495, -0.050807300955057144, -1.063680648803711, -0.04411789029836655, 0.11884567886590958, 0.23935231566429138, -1.269770203552819, -1.1683811586308934, 17.5315789623533, 9362.0, 18349.0, 35388.0, 9362.0, 7.933885097503662, 0.07292705774307251, -0.1299942284822464, 0.30726033449172974, 0.018081828951835632, -0.07594435662031174, 0.9989759922027588, -0.2606159746646881, -0.08439826965332031, 1.489013671875, 1.03271484375, 2.3103179931640625, 1.196044921875
28399, 0.33903661370277405, 2.524303674697876, 1.845396637916565, -0.11211346089839935, -0.018392542377114296, -14.345625877380371, -0.3128657341003418, -0.05152549222111702, -1.0639106035232544, -0.04409165680408478, 0.11886955052614212, 0.239371195435524, -1.2667261017213343, -1.184208265783127, 17.528418313670723, 9362.0, 18349.0, 35388.0, 9362.0, 7.933885097503662, 0.07292705774307251, -0.1299942284822464, 0.30726033449172974, 0.017864346504211426, -0.07384667545557022, 0.9964184165000916, -0.2606159746646881, -0.08439826965332031, 1.489013671875, 1.03271484375, 2.3103179931640625, 1.196044921875
28409, 0.3406168222427368, 2.5221097469329834, 1.8454841375350952, -0.11211346089839935, -0.018392542377114296, -14.345625877380371, -0.3128657341003418, -0.05152549222111702, -1.0639106035232544, -0.043995700776576996, 0.1182849183678627, 0.23869718611240387, -1.6929855676877266, -1.09834009991485, 17.720627317249406, 9362.0, 18349.0, 35388.0, 9362.0, 7.933885097503662, 0.07292705774307251, -0.1299942284822464, 0.30726033449172974, 0.019092567265033722, -0.07212434709072113, 0.9971586465835571, -0.2606159746646881, -0.08439826965332031, 1.489013671875, 1.03271484375, 2.3103179931640625, 1.196044921875
28419, 0.34103313088417053, 2.5201029777526855, 1.8435667753219604, -0.11211346089839935, -0.018392542377114296, -14.345625877380371, -0.3128657341003418, -0.05152549222111702, -1.0639106035232544, -0.04408435896039009, 0.11880561709403992, 0.23930472135543823, -0.9688923314497943, -1.2394651197302267, 17.496817889871167, 9362.0, 18349.0, 35388.0, 9362.0, 7.933885097503662, -0.006401189602911472, 0.10828296840190887, 0.014703749679028988, 0.018415603786706924, -0.07417537271976471, 0.9973329305648804, -0.2606159746646881, -0.08439826965332031, 1.489013671875, 1.03271484375, 2.3103179931640625, 1.196044921875
28449, 0.3428274691104889, 2.5187766551971436, 1.8444160223007202, -0.1282922476530075, -0.02105853147804737, -14.398870468139648, -0.3342730700969696, -0.05511839687824249, -1.0659434795379639, -0.04398641362786293, 0.1182074099779129, 0.23868697881698608, -1.372674012337055, -1.1218836791659328, 17.720027330213426, 9362.0, 18349.0, 35388.0, 9362.0, 7.933885097503662, 0.0157416183501482, 0.05410843715071678, 0.21150243282318115, 0.01871161349117756, -0.07821819931268692, 0.995836079120636, -0.2606159746646881, -0.08439826965332031, 1.489013671875, 1.03271484375, 2.3103179931640625, 1.196044921875
28459, 0.3427151143550873, 2.518573522567749, 1.8444205522537231, -0.13165630400180817, -0.021613311022520065, -14.409533500671387, -0.33853888511657715, -0.05583740770816803, -1.0665713548660278, -0.0440799817442894, 0.11879917234182358, 0.23932044208049774, -1.044679335065122, -1.1440566568071233, 17.48612803918406, 9362.0, 18349.0, 35388.0, 9362.0, 7.9537200927734375, 0.0157416183501482, 0.05410843715071678, 0.21150243282318115, 0.019060637801885605, -0.07455669343471527, 0.9969324469566345, -0.2606159746646881, -0.08439826965332031, 1.489013671875, 1.03271484375, 2.3103179931640625, 1.196044921875
28509, 0.3414956331253052, 2.5156664848327637, 1.8471242189407349, -0.14911743998527527, -0.024495480582118034, -14.46291732788086, -0.3599145710468292, -0.059449635446071625, -1.0683462619781494, -0.04409157112240791, 0.11879604309797287, 0.2393069565296173, -1.0491352083845031, -1.1803266980589626, 17.508506767737284, 9362.0, 18349.0, 35388.0, 9362.0, 7.9537200927734375, 0.03549245372414589, 0.13284456729888916, -0.13875499367713928, 0.01661316119134426, -0.07606206089258194, 0.9978471994400024, -0.2606159746646881, -0.08439826965332031, 1.489013671875, 1.03271484375, 2.3103179931640625, 1.196044921875
28519, 0.34241482615470886, 2.5139894485473633, 1.8474681377410889, -0.14911743998527527, -0.024495480582118034, -14.46291732788086, -0.3599145710468292, -0.059449635446071625, -1.0683462619781494, -0.04407401382923126, 0.11879532784223557, 0.23932962119579315, -0.9897191666206643, -1.2573101250752359, 17.503212963154024, 9362.0, 18349.0, 35388.0, 9362.0, 7.933885097503662, -0.1966228038072586, -0.02952582575380802, -0.08410612493753433, 0.01762167550623417, -0.07549209147691727, 0.9970110654830933, -0.2606159746646881, -0.08439826965332031, 1.489013671875, 1.03271484375, 2.3103179931640625, 1.196044921875
28529, 0.34120577573776245, 2.515407085418701, 1.8464540243148804, -0.15640127658843994, -0.025698894634842873, -14.484289169311523, -0.3684679865837097, -0.06089216098189354, -1.068881630897522, -0.04409772902727127, 0.11881260573863983, 0.23927976191043854, -1.019372015274299, -1.2030798084464323, 17.482060170821, 9362.0, 18349.0, 35388.0, 9362.0, 7.9537200927734375, 0.2231631875038147, -0.01309758797287941, 0.22389967739582062, 0.01762167550623417, -0.07549209147691727, 0.9970110654830933, -0.2606159746646881, -0.08439826965332031, 1.489013671875, 1.03271484375, 2.3103179931640625, 1.196044921875
28539, 0.34204259514808655, 2.517155647277832, 1.8474068641662598, -0.1601073145866394, -0.02631143108010292, -14.494979858398438, -0.3727385997772217, -0.061614882200956345, -1.0692330598831177, -0.04398677870631218, 0.11819471418857574, 0.23860952258110046, -1.488876093238224, -1.1052804173021684, 17.761534671963698, 9362.0, 18349.0, 35388.0, 9362.0, 7.933885097503662, 0.2231631875038147, -0.01309758797287941, 0.22389967739582062, 0.01975983753800392, -0.07531512528657913, 0.9970082640647888, -0.2606159746646881, -0.08439826965332031, 1.489013671875, 1.03271484375, 2.3103179931640625, 1.196044921875
28559, 0.34061112999916077, 2.5159261226654053, 1.8494189977645874, -0.16764762997627258, -0.027558162808418274, -14.516369819641113, -0.3812923729419708, -0.06305886059999466, -1.069830060005188, -0.04407757148146629, 0.11878886818885803, 0.2393149882555008, -1.0356144378953516, -1.1410826812106336, 17.495661495191, 9362.0, 18349.0, 35388.0, 9362.0, 7.933885097503662, -0.12406070530414581, 0.088038370013237, 0.11111290752887726, 0.018732719123363495, -0.07458406686782837, 0.998870849609375, -0.2606159746646881, -0.08439826965332031, 1.489013671875, 1.033447265625, 2.2965850830078125, 1.196044921875
28589, 0.3397846519947052, 2.5169191360473633, 1.8501472473144531, -0.17927893996238708, -0.029482392594218254, -14.54847526550293, -0.39412766695022583, -0.06522143632173538, -1.0705667734146118, -0.044073112308979034, 0.1187983825802803, 0.23931372165679932, -1.0175527748825461, -1.1587131346395267, 17.486607449015473, 9362.0, 18349.0, 35388.0, 9362.0, 7.933885097503662, -0.08423282206058502, 0.11522214859724045, 0.15763476490974426, 0.017970815300941467, -0.07629595696926117, 0.997524619102478, -0.2606159746646881, -0.08439826965332031, 1.489013671875, 1.033447265625, 2.2965850830078125, 1.196044921875
28599, 0.3389213979244232, 2.5169837474823, 1.8498477935791016, -0.17927893996238708, -0.029482392594218254, -14.54847526550293, -0.39412766695022583, -0.06522143632173538, -1.0705667734146118, -0.04410671070218086, 0.11885213106870651, 0.2394079566001892, -1.2335769533904124, -1.1404239825271247, 17.49634965737421, 9362.0, 18349.0, 35388.0, 9362.0, 7.933885097503662, 0.023064222186803818, -0.44861292839050293, -0.11266415566205978, 0.017901835963129997, -0.0750899463891983, 0.9963535070419312, -0.2606159746646881, -0.08439826965332031, 1.489013671875, 1.033447265625, 2.2965850830078125, 1.196044921875
28609, 0.3391558825969696, 2.5192368030548096, 1.8493069410324097, -0.18724705278873444, -0.030801206827163696, -14.569891929626465, -0.40268200635910034, -0.06665955483913422, -1.0711604356765747, -0.04398960992693901, 0.11820990592241287, 0.23866026103496552, -1.4460261645095192, -1.1461353487893007, 17.727887001679782, 9362.0, 18349.0, 35388.0, 9362.0, 7.933885097503662, 0.0265322457998991, -0.1944936215877533, 0.09739497303962708, 0.019119853153824806, -0.07388945668935776, 0.9961325526237488, -0.2606159746646881, -0.08439826965332031, 1.489013671875, 1.033447265625, 2.2965850830078125, 1.196044921875
28629, 0.34111183881759644, 2.5210909843444824, 1.8483368158340454, -0.19538614153862, -0.03214872628450394, -14.591323852539062, -0.41122832894325256, -0.06809277832508087, -1.0720763206481934, -0.04407249763607979, 0.11878214031457901, 0.239328071475029, -1.0133310971624043, -1.200041045867465, 17.5193118716213, 9362.0, 18349.0, 35388.0, 9362.0, 7.933885097503662, 0.10607931017875671, -0.021596819162368774, -0.06562066823244095, 0.018315939232707024, -0.07557187229394913, 0.9992614984512329, -0.2606159746646881, -0.08439826965332031, 1.489013671875, 1.024658203125, 2.4651947021484375, 1.196044921875
28649, 0.3414464592933655, 2.524346113204956, 1.8484567403793335, -0.20369645953178406, -0.03352499008178711, -14.612770080566406, -0.4198056161403656, -0.06953498721122742, -1.072507619857788, -0.04397953674197197, 0.11820028722286224, 0.23863933980464935, -1.4070649636656578, -1.1563533230946348, 17.710555306912315, 9362.0, 18349.0, 35388.0, 9362.0, 7.933885097503662, 0.11058162152767181, -0.11187902092933655, -0.14357739686965942, 0.018761947751045227, -0.07579688727855682, 0.998304545879364, -0.2606159746646881, -0.08439826965332031, 1.489013671875, 1.024658203125, 2.4651947021484375, 1.191650390625
28659, 0.34215009212493896, 2.5247690677642822, 1.8477462530136108, -0.20791594684123993, -0.034223951399326324, -14.623497009277344, -0.4240912199020386, -0.07025696337223053, -1.072807788848877, -0.044110167771577835, 0.11886738985776901, 0.23936258256435394, -1.265013261371081, -1.1909750948740907, 17.520274417641005, 9362.0, 18349.0, 35388.0, 9362.0, 7.933885097503662, 0.00957823172211647, -0.057713013142347336, 0.17055387794971466, 0.01745670847594738, -0.07663941383361816, 0.9972521662712097, -0.2606159746646881, -0.08439826965332031, 1.489013671875, 1.024658203125, 2.4651947021484375, 1.191650390625
28679, 0.34165602922439575, 2.524524450302124, 1.850687861442566, -0.2164834588766098, -0.03564351797103882, -14.644962310791016, -0.43266117572784424, -0.07170050591230392, -1.0736801624298096, -0.044082339853048325, 0.11879169940948486, 0.23932160437107086, -1.0608461402713014, -1.1626524528560935, 17.49441889772644, 9362.0, 18349.0, 35388.0, 9362.0, 7.933885097503662, -0.1992834061384201, -0.07838653773069382, 0.1517755389213562, 0.01737458072602749, -0.07574733346700668, 0.9969022870063782, -0.2606159746646881, -0.08439826965332031, 1.489013671875, 1.024658203125, 2.4651947021484375, 1.191650390625
28709, 0.34276148676872253, 2.5266687870025635, 1.8504037857055664, -0.22965621948242188, -0.037827055901288986, -14.677189826965332, -0.44552791118621826, -0.07386945933103561, -1.0747425556182861, -0.04407110810279846, 0.11879672110080719, 0.23935404419898987, -0.9849688992231217, -1.2485208384940734, 17.499294357922413, 9362.0, 18349.0, 35388.0, 9362.0, 7.933885097503662, 0.15443992614746094, -0.1649620085954666, -0.08244387060403824, 0.018893510103225708, -0.07542502135038376, 0.9999423623085022, -0.2606159746646881, -0.08439826965332031, 1.489013671875, 1.024658203125, 2.4651947021484375, 1.191650390625
28729, 0.34413814544677734, 2.522726058959961, 1.8520067930221558, -0.23865260183811188, -0.039318911731243134, -14.698692321777344, -0.4541149437427521, -0.0753176137804985, -1.0753464698791504, -0.04408605769276619, 0.11879337579011917, 0.23928767442703247, -1.102654957754406, -1.0918684082237746, 17.500082537052673, 9362.0, 18349.0, 35388.0, 9362.0, 7.9537200927734375, 0.02333521656692028, 0.1345011591911316, 0.10602765530347824, 0.01920188032090664, -0.07887067645788193, 0.9994273781776428, -0.2606159746646881, -0.08439826965332031, 1.489013671875, 1.308837890625, 0.0379486083984375, 1.191650390625
28739, 0.34314271807670593, 2.5248048305511475, 1.852155327796936, -0.24321520328521729, -0.040075719356536865, -14.709446907043457, -0.45840567350387573, -0.07604431360960007, -1.075595736503601, -0.04399394243955612, 0.11821350455284119, 0.23860542476177216, -1.4967181990839609, -1.080607360632257, 17.725467579322892, 9362.0, 18349.0, 35388.0, 9362.0, 7.9537200927734375, 0.02333521656692028, 0.1345011591911316, 0.10602765530347824, 0.01773756742477417, -0.07812783867120743, 0.9985195398330688, -0.2606159746646881, -0.08439826965332031, 1.489013671875, 1.308837890625, 0.0379486083984375, 1.191650390625
28769, 0.34517836570739746, 2.525120496749878, 1.8543637990951538, -0.25716060400009155, -0.042389772832393646, -14.741724014282227, -0.4712848961353302, -0.07822447270154953, -1.0764065980911255, -0.04407605901360512, 0.11878231912851334, 0.2393072545528412, -0.9986301236559958, -1.2514474271699783, 17.502334572331797, 9362.0, 18349.0, 35388.0, 9362.0, 7.933885097503662, -0.018527574837207794, -0.11896217614412308, -0.008824875578284264, 0.019143464043736458, -0.07734053581953049, 0.9974783062934875, -0.2606159746646881, -0.08439826965332031, 1.489013671875, 1.308837890625, 0.0379486083984375, 1.191650390625
28779, 0.3452710509300232, 2.5269811153411865, 1.854857325553894, -0.26189491152763367, -0.043175652623176575, -14.752490043640137, -0.4755775034427643, -0.07895170897245407, -1.0767642259597778, -0.0440823920071125, 0.11879626661539078, 0.23931334912776947, -1.0525353246342708, -1.1564494077900918, 17.50469811004119, 9362.0, 18349.0, 35388.0, 9362.0, 7.933885097503662, -0.10863304138183594, 0.2695437967777252, 0.16149365901947021, 0.01848534867167473, -0.07470964640378952, 0.997166633605957, -0.2606159746646881, -0.08439826965332031, 1.489013671875, 1.308837890625, 0.0379486083984375, 1.191650390625
28819, 0.3436238765716553, 2.5266542434692383, 1.8579127788543701, -0.28126150369644165, -0.046392034739255905, -14.795584678649902, -0.4927505552768707, -0.08186589926481247, -1.078086495399475, -0.04401830956339836, 0.11828963458538055, 0.23866578936576843, -1.7081263212838262, -1.0471256849621398, 17.731247134719087, 9362.0, 18349.0, 35388.0, 9362.0, 7.933885097503662, -0.13451692461967468, -0.11429738253355026, 0.0061984290368855, 0.01886315830051899, -0.07719844579696655, 0.9983451962471008, -0.10189506411552429, -0.08439826965332031, 1.489013671875, 1.308837890625, 0.0379486083984375, 1.191650390625
28829, 0.3437337577342987, 2.527445077896118, 1.8570884466171265, -0.28126150369644165, -0.046392034739255905, -14.795584678649902, -0.4927505552768707, -0.08186589926481247, -1.078086495399475, -0.043991073966026306, 0.1181955486536026, 0.23860512673854828, -1.4184256611888628, -1.1640020116248593, 17.744074669384272, 9362.0, 18349.0, 35388.0, 9362.0, 7.933885097503662, -0.13451692461967468, -0.11429738253355026, 0.0061984290368855, 0.019561314955353737, -0.07786537706851959, 0.9965701699256897, -0.10189506411552429, -0.08439826965332031, 1.489013671875, 1.308837890625, 0.0379486083984375, 1.191650390625
28879, 0.3464607000350952, 2.5261571407318115, 1.8570083379745483, -0.3115992546081543, -0.05143493413925171, -14.860326766967773, -0.5184971690177917, -0.08623337745666504, -1.0801492929458618, -0.04398331791162491, 0.11819533258676529, 0.2386220544576645, -1.47515479624981, -1.08601853296733, 17.72832532070792, 9362.0, 18349.0, 35388.0, 9362.0, 7.9537200927734375, 0.08942583948373795, -0.05251166224479675, -0.13392722606658936, 0.016049949452280998, -0.0753609910607338, 0.998465895652771, -0.10189506411552429, -0.08439826965332031, 1.489013671875, 1.1044921875, 1.2117767333984375, 1.191650390625
28889, 0.3485262989997864, 2.5253396034240723, 1.8575423955917358, -0.31680572032928467, -0.05230093374848366, -14.871129035949707, -0.5227934718132019, -0.08696642518043518, -1.0802680253982544, -0.04410538449883461, 0.11884608864784241, 0.2393522709608078, -1.2604861870335533, -1.0971141750097217, 17.521822520622894, 9362.0, 18349.0, 35388.0, 9362.0, 7.9537200927734375, 0.08942583948373795, -0.05251166224479675, -0.13392722606658936, 0.014993547461926937, -0.0779961571097374, 0.9977887272834778, -0.10189506411552429, -0.08439826965332031, 1.489013671875, 1.1044921875, 1.2117767333984375, 1.191650390625
28899, 0.34637001156806946, 2.5263707637786865, 1.8600132465362549, -0.3220551311969757, -0.05317426100373268, -14.881932258605957, -0.5270915627479553, -0.08769874274730682, -1.0804626941680908, -0.043975830078125, 0.11819160729646683, 0.23861926794052124, -1.4553090354260196, -1.0757194310065472, 17.749993784616148, 9362.0, 18349.0, 35388.0, 9362.0, 7.933885097503662, 0.08942583948373795, -0.05251166224479675, -0.13392722606658936, 0.01765662245452404, -0.07698769867420197, 0.9977184534072876, -0.10189506411552429, -0.08439826965332031, 1.489013671875, 1.1044921875, 1.2117767333984375, 1.191650390625
28949, 0.34665483236312866, 2.5301332473754883, 1.8600540161132812, -0.3489465117454529, -0.057650789618492126, -14.935991287231445, -0.5485715270042419, -0.09136035293340683, -1.0818159580230713, -0.04400155320763588, 0.11829092353582382, 0.23871034383773804, -1.6378358758705682, -1.1128164002868743, 17.71893721802356, 9362.0, 18349.0, 35388.0, 9362.0, 7.9537200927734375, -0.08306676894426346, 0.09768276661634445, -0.05356060341000557, 0.015750745311379433, -0.07706761360168457, 0.9977174997329712, -0.10189506411552429, -0.08439826965332031, 1.489013671875, 1.1044921875, 1.2117767333984375, 1.191650390625
28959, 0.34688249230384827, 2.5307095050811768, 1.860593318939209, -0.3489465117454529, -0.057650789618492126, -14.935991287231445, -0.5485715270042419, -0.09136035293340683, -1.0818159580230713, -0.04408656060695648, 0.11879420280456543, 0.23928900063037872, -1.0485372285426393, -1.1299551672291273, 17.489699500116128, 9362.0, 18349.0, 35388.0, 9362.0, 7.933885097503662, 0.1496555060148239, 0.17108385264873505, 0.09477642178535461, 0.015750745311379433, -0.07706761360168457, 0.9977174997329712, -0.10189506411552429, -0.08439826965332031, 1.489013671875, 1.1044921875, 1.2117767333984375, 1.191650390625
29009, 0.3495969772338867, 2.53413987159729, 1.8615769147872925, -0.38263440132141113, -0.06326431035995483, -15.000964164733887, -0.574364423751831, -0.09576208144426346, -1.0839723348617554, -0.044096220284700394, 0.11886400729417801, 0.2393806278705597, -1.224436980873607, -1.1861035909243753, 17.508598193530684, 9362.0, 18349.0, 35388.0, 9362.0, 7.9537200927734375, 0.23775643110275269, -0.03949294984340668, 0.4181436598300934, 0.018715571612119675, -0.07392213493585587, 1.0001802444458008, -0.10189506411552429, -0.08439826965332031, 1.489013671875, 1.1044921875, 1.2117767333984375, 1.191650390625
29019, 0.3509712219238281, 2.5329201221466064, 1.8637691736221313, -0.388399600982666, -0.06422562152147293, -15.011804580688477, -0.5786759853363037, -0.0964999869465828, -1.0841286182403564, -0.0439956970512867, 0.11822997033596039, 0.23862701654434204, -1.4663060174480496, -1.09471872321879, 17.727966831951488, 9362.0, 18349.0, 35388.0, 9362.0, 7.933885097503662, -0.06092003360390663, -0.22461698949337006, 0.026514651253819466, 0.01738218404352665, -0.07484205812215805, 0.9961104989051819, -0.10189506411552429, -0.08439826965332031, 1.489013671875, 1.1044921875, 1.2117767333984375, 1.191650390625
29059, 0.3517243266105652, 2.5348591804504395, 1.8662967681884766, -0.40595364570617676, -0.06715386360883713, -15.044342041015625, -0.5915902256965637, -0.09871671348810196, -1.085127592086792, -0.04403369873762131, 0.11828849464654922, 0.23874296247959137, -1.6229268558272607, -1.1331835516925537, 17.724055784505232, 9362.0, 18349.0, 35388.0, 9362.0, 7.9537200927734375, 0.05610998719930649, 0.3529001772403717, -0.0015326783759519458, 0.017818795517086983, -0.07684274762868881, 0.996874988079071, -0.10189506411552429, -0.08439826965332031, 1.489013671875, 1.1044921875, 1.2117767333984375, 1.191650390625
29069, 0.352760374546051, 2.531872272491455, 1.866597294807434, -0.41787153482437134, -0.06914296746253967, -15.06605339050293, -0.6001989245414734, -0.10019458085298538, -1.0859202146530151, -0.04408498853445053, 0.11885479092597961, 0.23940406739711761, -1.2636005160451518, -1.1658745353295217, 17.52352002365812, 9362.0, 18349.0, 35388.0, 9362.0, 7.933885097503662, -0.059743382036685944, -0.2675054669380188, -0.21328352391719818, 0.018936866894364357, -0.07655732333660126, 0.9974697232246399, -0.10189506411552429, -0.08439826965332031, 1.489013671875, 1.1044921875, 1.2117767333984375, 1.191650390625
29079, 0.35272884368896484, 2.5336835384368896, 1.8656811714172363, -0.41787153482437134, -0.06914296746253967, -15.06605339050293, -0.6001989245414734, -0.10019458085298538, -1.0859202146530151, -0.04396773502230644, 0.11821719259023666, 0.23866520822048187, -1.432503118625579, -1.116849063995204, 17.73367406749233, 9362.0, 18349.0, 35388.0, 9362.0, 7.933885097503662, -0.059743382036685944, -0.2675054669380188, -0.21328352391719818, 0.01974654197692871, -0.07827574014663696, 0.9961850643157959, -0.10189506411552429, -0.08439826965332031, 1.489013671875, 1.1044921875, 1.2117767333984375, 1.191650390625
29089, 0.35347965359687805, 2.530683994293213, 1.8687819242477417, -0.429961621761322, -0.07116169482469559, -15.087778091430664, -0.6088060140609741, -0.10167887061834335, -1.0865968465805054, -0.044094253331422806, 0.1188674122095108, 0.239409402012825, -1.2185596772867509, -1.2546232640962103, 17.496829108032205, 9362.0, 18349.0, 35388.0, 9362.0, 7.933885097503662, 0.34699490666389465, -0.014304282143712044, -0.037313807755708694, 0.01974654197692871, -0.07827574014663696, 0.9961850643157959, -0.10189506411552429, -0.08439826965332031, 1.489013671875, 1.1044921875, 1.2117767333984375, 1.191650390625
29099, 0.35559454560279846, 2.5306124687194824, 1.8677204847335815, -0.4360711872577667, -0.07218219339847565, -15.09864616394043, -0.613105297088623, -0.10242126882076263, -1.0870400667190552, -0.04407530650496483, 0.11878999322652817, 0.23934052884578705, -1.0378764882372065, -1.21268941860518, 17.512616135456494, 9362.0, 18349.0, 35388.0, 9362.0, 7.933885097503662, 0.160762220621109, 0.05978483706712723, 0.07954815775156021, 0.017366141080856323, -0.07610569894313812, 0.9995809197425842, -0.10189506411552429, -0.08439826965332031, 1.489013671875, 1.1044921875, 1.2117767333984375, 1.191650390625
29129, 0.35588374733924866, 2.5324559211730957, 1.8671988248825073, -0.45465797185897827, -0.07528843730688095, -15.131268501281738, -0.6260119676589966, -0.10466593503952026, -1.0877573490142822, -0.04399123042821884, 0.11828966438770294, 0.23874114453792572, -1.581284084863027, -1.2211377218686152, 17.708742353080385, 9362.0, 18349.0, 35388.0, 9362.0, 7.933885097503662, -0.10257331281900406, -0.008085111156105995, 0.2171739637851715, 0.017859652638435364, -0.07669176906347275, 0.9984466433525085, -0.10189506411552429, -0.08439826965332031, 1.489013671875, 1.1044921875, 1.2117767333984375, 1.193115234375
29139, 0.35575830936431885, 2.5333001613616943, 1.867479920387268, -0.4609396159648895, -0.07633884996175766, -15.142147064208984, -0.6303176283836365, -0.1054159477353096, -1.0880061388015747, -0.0440702810883522, 0.11876986920833588, 0.23930509388446808, -1.0353890267935095, -1.2186504171431523, 17.505344352677046, 9362.0, 18349.0, 35388.0, 9362.0, 7.933885097503662, -0.10257331281900406, -0.008085111156105995, 0.2171739637851715, 0.017379259690642357, -0.0755525678396225, 0.9964762330055237, -0.10189506411552429, -0.08439826965332031, 1.489013671875, 1.1044921875, 1.2117767333984375, 1.193115234375
29159, 0.3568436801433563, 2.537447214126587, 1.8681970834732056, -0.4736320972442627, -0.078462153673172, -15.163910865783691, -0.6389288902282715, -0.10691379755735397, -1.0885379314422607, -0.04408871382474899, 0.11879688501358032, 0.23929427564144135, -1.0594853353501406, -1.1291220935252682, 17.499323358276303, 9362.0, 18349.0, 35388.0, 9362.0, 7.933885097503662, 0.16727924346923828, -0.19170106947422028, -0.04524305835366249, 0.018902255222201347, -0.07367049902677536, 0.9977080821990967, -0.10189506411552429, -0.08439826965332031, 1.489013671875, 1.1044921875, 1.2117767333984375, 1.193115234375
29169, 0.3572830259799957, 2.5366625785827637, 1.8678714036941528, -0.4736320972442627, -0.078462153673172, -15.163910865783691, -0.6389288902282715, -0.10691379755735397, -1.0885379314422607, -0.044092223048210144, 0.11880139261484146, 0.23930902779102325, -1.0379182125481288, -1.189825269779675, 17.509381819914378, 9362.0, 18349.0, 35388.0, 9362.0, 7.933885097503662, 0.16727924346923828, -0.19170106947422028, -0.04524305835366249, 0.01783149689435959, -0.07587265223264694, 0.9971919059753418, -0.10189506411552429, -0.08439826965332031, 1.489013671875, 1.1044921875, 1.2117767333984375, 1.193115234375
29179, 0.35715627670288086, 2.5369646549224854, 1.8674540519714355, -0.48649686574935913, -0.08061543852090836, -15.185688018798828, -0.6475483179092407, -0.10841453075408936, -1.0891410112380981, -0.04397113621234894, 0.11820536851882935, 0.238690584897995, -1.4029680716474582, -1.1919532546250196, 17.699951077754164, 9362.0, 18349.0, 35388.0, 9362.0, 7.933885097503662, 0.16727924346923828, -0.19170106947422028, -0.04524305835366249, 0.01629868522286415, -0.0737372636795044, 0.9965803027153015, -0.10189506411552429, -0.08439826965332031, 1.489013671875, 1.1044921875, 1.2117767333984375, 1.193115234375
29189, 0.3566798269748688, 2.5380873680114746, 1.867417812347412, -0.49299389123916626, -0.08170334249734879, -15.19658088684082, -0.6518568992614746, -0.10916553437709808, -1.0894849300384521, -0.04407815262675285, 0.11880195885896683, 0.23933809995651245, -1.0360121980402135, -1.1755350063734227, 17.514087577795436, 9362.0, 18349.0, 35388.0, 9362.0, 7.9537200927734375, 0.12556029856204987, 0.0901658833026886, -0.10797666013240814, 0.019360948354005814, -0.07499852031469345, 0.9970632195472717, -0.10189506411552429, -0.08439826965332031, 1.489013671875, 1.1044921875, 1.2117767333984375, 1.193115234375
29199, 0.3574870824813843, 2.5379245281219482, 1.8668783903121948, -0.4995339810848236, -0.08279874920845032, -15.207477569580078, -0.6561618447303772, -0.1099155992269516, -1.0899237394332886, -0.04401746019721031, 0.11820820719003677, 0.2386031597852707, -1.4608448089404993, -1.0052659823481065, 17.73944384781813, 9362.0, 18349.0, 35388.0, 9362.0, 7.933885097503662, -0.186568483710289, -0.2599852681159973, 0.07492996752262115, 0.02107461728155613, -0.07805754244327545, 0.9972280263900757, -0.10189506411552429, -0.08439826965332031, 1.489013671875, 1.1044921875, 1.2117767333984375, 1.193115234375
29209, 0.35683128237724304, 2.5395092964172363, 1.86700439453125, -0.5061171650886536, -0.08390165120363235, -15.218379020690918, -0.6604719161987305, -0.11066540330648422, -1.0902910232543945, -0.044067852199077606, 0.11879710108041763, 0.2393132448196411, -1.0879427056645514, -1.0705011129966806, 17.505830746422415, 9362.0, 18349.0, 35388.0, 9362.0, 7.933885097503662, -0.03426503762602806, -0.308737576007843, 0.14100703597068787, 0.018790464848279953, -0.07711303234100342, 0.9993648529052734, -0.10189506411552429, -0.08439826965332031, 1.489013671875, 1.1044921875, 1.2117767333984375, 1.193115234375
29249, 0.35777929425239563, 2.544086217880249, 1.8634529113769531, -0.526125431060791, -0.08725541830062866, -15.251100540161133, -0.6734170913696289, -0.11291895806789398, -1.0912055969238281, -0.04398905113339424, 0.1181868240237236, 0.2386114001274109, -1.484419888672255, -1.135168694960754, 17.732753737021362, 9362.0, 18349.0, 35388.0, 9362.0, 7.933885097503662, -0.06491690874099731, -0.2727675437927246, -0.031008480116724968, 0.018456516787409782, -0.07570106536149979, 0.9978700280189514, -0.10189506411552429, -0.08439826965332031, 1.489013671875, 1.1044921875, 1.2117767333984375, 1.193115234375
29259, 0.3582465648651123, 2.5455093383789062, 1.8629679679870605, -0.526125431060791, -0.08725541830062866, -15.251100540161133, -0.6734170913696289, -0.11291895806789398, -1.0912055969238281, -0.04401209205389023, 0.11828023195266724, 0.23871007561683655, -1.64595878611836, -1.162570755171032, 17.706777097580463, 9362.0, 18349.0, 35388.0, 9362.0, 7.933885097503662, -0.0759027823805809, 0.039326731115579605, 0.017064601182937622, 0.016362980008125305, -0.07459668815135956, 0.9981080293655396, -0.10189506411552429, -0.08439826965332031, 1.489013671875, 1.1044921875, 1.2117767333984375, 1.193115234375
29269, 0.35834285616874695, 2.545196533203125, 1.8629515171051025, -0.526125431060791, -0.08725541830062866, -15.251100540161133, -0.6734170913696289, -0.11291895806789398, -1.0912055969238281, -0.04409600421786308, 0.1187933087348938, 0.23927198350429535, -1.089656387263177, -1.1402660028119271, 17.50275452791868, 9362.0, 18349.0, 35388.0, 9362.0, 7.933885097503662, -0.0759027823805809, 0.039326731115579605, 0.017064601182937622, 0.018021658062934875, -0.07718567550182343, 0.9963802695274353, -0.10189506411552429, -0.08439826965332031, 1.489013671875, 1.1044921875, 1.2117767333984375, 1.193115234375
29289, 0.35713398456573486, 2.5446982383728027, 1.8666020631790161, -0.5603360533714294, -0.0929953083395958, -15.305705070495605, -0.6950213313102722, -0.11667931824922562, -1.0928905010223389, -0.044087912887334824, 0.11880388110876083, 0.2392607033252716, -1.1189983855922745, -1.0895130764517091, 17.506241802715987, 9362.0, 18349.0, 35388.0, 9362.0, 7.933885097503662, -0.0759027823805809, 0.039326731115579605, 0.017064601182937622, 0.01877276785671711, -0.07642193138599396, 0.9948226809501648, -0.10189506411552429, -0.08439826965332031, 1.489013671875, 1.1044921875, 1.2117767333984375, 1.193115234375
