timeTick, roll, pitch, yaw, stateX, stateY, stateZ, stateVX, stateVY, stateVZ, otX0, otY0, otZ0, otRoll0, otPitch0, otYaw0, left wing, pitch motor, yaw motor, right wing, voltage, roll rate, pitch rate, yaw rate, A_x, A_y, A_z, current, i_raw, v_raw, airflow_voltage, airflow_speed, pot_Pitch
338394, 0.2500196099281311, -0.8515316247940063, 0.3307947814464569, 0, 0, 0, 0, 0, 0, -0.0038246663752943277, 0.11212987452745438, 0.24186262488365173, 0.01715191891617071, -1.1641235229087386, -10.355056874824514, 0, 0, 0, 0, 0, 0, 0, 0, 0, 0, 0, 0, 0, 0, 0, 0, 0
338404, 0.24991294741630554, -0.854383647441864, 0.33096593618392944, 5.9145097732543945, -1.9866470098495483, -1.40111243724823, 1.1364489793777466, -0.3566379249095917, -0.17904596030712128, -0.003806300926953554, 0.11212918162345886, 0.241865336894989, 0.06332411814926253, -1.210618009745673, -10.35135867016945, 9362.0, 34078.0, 35388.0, 9362.0, 8.251240730285645, 0.0645255446434021, 0.011141333729028702, -0.2181578278541565, 0, 0, 0, 0, 0, 0, 0, 0, 0
338414, 0.24926574528217316, -0.8549750447273254, 0.32947859168052673, 5.925881385803223, -1.990215539932251, -1.4029037952423096, 1.137906789779663, -0.3570568561553955, -0.17922282218933105, -0.0038093794137239456, 0.1121310219168663, 0.24185572564601898, 0.0014102760625550183, -1.1353560750928011, -10.375954512311559, 9362.0, 34078.0, 35388.0, 9362.0, 8.251240730285645, -0.10282987356185913, 0.024351099506020546, 0.0029571224004030228, -0.0017292246920987964, -0.0676901713013649, 0.9973732233047485, -0.12203647196292877, -0.08439826965332031, 1.489013671875, 1.4091796875, 0.04937744140625, 1.598876953125
338424, 0.248999685049057, -0.8533620238304138, 0.32949671149253845, 5.937267780303955, -1.993788242340088, -1.404697299003601, 1.1393684148788452, -0.35747531056404114, -0.1794784814119339, -0.003815308678895235, 0.11211692541837692, 0.24186405539512634, 0.09416332160632233, -1.202970910627755, -10.359047283754808, 9362.0, 34078.0, 35388.0, 9362.0, 8.251240730285645, 0.10757603496313095, 0.11052104830741882, -0.048684053122997284, -0.0009254368487745523, -0.06749904900789261, 0.9990619421005249, -0.11867643147706985, -0.05751800537109375, 1.4912109375, 1.3974609375, 0.03759765625, 1.59814453125
338434, 0.2485496699810028, -0.8537306189537048, 0.33017438650131226, 5.948668956756592, -1.997365117073059, -1.4064927101135254, 1.1408331394195557, -0.3578932583332062, -0.17959295213222504, -0.0038009192794561386, 0.11213628947734833, 0.2418721616268158, 0.016675225198754064, -1.1885826974055078, -10.374899043580546, 9362.0, 34078.0, 35388.0, 9362.0, 8.251240730285645, 0.013353697955608368, 0.10881636291742325, 0.052439529448747635, -0.00022216224169824272, -0.06881532073020935, 0.9986417293548584, -0.1152782291173935, -0.05751800537109375, 1.4912109375, 1.405517578125, 0.0454254150390625, 1.594482421875
338444, 0.25037407875061035, -0.8560624122619629, 0.3304365873336792, 5.960084438323975, -2.000946044921875, -1.4082896709442139, 1.1422935724258423, -0.3583103120326996, -0.17980006337165833, -0.003823693376034498, 0.11211635172367096, 0.24185320734977722, 0.06621524761767612, -1.2140844441113643, -10.345905437953608, 9362.0, 34078.0, 35388.0, 9362.0, 8.251240730285645, -0.06996909528970718, 0.19769935309886932, -0.017620094120502472, -0.0008520730189047754, -0.06757860630750656, 0.9981935620307922, -0.1178399920463562, -0.14711761474609375, 1.48388671875, 1.364501953125, 0.0173492431640625, 1.59521484375
338454, 0.25078532099723816, -0.8564857840538025, 0.3314431607723236, 5.971514701843262, -2.004531145095825, -1.4100884199142456, 1.143755555152893, -0.35872682929039, -0.17995518445968628, -0.0038158567622303963, 0.11213166266679764, 0.2418612390756607, 0.0285988918045037, -1.2048115588207224, -10.346805593359134, 9362.0, 34078.0, 35388.0, 9362.0, 8.251240730285645, -0.02928316406905651, 0.18050412833690643, 0.24107001721858978, -0.0006563572678714991, -0.06926308572292328, 0.9991734027862549, -0.11428377777338028, -0.10231781005859375, 1.487548828125, 1.29052734375, 0.06378173828125, 1.598876953125
338464, 0.2510347366333008, -0.8580732941627502, 0.33167019486427307, 5.982959747314453, -2.008120536804199, -1.4118887186050415, 1.1452213525772095, -0.3591463565826416, -0.18011382222175598, -0.0038195233792066574, 0.11212155967950821, 0.24184294044971466, 0.033229322120042544, -1.1364589477613833, -10.347269992767094, 9362.0, 34078.0, 35388.0, 9362.0, 8.251240730285645, -0.13691461086273193, 0.08934956043958664, 0.23821501433849335, 0.0006562907947227359, -0.06919324398040771, 0.9965779185295105, -0.11132923513650894, -0.06647872924804688, 1.490478515625, 1.2744140625, 0.0959014892578125, 1.59375
338474, 0.2511821389198303, -0.8576107621192932, 0.33240288496017456, 5.994419097900391, -2.011713981628418, -1.413691759109497, 1.1466846466064453, -0.3595656454563141, -0.18050014972686768, -0.003821613732725382, 0.11213378608226776, 0.24183228611946106, 0.053502093885841456, -1.1632124306652827, -10.344709886228026, 9362.0, 34078.0, 35388.0, 9362.0, 8.251240730285645, 0.20545658469200134, -0.08192619681358337, -0.15156465768814087, 0.0006593302823603153, -0.06990181654691696, 0.9961816072463989, -0.11324697732925415, -0.12023735046386719, 1.486083984375, 1.264892578125, 0.119354248046875, 1.5966796875
338484, 0.25201770663261414, -0.8581893444061279, 0.33497723937034607, 6.005893230438232, -2.0153117179870605, -1.4154987335205078, 1.1481503248214722, -0.35998523235321045, -0.18089845776557922, -0.003811765694990754, 0.11213399469852448, 0.2418612241744995, 0.05704003729458116, -1.1915056814831644, -10.373956132985189, 9362.0, 34078.0, 35388.0, 9362.0, 8.251240730285645, 0.04285483807325363, 0.23963098227977753, 0.45600152015686035, 0.001137233106419444, -0.06965678930282593, 0.9962595105171204, -0.1145206168293953, -0.15607833862304688, 1.483154296875, 1.26708984375, 0.1136474609375, 1.599609375
338494, 0.2516973316669464, -0.8582690358161926, 0.33542492985725403, 6.0173821449279785, -2.018913745880127, -1.4173095226287842, 1.149616003036499, -0.36040520668029785, -0.18125833570957184, -0.0038230533245950937, 0.11212329566478729, 0.24185685813426971, 0.0662860834456316, -1.2075646643062328, -10.349347455503834, 9362.0, 34078.0, 35388.0, 9362.0, 8.251240730285645, 0.1171017661690712, 0.44148164987564087, 0.041047368198633194, 0.0009971483377739787, -0.0678223967552185, 0.9976922869682312, -0.11533381044864655, -0.1291980743408203, 1.4853515625, 1.260498046875, 0.1313934326171875, 1.5908203125
338504, 0.2518077492713928, -0.8601706027984619, 0.33533093333244324, 6.028885841369629, -2.022519826889038, -1.4191229343414307, 1.1510854959487915, -0.3608274757862091, -0.1814180165529251, -0.0038049938157200813, 0.11211200803518295, 0.24189862608909607, 0.06208324788542034, -1.2490337738135509, -10.344416357535897, 9362.0, 34078.0, 35388.0, 9362.0, 8.251240730285645, -0.05713401362299919, 0.1738288849592209, 0.3006807863712311, 0.0020005074329674244, -0.06549778580665588, 0.999060869216919, -0.11535096168518066, -0.14711761474609375, 1.48388671875, 1.264892578125, 0.119354248046875, 1.595947265625
338514, 0.25110873579978943, -0.8600435256958008, 0.3357091248035431, 6.040403842926025, -2.026130199432373, -1.4209376573562622, 1.1525559425354004, -0.3612493872642517, -0.18152518570423126, -0.0038122916594147682, 0.11211459338665009, 0.241893470287323, 0.022872503965812807, -1.1709386267558273, -10.344277638770253, 9362.0, 34078.0, 35388.0, 9362.0, 8.251240730285645, 0.053072892129421234, 0.10156721621751785, -0.19676558673381805, -0.0003192010917700827, -0.06786154955625534, 0.9984715580940247, -0.11283070594072342, -0.09335899353027344, 1.48828125, 1.267822265625, 0.111724853515625, 1.598876953125
338524, 0.25342947244644165, -0.8618521690368652, 0.3359992504119873, 6.051936626434326, -2.029744863510132, -1.4227538108825684, 1.1540286540985107, -0.36167117953300476, -0.18170218169689178, -0.0038058683276176453, 0.11212281882762909, 0.2418334186077118, 0.09352589940367195, -1.2014414603578132, -10.326138903733204, 9362.0, 34078.0, 35388.0, 9362.0, 8.251240730285645, 0.32053855061531067, 0.43806472420692444, 0.11585471034049988, -8.866498683346435e-05, -0.06939301639795303, 0.9988452196121216, -0.10930030792951584, -0.10231781005859375, 1.487548828125, 1.265625, 0.1174468994140625, 1.59521484375
338534, 0.25230932235717773, -0.8648304343223572, 0.3357560336589813, 6.063484191894531, -2.0333635807037354, -1.42457115650177, 1.1555026769638062, -0.3620922565460205, -0.18176276981830597, -0.0037999360356479883, 0.11211124062538147, 0.24187394976615906, 0.06928960534485078, -1.195699443024779, -10.330716940268747, 9362.0, 34078.0, 35388.0, 9362.0, 8.251240730285645, -0.0018628404941409826, 0.046094488352537155, -0.082332544028759, -0.0004188315069768578, -0.06784804910421371, 1.0008373260498047, -0.11107326298952103, -0.11127853393554688, 1.48681640625, 1.263427734375, 0.1233062744140625, 1.594482421875
338544, 0.2523835599422455, -0.8659714460372925, 0.3365952670574188, 6.075046539306641, -2.0369865894317627, -1.4263885021209717, 1.1569823026657104, -0.3625178337097168, -0.18169723451137543, -0.003793982556089759, 0.11214069277048111, 0.2418852299451828, -0.013149071192450307, -1.186637369346215, -10.359970866368103, 9362.0, 34078.0, 35388.0, 9362.0, 8.251240730285645, -0.04251447319984436, -0.058840129524469376, -0.03997978940606117, -0.002563504735007882, -0.06951258331537247, 1.000030755996704, -0.1151399090886116, -0.15607833862304688, 1.483154296875, 1.259033203125, 0.135589599609375, 1.59814453125
338554, 0.2527756989002228, -0.8651296496391296, 0.3363267183303833, 6.086623668670654, -2.040613889694214, -1.4282053709030151, 1.1584657430648804, -0.3629412353038788, -0.18168729543685913, -0.0038067155983299017, 0.11212122440338135, 0.2418542206287384, 0.06303687034781816, -1.1740051870446848, -10.345127182041761, 9362.0, 34078.0, 35388.0, 9362.0, 8.251240730285645, -0.07245327532291412, 0.010426551103591919, -0.03786024823784828, -0.00138376303948462, -0.06885266304016113, 0.9997570514678955, -0.1148061528801918, -0.10231781005859375, 1.487548828125, 1.2626953125, 0.1252593994140625, 1.59814453125
338564, 0.25261902809143066, -0.8648295402526855, 0.33548006415367126, 6.098215579986572, -2.044245481491089, -1.4300227165222168, 1.1599496603012085, -0.3633643090724945, -0.18178436160087585, -0.0037963232025504112, 0.11212845146656036, 0.2418578714132309, 0.060329499975489906, -1.2178368087444085, -10.361890955029969, 9362.0, 34078.0, 35388.0, 9362.0, 8.251240730285645, 0.07441380620002747, 0.23180115222930908, -0.15258966386318207, -0.0011644115438684821, -0.06748367100954056, 0.9992393851280212, -0.11720490455627441, -0.11127853393554688, 1.48681640625, 1.2626953125, 0.1252593994140625, 1.591552734375
338574, 0.2522810995578766, -0.8662377595901489, 0.3349917232990265, 6.1098222732543945, -2.0478811264038086, -1.4318408966064453, 1.1614327430725098, -0.3637881875038147, -0.18184301257133484, -0.0037800646387040615, 0.11211690306663513, 0.24186106026172638, 0.10311896823799903, -1.226844713106317, -10.360392891634644, 9362.0, 34078.0, 35388.0, 9362.0, 8.251240730285645, 0.13487699627876282, 0.2576504051685333, 0.06199238821864128, -0.0007811149698682129, -0.06834099441766739, 0.9992281198501587, -0.11269157379865646, -0.10231781005859375, 1.487548828125, 1.307373046875, 0.039581298828125, 1.598876953125
338584, 0.2528142035007477, -0.8664987087249756, 0.33243584632873535, 6.121444225311279, -2.051521062850952, -1.4336602687835693, 1.1629130840301514, -0.36421123147010803, -0.18202556669712067, -0.0037867180071771145, 0.11212723702192307, 0.24186895787715912, 0.08315381520598322, -1.1962930656678452, -10.358334128994885, 9362.0, 34078.0, 35388.0, 9362.0, 8.251240730285645, -0.0019690264016389847, -0.22412507236003876, -0.46949127316474915, -0.0019647148437798023, -0.06861377507448196, 0.9976697564125061, -0.11479172855615616, -0.13815879821777344, 1.484619140625, 1.317626953125, 0.0291900634765625, 1.5966796875
338594, 0.2532789707183838, -0.8666091561317444, 0.3317264914512634, 6.133080959320068, -2.0551652908325195, -1.4354814291000366, 1.164396047592163, -0.36463385820388794, -0.18221071362495422, -0.0037807903718203306, 0.11213097721338272, 0.2418712079524994, 0.10368649343102906, -1.248951158196121, -10.348716834132786, 9362.0, 34078.0, 35388.0, 9362.0, 8.251240730285645, -0.10463941842317581, -0.03754683583974838, 0.20167450606822968, -0.0005611686501652002, -0.06729016453027725, 0.9994165301322937, -0.11625442653894424, -0.12023735046386719, 1.486083984375, 1.31689453125, 0.0298919677734375, 1.59375
338604, 0.25284543633461, -0.8663500547409058, 0.33343076705932617, 6.144732475280762, -2.0588138103485107, -1.4373037815093994, 1.1658815145492554, -0.36505797505378723, -0.1822613924741745, -0.0037891347892582417, 0.11212199926376343, 0.2418695092201233, 0.10381856600097207, -1.204066101041576, -10.36817440892497, 9362.0, 34078.0, 35388.0, 9362.0, 8.251240730285645, 0.062158968299627304, -0.09587249904870987, -0.009537442587316036, 0.000743311713449657, -0.06783607602119446, 1.0000524520874023, -0.11995925009250641, -0.07543754577636719, 1.48974609375, 1.30810546875, 0.0388031005859375, 1.59521484375
338614, 0.25181496143341064, -0.865760087966919, 0.3339051306247711, 6.156398773193359, -2.062466621398926, -1.4391266107559204, 1.1673671007156372, -0.3654828667640686, -0.18230807781219482, -0.0037960847839713097, 0.11213026195764542, 0.2418612539768219, 0.043395142266589234, -1.1492678780203107, -10.337260639070925, 9362.0, 34078.0, 35388.0, 9362.0, 8.251240730285645, 0.14101411402225494, -0.16169269382953644, 0.4377571642398834, -0.001052530133165419, -0.06934339553117752, 0.9990208745002747, -0.11870397627353668, -0.11127853393554688, 1.48681640625, 1.316162109375, 0.030517578125, 1.59521484375
338624, 0.25322383642196655, -0.8656971454620361, 0.336584210395813, 6.168079853057861, -2.0661234855651855, -1.4409502744674683, 1.168851375579834, -0.365906685590744, -0.1824227273464203, -0.0037948130629956722, 0.1121281236410141, 0.24185727536678314, 0.12048284247571099, -1.283606394569773, -10.350032345703992, 9362.0, 34078.0, 35388.0, 9362.0, 8.251240730285645, -0.01718929223716259, 0.12190759927034378, 0.3653268814086914, -0.0004788103688042611, -0.06971172988414764, 0.9989925622940063, -0.1179630383849144, -0.07543754577636719, 1.48974609375, 1.31103515625, 0.0355682373046875, 1.59521484375
338634, 0.2535316050052643, -0.8675912022590637, 0.3385268449783325, 6.179775714874268, -2.069784641265869, -1.4427751302719116, 1.1703344583511353, -0.3663286566734314, -0.18254129588603973, -0.003803195897489786, 0.11212531477212906, 0.24187278747558594, 0.0752243503658176, -1.2123778199601247, -10.334402324715477, 9362.0, 34078.0, 35388.0, 9362.0, 8.251240730285645, -0.10897187143564224, -0.12353254109621048, -0.2837451100349426, -0.00016428738308604807, -0.07000461965799332, 0.9992162585258484, -0.11720128357410431, -0.1291980743408203, 1.4853515625, 1.3447265625, 0.0158538818359375, 1.5966796875
338644, 0.2531370520591736, -0.8669358491897583, 0.3368126153945923, 6.191486358642578, -2.0734500885009766, -1.4446008205413818, 1.171818494796753, -0.3667532801628113, -0.1825941950082779, -0.003793648211285472, 0.11212777346372604, 0.24188140034675598, 0.0330503079162625, -1.1881428431232735, -10.369668508059753, 9362.0, 34078.0, 35388.0, 9362.0, 8.251240730285645, -0.040471307933330536, -0.13537482917308807, 0.18925483524799347, -0.0009098340524360538, -0.06977623701095581, 1.000261664390564, -0.1168307512998581, -0.1291980743408203, 1.4853515625, 1.354248046875, 0.0154266357421875, 1.59521484375
338654, 0.2518869936466217, -0.8641782999038696, 0.3391036093235016, 6.203211784362793, -2.077119827270508, -1.4464269876480103, 1.173305869102478, -0.36717846989631653, -0.18264588713645935, -0.0037912495899945498, 0.11212370544672012, 0.24186059832572937, 0.08915945484290361, -1.2506901847318659, -10.34347895939761, 9362.0, 34078.0, 35388.0, 9362.0, 8.251240730285645, 0.09725718200206757, -0.17135268449783325, 0.006413795053958893, -0.0010982711100950837, -0.06863192468881607, 0.9966081976890564, -0.11484137922525406, -0.10231781005859375, 1.487548828125, 1.348388671875, 0.0154571533203125, 1.60107421875
338704, 0.25340530276298523, -0.8745269179344177, 0.34304821491241455, 6.262063026428223, -2.095531463623047, -1.4555819034576416, 1.1807224750518799, -0.369295597076416, -0.18305394053459167, -0.0037948177196085453, 0.11213590204715729, 0.24187538027763367, 0.0680862650553772, -1.2321797320061023, -10.33411027457667, 9362.0, 34078.0, 35388.0, 9362.0, 8.251240730285645, -0.09385871142148972, -0.04280965402722359, 0.1246354728937149, -0.0015494800172746181, -0.06641905009746552, 0.9975541234016418, -0.1149381548166275, -0.14711761474609375, 1.48388671875, 1.349853515625, 0.015350341796875, 1.5966796875
338714, 0.25302889943122864, -0.8743982911109924, 0.34222355484962463, 6.2738776206970215, -2.099226474761963, -1.4574122428894043, 1.1822187900543213, -0.36972030997276306, -0.1830124408006668, -0.003803284838795662, 0.1121373400092125, 0.241880401968956, 0.06965191239374122, -1.2352201591364178, -10.353032342467463, 9362.0, 34078.0, 35388.0, 9362.0, 8.251240730285645, -0.09385871142148972, -0.04280965402722359, 0.1246354728937149, -0.0015494800172746181, -0.06641905009746552, 0.9975541234016418, -0.1149381548166275, -0.14711761474609375, 1.48388671875, 1.349853515625, 0.015350341796875, 1.5966796875
338794, 0.25711292028427124, -0.8775550723075867, 0.3419305682182312, 6.345080852508545, -2.1214866638183594, -1.4683985710144043, 1.1912202835083008, -0.3722783029079437, -0.18313342332839966, -0.00378658389672637, 0.11214392632246017, 0.24188920855522156, 0.03889773989472585, -1.1928335274199924, -10.362070789837828, 9362.0, 34078.0, 35388.0, 9362.0, 8.251240730285645, 0.009139010682702065, 0.2540837228298187, 0.15870977938175201, -0.0015494800172746181, -0.06641905009746552, 0.9975541234016418, -0.10703346133232117, -0.12023735046386719, 1.486083984375, 1.351318359375, 0.0153350830078125, 1.595947265625
338854, 0.2562764883041382, -0.8724498152732849, 0.3432803452014923, 6.440857887268066, -2.1514062881469727, -1.483117699623108, 1.203202247619629, -0.37572017312049866, -0.18440604209899902, -0.003785607172176242, 0.11212576180696487, 0.2419116348028183, 0.08942947552970222, -1.2591521217205468, -10.357233109784302, 9362.0, 34078.0, 35388.0, 9362.0, 8.251240730285645, -0.208418071269989, 0.21070586144924164, 0.06603540480136871, -0.0015494800172746181, -0.06641905009746552, 0.9975541234016418, -0.11798557639122009, -0.09335899353027344, 1.48828125, 1.348388671875, 0.0154571533203125, 1.59814453125
338874, 0.25640860199928284, -0.872451663017273, 0.3439089357852936, 6.464951992034912, -2.1589293479919434, -1.4868074655532837, 1.2061938047409058, -0.37657907605171204, -0.18464849889278412, -0.003790528979152441, 0.11212195456027985, 0.24186867475509644, 0.00013043111037111698, -1.1426967661054164, -10.355323910986604, 9362.0, 34078.0, 35388.0, 9362.0, 8.251240730285645, 0.13172540068626404, -0.18955637514591217, 0.38567671179771423, -0.0015494800172746181, -0.06641905009746552, 0.9975541234016418, -0.11798557639122009, -0.09335899353027344, 1.48828125, 1.348388671875, 0.0154571533203125, 1.59521484375
338904, 0.2595234513282776, -0.87080979347229, 0.34350472688674927, 6.501204967498779, -2.170246124267578, -1.4923591613769531, 1.2106750011444092, -0.3778678774833679, -0.18531522154808044, -0.0038006410468369722, 0.11211683601140976, 0.24187910556793213, 0.08133800784716635, -1.2073053651452597, -10.344997982797492, 9362.0, 34078.0, 35388.0, 9362.0, 8.251240730285645, 0.13172540068626404, -0.18955637514591217, 0.38567671179771423, -0.0015494800172746181, -0.06641905009746552, 0.9975541234016418, -0.11798557639122009, -0.09335899353027344, 1.48828125, 1.349853515625, 0.015350341796875, 1.5966796875
338914, 0.2599760890007019, -0.8699020147323608, 0.34189292788505554, 6.501204967498779, -2.170246124267578, -1.4923591613769531, 1.2106750011444092, -0.3778678774833679, -0.18531522154808044, -0.0037982072681188583, 0.11213675886392593, 0.24190159142017365, 0.04955056096068712, -1.235072085266637, -10.342378727177104, 9362.0, 34078.0, 35388.0, 9362.0, 8.251240730285645, 0.13172540068626404, -0.18955637514591217, 0.38567671179771423, -0.0015494800172746181, -0.06641905009746552, 0.9975541234016418, -0.11286560446023941, -0.11127853393554688, 1.48681640625, 1.349853515625, 0.015350341796875, 1.5966796875
338924, 0.25899502635002136, -0.8709902763366699, 0.3428458869457245, 6.501204967498779, -2.170246124267578, -1.4923591613769531, 1.2106750011444092, -0.3778678774833679, -0.18531522154808044, -0.003799225203692913, 0.11214257031679153, 0.2419106662273407, 0.0688480972287596, -1.2220998732810813, -10.34205356580974, 9362.0, 34078.0, 35388.0, 9362.0, 8.251240730285645, 0.13172540068626404, -0.18955637514591217, 0.38567671179771423, -0.0015494800172746181, -0.06641905009746552, 0.9975541234016418, -0.11286560446023941, -0.11127853393554688, 1.48681640625, 1.399658203125, 0.0396575927734375, 1.5966796875
338964, 0.26054906845092773, -0.8718483448028564, 0.3454727232456207, 6.574113845825195, -2.1929962635040283, -1.5035228729248047, 1.2196226119995117, -0.3804698586463928, -0.1866178661584854, -0.0037676715292036533, 0.11212287843227386, 0.24188841879367828, 0.045639151635819414, -1.21126159648, -10.349326981919019, 9362.0, 34078.0, 35388.0, 9362.0, 8.251240730285645, 0.027819497510790825, -0.2853183150291443, -0.08694113045930862, -0.0015494800172746181, -0.06641905009746552, 0.9975541234016418, -0.11286560446023941, -0.11127853393554688, 1.48681640625, 1.270751953125, 0.104522705078125, 1.595947265625
338984, 0.2616492509841919, -0.8696630001068115, 0.34567973017692566, 6.586317539215088, -2.196803092956543, -1.5053902864456177, 1.2211172580718994, -0.3809041380882263, -0.18687056005001068, -0.00379354739561677, 0.1121189072728157, 0.24192538857460022, 0.0963984104711169, -1.2155020015726166, -10.357149645630036, 9362.0, 34078.0, 35388.0, 9362.0, 8.251240730285645, 0.027819497510790825, -0.2853183150291443, -0.08694113045930862, -0.0015494800172746181, -0.06641905009746552, 0.9975541234016418, -0.12250851094722748, -0.10231781005859375, 1.487548828125, 1.260498046875, 0.1313934326171875, 1.59521484375
338994, 0.2614782154560089, -0.8684718012809753, 0.3464730679988861, 6.586317539215088, -2.196803092956543, -1.5053902864456177, 1.2211172580718994, -0.3809041380882263, -0.18687056005001068, -0.0037671360187232494, 0.11212567985057831, 0.241946280002594, 0.07186579922695033, -1.2502411044749238, -10.35395748033743, 9362.0, 34078.0, 35388.0, 9362.0, 8.251240730285645, 0.027819497510790825, -0.2853183150291443, -0.08694113045930862, -0.0015494800172746181, -0.06641905009746552, 0.9975541234016418, -0.12460000813007355, -0.14711761474609375, 1.48388671875, 1.260498046875, 0.1313934326171875, 1.598876953125
339034, 0.264117032289505, -0.8726391196250916, 0.34689995646476746, 6.647559642791748, -2.215902805328369, -1.5147544145584106, 1.228570818901062, -0.3830921947956085, -0.18734093010425568, -0.003792747389525175, 0.11213723570108414, 0.24190090596675873, 0.04796935378889119, -1.1892072247030967, -10.35283106522284, 9362.0, 34078.0, 35388.0, 9362.0, 8.251240730285645, -0.051558393985033035, 0.2963322401046753, -0.029041074216365814, -0.0015494800172746181, -0.06641905009746552, 0.9975541234016418, -0.11894349008798599, -0.14711761474609375, 1.48388671875, 1.264892578125, 0.119354248046875, 1.595947265625
339054, 0.26381123065948486, -0.8736239671707153, 0.3475024402141571, 6.672161102294922, -2.2235734462738037, -1.5185012817382812, 1.231553554534912, -0.38397690653800964, -0.18736474215984344, -0.003786799032241106, 0.11211812496185303, 0.2419031262397766, 0.015021036729853537, -1.1811937647065918, -10.356471040540816, 9362.0, 34078.0, 35388.0, 9362.0, 8.251240730285645, -0.033620841801166534, 0.034416504204273224, 0.0017359539633616805, -0.0015494800172746181, -0.06641905009746552, 0.9975541234016418, -0.1161864623427391, -0.07543754577636719, 1.48974609375, 1.264892578125, 0.119354248046875, 1.597412109375
339084, 0.2641637921333313, -0.8760123252868652, 0.3515862226486206, 6.709175109863281, -2.2351126670837402, -1.524129033088684, 1.2360397577285767, -0.38530340790748596, -0.18781733512878418, -0.0037868437357246876, 0.11213348805904388, 0.24186842143535614, 0.06983873552742288, -1.2094794141096088, -10.34448684492568, 9362.0, 34078.0, 35388.0, 9362.0, 8.251240730285645, 0.023548362776637077, -0.07035970687866211, 0.4732041358947754, -0.0015494800172746181, -0.06641905009746552, 0.9975541234016418, -0.11416342109441757, -0.09335899353027344, 1.48828125, 1.352783203125, 0.015350341796875, 1.59375
339094, 0.26482006907463074, -0.8764288425445557, 0.3532155752182007, 6.733925819396973, -2.2428276538848877, -1.5278867483139038, 1.239041805267334, -0.3861868381500244, -0.18796047568321228, -0.003759365761652589, 0.11211838573217392, 0.24192677438259125, 0.05673731693875664, -1.2029541460988753, -10.366625140171152, 9362.0, 34078.0, 35388.0, 9362.0, 8.251240730285645, 0.023548362776637077, -0.07035970687866211, 0.4732041358947754, -0.0015494800172746181, -0.06641905009746552, 0.9975541234016418, -0.11416342109441757, -0.09335899353027344, 1.48828125, 1.352783203125, 0.015350341796875, 1.5966796875
339114, 0.2661060690879822, -0.8792028427124023, 0.35249412059783936, 6.733925819396973, -2.2428276538848877, -1.5278867483139038, 1.239041805267334, -0.3861868381500244, -0.18796047568321228, -0.0037815605755895376, 0.11213192343711853, 0.24191530048847198, 0.057979871670976894, -1.1957742567308003, -10.345762996309332, 9362.0, 34078.0, 35388.0, 9362.0, 8.251240730285645, 0.023548362776637077, -0.07035970687866211, 0.4732041358947754, -0.0015494800172746181, -0.06641905009746552, 0.9975541234016418, -0.11188805848360062, -0.05751800537109375, 1.4912109375, 1.343994140625, 0.015899658203125, 1.594482421875
339144, 0.2664083242416382, -0.880817174911499, 0.35433635115623474, 6.797312259674072, -2.2625811100006104, -1.5374963283538818, 1.2467106580734253, -0.38845428824424744, -0.1889292597770691, -0.003764956956729293, 0.11212220788002014, 0.24192389845848083, 0.04061429954711174, -1.2427737920361324, -10.352811879872123, 9362.0, 34078.0, 35388.0, 9362.0, 8.251240730285645, -0.24717696011066437, -0.1889888048171997, 0.05457961931824684, -0.0015494800172746181, -0.06641905009746552, 0.9975541234016418, -0.11188805848360062, -0.05751800537109375, 1.4912109375, 1.341064453125, 0.01654052734375, 1.5966796875
339154, 0.2663381099700928, -0.8795877695083618, 0.35278281569480896, 6.797312259674072, -2.2625811100006104, -1.5374963283538818, 1.2467106580734253, -0.38845428824424744, -0.1889292597770691, -0.0037951201666146517, 0.11212311685085297, 0.24186712503433228, 0.06732707722651655, -1.208090404689898, -10.318633374686424, 9362.0, 34078.0, 35388.0, 9362.0, 8.251240730285645, -0.24717696011066437, -0.1889888048171997, 0.05457961931824684, -0.0015494800172746181, -0.06641905009746552, 0.9975541234016418, -0.1129302829504013, -0.15607833862304688, 1.483154296875, 1.341064453125, 0.01654052734375, 1.598876953125
339184, 0.26612699031829834, -0.8841426372528076, 0.35535913705825806, 6.847301006317139, -2.2781550884246826, -1.5450663566589355, 1.2527399063110352, -0.39024215936660767, -0.18961797654628754, -0.003776241559535265, 0.112129807472229, 0.24191056191921234, 0.08534816116259562, -1.2233255707774617, -10.358006280288574, 9362.0, 34078.0, 35388.0, 9362.0, 8.251240730285645, -0.3482259511947632, 0.1495378017425537, 0.15055562555789948, -0.0015494800172746181, -0.06641905009746552, 0.9975541234016418, -0.11557071655988693, -0.11127853393554688, 1.48681640625, 1.319091796875, 0.0279998779296875, 1.594482421875
339204, 0.26432478427886963, -0.8865523934364319, 0.35288143157958984, 6.847301006317139, -2.2781550884246826, -1.5450663566589355, 1.2527399063110352, -0.39024215936660767, -0.18961797654628754, -0.0037843049503862858, 0.11211840063333511, 0.24190041422843933, 0.07927687218863254, -1.2004232184023635, -10.332429016724996, 9362.0, 34078.0, 35388.0, 9362.0, 8.251240730285645, -0.3482259511947632, 0.1495378017425537, 0.15055562555789948, -0.0015494800172746181, -0.06641905009746552, 0.9975541234016418, -0.11506111919879913, -0.09335899353027344, 1.48828125, 1.319091796875, 0.0279998779296875, 1.5966796875
339214, 0.2647280693054199, -0.8858091235160828, 0.35268887877464294, 6.847301006317139, -2.2781550884246826, -1.5450663566589355, 1.2527399063110352, -0.39024215936660767, -0.18961797654628754, -0.0037727910093963146, 0.11212633550167084, 0.24190592765808105, 0.10035140732235963, -1.2379260348538992, -10.358294760967873, 9362.0, 34078.0, 35388.0, 9362.0, 8.251240730285645, -0.3482259511947632, 0.1495378017425537, 0.15055562555789948, -0.0015494800172746181, -0.06641905009746552, 0.9975541234016418, -0.11330267786979675, -0.09335899353027344, 1.48828125, 1.319091796875, 0.0279998779296875, 1.5966796875
339224, 0.2638675570487976, -0.8873858451843262, 0.3533822000026703, 6.847301006317139, -2.2781550884246826, -1.5450663566589355, 1.2527399063110352, -0.39024215936660767, -0.18961797654628754, -0.003769008908420801, 0.11213687807321548, 0.24191966652870178, 0.06540509614400938, -1.1887757073272098, -10.359301378608121, 9362.0, 34078.0, 35388.0, 9362.0, 8.251240730285645, -0.3482259511947632, 0.1495378017425537, 0.15055562555789948, -0.0015494800172746181, -0.06641905009746552, 0.9975541234016418, -0.11849986761808395, -0.1650371551513672, 1.482421875, 1.319091796875, 0.0279998779296875, 1.59814453125
339274, 0.26503807306289673, -0.8944697380065918, 0.3474176824092865, 6.948005676269531, -2.309516429901123, -1.5602798461914062, 1.2648897171020508, -0.39378708600997925, -0.19053909182548523, -0.003775430377572775, 0.11213306337594986, 0.24193793535232544, 0.12415758908117046, -1.2666735696609237, -10.361042905187217, 9362.0, 34078.0, 35388.0, 9362.0, 8.251240730285645, 0.1549515724182129, -0.008140469901263714, -0.478989839553833, -0.0015494800172746181, -0.06641905009746552, 0.9975541234016418, -0.11564311385154724, -0.09335899353027344, 1.48828125, 1.319091796875, 0.0279998779296875, 1.598876953125
339284, 0.26406288146972656, -0.8938678503036499, 0.34623032808303833, 6.948005676269531, -2.309516429901123, -1.5602798461914062, 1.2648897171020508, -0.39378708600997925, -0.19053909182548523, -0.0037790201604366302, 0.11211974918842316, 0.24189719557762146, 0.04922320646943578, -1.1867297110475477, -10.34676382217324, 9362.0, 34078.0, 35388.0, 9362.0, 8.251240730285645, 0.1549515724182129, -0.008140469901263714, -0.478989839553833, -0.0015494800172746181, -0.06641905009746552, 0.9975541234016418, -0.1131681427359581, -0.1291980743408203, 1.4853515625, 1.319091796875, 0.0279998779296875, 1.598876953125
339324, 0.26656994223594666, -0.8937090635299683, 0.34647244215011597, 7.011441707611084, -2.32926082611084, -1.5698256492614746, 1.2725462913513184, -0.39599883556365967, -0.19127006828784943, -0.0037648454308509827, 0.11210367828607559, 0.2419499307870865, 0.01584145828449516, -1.2230085097908727, -10.33145850615147, 9362.0, 34078.0, 35388.0, 9362.0, 8.251240730285645, 0.06444474309682846, -0.08497752249240875, -0.007818314246833324, -0.0015494800172746181, -0.06641905009746552, 0.9975541234016418, -0.11756428331136703, -0.1291980743408203, 1.4853515625, 1.319091796875, 0.0279998779296875, 1.6025390625
339334, 0.26562875509262085, -0.8942269682884216, 0.3475983142852783, 7.011441707611084, -2.32926082611084, -1.5698256492614746, 1.2725462913513184, -0.39599883556365967, -0.19127006828784943, -0.003791676601395011, 0.11212869733572006, 0.24193069338798523, 0.09469269088361573, -1.2340247506259345, -10.345556211625036, 9362.0, 34078.0, 35388.0, 9362.0, 8.251240730285645, 0.06444474309682846, -0.08497752249240875, -0.007818314246833324, -0.0015494800172746181, -0.06641905009746552, 0.9975541234016418, -0.11756428331136703, -0.1291980743408203, 1.4853515625, 1.319091796875, 0.0279998779296875, 1.59375
339344, 0.26545822620391846, -0.893902599811554, 0.346343994140625, 7.011441707611084, -2.32926082611084, -1.5698256492614746, 1.2725462913513184, -0.39599883556365967, -0.19127006828784943, -0.0037917860317975283, 0.11210787296295166, 0.2419302612543106, 0.05597741954692436, -1.2695564403101685, -10.33708672890972, 9362.0, 34078.0, 35388.0, 9362.0, 8.251240730285645, 0.06444474309682846, -0.08497752249240875, -0.007818314246833324, -0.0015494800172746181, -0.06641905009746552, 0.9975541234016418, -0.11947812139987946, -0.1291980743408203, 1.4853515625, 1.319091796875, 0.0279998779296875, 1.5966796875
339374, 0.2664441168308258, -0.9004466533660889, 0.34880027174949646, 7.075261116027832, -2.349116325378418, -1.5794095993041992, 1.280203938484192, -0.39822497963905334, -0.19220884144306183, -0.0037652701139450073, 0.11212845146656036, 0.24194853007793427, 0.11301022941516865, -1.2668205369869838, -10.3467344066098, 9362.0, 34078.0, 35388.0, 9362.0, 8.251240730285645, -0.1249566599726677, 0.18531635403633118, 0.24036569893360138, -0.0015494800172746181, -0.06641905009746552, 0.9975541234016418, -0.12033332884311676, -0.1291980743408203, 1.4853515625, 1.316162109375, 0.030517578125, 1.5966796875
339394, 0.2668910622596741, -0.9043793082237244, 0.345030277967453, 7.075261116027832, -2.349116325378418, -1.5794095993041992, 1.280203938484192, -0.39822497963905334, -0.19220884144306183, -0.0037562288343906403, 0.11211250722408295, 0.24194689095020294, 0.10190044301377801, -1.2631242009052812, -10.359317263134859, 9362.0, 34078.0, 35388.0, 9362.0, 8.251240730285645, -0.1249566599726677, 0.18531635403633118, 0.24036569893360138, -0.0015494800172746181, -0.06641905009746552, 0.9975541234016418, -0.11985599994659424, -0.08439826965332031, 1.489013671875, 1.316162109375, 0.030517578125, 1.59521484375
339404, 0.26782840490341187, -0.9029985666275024, 0.3436168432235718, 7.075261116027832, -2.349116325378418, -1.5794095993041992, 1.280203938484192, -0.39822497963905334, -0.19220884144306183, -0.0037409085780382156, 0.11211520433425903, 0.24196170270442963, 0.12368794557760272, -1.229271971597143, -10.344280522373651, 9362.0, 34078.0, 35388.0, 9362.0, 8.251240730285645, -0.1249566599726677, 0.18531635403633118, 0.24036569893360138, -0.0015494800172746181, -0.06641905009746552, 0.9975541234016418, -0.12077663093805313, -0.18295860290527344, 1.48095703125, 1.316162109375, 0.030517578125, 1.59521484375
339454, 0.2675592601299286, -0.9061693549156189, 0.3427441418170929, 7.178170680999756, -2.381117105484009, -1.5948097705841064, 1.2925714254379272, -0.4018024206161499, -0.1927267462015152, -0.003773713018745184, 0.11212841421365738, 0.2419108897447586, 0.08760308481199255, -1.2639919780314983, -10.357622480788448, 9362.0, 34078.0, 35388.0, 9362.0, 8.251240730285645, -0.03878010809421539, 0.33871155977249146, 0.14303210377693176, -0.0015494800172746181, -0.06641905009746552, 0.9975541234016418, -0.1197420135140419, -0.1291980743408203, 1.4853515625, 1.304443359375, 0.043182373046875, 1.59375
339474, 0.2677522599697113, -0.9046216011047363, 0.34305354952812195, 7.21701717376709, -2.393191337585449, -1.6005985736846924, 1.2972254753112793, -0.4031471312046051, -0.19302202761173248, -0.00376562075689435, 0.1121254563331604, 0.24195101857185364, 0.12812660159891376, -1.2414422433392645, -10.348078761927178, 9362.0, 34078.0, 35388.0, 9362.0, 8.251240730285645, -0.03878010809421539, 0.33871155977249146, 0.14303210377693176, -0.0015494800172746181, -0.06641905009746552, 0.9975541234016418, -0.12017111480236053, -0.14711761474609375, 1.48388671875, 1.304443359375, 0.043182373046875, 1.598876953125
339494, 0.26741114258766174, -0.9059700965881348, 0.3455500602722168, 7.242992877960205, -2.4012632369995117, -1.6044610738754272, 1.3003267049789429, -0.4040437638759613, -0.19328106939792633, -0.00377707090228796, 0.11212996393442154, 0.24192076921463013, 0.07208242034459643, -1.2322273193100841, -10.331351795167098, 9362.0, 34078.0, 35388.0, 9362.0, 8.251240730285645, -0.03878010809421539, 0.33871155977249146, 0.14303210377693176, -0.0015494800172746181, -0.06641905009746552, 0.9975541234016418, -0.12017111480236053, -0.14711761474609375, 1.48388671875, 1.313232421875, 0.0333251953125, 1.5966796875
339514, 0.2676003873348236, -0.9071007370948792, 0.34747010469436646, 7.242992877960205, -2.4012632369995117, -1.6044610738754272, 1.3003267049789429, -0.4040437638759613, -0.19328106939792633, -0.0037752818316221237, 0.11214222759008408, 0.2419334352016449, 0.06684229503617166, -1.253523987264515, -10.325967829889516, 9362.0, 34078.0, 35388.0, 9362.0, 8.251240730285645, 0.009643398225307465, -0.22943595051765442, 0.03272102028131485, -0.0015494800172746181, -0.06641905009746552, 0.9975541234016418, -0.11961452662944794, -0.11127853393554688, 1.48681640625, 1.311767578125, 0.0348052978515625, 1.59375
339594, 0.2717738449573517, -0.9049674868583679, 0.34915682673454285, 7.347516059875488, -2.433730125427246, -1.619956135749817, 1.3127461671829224, -0.40764737129211426, -0.19409285485744476, -0.0037516290321946144, 0.11211903393268585, 0.2419366091489792, 0.1295849655859602, -1.2681655201021442, -10.352539309607987, 9362.0, 34078.0, 35388.0, 9362.0, 8.251240730285645, -0.09852705895900726, 0.2713027000427246, 0.3509939908981323, -0.0015494800172746181, -0.06641905009746552, 0.9975541234016418, -0.11982164531946182, -0.14711761474609375, 1.48388671875, 1.30810546875, 0.0388031005859375, 1.59521484375
339614, 0.27227580547332764, -0.9053003191947937, 0.34960034489631653, 7.347516059875488, -2.433730125427246, -1.619956135749817, 1.3127461671829224, -0.40764737129211426, -0.19409285485744476, -0.0037586120888590813, 0.1121196448802948, 0.24193720519542694, 0.10190803315373324, -1.2645602649518821, -10.352575354763413, 9362.0, 34078.0, 35388.0, 9362.0, 8.251240730285645, 0.15246887505054474, -0.24591828882694244, -0.019495079293847084, -0.0015494800172746181, -0.06641905009746552, 0.9975541234016418, -0.09627790749073029, -0.1291980743408203, 1.4853515625, 1.30810546875, 0.0388031005859375, 1.59814453125
339644, 0.27468687295913696, -0.9020482897758484, 0.3481353521347046, 7.439788818359375, -2.4623773097991943, -1.6335656642913818, 1.323596477508545, -0.4108428657054901, -0.1946990191936493, -0.0037524353247135878, 0.11212367564439774, 0.24191825091838837, 0.0807966079143739, -1.2351247777891956, -10.33401447523491, 9362.0, 34078.0, 35388.0, 9362.0, 8.251240730285645, 0.19931215047836304, -0.07658720016479492, -0.2678941488265991, -0.0015494800172746181, -0.06641905009746552, 0.9975541234016418, -0.10238702595233917, -0.14711761474609375, 1.48388671875, 1.30810546875, 0.0388031005859375, 1.59814453125
339654, 0.27434423565864563, -0.9002444744110107, 0.3471439480781555, 7.439788818359375, -2.4623773097991943, -1.6335656642913818, 1.323596477508545, -0.4108428657054901, -0.1946990191936493, -0.0037677190266549587, 0.11210627853870392, 0.24193045496940613, 0.04992363671609729, -1.2351851597228176, -10.313439394781827, 9362.0, 34078.0, 35388.0, 9362.0, 8.251240730285645, 0.19931215047836304, -0.07658720016479492, -0.2678941488265991, -0.0015494800172746181, -0.06641905009746552, 0.9975541234016418, -0.14625944197177887, -0.08439826965332031, 1.489013671875, 1.30810546875, 0.0388031005859375, 1.597412109375
339664, 0.2743648290634155, -0.8999189734458923, 0.346955269575119, 7.439788818359375, -2.4623773097991943, -1.6335656642913818, 1.323596477508545, -0.4108428657054901, -0.1946990191936493, -0.003751997835934162, 0.11212645471096039, 0.24197417497634888, 0.06865656063201106, -1.2384020277993386, -10.332229074239173, 9362.0, 34078.0, 35388.0, 9362.0, 8.251240730285645, 0.17027997970581055, 0.08451629430055618, 0.07272984832525253, -0.0015494800172746181, -0.06641905009746552, 0.9975541234016418, -0.14109571278095245, -0.10231781005859375, 1.487548828125, 1.30810546875, 0.0388031005859375, 1.597412109375
339684, 0.2746760845184326, -0.9011269807815552, 0.34461015462875366, 7.492856025695801, -2.4788477420806885, -1.6413638591766357, 1.3297737836837769, -0.4126814305782318, -0.19517825543880463, -0.003754974342882633, 0.11212679743766785, 0.24190634489059448, 0.04546826980420607, -1.2125695801753125, -10.345288081331129, 9362.0, 34078.0, 35388.0, 9362.0, 8.251240730285645, 0.17027997970581055, 0.08451629430055618, 0.07272984832525253, -0.0015494800172746181, -0.06641905009746552, 0.9975541234016418, -0.14109571278095245, -0.10231781005859375, 1.487548828125, 1.41357421875, 0.0542449951171875, 1.5966796875
339694, 0.27395546436309814, -0.8998824954032898, 0.34471046924591064, 7.492856025695801, -2.4788477420806885, -1.6413638591766357, 1.3297737836837769, -0.4126814305782318, -0.19517825543880463, -0.003768354654312134, 0.11211636662483215, 0.2419402003288269, 0.07888635385318932, -1.2338622366951881, -10.348444779033946, 9362.0, 34078.0, 35388.0, 9362.0, 8.251240730285645, 0.17027997970581055, 0.08451629430055618, 0.07272984832525253, -0.0015494800172746181, -0.06641905009746552, 0.9975541234016418, -0.14109571278095245, -0.10231781005859375, 1.487548828125, 1.275146484375, 0.09429931640625, 1.59375
339754, 0.2728726267814636, -0.9040181636810303, 0.3491710126399994, 7.586318492889404, -2.507848024368286, -1.6550401449203491, 1.3405762910842896, -0.41589653491973877, -0.1958659589290619, -0.003770020790398121, 0.11211934685707092, 0.24192459881305695, 0.1077831290889022, -1.2926214898589876, -10.349043728410859, 9362.0, 34078.0, 35388.0, 9362.0, 8.251240730285645, -0.004077064339071512, -0.0676695927977562, 0.12140481919050217, -0.0015494800172746181, -0.06641905009746552, 0.9975541234016418, -0.11469124257564545, -0.08439826965332031, 1.489013671875, 1.3740234375, 0.0210723876953125, 1.5966796875
339784, 0.27251502871513367, -0.9062368273735046, 0.3488311767578125, 7.62660551071167, -2.520345687866211, -1.6609281301498413, 1.3452156782150269, -0.4172672927379608, -0.19663871824741364, -0.0037544150836765766, 0.1121176928281784, 0.24199028313159943, 0.07341068537394838, -1.2843610329163084, -10.338025815111871, 9362.0, 34078.0, 35388.0, 9362.0, 8.251240730285645, -0.15599600970745087, -0.08521011471748352, -0.0719609409570694, -0.0015494800172746181, -0.06641905009746552, 0.9975541234016418, -0.1203889325261116, -0.08439826965332031, 1.489013671875, 1.330078125, 0.0206298828125, 1.5966796875
339804, 0.2714320421218872, -0.9070367217063904, 0.3459828197956085, 7.62660551071167, -2.520345687866211, -1.6609281301498413, 1.3452156782150269, -0.4172672927379608, -0.19663871824741364, -0.003747055772691965, 0.11211497336626053, 0.24191898107528687, 0.11388836016834702, -1.2778361113535937, -10.345973417294644, 9362.0, 34078.0, 35388.0, 9362.0, 8.251240730285645, -0.15599600970745087, -0.08521011471748352, -0.0719609409570694, -0.0015494800172746181, -0.06641905009746552, 0.9975541234016418, -0.09431146085262299, -0.04855918884277344, 1.491943359375, 1.34765625, 0.0154571533203125, 1.595947265625
339814, 0.2715986669063568, -0.903854250907898, 0.343767374753952, 7.62660551071167, -2.520345687866211, -1.6609281301498413, 1.3452156782150269, -0.4172672927379608, -0.19663871824741364, -0.003757480764761567, 0.11211206763982773, 0.2419515699148178, 0.16830962038868535, -1.3088815572961323, -10.346736986954118, 9362.0, 34078.0, 35388.0, 9362.0, 8.251240730285645, -0.15599600970745087, -0.08521011471748352, -0.0719609409570694, -0.0015494800172746181, -0.06641905009746552, 0.9975541234016418, -0.09431146085262299, -0.04855918884277344, 1.491943359375, 1.34765625, 0.0154571533203125, 1.595947265625
339824, 0.2722328007221222, -0.9054129123687744, 0.3431430160999298, 7.62660551071167, -2.520345687866211, -1.6609281301498413, 1.3452156782150269, -0.4172672927379608, -0.19663871824741364, -0.003779171034693718, 0.11210594326257706, 0.24192126095294952, 0.057928711619990955, -1.2590950985978964, -10.341101230409881, 9362.0, 34078.0, 35388.0, 9362.0, 8.251240730285645, -0.15599600970745087, -0.08521011471748352, -0.0719609409570694, -0.0015494800172746181, -0.06641905009746552, 0.9975541234016418, -0.09431146085262299, -0.04855918884277344, 1.491943359375, 1.30810546875, 0.0388031005859375, 1.5966796875
339844, 0.27281078696250916, -0.9131980538368225, 0.34491369128227234, 7.62660551071167, -2.520345687866211, -1.6609281301498413, 1.3452156782150269, -0.4172672927379608, -0.19663871824741364, -0.003759050741791725, 0.11212403327226639, 0.24191007018089294, 0.06617054962325229, -1.2010835964887576, -10.354221620876354, 9362.0, 34078.0, 35388.0, 9362.0, 8.251240730285645, -0.048612695187330246, 0.537733256816864, -0.012150018475949764, -0.0015494800172746181, -0.06641905009746552, 0.9975541234016418, -0.1249866634607315, -0.09335899353027344, 1.48828125, 1.30810546875, 0.0388031005859375, 1.60107421875
339854, 0.27122682332992554, -0.9127082824707031, 0.3466382920742035, 7.62660551071167, -2.520345687866211, -1.6609281301498413, 1.3452156782150269, -0.4172672927379608, -0.19663871824741364, -0.0037584949750453234, 0.11211878061294556, 0.24191603064537048, 0.14137853241381987, -1.288201764521574, -10.34363700468111, 9362.0, 34078.0, 35388.0, 9362.0, 8.251240730285645, -0.048612695187330246, 0.537733256816864, -0.012150018475949764, -0.0015494800172746181, -0.06641905009746552, 0.9975541234016418, -0.125366672873497, -0.1291980743408203, 1.4853515625, 1.30810546875, 0.0388031005859375, 1.59521484375
339874, 0.27042505145072937, -0.9129256010055542, 0.3475361764431, 7.748304843902588, -2.558084726333618, -1.6786302328109741, 1.3592264652252197, -0.4213760793209076, -0.1970045119524002, -0.0037492085248231888, 0.11212042719125748, 0.24194861948490143, 0.11937959707528391, -1.2486951802276565, -10.334296226869387, 9362.0, 34078.0, 35388.0, 9362.0, 8.251240730285645, -0.007787337526679039, 0.13105732202529907, 0.02515830472111702, -0.0015494800172746181, -0.06641905009746552, 0.9975541234016418, -0.125366672873497, -0.1291980743408203, 1.4853515625, 1.2626953125, 0.1252593994140625, 1.5966796875
339884, 0.27145063877105713, -0.9155833721160889, 0.3489282727241516, 7.748304843902588, -2.558084726333618, -1.6786302328109741, 1.3592264652252197, -0.4213760793209076, -0.1970045119524002, -0.0037682903930544853, 0.11211927980184555, 0.24194353818893433, 0.1003443564859744, -1.2362994113701404, -10.339674408530911, 9362.0, 34078.0, 35388.0, 9362.0, 8.251240730285645, -0.08537998795509338, 0.18239182233810425, -0.023199522867798805, -0.0015494800172746181, -0.06641905009746552, 0.9975541234016418, -0.12072212249040604, -0.10231781005859375, 1.487548828125, 1.2626953125, 0.1252593994140625, 1.594482421875
339894, 0.2703593373298645, -0.9167148470878601, 0.34869667887687683, 7.748304843902588, -2.558084726333618, -1.6786302328109741, 1.3592264652252197, -0.4213760793209076, -0.1970045119524002, -0.003756405785679817, 0.11211713403463364, 0.24191854894161224, 0.11910871424076218, -1.2535927656853403, -10.34495422633098, 9362.0, 34078.0, 35388.0, 9362.0, 8.251240730285645, -0.08537998795509338, 0.18239182233810425, -0.023199522867798805, -0.0015494800172746181, -0.06641905009746552, 0.9975541234016418, -0.12072212249040604, -0.10231781005859375, 1.487548828125, 1.2626953125, 0.1252593994140625, 1.599609375
339924, 0.2703630328178406, -0.917659342288971, 0.35036519169807434, 7.748304843902588, -2.558084726333618, -1.6786302328109741, 1.3592264652252197, -0.4213760793209076, -0.1970045119524002, -0.0037678927183151245, 0.11211836338043213, 0.24198076128959656, 0.07495963893717608, -1.3056265926065294, -10.344340711667707, 9362.0, 34078.0, 35388.0, 9362.0, 8.251240730285645, -0.16536198556423187, 0.0627748891711235, 0.06553781777620316, -0.0015494800172746181, -0.06641905009746552, 0.9975541234016418, -0.12190988659858704, -0.10231781005859375, 1.487548828125, 1.269287109375, 0.1081085205078125, 1.599609375
339944, 0.27181968092918396, -0.9169285297393799, 0.3512958288192749, 7.748304843902588, -2.558084726333618, -1.6786302328109741, 1.3592264652252197, -0.4213760793209076, -0.1970045119524002, -0.0037517244927585125, 0.11210048198699951, 0.24195709824562073, 0.15821133229147763, -1.327844744418769, -10.34921897516131, 9362.0, 34078.0, 35388.0, 9362.0, 8.251240730285645, -0.16536198556423187, 0.0627748891711235, 0.06553781777620316, -0.0015494800172746181, -0.06641905009746552, 0.9975541234016418, -0.11599922925233841, -0.1291980743408203, 1.4853515625, 1.267822265625, 0.111724853515625, 1.60107421875
339994, 0.2746634781360626, -0.918878972530365, 0.3525475561618805, 7.91254186630249, -2.608975648880005, -1.70238196849823, 1.3780752420425415, -0.42682817578315735, -0.198907271027565, -0.003755810670554638, 0.11213161051273346, 0.24193380773067474, 0.08020449825376626, -1.2365047132843188, -10.357878152464583, 9362.0, 34078.0, 35388.0, 9362.0, 8.251240730285645, -0.13832807540893555, 0.14837515354156494, 0.1766340583562851, -0.0015494800172746181, -0.06641905009746552, 0.9975541234016418, -0.1132519468665123, -0.12023735046386719, 1.486083984375, 1.272216796875, 0.1009979248046875, 1.595947265625
340004, 0.27375075221061707, -0.916723370552063, 0.3504301607608795, 7.91254186630249, -2.608975648880005, -1.70238196849823, 1.3780752420425415, -0.42682817578315735, -0.198907271027565, -0.0037623196840286255, 0.1121278628706932, 0.24193468689918518, 0.06993133033837746, -1.2505527124415607, -10.361332246052323, 9362.0, 34078.0, 35388.0, 9362.0, 8.251240730285645, -0.13832807540893555, 0.14837515354156494, 0.1766340583562851, -0.0015494800172746181, -0.06641905009746552, 0.9975541234016418, -0.1132519468665123, -0.12023735046386719, 1.486083984375, 1.272216796875, 0.1009979248046875, 1.595947265625
340044, 0.2692868113517761, -0.921495258808136, 0.34938740730285645, 7.981642723083496, -2.6303744316101074, -1.7123451232910156, 1.385939121246338, -0.42911747097969055, -0.19959793984889984, -0.003757198341190815, 0.11212830990552902, 0.24191533029079437, 0.08854838706648867, -1.2303545023160325, -10.35033588143229, 9362.0, 34078.0, 35388.0, 9362.0, 8.251240730285645, -0.13832807540893555, 0.14837515354156494, 0.1766340583562851, -0.0015494800172746181, -0.06641905009746552, 0.9975541234016418, -0.1132519468665123, -0.12023735046386719, 1.486083984375, 1.2626953125, 0.1252593994140625, 1.597412109375
340054, 0.26847177743911743, -0.92209792137146, 0.35077449679374695, 7.981642723083496, -2.6303744316101074, -1.7123451232910156, 1.385939121246338, -0.42911747097969055, -0.19959793984889984, -0.003758528269827366, 0.1121254563331604, 0.2419457882642746, 0.10734879841203208, -1.2742072998738365, -10.360221064003097, 9362.0, 34078.0, 35388.0, 9362.0, 8.251240730285645, -0.13832807540893555, 0.14837515354156494, 0.1766340583562851, -0.0015494800172746181, -0.06641905009746552, 0.9975541234016418, -0.11791667342185974, -0.10231781005859375, 1.487548828125, 1.2626953125, 0.1252593994140625, 1.597412109375
340074, 0.26776090264320374, -0.9270602464675903, 0.3517822325229645, 8.02329158782959, -2.643268346786499, -1.7183421850204468, 1.3906728029251099, -0.4304712414741516, -0.20020617544651031, -0.003756894264370203, 0.11212191730737686, 0.24193325638771057, 0.08906140416077865, -1.2340893104174029, -10.362478920696242, 9362.0, 34078.0, 35388.0, 9362.0, 8.251240730285645, -0.15762166678905487, 0.006885905284434557, -0.26869937777519226, -0.0015494800172746181, -0.06641905009746552, 0.9975541234016418, -0.11791667342185974, -0.10231781005859375, 1.487548828125, 1.266357421875, 0.1154937744140625, 1.59521484375
340114, 0.2650497257709503, -0.9328864216804504, 0.3558698296546936, 8.05113697052002, -2.6518869400024414, -1.7223494052886963, 1.3938449621200562, -0.431368350982666, -0.20048630237579346, -0.0037533449940383434, 0.11213286966085434, 0.24192838370800018, 0.09340156937762964, -1.2582047354935924, -10.333970679091802, 9362.0, 34078.0, 35388.0, 9362.0, 8.251240730285645, -0.03516675531864166, 0.11924799531698227, 0.19907523691654205, -0.0015494800172746181, -0.06641905009746552, 0.9975541234016418, -0.11880365014076233, -0.14711761474609375, 1.48388671875, 1.2626953125, 0.1252593994140625, 1.5966796875
340124, 0.26566213369369507, -0.9362156987190247, 0.3554196059703827, 8.05113697052002, -2.6518869400024414, -1.7223494052886963, 1.3938449621200562, -0.431368350982666, -0.20048630237579346, -0.0037494085263460875, 0.11211887001991272, 0.24191923439502716, 0.09420733719538692, -1.2448518054588078, -10.340206625083129, 9362.0, 34078.0, 35388.0, 9362.0, 8.251240730285645, -0.03516675531864166, 0.11924799531698227, 0.19907523691654205, -0.0015494800172746181, -0.06641905009746552, 0.9975541234016418, -0.11745457351207733, -0.12023735046386719, 1.486083984375, 1.2626953125, 0.1252593994140625, 1.5966796875
340134, 0.2662765383720398, -0.939363420009613, 0.35528576374053955, 8.05113697052002, -2.6518869400024414, -1.7223494052886963, 1.3938449621200562, -0.431368350982666, -0.20048630237579346, -0.0037562150973826647, 0.11212936043739319, 0.24191763997077942, 0.06725606973511448, -1.2425848440665845, -10.360713994837479, 9362.0, 34078.0, 35388.0, 9362.0, 8.251240730285645, -0.03516675531864166, 0.11924799531698227, 0.19907523691654205, -0.0015494800172746181, -0.06641905009746552, 0.9975541234016418, -0.11992773413658142, -0.12023735046386719, 1.486083984375, 1.2626953125, 0.1252593994140625, 1.59814453125
340174, 0.26614910364151, -0.9449818134307861, 0.3565276563167572, 8.163156509399414, -2.6865389347076416, -1.7383919954299927, 1.4066635370254517, -0.43493425846099854, -0.200896218419075, -0.003741784021258354, 0.11210480332374573, 0.2419503927230835, 0.11427820769858714, -1.3629897529502841, -10.335461199843524, 9362.0, 34078.0, 35388.0, 9362.0, 8.251240730285645, -0.06570612639188766, -0.17345653474330902, -0.02358616515994072, -0.0015494800172746181, -0.06641905009746552, 0.9975541234016418, -0.12377050518989563, -0.11127853393554688, 1.48681640625, 1.263427734375, 0.1233062744140625, 1.59521484375
340184, 0.2678913474082947, -0.9438161849975586, 0.3555077910423279, 8.163156509399414, -2.6865389347076416, -1.7383919954299927, 1.4066635370254517, -0.43493425846099854, -0.200896218419075, -0.0037465770728886127, 0.11212901771068573, 0.24192218482494354, 0.12361634205655132, -1.2624630674879427, -10.329073984734302, 9362.0, 34078.0, 35388.0, 9362.0, 8.251240730285645, -0.06570612639188766, -0.17345653474330902, -0.02358616515994072, -0.0015494800172746181, -0.06641905009746552, 0.9975541234016418, -0.12205640226602554, -0.10231781005859375, 1.487548828125, 1.263427734375, 0.1233062744140625, 1.59521484375
340214, 0.2679501473903656, -0.9500650763511658, 0.35751304030418396, 8.219551086425781, -2.7039718627929688, -1.7464408874511719, 1.4131348133087158, -0.43672093749046326, -0.20147502422332764, -0.0037531331181526184, 0.11211379617452621, 0.24189335107803345, 0.11453306900090415, -1.2870391056224264, -10.326931204618162, 9362.0, 34078.0, 35388.0, 9362.0, 8.251240730285645, 0.04565545544028282, 0.3505478799343109, 0.13334150612354279, -0.0015494800172746181, -0.06641905009746552, 0.9975541234016418, -0.12205640226602554, -0.10231781005859375, 1.487548828125, 1.2626953125, 0.1252593994140625, 1.595947265625
340254, 0.2686901092529297, -0.951185941696167, 0.3597613573074341, 8.276205062866211, -2.7214765548706055, -1.754508376121521, 1.4196414947509766, -0.43851685523986816, -0.2020551711320877, -0.003750018309801817, 0.11214370280504227, 0.24191482365131378, 0.08246670775636614, -1.2175366676433157, -10.33946788354074, 9362.0, 34078.0, 35388.0, 9362.0, 8.251240730285645, 0.12398787587881088, -0.2207658290863037, -0.06710705906152725, -0.0015494800172746181, -0.06641905009746552, 0.9975541234016418, -0.1166091337800026, -0.11127853393554688, 1.48681640625, 1.2626953125, 0.1252593994140625, 1.59814453125
340264, 0.2701055109500885, -0.9497533440589905, 0.35947492718696594, 8.276205062866211, -2.7214765548706055, -1.754508376121521, 1.4196414947509766, -0.43851685523986816, -0.2020551711320877, -0.003757476806640625, 0.11212553828954697, 0.24189825356006622, 0.08755414556620636, -1.234778803346046, -10.328728662032951, 9362.0, 34078.0, 35388.0, 9362.0, 8.251240730285645, 0.22144000232219696, 0.1081235334277153, -0.1938292384147644, -0.0015494800172746181, -0.06641905009746552, 0.9975541234016418, -0.10947034507989883, -0.10231781005859375, 1.487548828125, 1.2626953125, 0.1252593994140625, 1.5966796875
340294, 0.27433285117149353, -0.9529921412467957, 0.3608380854129791, 8.333122253417969, -2.739053249359131, -1.7625985145568848, 1.4261635541915894, -0.4403214454650879, -0.20236052572727203, -0.0037573613226413727, 0.11212322115898132, 0.24193914234638214, 0.10395976135495974, -1.2603610311825548, -10.356698848387607, 9362.0, 34078.0, 35388.0, 9362.0, 8.251240730285645, 0.05407453700900078, 0.26344722509384155, -0.03937150910496712, -0.0015494800172746181, -0.06641905009746552, 0.9975541234016418, -0.11809180676937103, -0.12023735046386719, 1.486083984375, 1.4091796875, 0.04937744140625, 1.595947265625
340314, 0.27624040842056274, -0.9516713619232178, 0.35896605253219604, 8.333122253417969, -2.739053249359131, -1.7625985145568848, 1.4261635541915894, -0.4403214454650879, -0.20236052572727203, -0.0037442559842020273, 0.11212021857500076, 0.24190957844257355, 0.1292930410595306, -1.2568168533002506, -10.34962249008539, 9362.0, 34078.0, 35388.0, 9362.0, 8.251240730285645, 0.05407453700900078, 0.26344722509384155, -0.03937150910496712, -0.0015494800172746181, -0.06641905009746552, 0.9975541234016418, -0.11506606638431549, -0.1291980743408203, 1.4853515625, 1.4091796875, 0.04937744140625, 1.595947265625
340354, 0.28010427951812744, -0.9514740109443665, 0.35714760422706604, 8.418985366821289, -2.7655553817749023, -1.7747547626495361, 1.4359675645828247, -0.4430890679359436, -0.20291180908679962, -0.003765449160709977, 0.11212927848100662, 0.2418995350599289, 0.10948950917498067, -1.275215918330531, -10.33472353574304, 9362.0, 34078.0, 35388.0, 9362.0, 8.251240730285645, 0.15323001146316528, 0.1076403334736824, -0.09451738744974136, -0.0015494800172746181, -0.06641905009746552, 0.9975541234016418, -0.11647424846887589, -0.12023735046386719, 1.486083984375, 1.41650390625, 0.0577545166015625, 1.59521484375
340364, 0.2794949412345886, -0.9490775465965271, 0.35694101452827454, 8.418985366821289, -2.7655553817749023, -1.7747547626495361, 1.4359675645828247, -0.4430890679359436, -0.20291180908679962, -0.0037664794363081455, 0.11212721467018127, 0.2418896108865738, 0.10642948232568737, -1.2026542014219217, -10.333791397893808, 9362.0, 34078.0, 35388.0, 9362.0, 8.251240730285645, 0.15323001146316528, 0.1076403334736824, -0.09451738744974136, -0.0015494800172746181, -0.06641905009746552, 0.9975541234016418, -0.11334848403930664, -0.05751800537109375, 1.4912109375, 1.41650390625, 0.0577545166015625, 1.59521484375
340374, 0.27808892726898193, -0.9509111642837524, 0.3578891456127167, 8.418985366821289, -2.7655553817749023, -1.7747547626495361, 1.4359675645828247, -0.4430890679359436, -0.20291180908679962, -0.003732091747224331, 0.1121133416891098, 0.24191120266914368, 0.09277544395419185, -1.2234058979908298, -10.350949241728404, 9362.0, 34078.0, 35388.0, 9362.0, 8.251240730285645, 0.15323001146316528, 0.1076403334736824, -0.09451738744974136, -0.0015494800172746181, -0.06641905009746552, 0.9975541234016418, -0.11518633365631104, -0.09335899353027344, 1.48828125, 1.41650390625, 0.0577545166015625, 1.59521484375
