timeTick, roll, pitch, yaw, stateX, stateY, stateZ, stateVX, stateVY, stateVZ, otX0, otY0, otZ0, otRoll0, otPitch0, otYaw0, left wing, pitch motor, yaw motor, right wing, voltage, roll rate, pitch rate, yaw rate, A_x, A_y, A_z, current, i_raw, v_raw, airflow_voltage, airflow_speed, pot_Pitch
62400, -5.015840530395508, 5.682739734649658, 7.040459632873535, 0, 0, 0, 0, 0, 0, -0.01630273461341858, 0.11765041947364807, 0.239592507481575, -2.1281476064794504, 0.7354189385180518, -1.3102039585351324, 0, 0, 0, 0, 0, 0, 0, 0, 0, 0, 0, 0, 0, 0, 0, 0, 0
62410, -5.0169477462768555, 5.684174060821533, 7.040419101715088, 0.003942837007343769, -0.0027132807299494743, -41.26502990722656, 0.11550838500261307, -0.07949266582727432, -1.349091649055481, -0.016300015151500702, 0.11759091168642044, 0.23943784832954407, -2.365699190213552, 1.0989218229243534, -1.262647951140188, 9362.0, 28835.0, 35388.0, 9362.0, 8.033059120178223, 0.04184562712907791, 0.04709238559007645, 0.022974496707320213, 0, 0, 0, 0, 0, 0, 0, 0, 0
62420, -5.017293930053711, 5.68380069732666, 7.041525363922119, 0.005044877529144287, -0.0034717353992164135, -41.278526306152344, 0.10489979386329651, -0.0721982792019844, -1.3503704071044922, -0.016296518966555595, 0.11760268360376358, 0.23943480849266052, -2.359003474158165, 1.0516842653665037, -1.270729084191323, 9362.0, 28835.0, 35388.0, 9362.0, 8.033059120178223, -0.04369494691491127, -0.10707329213619232, 0.03133982792496681, 0.004068514332175255, -0.07535811513662338, 0.995657205581665, -0.09938748180866241, -0.13815879821777344, 1.484619140625, 1.242919921875, 0.1873626708984375, 1.45166015625
62430, -5.018094062805176, 5.684013366699219, 7.042562961578369, 0.006040817126631737, -0.004157236777245998, -41.29203796386719, 0.09428797662258148, -0.06490223854780197, -1.351645588874817, -0.016292564570903778, 0.11758023500442505, 0.23946332931518555, -2.315920866250769, 0.9797351309992166, -1.2791140296278358, 9362.0, 28835.0, 35388.0, 9362.0, 8.033059120178223, 0.14273512363433838, 0.11339082568883896, 0.21044647693634033, 0.00232109148055315, -0.07466359436511993, 0.9978357553482056, -0.0973353311419487, -0.10231781005859375, 1.487548828125, 1.2275390625, 0.24749755859375, 1.452392578125
62440, -5.017388820648193, 5.680858135223389, 7.043697834014893, 0.0069305370561778545, -0.004769704304635525, -41.30556106567383, 0.08365589380264282, -0.05759146064519882, -1.3527319431304932, -0.016298260539770126, 0.11759188771247864, 0.23941251635551453, -2.3737543733709243, 1.0749203701934391, -1.2591133082358221, 9362.0, 28835.0, 35388.0, 9362.0, 8.033059120178223, -0.1368785798549652, 0.030440475791692734, -0.1653229296207428, 0.002227499382570386, -0.07701391726732254, 0.9970276355743408, -0.0973844975233078, -0.08439826965332031, 1.489013671875, 1.22900390625, 0.2412872314453125, 1.453857421875
62450, -5.017475605010986, 5.682002067565918, 7.043654918670654, 0.0077139646746218204, -0.005309080705046654, -41.319095611572266, 0.07302943617105484, -0.0502840131521225, -1.353875756263733, -0.016280900686979294, 0.11757554113864899, 0.23947922885417938, -2.2938199127155094, 0.9458295230697331, -1.288023621833331, 9362.0, 28835.0, 35388.0, 9362.0, 8.033059120178223, 0.0380389541387558, -0.22681567072868347, -0.12859608232975006, 0.0026591436471790075, -0.07630027085542679, 0.9961907863616943, -0.09882982820272446, -0.05751800537109375, 1.4912109375, 1.226806640625, 0.2505340576171875, 1.453857421875
62460, -5.0178399085998535, 5.685134410858154, 7.043265342712402, 0.008391168899834156, -0.00577539624646306, -41.3326416015625, 0.06241151690483093, -0.04297913238406181, -1.3550472259521484, -0.016290508210659027, 0.11759471148252487, 0.2394614815711975, -2.374484913422964, 1.0866907677169593, -1.260008934634462, 9362.0, 28835.0, 35388.0, 9362.0, 8.033059120178223, 0.06616207212209702, 0.07598129659891129, 0.2656468152999878, 0.0018403419526293874, -0.07735645025968552, 0.9974371790885925, -0.09933564811944962, -0.1291980743408203, 1.4853515625, 1.234130859375, 0.2203521728515625, 1.447998046875
62470, -5.01778507232666, 5.685224533081055, 7.043610095977783, 0.00896213948726654, -0.00616863276809454, -41.34619903564453, 0.0517827570438385, -0.035668063908815384, -1.3561372756958008, -0.016285164281725883, 0.11758141219615936, 0.2394723892211914, -2.317720865518029, 0.9636229016736877, -1.29196443161117, 9362.0, 28835.0, 35388.0, 9362.0, 8.033059120178223, 0.07728986442089081, 0.1436559408903122, -0.015402146615087986, 0.003904408775269985, -0.07685243338346481, 0.998603343963623, -0.09710895270109177, -0.10231781005859375, 1.487548828125, 1.23046875, 0.235137939453125, 1.447998046875
62480, -5.018590450286865, 5.684182167053223, 7.044346809387207, 0.00942673534154892, -0.006488716695457697, -41.359764099121094, 0.041136447340250015, -0.028348803520202637, -1.35711669921875, -0.0163095872849226, 0.11758188903331757, 0.23941688239574432, -2.3673896432838646, 1.059473572383439, -1.2741635177902573, 9362.0, 28835.0, 35388.0, 9362.0, 8.033059120178223, -0.05864331126213074, 0.3039381206035614, 0.10918304324150085, 0.0031309465412050486, -0.07542487233877182, 0.9997896552085876, -0.09830822795629501, -0.06647872924804688, 1.490478515625, 1.24072265625, 0.1952667236328125, 1.4501953125
62490, -5.018487930297852, 5.683298587799072, 7.045141696929932, 0.009784815832972527, -0.006735573522746563, -41.37334060668945, 0.03047957830131054, -0.02102269046008587, -1.3580020666122437, -0.016310203820466995, 0.11764462292194366, 0.23949819803237915, -2.252655574486794, 0.9476079934801191, -1.2958689830352437, 9362.0, 28835.0, 35388.0, 9362.0, 8.033059120178223, 0.04785110801458359, -0.2557678520679474, -0.2270868569612503, 0.003263168502599001, -0.07601039111614227, 0.9974391460418701, -0.09516020119190216, -0.08439826965332031, 1.489013671875, 1.32568359375, 0.0232086181640625, 1.455322265625
62500, -5.018277168273926, 5.6865763664245605, 7.0421271324157715, 0.010036459192633629, -0.006909247022122145, -41.386924743652344, 0.019848935306072235, -0.013712157495319843, -1.3591128587722778, -0.016284063458442688, 0.11757735162973404, 0.23951731622219086, -2.2360413879324477, 0.9014421715030778, -1.290169591100065, 9362.0, 28835.0, 35388.0, 9362.0, 8.033059120178223, -0.010141942650079727, 0.19169919192790985, -0.020296458154916763, 0.0030390569008886814, -0.07505157589912415, 0.9966356158256531, -0.09724849462509155, -0.08439826965332031, 1.489013671875, 1.33740234375, 0.0175323486328125, 1.453857421875
62510, -5.018279552459717, 5.6870245933532715, 7.041651248931885, 0.010181820951402187, -0.0070098284631967545, -41.40052032470703, 0.009223846718668938, -0.006403522565960884, -1.3602573871612549, -0.01628762111067772, 0.11759564280509949, 0.23943328857421875, -2.327453416335693, 0.9399264954773514, -1.2825958182461559, 9362.0, 28835.0, 35388.0, 9362.0, 8.033059120178223, -0.003339501330628991, -0.025907253846526146, 0.5887156128883362, 0.0030223450157791376, -0.07678242027759552, 0.9978441596031189, -0.10038008540868759, -0.10231781005859375, 1.487548828125, 1.26708984375, 0.1136474609375, 1.452392578125
62520, -5.018474578857422, 5.686496257781982, 7.0460920333862305, 0.010220866650342941, -0.007037298288196325, -41.414127349853516, -0.001414656755514443, 0.0009096350404433906, -1.3613288402557373, -0.016303280368447304, 0.1175844594836235, 0.23942163586616516, -2.3796189489261543, 1.0711865454783265, -1.2684526297020402, 9362.0, 28835.0, 35388.0, 9362.0, 8.033059120178223, -0.055785078555345535, -0.03530976176261902, -0.2306193858385086, 0.002903666580095887, -0.0778646394610405, 0.9962257146835327, -0.09767752885818481, -0.10231781005859375, 1.487548828125, 1.2216796875, 0.27325439453125, 1.45166015625
62530, -5.018774032592773, 5.686992168426514, 7.044931411743164, 0.010153614915907383, -0.0069916993379592896, -41.4277458190918, -0.012036253698170185, 0.008209352381527424, -1.3625668287277222, -0.016298744827508926, 0.11760129779577255, 0.2394481748342514, -2.2900930100550565, 0.9191910164168178, -1.2828518770046389, 9362.0, 28835.0, 35388.0, 9362.0, 8.033059120178223, 0.04668068140745163, 0.18620602786540985, 0.03892464190721512, 0.0040417807176709175, -0.07465333491563797, 0.995028555393219, -0.09807286411523819, -0.11127853393554688, 1.48681640625, 1.228271484375, 0.2443389892578125, 1.44580078125
62540, -5.018759727478027, 5.686258792877197, 7.045257568359375, 0.00998019240796566, -0.006873135454952717, -41.44137954711914, -0.02264806628227234, 0.01550368033349514, -1.3638850450515747, -0.016303371638059616, 0.11765672266483307, 0.23956245183944702, -2.170505276757271, 0.7772497129811029, -1.3107680769522139, 9362.0, 28835.0, 35388.0, 9362.0, 8.033059120178223, 0.05236484110355377, -0.1922258883714676, 0.012147714383900166, 0.004523532465100288, -0.075101338326931, 0.996972382068634, -0.10075441747903824, -0.14711761474609375, 1.48388671875, 1.23486328125, 0.2174835205078125, 1.4501953125
62550, -5.019094467163086, 5.688244342803955, 7.045332431793213, 0.009700573049485683, -0.006681573111563921, -41.45502471923828, -0.033275872468948364, 0.022808687761425972, -1.3650659322738647, -0.0163075253367424, 0.1175898015499115, 0.23945799469947815, -2.3298970844757982, 1.0072303836897163, -1.2701768131983284, 9362.0, 28835.0, 35388.0, 9362.0, 8.033059120178223, -0.18077339231967926, -0.26288923621177673, -0.11598262190818787, 0.004821742884814739, -0.07814988493919373, 0.9957069754600525, -0.1021042913198471, -0.10231781005859375, 1.487548828125, 1.244384765625, 0.18212890625, 1.450927734375
62560, -5.019830703735352, 5.689451694488525, 7.044980049133301, 0.009314711205661297, -0.006416981108486652, -41.46868133544922, -0.04389642924070358, 0.03010972961783409, -1.36630117893219, -0.016288693994283676, 0.11760232597589493, 0.2394733875989914, -2.318549034562763, 0.9575167874876627, -1.2741701635110627, 9362.0, 28835.0, 35388.0, 9362.0, 8.033059120178223, -0.036278385668992996, -0.1343211531639099, 0.003743578214198351, 0.0030171656981110573, -0.07850933820009232, 0.9980576038360596, -0.10260125249624252, -0.09335899353027344, 1.48828125, 1.237060546875, 0.2089996337890625, 1.452392578125
62570, -5.019802570343018, 5.691400527954102, 7.043552398681641, 0.008822537027299404, -0.006079316139221191, -41.48234939575195, -0.05453834682703018, 0.03742332383990288, -1.3673732280731201, -0.0163043774664402, 0.11758696287870407, 0.23942069709300995, -2.405380536567805, 1.0794358333114644, -1.2676373119014597, 9362.0, 28835.0, 35388.0, 9362.0, 8.033059120178223, -0.06876148283481598, -0.11052094399929047, -0.30508825182914734, 0.0027132455725222826, -0.07419911026954651, 0.9967397451400757, -0.10125858336687088, -0.1291980743408203, 1.4853515625, 1.224609375, 0.260162353515625, 1.450927734375
62580, -5.019598007202148, 5.692467212677002, 7.04175329208374, 0.00822398904711008, -0.00566854840144515, -41.496028900146484, -0.06517098098993301, 0.04473045468330383, -1.3685481548309326, -0.016291705891489983, 0.11760112643241882, 0.2394184023141861, -2.379144471015558, 1.0555346976818498, -1.2698375288797479, 9362.0, 28835.0, 35388.0, 9362.0, 8.033059120178223, 0.03433944657444954, 0.09552731364965439, 0.0237041674554348, 0.0012926633935421705, -0.07419120520353317, 0.9960982203483582, -0.10101940482854843, -0.08439826965332031, 1.489013671875, 1.2421875, 0.19000244140625, 1.446533203125
62590, -5.018833160400391, 5.692645072937012, 7.040745735168457, 0.007519114296883345, -0.005184720270335674, -41.50971984863281, -0.0758037343621254, 0.05203544348478317, -1.369749903678894, -0.01628817617893219, 0.11759679764509201, 0.23944362998008728, -2.3557578353540074, 1.0412349894633621, -1.2788682529356377, 9362.0, 28835.0, 35388.0, 9362.0, 8.033059120178223, -0.12292645871639252, 0.07143718749284744, 0.04711422324180603, 0.0025243405252695084, -0.07767698913812637, 0.9976227283477783, -0.10159634798765182, -0.09335899353027344, 1.48828125, 1.225341796875, 0.25689697265625, 1.450927734375
62600, -5.0186333656311035, 5.693201065063477, 7.0408196449279785, 0.0067078424617648125, -0.004627801012247801, -41.52342224121094, -0.08645053207874298, 0.05934855714440346, -1.37083899974823, -0.016288384795188904, 0.11758968234062195, 0.23943376541137695, -2.3331316466363705, 1.0090861278494572, -1.2614928947395683, 9362.0, 28835.0, 35388.0, 9362.0, 8.033059120178223, 0.007018934935331345, 0.10888078063726425, -0.04842516779899597, 0.0018236131872981787, -0.07630255073308945, 0.9971762299537659, -0.10242538899183273, -0.09335899353027344, 1.48828125, 1.24365234375, 0.1847381591796875, 1.450927734375
62610, -5.018147945404053, 5.69254732131958, 7.040843963623047, 0.005790116731077433, -0.00399776641279459, -41.53713607788086, -0.0970945879817009, 0.0666583850979805, -1.3719537258148193, -0.016288841143250465, 0.11759727448225021, 0.23942533135414124, -2.3838591135203684, 1.0501947257238555, -1.2823563327358094, 9362.0, 28835.0, 35388.0, 9362.0, 8.033059120178223, -0.08020997792482376, 0.22461625933647156, -0.10204220563173294, 0.0032110335305333138, -0.07646092027425766, 0.9979012608528137, -0.10213050246238708, -0.09335899353027344, 1.48828125, 1.239990234375, 0.1979827880859375, 1.449462890625
62620, -5.018029689788818, 5.6912665367126465, 7.039001941680908, 0.004765940830111504, -0.003294631838798523, -41.55086135864258, -0.10774070769548416, 0.07396847009658813, -1.3730586767196655, -0.016310809180140495, 0.11757531017065048, 0.23943577706813812, -2.3408267517883634, 0.9942148305585761, -1.2666460474258436, 9362.0, 28835.0, 35388.0, 9362.0, 8.033059120178223, 0.23907043039798737, 0.07219503074884415, -0.13044479489326477, 0.003112529404461384, -0.0765940323472023, 0.9955502152442932, -0.09992798417806625, -0.07543754577636719, 1.48974609375, 1.2392578125, 0.20068359375, 1.453857421875
62630, -5.016909122467041, 5.690736770629883, 7.039332389831543, 0.0036353953182697296, -0.0025184592232108116, -41.564598083496094, -0.11836817115545273, 0.08126644045114517, -1.3743200302124023, -0.016278326511383057, 0.11759550869464874, 0.23949933052062988, -2.265377351982478, 0.9195928312012711, -1.3007165673872227, 9362.0, 28835.0, 35388.0, 9362.0, 8.033059120178223, -0.0685061663389206, -0.12128008157014847, -0.06091930344700813, 0.0028825837653130293, -0.0768914520740509, 0.9970497488975525, -0.09833266586065292, -0.06647872924804688, 1.490478515625, 1.23046875, 0.235137939453125, 1.452392578125
62640, -5.016750812530518, 5.692852020263672, 7.038199424743652, 0.002398526296019554, -0.0016692630015313625, -41.578346252441406, -0.12900568544864655, 0.08857274055480957, -1.3754701614379883, -0.01629273220896721, 0.11760036647319794, 0.23946711421012878, -2.294374671475923, 0.9375097204705867, -1.2819732330347031, 9362.0, 28835.0, 35388.0, 9362.0, 8.033059120178223, 0.1566247045993805, -0.2021477073431015, -0.12983696162700653, 0.0025119835045188665, -0.07683978974819183, 0.9971175193786621, -0.09667713940143585, -0.12023735046386719, 1.486083984375, 1.2421875, 0.19000244140625, 1.44873046875
62650, -5.016282558441162, 5.69376277923584, 7.038842678070068, 0.0010552904568612576, -0.0007470150594599545, -41.592105865478516, -0.13964127004146576, 0.09587705135345459, -1.3766264915466309, -0.01629888080060482, 0.11760132759809494, 0.23942333459854126, -2.3550535056434496, 1.001846121225924, -1.265421183819382, 9362.0, 28835.0, 35388.0, 9362.0, 8.033059120178223, 0.091946542263031, -0.323954313993454, -0.15859512984752655, 0.0021956011187285185, -0.07615401595830917, 0.9953902363777161, -0.09739379584789276, -0.07543754577636719, 1.48974609375, 1.242919921875, 0.1873626708984375, 1.450927734375
62660, -5.016239643096924, 5.696091651916504, 7.038691520690918, -0.000394245027564466, 0.00024822348495945334, -41.60587692260742, -0.15026593208312988, 0.10317052900791168, -1.3779150247573853, -0.01632058620452881, 0.11764875799417496, 0.23952318727970123, -2.1766454746538164, 0.813413805329958, -1.2985413019888692, 9362.0, 28835.0, 35388.0, 9362.0, 8.033059120178223, -0.13051672279834747, -0.10938727855682373, -0.1301611214876175, 0.0026886335108429193, -0.07565554231405258, 0.9960479736328125, -0.09809494018554688, -0.08439826965332031, 1.489013671875, 1.242919921875, 0.1873626708984375, 1.44873046875
62690, -5.017168045043945, 5.6955389976501465, 7.039095401763916, -0.005381088238209486, 0.003671921556815505, -41.64727020263672, -0.18220892548561096, 0.12508729100227356, -1.3812659978866577, -0.016288137063384056, 0.11757951229810715, 0.23941753804683685, -2.3733733210064765, 1.050411121059284, -1.2763556287993776, 9362.0, 28835.0, 35388.0, 9362.0, 8.033059120178223, -0.06253563612699509, 0.008789229206740856, -0.064139224588871, 0.0042336261831223965, -0.0753917470574379, 0.9972312450408936, -0.09553857892751694, -0.09335899353027344, 1.48828125, 1.242919921875, 0.1873626708984375, 1.44873046875
62700, -5.018071174621582, 5.697213172912598, 7.038332939147949, -0.005381088238209486, 0.003671921556815505, -41.64727020263672, -0.18220892548561096, 0.12508729100227356, -1.3812659978866577, -0.016318995505571365, 0.11765828728675842, 0.23953300714492798, -2.1835703028163325, 0.8062206457100842, -1.326370622322518, 9362.0, 28835.0, 35388.0, 9362.0, 8.033059120178223, 0.03913765400648117, 0.09283366799354553, 0.2199658453464508, 0.0042336261831223965, -0.0753917470574379, 0.9972312450408936, -0.09584248065948486, -0.11127853393554688, 1.48681640625, 1.242919921875, 0.1873626708984375, 1.44873046875
62720, -5.019501209259033, 5.697366237640381, 7.040332794189453, -0.005381088238209486, 0.003671921556815505, -41.64727020263672, -0.18220892548561096, 0.12508729100227356, -1.3812659978866577, -0.016317259520292282, 0.11766448616981506, 0.239529088139534, -2.2016109514907694, 0.7830833155338723, -1.3222994436779403, 9362.0, 28835.0, 35388.0, 9362.0, 8.033059120178223, -0.1002880185842514, -0.22294749319553375, -0.011937389150261879, 0.0042336261831223965, -0.0753917470574379, 0.9972312450408936, -0.09038354456424713, -0.10231781005859375, 1.487548828125, 1.322021484375, 0.0257415771484375, 1.44873046875
62750, -5.020323276519775, 5.698776721954346, 7.042311668395996, -0.018228618428111076, 0.012491242028772831, -41.73036193847656, -0.24606093764305115, 0.1689043939113617, -1.3884150981903076, -0.016282841563224792, 0.1175970658659935, 0.2394752949476242, -2.2887512478016503, 0.9232068237798501, -1.278432315619122, 9362.0, 28835.0, 35388.0, 9362.0, 8.033059120178223, -0.027614792808890343, 0.1677815467119217, -0.264890193939209, 0.0042336261831223965, -0.0753917470574379, 0.9972312450408936, -0.09441757202148438, -0.13815879821777344, 1.484619140625, 1.285400390625, 0.0730438232421875, 1.44873046875
62770, -5.019795894622803, 5.695778846740723, 7.04102087020874, -0.018228618428111076, 0.012491242028772831, -41.73036193847656, -0.24606093764305115, 0.1689043939113617, -1.3884150981903076, -0.01629921793937683, 0.117581807076931, 0.23938874900341034, -2.3909273304538172, 1.0526367689049607, -1.2692638150440823, 9362.0, 28835.0, 35388.0, 9362.0, 8.033059120178223, -0.09489220380783081, -0.22678424417972565, 0.01805870234966278, 0.0042336261831223965, -0.0753917470574379, 0.9972312450408936, -0.10672565549612045, -0.12023735046386719, 1.486083984375, 1.27001953125, 0.10626220703125, 1.44873046875
62780, -5.020468235015869, 5.697800159454346, 7.040065288543701, -0.026089737191796303, 0.017887258902192116, -41.772064208984375, -0.2780112326145172, 0.19082944095134735, -1.3918651342391968, -0.016315918415784836, 0.1176629289984703, 0.23954105377197266, -2.1658021967898557, 0.7757176122337057, -1.3167835619041746, 9362.0, 28835.0, 35388.0, 9362.0, 8.033059120178223, 0.08497239649295807, 0.3042759299278259, 0.2732540965080261, 0.0042336261831223965, -0.0753917470574379, 0.9972312450408936, -0.10672565549612045, -0.12023735046386719, 1.486083984375, 1.27001953125, 0.10626220703125, 1.44873046875
62790, -5.019960403442383, 5.696623802185059, 7.040693283081055, -0.026089737191796303, 0.017887258902192116, -41.772064208984375, -0.2780112326145172, 0.19082944095134735, -1.3918651342391968, -0.016284490004181862, 0.11759530752897263, 0.23945686221122742, -2.308800591165311, 0.9560895295876719, -1.2641848017922108, 9362.0, 28835.0, 35388.0, 9362.0, 8.033059120178223, 0.08497239649295807, 0.3042759299278259, 0.2732540965080261, 0.0042336261831223965, -0.0753917470574379, 0.9972312450408936, -0.10672565549612045, -0.12023735046386719, 1.486083984375, 1.27001953125, 0.10626220703125, 1.44873046875
62820, -5.021277904510498, 5.697001934051514, 7.040620803833008, -0.031862739473581314, 0.021849913522601128, -41.799922943115234, -0.2992907762527466, 0.20543617010116577, -1.3943053483963013, -0.01631743088364601, 0.11758504807949066, 0.2394266128540039, -2.373497437140082, 1.0386104858815202, -1.2503859451752983, 9362.0, 28835.0, 35388.0, 9362.0, 8.033059120178223, 0.05021774768829346, -0.4398297369480133, 0.06801324337720871, 0.003703346475958824, -0.07387953996658325, 0.9978920221328735, -0.10733788460493088, -0.10231781005859375, 1.487548828125, 1.269287109375, 0.1081085205078125, 1.44873046875
62830, -5.021042346954346, 5.699414253234863, 7.039353370666504, -0.031862739473581314, 0.021849913522601128, -41.799922943115234, -0.2992907762527466, 0.20543617010116577, -1.3943053483963013, -0.016291307285428047, 0.11758722364902496, 0.23941557109355927, -2.335088388222004, 0.9955143228308714, -1.2711469053642197, 9362.0, 28835.0, 35388.0, 9362.0, 8.033059120178223, 0.05021774768829346, -0.4398297369480133, 0.06801324337720871, 0.003703346475958824, -0.07387953996658325, 0.9978920221328735, -0.10484389960765839, -0.09335899353027344, 1.48828125, 1.269287109375, 0.1081085205078125, 1.44873046875
62840, -5.0203986167907715, 5.700439929962158, 7.038827896118164, -0.031862739473581314, 0.021849913522601128, -41.799922943115234, -0.2992907762527466, 0.20543617010116577, -1.3943053483963013, -0.016291184350848198, 0.11757808923721313, 0.2394450157880783, -2.3334243444875686, 0.9960288266691748, -1.2745522877492812, 9362.0, 28835.0, 35388.0, 9362.0, 8.033059120178223, 0.14040803909301758, 0.10065731406211853, -0.46601012349128723, 0.003703346475958824, -0.07387953996658325, 0.9978920221328735, -0.10484389960765839, -0.09335899353027344, 1.48828125, 1.269287109375, 0.1081085205078125, 1.44873046875
62890, -5.019218444824219, 5.703821659088135, 7.038335800170898, -0.05921483784914017, 0.04062451422214508, -41.911827087402344, -0.3845265805721283, 0.2639288902282715, -1.4032121896743774, -0.016309304162859917, 0.11757785081863403, 0.23942814767360687, -2.3578954836503714, 1.0310561795640183, -1.2594274127589122, 9362.0, 28835.0, 35388.0, 9362.0, 8.033059120178223, 0.17330412566661835, 0.12045229226350784, 0.0026608617044985294, 0.003703346475958824, -0.07387953996658325, 0.9978920221328735, -0.10791446268558502, -0.07543754577636719, 1.48974609375, 1.27001953125, 0.10626220703125, 1.44873046875
62920, -5.018707752227783, 5.702179908752441, 7.037426471710205, -0.07544747740030289, 0.051765505224466324, -41.96805953979492, -0.42712655663490295, 0.2931326925754547, -1.4080315828323364, -0.01630125567317009, 0.11759356409311295, 0.2394455075263977, -2.337191998323803, 1.0081597793176797, -1.2702326338742116, 9362.0, 28835.0, 35388.0, 9362.0, 8.033059120178223, -0.11533728241920471, -0.3942091464996338, -0.11051435023546219, 0.003703346475958824, -0.07387953996658325, 0.9978920221328735, -0.10892262309789658, -0.12023735046386719, 1.486083984375, 1.266357421875, 0.1154937744140625, 1.44873046875
62940, -5.017665863037109, 5.704217910766602, 7.034621238708496, -0.07544747740030289, 0.051765505224466324, -41.96805953979492, -0.42712655663490295, 0.2931326925754547, -1.4080315828323364, -0.01629960723221302, 0.11757242679595947, 0.23944637179374695, -2.3197569743666944, 1.0135254612153517, -1.2571000040588554, 9362.0, 28835.0, 35388.0, 9362.0, 8.033059120178223, -0.11533728241920471, -0.3942091464996338, -0.11051435023546219, 0.003703346475958824, -0.07387953996658325, 0.9978920221328735, -0.10773368179798126, -0.07543754577636719, 1.48974609375, 1.267822265625, 0.111724853515625, 1.44873046875
62950, -5.018214225769043, 5.704736232757568, 7.034130573272705, -0.07544747740030289, 0.051765505224466324, -41.96805953979492, -0.42712655663490295, 0.2931326925754547, -1.4080315828323364, -0.016329213976860046, 0.11764346063137054, 0.2395421713590622, -2.152420378480318, 0.7526539018538188, -1.2954819125395511, 9362.0, 28835.0, 35388.0, 9362.0, 8.033059120178223, 0.012826167047023773, 0.19944848120212555, -0.09607057273387909, 0.003703346475958824, -0.07387953996658325, 0.9978920221328735, -0.10638174414634705, -0.09335899353027344, 1.48828125, 1.267822265625, 0.111724853515625, 1.44873046875
62970, -5.017804145812988, 5.705899238586426, 7.03411340713501, -0.07544747740030289, 0.051765505224466324, -41.96805953979492, -0.42712655663490295, 0.2931326925754547, -1.4080315828323364, -0.016303611919283867, 0.11759629845619202, 0.23940283060073853, -2.428339487554356, 1.0982471937198568, -1.2481720995479768, 9362.0, 28835.0, 35388.0, 9362.0, 8.033059120178223, -0.06569673866033554, -0.4642617702484131, -0.0718122199177742, 0.003703346475958824, -0.07387953996658325, 0.9978920221328735, -0.10450459271669388, -0.11127853393554688, 1.48681640625, 1.267822265625, 0.111724853515625, 1.44873046875
62980, -5.01749849319458, 5.7086100578308105, 7.033967018127441, -0.07544747740030289, 0.051765505224466324, -41.96805953979492, -0.42712655663490295, 0.2931326925754547, -1.4080315828323364, -0.01630500704050064, 0.11766012012958527, 0.23952284455299377, -2.2457948417515694, 0.8857458642768847, -1.3058913812880422, 9362.0, 28835.0, 35388.0, 9362.0, 8.033059120178223, -0.06569673866033554, -0.4642617702484131, -0.0718122199177742, 0.003703346475958824, -0.07387953996658325, 0.9978920221328735, -0.10697996616363525, -0.11127853393554688, 1.48681640625, 1.320556640625, 0.02685546875, 1.44873046875
63000, -5.019021511077881, 5.713717937469482, 7.03508996963501, -0.11302866786718369, 0.07755432277917862, -42.08106994628906, -0.5124400854110718, 0.3515983521938324, -1.4168758392333984, -0.01629442535340786, 0.11758889257907867, 0.23946715891361237, -2.2988854703869412, 0.9712956755604125, -1.2673322008799361, 9362.0, 28835.0, 35388.0, 9362.0, 8.033059120178223, 0.024824947118759155, -0.6319332122802734, -0.1183009147644043, 0.003703346475958824, -0.07387953996658325, 0.9978920221328735, -0.10964720696210861, -0.1739978790283203, 1.481689453125, 1.317626953125, 0.0291900634765625, 1.44873046875
63050, -5.019815444946289, 5.718471050262451, 7.034424304962158, -0.12349089235067368, 0.08473239094018936, -42.109432220458984, -0.5337854623794556, 0.36620858311653137, -1.4191759824752808, -0.016301283612847328, 0.11756409704685211, 0.2394162118434906, -2.388923691629019, 1.0111939839302124, -1.258491346827152, 9362.0, 28835.0, 35388.0, 9362.0, 8.033059120178223, -0.008267588913440704, 0.10926058143377304, -0.008852815255522728, 0.003703346475958824, -0.07387953996658325, 0.9978920221328735, -0.10193072259426117, -0.10231781005859375, 1.487548828125, 1.317626953125, 0.0291900634765625, 1.44873046875
63060, -5.01932954788208, 5.717905521392822, 7.034006118774414, -0.12349089235067368, 0.08473239094018936, -42.109432220458984, -0.5337854623794556, 0.36620858311653137, -1.4191759824752808, -0.0162774957716465, 0.11758292466402054, 0.23947446048259735, -2.2814368003344683, 1.0089804833544633, -1.273523666633595, 9362.0, 28835.0, 35388.0, 9362.0, 8.033059120178223, -0.1471935212612152, -0.16029760241508484, 0.08019152283668518, 0.003703346475958824, -0.07387953996658325, 0.9978920221328735, -0.10193072259426117, -0.10231781005859375, 1.487548828125, 1.317626953125, 0.0291900634765625, 1.44873046875
63070, -5.020162105560303, 5.717733860015869, 7.034567832946777, -0.12349089235067368, 0.08473239094018936, -42.109432220458984, -0.5337854623794556, 0.36620858311653137, -1.4191759824752808, -0.01629779301583767, 0.11759411543607712, 0.23945127427577972, -2.366134371812817, 1.0272888098234034, -1.2786909281745085, 9362.0, 28835.0, 35388.0, 9362.0, 8.033059120178223, -0.1471935212612152, -0.16029760241508484, 0.08019152283668518, 0.003703346475958824, -0.07387953996658325, 0.9978920221328735, -0.10282321274280548, -0.10231781005859375, 1.487548828125, 1.317626953125, 0.0291900634765625, 1.44873046875
63080, -5.019423007965088, 5.717234134674072, 7.033251762390137, -0.12349089235067368, 0.08473239094018936, -42.109432220458984, -0.5337854623794556, 0.36620858311653137, -1.4191759824752808, -0.016277208924293518, 0.11759070307016373, 0.23950541019439697, -2.264759080784593, 0.9191685297723211, -1.3097255719512775, 9362.0, 28835.0, 35388.0, 9362.0, 8.033059120178223, 0.06625402718782425, 0.022661183029413223, -0.09804908186197281, 0.003703346475958824, -0.07387953996658325, 0.9978920221328735, -0.10282321274280548, -0.10231781005859375, 1.487548828125, 1.317626953125, 0.0291900634765625, 1.44873046875
63120, -5.018347263336182, 5.723710536956787, 7.029862880706787, -0.17585761845111847, 0.12064990401268005, -42.23762512207031, -0.629906177520752, 0.4319436252117157, -1.4296188354492188, -0.016282685101032257, 0.11759406328201294, 0.2394794225692749, -2.2977804466927245, 0.9718763904386662, -1.2804308688176957, 9362.0, 28835.0, 35388.0, 9362.0, 8.033059120178223, 0.15046332776546478, -0.31843873858451843, -0.32348865270614624, 0.003477368736639619, -0.075930155813694, 0.994592010974884, -0.10616951435804367, -0.12023735046386719, 1.486083984375, 1.266357421875, 0.1154937744140625, 1.44873046875
63130, -5.017188549041748, 5.723780155181885, 7.0300517082214355, -0.17585761845111847, 0.12064990401268005, -42.23762512207031, -0.629906177520752, 0.4319436252117157, -1.4296188354492188, -0.01628456637263298, 0.11759728193283081, 0.2394130527973175, -2.3728677991399127, 1.006152305404413, -1.285011281922886, 9362.0, 28835.0, 35388.0, 9362.0, 8.033059120178223, 0.20679304003715515, 0.11351288855075836, 0.20574916899204254, 0.003477368736639619, -0.075930155813694, 0.994592010974884, -0.10553686320781708, -0.07543754577636719, 1.48974609375, 1.266357421875, 0.1154937744140625, 1.44873046875
63140, -5.016627788543701, 5.722725868225098, 7.031655788421631, -0.19523495435714722, 0.13393644988536835, -42.28057098388672, -0.6619410514831543, 0.4538384974002838, -1.433272361755371, -0.016286972910165787, 0.11759131401777267, 0.23948180675506592, -2.2729558170344992, 0.9385970071207907, -1.27985122922402, 9362.0, 28835.0, 35388.0, 9362.0, 8.033059120178223, -0.014429504983127117, -0.2601722478866577, -0.15543881058692932, 0.003477368736639619, -0.075930155813694, 0.994592010974884, -0.10553686320781708, -0.07543754577636719, 1.48974609375, 1.266357421875, 0.1154937744140625, 1.44873046875
63180, -5.0154290199279785, 5.7269182205200195, 7.028546333312988, -0.21557410061359406, 0.1478799432516098, -42.32362365722656, -0.6940079927444458, 0.4757324755191803, -1.4367796182632446, -0.016296984627842903, 0.11758314073085785, 0.23944424092769623, -2.3308072451357082, 1.0216322733054426, -1.2797781574554234, 9362.0, 28835.0, 35388.0, 9362.0, 8.033059120178223, -0.10766442120075226, -0.0714491754770279, 0.2076857089996338, 0.003477368736639619, -0.075930155813694, 0.994592010974884, -0.10055669397115707, -0.12023735046386719, 1.486083984375, 1.266357421875, 0.1154937744140625, 1.44873046875
63190, -5.016637802124023, 5.728074073791504, 7.03045654296875, -0.21557410061359406, 0.1478799432516098, -42.32362365722656, -0.6940079927444458, 0.4757324755191803, -1.4367796182632446, -0.016304675489664078, 0.11759380251169205, 0.2394581437110901, -2.306201908003697, 1.011407741597992, -1.273984679314968, 9362.0, 28835.0, 35388.0, 9362.0, 8.033059120178223, -0.10766442120075226, -0.0714491754770279, 0.2076857089996338, 0.003477368736639619, -0.075930155813694, 0.994592010974884, -0.10406843572854996, -0.08439826965332031, 1.489013671875, 1.266357421875, 0.1154937744140625, 1.44873046875
63200, -5.016974925994873, 5.726922512054443, 7.030379772186279, -0.21557410061359406, 0.1478799432516098, -42.32362365722656, -0.6940079927444458, 0.4757324755191803, -1.4367796182632446, -0.016288606449961662, 0.1175936907529831, 0.23945316672325134, -2.337331748810087, 1.0562399511335911, -1.262683475717164, 9362.0, 28835.0, 35388.0, 9362.0, 8.033059120178223, 0.10977976769208908, -0.09723223745822906, 0.09438059478998184, 0.003477368736639619, -0.075930155813694, 0.994592010974884, -0.10632571578025818, -0.11127853393554688, 1.48681640625, 1.266357421875, 0.1154937744140625, 1.44873046875
63210, -5.016683101654053, 5.7273712158203125, 7.031387805938721, -0.21557410061359406, 0.1478799432516098, -42.32362365722656, -0.6940079927444458, 0.4757324755191803, -1.4367796182632446, -0.016303526237607002, 0.11758632957935333, 0.23943401873111725, -2.335471289514481, 1.0316288503166788, -1.2693822134595247, 9362.0, 28835.0, 35388.0, 9362.0, 8.033059120178223, 0.10977976769208908, -0.09723223745822906, 0.09438059478998184, 0.003477368736639619, -0.075930155813694, 0.994592010974884, -0.10802915692329407, -0.07543754577636719, 1.48974609375, 1.266357421875, 0.1154937744140625, 1.44873046875
63260, -5.017276287078857, 5.727784633636475, 7.028022289276123, -0.2823648452758789, 0.19364987313747406, -42.453426361083984, -0.7902441024780273, 0.5413891077041626, -1.4475094079971313, -0.016298366710543633, 0.1176665723323822, 0.23960499465465546, -2.0501359668491683, 0.6257605117442893, -1.3419103398301226, 9362.0, 28835.0, 35388.0, 9362.0, 8.033059120178223, -0.10179396718740463, -0.08790674805641174, 0.16444753110408783, 0.003477368736639619, -0.075930155813694, 0.994592010974884, -0.1140240728855133, -0.1650371551513672, 1.482421875, 1.332275390625, 0.019561767578125, 1.44873046875
63270, -5.017221450805664, 5.725568771362305, 7.027758598327637, -0.2823648452758789, 0.19364987313747406, -42.453426361083984, -0.7902441024780273, 0.5413891077041626, -1.4475094079971313, -0.016287315636873245, 0.11759228259325027, 0.2394251525402069, -2.367186011390444, 1.0690144861199258, -1.2670607056445167, 9362.0, 28835.0, 35388.0, 9362.0, 8.033059120178223, -0.1617109477519989, 0.019101370126008987, -0.2326725572347641, 0.003477368736639619, -0.075930155813694, 0.994592010974884, -0.11140599101781845, -0.10231781005859375, 1.487548828125, 1.33740234375, 0.0175323486328125, 1.44873046875
63290, -5.018429756164551, 5.725578308105469, 7.027335166931152, -0.2823648452758789, 0.19364987313747406, -42.453426361083984, -0.7902441024780273, 0.5413891077041626, -1.4475094079971313, -0.016282029449939728, 0.11757784336805344, 0.23950707912445068, -2.2003169468222583, 0.8467389524537339, -1.2990689608756185, 9362.0, 28835.0, 35388.0, 9362.0, 8.033059120178223, 0.242926225066185, -0.1031273826956749, -0.4726661145687103, 0.003477368736639619, -0.075930155813694, 0.994592010974884, -0.10859058797359467, -0.10231781005859375, 1.487548828125, 1.3388671875, 0.017120361328125, 1.44873046875
63310, -5.015061855316162, 5.730498313903809, 7.022922992706299, -0.3232143521308899, 0.22163203358650208, -42.525943756103516, -0.843745231628418, 0.5779088735580444, -1.45306396484375, -0.016289852559566498, 0.1175936907529831, 0.23948080837726593, -2.306504021697468, 0.9792077998947377, -1.3001069997630346, 9362.0, 28835.0, 35388.0, 9362.0, 8.033059120178223, 0.2330852746963501, -0.3327147364616394, -0.5347121953964233, 0.003477368736639619, -0.075930155813694, 0.994592010974884, -0.10586804896593094, -0.10231781005859375, 1.487548828125, 1.271484375, 0.1027679443359375, 1.44873046875
63320, -5.013223648071289, 5.733652591705322, 7.020330905914307, -0.3317052721977234, 0.22744761407375336, -42.54048156738281, -0.8544377684593201, 0.5852063894271851, -1.4542443752288818, -0.016291404142975807, 0.11759129911661148, 0.2394406497478485, -2.3696965815493383, 1.0640782122030714, -1.2735938286764479, 9362.0, 28835.0, 35388.0, 9362.0, 8.033059120178223, -0.07105252891778946, -0.19686099886894226, 0.28046274185180664, 0.003477368736639619, -0.075930155813694, 0.994592010974884, -0.1056518480181694, -0.1291980743408203, 1.4853515625, 1.291259765625, 0.0625457763671875, 1.44873046875
63340, -5.013589859008789, 5.735777854919434, 7.02345609664917, -0.3490079939365387, 0.23929759860038757, -42.5695915222168, -0.8758314251899719, 0.5997872948646545, -1.456668734550476, -0.01628904789686203, 0.11757434904575348, 0.23943258821964264, -2.34691811480183, 1.0306527995811052, -1.2613041318714475, 9362.0, 28835.0, 35388.0, 9362.0, 8.033059120178223, -0.07105252891778946, -0.19686099886894226, 0.28046274185180664, 0.003477368736639619, -0.075930155813694, 0.994592010974884, -0.10025887191295624, -0.08439826965332031, 1.489013671875, 1.322021484375, 0.0257415771484375, 1.44873046875
63350, -5.013476371765137, 5.738204479217529, 7.022507667541504, -0.3578197956085205, 0.24533188343048096, -42.584163665771484, -0.8865261077880859, 0.6070705652236938, -1.4579426050186157, -0.01630524918437004, 0.11759333312511444, 0.23942109942436218, -2.364511877897511, 1.054855659800694, -1.2615853956970744, 9362.0, 28835.0, 35388.0, 9362.0, 8.033059120178223, -0.07105252891778946, -0.19686099886894226, 0.28046274185180664, 0.003477368736639619, -0.075930155813694, 0.994592010974884, -0.10025887191295624, -0.08439826965332031, 1.489013671875, 1.32275390625, 0.0251312255859375, 1.44873046875
63360, -5.013887405395508, 5.738988876342773, 7.0235819816589355, -0.36673861742019653, 0.25143906474113464, -42.59874725341797, -0.8972375392913818, 0.6143648624420166, -1.4590810537338257, -0.016319548711180687, 0.1176593154668808, 0.23953229188919067, -2.1870624997478254, 0.7732236319902484, -1.3187832957583119, 9362.0, 28835.0, 35388.0, 9362.0, 8.033059120178223, -0.07105252891778946, -0.19686099886894226, 0.28046274185180664, 0.003477368736639619, -0.075930155813694, 0.994592010974884, -0.10025887191295624, -0.08439826965332031, 1.489013671875, 1.32275390625, 0.0251312255859375, 1.44873046875
63380, -5.012315273284912, 5.738954067230225, 7.027089595794678, -0.36673861742019653, 0.25143906474113464, -42.59874725341797, -0.8972375392913818, 0.6143648624420166, -1.4590810537338257, -0.016334127634763718, 0.11766313761472702, 0.23951590061187744, -2.2064770728160505, 0.8215446128685642, -1.322774276773731, 9362.0, 28835.0, 35388.0, 9362.0, 8.033059120178223, 0.14405444264411926, 0.07007189095020294, 0.3448733389377594, 0.003477368736639619, -0.075930155813694, 0.994592010974884, -0.09753938764333725, -0.12023735046386719, 1.486083984375, 1.32275390625, 0.0251312255859375, 1.44873046875
63390, -5.012340545654297, 5.738560199737549, 7.0279316902160645, -0.36673861742019653, 0.25143906474113464, -42.59874725341797, -0.8972375392913818, 0.6143648624420166, -1.4590810537338257, -0.01629115641117096, 0.11758565902709961, 0.2394295334815979, -2.358816782192646, 1.059321604348014, -1.2710718407007504, 9362.0, 28835.0, 35388.0, 9362.0, 8.033059120178223, 0.14405444264411926, 0.07007189095020294, 0.3448733389377594, 0.003477368736639619, -0.075930155813694, 0.994592010974884, -0.09610328078269958, -0.12023735046386719, 1.486083984375, 1.32275390625, 0.0251312255859375, 1.44873046875
63410, -5.01159143447876, 5.73842191696167, 7.0280351638793945, -0.4129401445388794, 0.283068984746933, -42.67184066772461, -0.950827956199646, 0.650829553604126, -1.46471107006073, -0.016306277364492416, 0.11759408563375473, 0.23944832384586334, -2.348272540240531, 1.0371475490857733, -1.2566943720355361, 9362.0, 28835.0, 35388.0, 9362.0, 8.033059120178223, 0.16569212079048157, 0.4170568287372589, 0.0005201781750656664, 0.003477368736639619, -0.075930155813694, 0.994592010974884, -0.10250336676836014, -0.10231781005859375, 1.487548828125, 1.32275390625, 0.0251312255859375, 1.44873046875
63420, -5.011956214904785, 5.733935356140137, 7.029122352600098, -0.4225020110607147, 0.2896137237548828, -42.686492919921875, -0.9615451097488403, 0.6581207513809204, -1.4658358097076416, -0.016306746751070023, 0.11759141832590103, 0.23941601812839508, -2.3197326751523413, 0.9613549716042655, -1.271948625104788, 9362.0, 28835.0, 35388.0, 9362.0, 8.033059120178223, 0.15771161019802094, -0.07361292839050293, 0.20183731615543365, 0.003477368736639619, -0.075930155813694, 0.994592010974884, -0.10250336676836014, -0.10231781005859375, 1.487548828125, 1.3154296875, 0.03118896484375, 1.44873046875
63430, -5.012487888336182, 5.73388147354126, 7.031122207641602, -0.4225020110607147, 0.2896137237548828, -42.686492919921875, -0.9615451097488403, 0.6581207513809204, -1.4658358097076416, -0.01628558710217476, 0.1175997257232666, 0.23947754502296448, -2.254134240147264, 0.9115782918441937, -1.2799673577895605, 9362.0, 28835.0, 35388.0, 9362.0, 8.033059120178223, -0.18939760327339172, -0.1525360494852066, -0.029619207605719566, 0.003477368736639619, -0.075930155813694, 0.994592010974884, -0.1031111627817154, -0.12023735046386719, 1.486083984375, 1.342529296875, 0.0161895751953125, 1.44873046875
63440, -5.013303279876709, 5.73496675491333, 7.030574798583984, -0.4225020110607147, 0.2896137237548828, -42.686492919921875, -0.9615451097488403, 0.6581207513809204, -1.4658358097076416, -0.01628882624208927, 0.11759166419506073, 0.23947420716285706, -2.3049384958916215, 0.9903409438851725, -1.2809728124466058, 9362.0, 28835.0, 35388.0, 9362.0, 8.033059120178223, -0.19398199021816254, 0.18783986568450928, -0.09091942012310028, 0.003477368736639619, -0.075930155813694, 0.994592010974884, -0.10146160423755646, -0.08439826965332031, 1.489013671875, 1.322021484375, 0.0257415771484375, 1.44873046875
63460, -5.015320777893066, 5.735138893127441, 7.029417514801025, -0.4225020110607147, 0.2896137237548828, -42.686492919921875, -0.9615451097488403, 0.6581207513809204, -1.4658358097076416, -0.016323938965797424, 0.11766399443149567, 0.2395210862159729, -2.1822417866863053, 0.8294069243245872, -1.301487251639426, 9362.0, 28835.0, 35388.0, 9362.0, 8.033059120178223, 0.061619650572538376, 0.19522295892238617, -0.2449130415916443, 0.003477368736639619, -0.075930155813694, 0.994592010974884, -0.1014794334769249, -0.11127853393554688, 1.48681640625, 1.322021484375, 0.0257415771484375, 1.44873046875
63470, -5.015743732452393, 5.733536720275879, 7.0282063484191895, -0.4225020110607147, 0.2896137237548828, -42.686492919921875, -0.9615451097488403, 0.6581207513809204, -1.4658358097076416, -0.016274187713861465, 0.11758775264024734, 0.23945580422878265, -2.3389520913872874, 1.0178013450270953, -1.2827796005724836, 9362.0, 28835.0, 35388.0, 9362.0, 8.033059120178223, 0.010698780417442322, 0.14185252785682678, 0.29208219051361084, 0.003477368736639619, -0.075930155813694, 0.994592010974884, -0.1014794334769249, -0.11127853393554688, 1.48681640625, 1.3271484375, 0.022308349609375, 1.44873046875
63480, -5.015707969665527, 5.73346471786499, 7.029706001281738, -0.4225020110607147, 0.2896137237548828, -42.686492919921875, -0.9615451097488403, 0.6581207513809204, -1.4658358097076416, -0.016302725300192833, 0.11758877336978912, 0.23939570784568787, -2.4023612270251196, 1.059301646090688, -1.2666251060648606, 9362.0, 28835.0, 35388.0, 9362.0, 8.033059120178223, -0.12436557561159134, 0.09328272193670273, 0.053195495158433914, 0.003477368736639619, -0.075930155813694, 0.994592010974884, -0.10341114550828934, -0.10231781005859375, 1.487548828125, 1.3271484375, 0.022308349609375, 1.44873046875
63500, -5.017548084259033, 5.7307448387146, 7.030818462371826, -0.5028497576713562, 0.34459438920021057, -42.80415344238281, -1.0471419095993042, 0.7164090871810913, -1.4757295846939087, -0.016313131898641586, 0.11759410798549652, 0.23946696519851685, -2.299858616361918, 0.9151261649773517, -1.2566099960719594, 9362.0, 28835.0, 35388.0, 9362.0, 8.033059120178223, 0.18196351826190948, 0.3175280690193176, 0.02568301185965538, 0.003477368736639619, -0.075930155813694, 0.994592010974884, -0.1005261093378067, -0.07543754577636719, 1.48974609375, 1.329345703125, 0.02105712890625, 1.450927734375
63550, -5.016998291015625, 5.733283519744873, 7.031210422515869, -0.5455916523933411, 0.3738345503807068, -42.86327362060547, -1.089937686920166, 0.7455912828445435, -1.480506181716919, -0.016298465430736542, 0.11758887022733688, 0.2394300252199173, -2.33368968159709, 0.9959955666845133, -1.2610803991868784, 9362.0, 28835.0, 35388.0, 9362.0, 8.033059120178223, -0.05933009088039398, -0.25543153285980225, -0.20891505479812622, 0.003477368736639619, -0.075930155813694, 0.994592010974884, -0.0998704805970192, -0.07543754577636719, 1.48974609375, 1.314697265625, 0.0319061279296875, 1.450927734375
63560, -5.017335891723633, 5.734133720397949, 7.029975891113281, -0.5455916523933411, 0.3738345503807068, -42.86327362060547, -1.089937686920166, 0.7455912828445435, -1.480506181716919, -0.016297969967126846, 0.11759409308433533, 0.23946824669837952, -2.312293713138276, 0.9793950370951734, -1.2624318497534825, 9362.0, 28835.0, 35388.0, 9362.0, 8.033059120178223, -0.07337188720703125, -0.06143626943230629, 0.07985549420118332, 0.003477368736639619, -0.075930155813694, 0.994592010974884, -0.0998704805970192, -0.07543754577636719, 1.48974609375, 1.314697265625, 0.0319061279296875, 1.450927734375
63570, -5.017507076263428, 5.735548973083496, 7.031516075134277, -0.5455916523933411, 0.3738345503807068, -42.86327362060547, -1.089937686920166, 0.7455912828445435, -1.480506181716919, -0.01630491018295288, 0.11758893728256226, 0.23941077291965485, -2.3963149263991124, 1.1018121466992454, -1.255356365080309, 9362.0, 28835.0, 35388.0, 9362.0, 8.033059120178223, -0.07337188720703125, -0.06143626943230629, 0.07985549420118332, 0.003477368736639619, -0.075930155813694, 0.994592010974884, -0.10322104394435883, -0.05751800537109375, 1.4912109375, 1.314697265625, 0.0319061279296875, 1.450927734375
63590, -5.018083095550537, 5.734328746795654, 7.0326995849609375, -0.5455916523933411, 0.3738345503807068, -42.86327362060547, -1.089937686920166, 0.7455912828445435, -1.480506181716919, -0.016300026327371597, 0.11757481843233109, 0.2394714206457138, -2.281969836105039, 0.9364677989458698, -1.2533569808479574, 9362.0, 28835.0, 35388.0, 9362.0, 8.033059120178223, -0.21775858104228973, 0.2500070035457611, 0.1739189326763153, 0.003477368736639619, -0.075930155813694, 0.994592010974884, -0.09863794595003128, -0.11127853393554688, 1.48681640625, 1.314697265625, 0.0319061279296875, 1.450927734375
63600, -5.018624305725098, 5.731330871582031, 7.033969402313232, -0.5455916523933411, 0.3738345503807068, -42.86327362060547, -1.089937686920166, 0.7455912828445435, -1.480506181716919, -0.01629258692264557, 0.11759041994810104, 0.2394818216562271, -2.306294114706655, 0.9734965080186839, -1.2733826580748082, 9362.0, 28835.0, 35388.0, 9362.0, 8.033059120178223, 0.12471987307071686, -0.23637664318084717, 0.07944153994321823, 0.003477368736639619, -0.075930155813694, 0.994592010974884, -0.09887180477380753, -0.05751800537109375, 1.4912109375, 1.323486328125, 0.024688720703125, 1.450927734375
63610, -5.018034934997559, 5.733546257019043, 7.033610820770264, -0.5455916523933411, 0.3738345503807068, -42.86327362060547, -1.089937686920166, 0.7455912828445435, -1.480506181716919, -0.016281768679618835, 0.1176024079322815, 0.2394736409187317, -2.304730757529461, 0.9713734352750123, -1.2727491621881526, 9362.0, 28835.0, 35388.0, 9362.0, 8.033059120178223, -0.048106227070093155, 0.2842255234718323, 0.010693337768316269, 0.003477368736639619, -0.075930155813694, 0.994592010974884, -0.09993112087249756, -0.09335899353027344, 1.48828125, 1.323486328125, 0.024688720703125, 1.450927734375
63630, -5.019447326660156, 5.734499931335449, 7.034388542175293, -0.648019552230835, 0.44389212131500244, -42.997013092041016, -1.1862496137619019, 0.8112477660179138, -1.4913725852966309, -0.016295917332172394, 0.11758275330066681, 0.23939111828804016, -2.419055728117353, 1.1177363277970471, -1.2484917528896369, 9362.0, 28835.0, 35388.0, 9362.0, 8.033059120178223, -0.22508138418197632, 0.08244457095861435, 0.03851122409105301, 0.003477368736639619, -0.075930155813694, 0.994592010974884, -0.0955519899725914, -0.06647872924804688, 1.490478515625, 1.32275390625, 0.0251312255859375, 1.450927734375
63650, -5.021642684936523, 5.738916873931885, 7.032431125640869, -0.6719585061073303, 0.4602629244327545, -43.02686309814453, -1.207643985748291, 0.8258335590362549, -1.493888258934021, -0.016304457560181618, 0.11760003864765167, 0.23944421112537384, -2.3540718545653863, 1.0386038680639729, -1.2795905785419082, 9362.0, 28835.0, 35388.0, 9362.0, 8.033059120178223, 0.20131361484527588, 0.17783819139003754, -0.33716049790382385, 0.003477368736639619, -0.075930155813694, 0.994592010974884, -0.09684750437736511, -0.07543754577636719, 1.48974609375, 1.32568359375, 0.0232086181640625, 1.450927734375
63660, -5.02012825012207, 5.738186836242676, 7.030466556549072, -0.6840884685516357, 0.468557745218277, -43.04180908203125, -1.2183496952056885, 0.8331330418586731, -1.495097279548645, -0.01631084270775318, 0.11758923530578613, 0.2393902689218521, -2.405844095165683, 1.098715493438931, -1.261968827263932, 9362.0, 28835.0, 35388.0, 9362.0, 8.033059120178223, 0.1426537185907364, 0.043142493814229965, 0.23090782761573792, 0.003477368736639619, -0.075930155813694, 0.994592010974884, -0.09684750437736511, -0.07543754577636719, 1.48974609375, 1.32568359375, 0.0232086181640625, 1.450927734375
63670, -5.02008056640625, 5.7378830909729, 7.032464981079102, -0.6963255405426025, 0.4769256114959717, -43.056766510009766, -1.2290682792663574, 0.840438187122345, -1.496242642402649, -0.016298020258545876, 0.11757811903953552, 0.2394697517156601, -2.303023196325006, 0.9753321530631069, -1.279175547750314, 9362.0, 28835.0, 35388.0, 9362.0, 8.033059120178223, 0.09883937239646912, -0.15325374901294708, -0.080821193754673, 0.003477368736639619, -0.075930155813694, 0.994592010974884, -0.10254476219415665, -0.12023735046386719, 1.486083984375, 1.32568359375, 0.0232086181640625, 1.450927734375
63680, -5.019433498382568, 5.739750385284424, 7.032721519470215, -0.6963255405426025, 0.4769256114959717, -43.056766510009766, -1.2290682792663574, 0.840438187122345, -1.496242642402649, -0.016307972371578217, 0.11756620556116104, 0.23943102359771729, -2.381898162807183, 1.1293401333605857, -1.2538317459073038, 9362.0, 28835.0, 35388.0, 9362.0, 8.033059120178223, 0.005156376399099827, -0.3886282742023468, -0.2759573459625244, 0.003477368736639619, -0.075930155813694, 0.994592010974884, -0.10573607683181763, -0.06647872924804688, 1.490478515625, 1.32568359375, 0.0232086181640625, 1.450927734375
63750, -5.019425868988037, 5.742819309234619, 7.0324225425720215, -0.7980784177780151, 0.5464951395988464, -43.17686080932617, -1.3148030042648315, 0.8988234400749207, -1.5057693719863892, -0.016322549432516098, 0.11766128242015839, 0.23949599266052246, -2.2660030372477893, 0.8958632367818211, -1.3027877034146318, 9362.0, 28835.0, 35388.0, 9362.0, 8.033059120178223, -0.025823909789323807, -0.12894098460674286, -0.28498655557632446, 0.003477368736639619, -0.075930155813694, 0.994592010974884, -0.1075289323925972, -0.07543754577636719, 1.48974609375, 1.22607421875, 0.2537689208984375, 1.450927734375
63790, -5.018720626831055, 5.742393493652344, 7.031469821929932, -0.8515276312828064, 0.5830314755439758, -43.23719024658203, -1.3576663732528687, 0.9279996156692505, -1.5106781721115112, -0.016327621415257454, 0.11765845119953156, 0.23950913548469543, -2.2576777685789207, 0.9061010566959169, -1.2959860590866963, 9362.0, 28835.0, 35388.0, 9362.0, 8.033059120178223, -0.0028086428064852953, -0.14171528816223145, -0.06619790941476822, 0.002243802649900317, -0.07607690989971161, 0.9964905381202698, -0.10937462747097015, -0.11127853393554688, 1.48681640625, 1.2392578125, 0.20068359375, 1.450927734375
63820, -5.017476558685303, 5.743762969970703, 7.032681941986084, -0.8927403092384338, 0.6111999750137329, -43.28256607055664, -1.389841914176941, 0.949898362159729, -1.5141021013259888, -0.016298700124025345, 0.11759955435991287, 0.23942342400550842, -2.3158840344525213, 0.9968849430548516, -1.269641400189628, 9362.0, 28835.0, 35388.0, 9362.0, 8.033059120178223, -0.029512109234929085, -0.05818955972790718, 0.13174739480018616, 0.002243802649900317, -0.07607690989971161, 0.9964905381202698, -0.10464733839035034, -0.10231781005859375, 1.487548828125, 1.2392578125, 0.20068359375, 1.450927734375
63870, -5.015801906585693, 5.744959831237793, 7.0324835777282715, -0.9491931200027466, 0.6497803330421448, -43.34321594238281, -1.432791829109192, 0.9791133403778076, -1.518330454826355, -0.016301404684782028, 0.11759434640407562, 0.23945996165275574, -2.2854693598142024, 0.9641539425468864, -1.2795689464973936, 9362.0, 28835.0, 35388.0, 9362.0, 8.033059120178223, 0.08657931536436081, -0.013122078031301498, 0.13578692078590393, 0.002243802649900317, -0.07607690989971161, 0.9964905381202698, -0.12138988822698593, -0.10231781005859375, 1.487548828125, 1.33154296875, 0.0198516845703125, 1.450927734375
63880, -5.014621257781982, 5.745453357696533, 7.032632350921631, -0.9491931200027466, 0.6497803330421448, -43.34321594238281, -1.432791829109192, 0.9791133403778076, -1.518330454826355, -0.016315530985593796, 0.11765129864215851, 0.23954249918460846, -2.1677803557574418, 0.7938053005206598, -1.30918088711565, 9362.0, 28835.0, 35388.0, 9362.0, 8.033059120178223, -0.027565278112888336, 0.15654034912586212, 0.11602508276700974, 0.002243802649900317, -0.07607690989971161, 0.9964905381202698, -0.12138988822698593, -0.10231781005859375, 1.487548828125, 1.335205078125, 0.018280029296875, 1.450927734375
63890, -5.014456748962402, 5.744006156921387, 7.03383207321167, -0.9491931200027466, 0.6497803330421448, -43.34321594238281, -1.432791829109192, 0.9791133403778076, -1.518330454826355, -0.01629653014242649, 0.1175864040851593, 0.23946154117584229, -2.3279408771801777, 0.9786168681715708, -1.2781639407128236, 9362.0, 28835.0, 35388.0, 9362.0, 8.033059120178223, 0.023073015734553337, -0.2219250649213791, -0.05927524343132973, 0.002243802649900317, -0.07607690989971161, 0.9964905381202698, -0.11710809171199799, -0.09335899353027344, 1.48828125, 1.34033203125, 0.0166168212890625, 1.450927734375
63900, -5.01451301574707, 5.744897365570068, 7.034336090087891, -1.007360816001892, 0.6895269155502319, -43.4040641784668, -1.4756321907043457, 1.008236050605774, -1.5235979557037354, -0.016282958909869194, 0.11758255958557129, 0.2394474297761917, -2.321687634571793, 0.946433772569975, -1.2640033837429914, 9362.0, 28835.0, 35388.0, 9362.0, 8.033059120178223, 0.025005552917718887, -0.018381644040346146, -0.22181782126426697, 0.004756936803460121, -0.07430092245340347, 0.9975141882896423, -0.11391297727823257, -0.09335899353027344, 1.48828125, 1.34033203125, 0.0166168212890625, 1.450927734375
63940, -5.013483047485352, 5.745908737182617, 7.035687446594238, -1.0521125793457031, 0.7201021313667297, -43.449825286865234, -1.5078206062316895, 1.0301129817962646, -1.5269896984100342, -0.016302920877933502, 0.11764810979366302, 0.23955151438713074, -2.192720555266603, 0.8471488103769786, -1.3233936258375578, 9362.0, 28835.0, 35388.0, 9362.0, 8.033059120178223, 0.07917836308479309, 0.02511879988014698, -0.36604952812194824, 0.004756936803460121, -0.07430092245340347, 0.9975141882896423, -0.11421862244606018, -0.10231781005859375, 1.487548828125, 1.34033203125, 0.0166168212890625, 1.450927734375
63960, -5.013088226318359, 5.743450164794922, 7.03462553024292, -1.0824840068817139, 0.7408504486083984, -43.480384826660156, -1.5293196439743042, 1.0447179079055786, -1.5289263725280762, -0.01628763973712921, 0.11759857088327408, 0.23950880765914917, -2.2775115611954555, 0.9188477242559259, -1.274741490395298, 9362.0, 28835.0, 35388.0, 9362.0, 8.033059120178223, 0.23647698760032654, -0.27589958906173706, -0.3931048810482025, 0.004756936803460121, -0.07430092245340347, 0.9975141882896423, -0.10987839102745056, -0.08439826965332031, 1.489013671875, 1.326416015625, 0.022705078125, 1.450927734375
63980, -5.011836051940918, 5.747091770172119, 7.030501365661621, -1.1288468837738037, 0.7725204229354858, -43.52629852294922, -1.5615431070327759, 1.0666131973266602, -1.531982421875, -0.016290344297885895, 0.11758532375097275, 0.23946376144886017, -2.3164215051033126, 1.019294304219045, -1.2803013099517, 9362.0, 28835.0, 35388.0, 9362.0, 8.033059120178223, 0.12901058793067932, -0.06903726607561111, 0.20719502866268158, 0.004756936803460121, -0.07430092245340347, 0.9975141882896423, -0.10408655554056168, -0.13815879821777344, 1.484619140625, 1.326416015625, 0.022705078125, 1.450927734375
63990, -5.011693954467773, 5.748373031616211, 7.03127908706665, -1.1288468837738037, 0.7725204229354858, -43.52629852294922, -1.5615431070327759, 1.0666131973266602, -1.531982421875, -0.01630180887877941, 0.11758114397525787, 0.23944516479969025, -2.3219039933831738, 1.0140486373597923, -1.2737914094086646, 9362.0, 28835.0, 35388.0, 9362.0, 8.033059120178223, -0.033471304923295975, -0.1620999574661255, -0.2880554497241974, 0.004756936803460121, -0.07430092245340347, 0.9975141882896423, -0.1068020761013031, -0.12023735046386719, 1.486083984375, 1.326416015625, 0.022705078125, 1.450927734375
64000, -5.0111985206604, 5.750355243682861, 7.029506683349609, -1.1288468837738037, 0.7725204229354858, -43.52629852294922, -1.5615431070327759, 1.0666131973266602, -1.531982421875, -0.016305964440107346, 0.11759284883737564, 0.23945942521095276, -2.3389804222106405, 1.005072542540347, -1.2595574526146065, 9362.0, 28835.0, 35388.0, 9362.0, 8.033059120178223, -0.033471304923295975, -0.1620999574661255, -0.2880554497241974, 0.004756936803460121, -0.07430092245340347, 0.9975141882896423, -0.10657106339931488, -0.07543754577636719, 1.48974609375, 1.326416015625, 0.022705078125, 1.450927734375
64030, -5.013591766357422, 5.7534308433532715, 7.032381534576416, -1.208267092704773, 0.8267630338668823, -43.60302734375, -1.615218997001648, 1.1030536890029907, -1.5375964641571045, -0.0162835493683815, 0.11758318543434143, 0.2394345998764038, -2.3852699949768406, 1.0699731787543953, -1.2725415818477062, 9362.0, 28835.0, 35388.0, 9362.0, 8.033059120178223, -0.16880367696285248, 0.0013909877743571997, 0.11586204171180725, 0.004756936803460121, -0.07430092245340347, 0.9975141882896423, -0.10485987365245819, -0.05751800537109375, 1.4912109375, 1.3271484375, 0.022308349609375, 1.450927734375
64040, -5.013291358947754, 5.752197265625, 7.033206939697266, -1.208267092704773, 0.8267630338668823, -43.60302734375, -1.615218997001648, 1.1030536890029907, -1.5375964641571045, -0.016322186216711998, 0.11765647679567337, 0.23952913284301758, -2.209318602550151, 0.8606744999790692, -1.3061222279396307, 9362.0, 28835.0, 35388.0, 9362.0, 8.033059120178223, -0.19385652244091034, -0.04331085458397865, -0.019337093457579613, 0.004756936803460121, -0.07430092245340347, 0.9975141882896423, -0.10407405346632004, -0.08439826965332031, 1.489013671875, 1.3271484375, 0.022308349609375, 1.450927734375
64050, -5.013541221618652, 5.7520647048950195, 7.033738613128662, -1.208267092704773, 0.8267630338668823, -43.60302734375, -1.615218997001648, 1.1030536890029907, -1.5375964641571045, -0.016324592754244804, 0.11765572428703308, 0.2395387440919876, -2.1976191151573365, 0.8192719719576758, -1.3183316478995337, 9362.0, 28835.0, 35388.0, 9362.0, 8.033059120178223, -0.05974294990301132, 0.2598993182182312, -0.04052332043647766, 0.004756936803460121, -0.07430092245340347, 0.9975141882896423, -0.10355241596698761, -0.09335899353027344, 1.48828125, 1.3271484375, 0.022308349609375, 1.450927734375
