timeTick, roll, pitch, yaw, stateX, stateY, stateZ, stateVX, stateVY, stateVZ, otX0, otY0, otZ0, otRoll0, otPitch0, otYaw0, left wing, pitch motor, yaw motor, right wing, voltage, roll rate, pitch rate, yaw rate, A_x, A_y, A_z, current, i_raw, v_raw, airflow_voltage, airflow_speed, pot_Pitch
63443, 0.000897168240044266, -0.00013997794303577393, -0.0015563800698146224, 0, 0, 0, 0, 0, 0, -0.8195546269416809, -1.0178940296173096, 0.05114425718784332, -0.5013914925996705, -1.0770378724743068, 4.073104939046947, 0, 0, 0, 0, 0, 0, 0, 0, 0, 0, 0, 0, 0, 0, 0, 0, 0
63453, 0.0009061663295142353, 0.0007828453672118485, -0.0025543044321238995, 0.0, 0.0, -3.098626621067524e-06, -1.5137745501547784e-09, 9.704029579893358e-09, -0.0006197249749675393, -0.8195458054542542, -1.0178806781768799, 0.05114688351750374, -0.5101800023012618, -1.078754861951296, 4.070181592846872, 9362.0, 30146.0, 35388.0, 9362.0, 0, -0.027856266126036644, 0.30365484952926636, 0.10161008685827255, -0.12629446387290955, -0.015282733365893364, 0.9904881119728088, 0, 0, 0, 0, 0, 0
63463, 0.0012132910778746009, -0.0008899936219677329, -0.002915668999776244, 1.1738583438614114e-09, -7.525001954888921e-09, -1.3032142305746675e-05, 2.48288131388108e-07, -1.5145916449910146e-06, -0.0013666065642610192, -0.8195379972457886, -1.0178953409194946, 0.05116454139351845, -0.5002094424994469, -1.0812077825379447, 4.072127772084935, 9362.0, 30146.0, 35388.0, 9362.0, 0, 0.009150682017207146, 0.04787799343466759, 0.16824714839458466, -0.12546545267105103, -0.014732759445905685, 0.9927104115486145, 0, 0, 0, 1.516845703125, 0.23004150390625, 0
63473, 0.00047522506793029606, -0.0005190908559598029, -0.003057640278711915, -2.9841826787446735e-09, -3.0357270475178666e-08, -3.118094173260033e-05, -1.1060691349484841e-06, -3.0470489491563058e-06, -0.002262755064293742, -0.8195434808731079, -1.0178931951522827, 0.051142122596502304, -0.5093893898344017, -1.0754070700443776, 4.073867426222623, 9362.0, 30146.0, 35388.0, 9362.0, 0, -0.09215549379587173, -0.01021366473287344, 0.10579457134008408, -0.12692208588123322, -0.013928230851888657, 0.9941001534461975, 0, 0, 0, 1.54833984375, 0.298126220703125, 1.493408203125
63483, -0.00026040233206003904, -0.00043578853365033865, -0.0027750288136303425, -6.485356696117606e-09, -7.113440858574904e-08, -5.761109059676528e-05, 4.107489246507612e-07, -5.1181741582695395e-06, -0.003022880991920829, -0.8195411562919617, -1.0178897380828857, 0.051151689141988754, -0.5098656754788744, -1.0799112518986647, 4.070111919298175, 9362.0, 30146.0, 35388.0, 9362.0, 0, 0.026531077921390533, -0.1797429472208023, 0.19290874898433685, -0.12791764736175537, -0.015876121819019318, 0.9923588037490845, 0, 0, 0, 1.540283203125, 0.280364990234375, 1.493408203125
63493, -0.0006105508073233068, -0.0002818569482769817, -0.0004656931268982589, 2.039913571394436e-09, -1.263610300838991e-07, -9.069489897228777e-05, 1.2951380767844967e-06, -5.934471573709743e-06, -0.00359348370693624, -0.8195316791534424, -1.0178837776184082, 0.0512288473546505, -0.5065968716031091, -1.0902073696911714, 4.06929387762902, 9362.0, 30146.0, 35388.0, 9362.0, 0, 0.0976010337471962, -0.20515874028205872, -0.06128721684217453, -0.12662234902381897, -0.018284551799297333, 0.9927778244018555, 0, 0, 0, 1.55126953125, 0.304718017578125, 1.491943359375
63503, -0.0006061074091121554, 0.0002847197465598583, -0.0007538539939559996, 1.8695095249654514e-08, -1.83492815608588e-07, -0.00013018352910876274, 2.0377883629407734e-06, -5.496196536114439e-06, -0.004303846973925829, -0.8195545077323914, -1.0178941488265991, 0.05113709717988968, -0.5046220268510877, -1.071067505719384, 4.074359736142716, 9362.0, 30146.0, 35388.0, 9362.0, 0, -0.05411910265684128, -0.07166110724210739, -0.14919425547122955, -0.12566302716732025, -0.017326030880212784, 0.993637204170227, 0, 0, 0, 1.587158203125, 0.3869171142578125, 1.491943359375
63513, -0.0016192381735891104, 0.002404160099104047, -0.00233632605522871, 4.1469149891781854e-08, -2.332643731506323e-07, -0.0001766387722454965, 2.5237802674382692e-06, -4.4580656322068535e-06, -0.004986801650375128, -0.8195381760597229, -1.0178883075714111, 0.051161233335733414, -0.5095154785521867, -1.0780431396723884, 4.0765529082543335, 9362.0, 30146.0, 35388.0, 9362.0, 0, 0.15569578111171722, 0.1826269030570984, 0.20311188697814941, -0.12467863410711288, -0.017287762835621834, 0.9926109313964844, 0, 0, 0, 1.541748046875, 0.2835540771484375, 1.4912109375
63523, -0.002067376160994172, 0.002559951040893793, -0.0010681680869311094, 6.428621190934791e-08, -2.7269163638266036e-07, -0.00022985434043221176, 2.0644079086196143e-06, -3.439199190324871e-06, -0.00565591873601079, -0.8195435404777527, -1.0178955793380737, 0.05114509165287018, -0.5041112900668742, -1.0762606579123997, 4.065708216460154, 9362.0, 30146.0, 35388.0, 9362.0, 0, 0.052117034792900085, -0.07629263401031494, -0.11128558963537216, -0.1245233342051506, -0.01652698405086994, 0.9913659691810608, 0, 0, 0, 1.546875, 0.2949676513671875, 1.4912109375
63533, -0.0015803449787199497, 0.003857055678963661, -0.0023867443669587374, 6.449693756849229e-08, -2.933202836175042e-07, -0.00028993492014706135, -2.020410647673998e-06, -6.921226258782553e-07, -0.006359797902405262, -0.8195490837097168, -1.017888069152832, 0.05114082247018814, -0.5027195206332274, -1.0736249407219987, 4.0745490599312335, 9362.0, 30146.0, 35388.0, 9362.0, 0, -0.047901660203933716, -0.13513045012950897, 0.04244472086429596, -0.12272809445858002, -0.016687510535120964, 0.9909815192222595, 0, 0, 0, 1.5029296875, 0.201446533203125, 1.484619140625
63543, -0.001571809290908277, 0.005117407534271479, -0.0023339693434536457, 2.2567594015754366e-08, -2.82695907571906e-07, -0.0003577811876311898, -6.346155259961961e-06, 2.824314378813142e-06, -0.007209063973277807, -0.8195518255233765, -1.0178874731063843, 0.051146816462278366, -0.5093571917779937, -1.0794020238507755, 4.0716800125047445, 9362.0, 30146.0, 35388.0, 9362.0, 8.132232666015625, 0.005993341561406851, -0.05741787329316139, 0.2129499465227127, -0.1257878690958023, -0.015664473176002502, 0.9944808483123779, -0.07351090013980865, -0.06647872924804688, 1.490478515625, 1.506591796875, 0.2088775634765625, 1.484619140625
63553, -0.0017860688967630267, 0.005646240897476673, -0.0014998647384345531, -7.36136485102179e-08, -2.410450008483167e-07, -0.0004343199834693223, -1.2870541468146257e-05, 5.505990884557832e-06, -0.00809829868376255, -0.8195437788963318, -1.0178967714309692, 0.0511430948972702, -0.5053411363448185, -1.0717758968333726, 4.07051430175675, 9362.0, 30146.0, 35388.0, 9362.0, 8.132232666015625, 0.22206686437129974, -0.141439288854599, -0.02518427185714245, -0.12611445784568787, -0.015566783025860786, 0.9933746457099915, -0.07351090013980865, -0.06647872924804688, 1.490478515625, 1.4501953125, 0.1050872802734375, 1.49267578125
63563, -0.0008167024934664369, 0.007326550781726837, -0.0017367060063406825, -2.45859894221212e-07, -1.7260964568777126e-07, -0.0005183039465919137, -2.1573208869085647e-05, 8.178712960216217e-06, -0.008698094636201859, -0.8195518255233765, -1.0178812742233276, 0.05116334930062294, -0.5089674752696626, -1.0842030091590118, 4.071197149019244, 9362.0, 30146.0, 35388.0, 9362.0, 8.132232666015625, -0.2056197077035904, 0.21094807982444763, 0.1522352546453476, -0.12649071216583252, -0.013053682632744312, 0.9931438565254211, -0.07351090013980865, -0.06647872924804688, 1.490478515625, 1.58056640625, 0.3715972900390625, 1.49267578125
63573, -0.001597512629814446, 0.00700354902073741, 0.00013908279652241617, -5.096067070553545e-07, -7.563274095900852e-08, -0.0006085480563342571, -3.115701474598609e-05, 1.1227740287722554e-05, -0.009350333362817764, -0.8195422291755676, -1.01789391040802, 0.05114390701055527, -0.5050625554468868, -1.076868470580564, 4.077827627023156, 9362.0, 30146.0, 35388.0, 9362.0, 8.132232666015625, 0.015471164137125015, 0.22041162848472595, -0.16552291810512543, -0.12573449313640594, -0.014563639648258686, 0.9946498274803162, -0.07351090013980865, -0.06647872924804688, 1.490478515625, 1.426025390625, 0.069732666015625, 1.4970703125
63583, -0.001182606560178101, 0.005401582457125187, -0.00011292545968899503, -8.834542768454412e-07, 4.358872729426366e-08, -0.0007055226597003639, -4.361647006589919e-05, 1.2606693417183124e-05, -0.010044190101325512, -0.8195351958274841, -1.0178889036178589, 0.05115291103720665, -0.5045030988627943, -1.0814554019090679, 4.07152149286266, 9362.0, 30146.0, 35388.0, 9362.0, 8.132232666015625, 0.01963292621076107, 0.12524549663066864, 0.11067058145999908, -0.12762634456157684, -0.01475199218839407, 0.9934699535369873, -0.07351090013980865, -0.06647872924804688, 1.490478515625, 1.52490234375, 0.247039794921875, 1.4970703125
63593, -0.0016741204308345914, 0.0037702759727835655, 0.000699428201187402, -1.379255081701558e-06, 1.8325853545775317e-07, -0.0008085840381681919, -5.555832831305452e-05, 1.533111026219558e-05, -0.010567691177129745, -0.8195437788963318, -1.017892837524414, 0.05115347355604172, -0.5091371795469731, -1.075588340767041, 4.069501299129176, 9362.0, 30146.0, 35388.0, 9362.0, 8.132232666015625, 0.03561794012784958, 0.026785561814904213, -0.009197898209095001, -0.12736910581588745, -0.014532276429235935, 0.992464542388916, -0.07351090013980865, -0.06647872924804688, 1.490478515625, 1.452392578125, 0.10870361328125, 1.491943359375
63603, -0.0013081547804176807, 0.0026694978587329388, 0.0016019574832171202, -1.9807810076599708e-06, 3.4662824077713594e-07, -0.0009174381848424673, -6.476495764218271e-05, 1.7337257304461673e-05, -0.011202742345631123, -0.8195407390594482, -1.0178903341293335, 0.051154155284166336, -0.5067792517521263, -1.0823052317198858, 4.07297011498772, 9362.0, 30146.0, 35388.0, 9362.0, 8.132232666015625, -0.2523576617240906, 0.06042223796248436, 0.059390246868133545, -0.12702243030071259, -0.0161043182015419, 0.9934662580490112, -0.07351090013980865, -0.06647872924804688, 1.490478515625, 1.5615234375, 0.3278350830078125, 1.491943359375
63613, -0.0019626023713499308, 0.0022845144849270582, 0.0022053683642297983, -2.66046436081524e-06, 5.342243412087555e-07, -0.001033160137012601, -7.118596113286912e-05, 2.0186580513836816e-05, -0.01194123737514019, -0.8195520639419556, -1.0178920030593872, 0.051141880452632904, -0.5089331318022271, -1.0765750456023397, 4.073923853620849, 9362.0, 30146.0, 35388.0, 9362.0, 8.132232666015625, 0.08287721872329712, -0.03611880540847778, 0.07610861212015152, -0.12490283697843552, -0.015594650991261005, 0.9939116835594177, -0.07351090013980865, -0.06647872924804688, 1.490478515625, 1.525634765625, 0.248626708984375, 1.493408203125
63623, -0.0005055945366621017, 0.003204042324796319, 0.0024865944869816303, -3.3950202578125754e-06, 7.472114020856679e-07, -0.0011559475678950548, -7.572977483505383e-05, 2.2403075490728952e-05, -0.012615857645869255, -0.8195412755012512, -1.0178916454315186, 0.051158297806978226, -0.5052355568376563, -1.0786922179660223, 4.076982675357333, 9362.0, 30146.0, 35388.0, 9362.0, 8.132232666015625, 0.027195919305086136, 0.13943491876125336, 0.008145708590745926, -0.12685176730155945, -0.01575862243771553, 0.9933480620384216, -0.07351090013980865, -0.06647872924804688, 1.490478515625, 1.49267578125, 0.1811065673828125, 1.493408203125
63633, -0.0005461635300889611, 0.0027955423574894667, 0.0023336538579314947, -4.171755790594034e-06, 9.879397566692205e-07, -0.0012851196806877851, -7.960770017234609e-05, 2.575787584646605e-05, -0.013218160718679428, -0.8195466995239258, -1.0178905725479126, 0.051160167902708054, -0.5103513569687996, -1.0801585798042765, 4.070584217402786, 9362.0, 30146.0, 35388.0, 9362.0, 8.132232666015625, -0.023124175146222115, -0.04289793223142624, -0.15462788939476013, -0.12473461776971817, -0.015596160665154457, 0.9922246932983398, -0.07351090013980865, -0.06647872924804688, 1.490478515625, 1.587158203125, 0.3869171142578125, 1.49267578125
63643, -0.000814326573163271, 0.0034708897583186626, 0.0013172647450119257, -4.995089966541855e-06, 1.2498185242293403e-06, -0.0014203803148120642, -8.506354788551107e-05, 2.6617446565069258e-05, -0.013833576813340187, -0.8195477724075317, -1.0178929567337036, 0.0511668436229229, -0.5054660708896519, -1.0797161811248088, 4.075741689952547, 9362.0, 30146.0, 35388.0, 9362.0, 8.132232666015625, -0.11417349427938461, -0.19821521639823914, 0.17561933398246765, -0.12548720836639404, -0.014696829952299595, 0.9927665591239929, -0.06645777076482773, -0.1291980743408203, 1.4853515625, 1.47216796875, 0.142547607421875, 1.49267578125
63653, -0.0015061144949868321, 0.004414418712258339, 0.00202222284860909, -5.869473625352839e-06, 1.5206317129923264e-06, -0.0015624905936419964, -8.980429265648127e-05, 2.754173692665063e-05, -0.014588086865842342, -0.8195669054985046, -1.017896056175232, 0.05115311220288277, -0.5120109087411612, -1.0692795065832001, 4.072876014391754, 9362.0, 30146.0, 35388.0, 9362.0, 8.132232666015625, 0.03924739360809326, 0.0803208202123642, -0.006568179931491613, -0.12598173320293427, -0.014730541966855526, 0.9930225014686584, -0.06645777076482773, -0.1291980743408203, 1.4853515625, 1.576171875, 0.361328125, 1.490478515625
63663, -0.0011464525014162064, 0.005147039890289307, 0.0009242022060789168, -6.797017704229802e-06, 1.8029697912425036e-06, -0.0017118819523602724, -9.56930234679021e-05, 2.8917342206113972e-05, -0.015289793722331524, -0.8195446133613586, -1.017899513244629, 0.05115064978599548, -0.5041110336245418, -1.0812416834307612, 4.073955697194936, 9362.0, 30146.0, 35388.0, 9362.0, 8.132232666015625, 0.15381120145320892, -0.17011992633342743, -0.13532792031764984, -0.12654104828834534, -0.015749525278806686, 0.9924640655517578, -0.06645777076482773, -0.1291980743408203, 1.4853515625, 1.562255859375, 0.329437255859375, 1.490478515625
63673, -0.0006675178301520646, 0.006590244825929403, -9.044587932294235e-05, -7.79146830609534e-06, 2.104942723235581e-06, -0.0018683085218071938, -0.00010318792192265391, 3.1481817131862044e-05, -0.015995122492313385, -0.8195505142211914, -1.0178934335708618, 0.051148444414138794, -0.5078441555233582, -1.0778676973440042, 4.07604882323335, 9362.0, 30146.0, 35388.0, 9362.0, 8.132232666015625, 0.07021663337945938, -0.10633709281682968, -0.24792687594890594, -0.12636715173721313, -0.015247358940541744, 0.99358069896698, -0.06645777076482773, -0.1291980743408203, 1.4853515625, 1.546875, 0.2949676513671875, 1.49267578125
63683, -0.0001169511306216009, 0.006887158378958702, -0.0018333877669647336, -8.867082215147093e-06, 2.4295015919051366e-06, -0.0020319141913205385, -0.00011191648809472099, 3.34362339344807e-05, -0.016725610941648483, -0.8195582032203674, -1.017894983291626, 0.051161039620637894, -0.5056079692186793, -1.0774158249288064, 4.066602828068301, 9362.0, 30146.0, 35388.0, 9362.0, 8.132232666015625, -0.21883367002010345, -0.09016835689544678, -0.05153272673487663, -0.12696798145771027, -0.01538658607751131, 0.9942335486412048, -0.06645777076482773, -0.1291980743408203, 1.4853515625, 1.579833984375, 0.369873046875, 1.49267578125
63693, -0.0008809704449959099, 0.007159702945500612, -0.002429971005767584, -1.0042282156064175e-05, 2.769539833025192e-06, -0.0022024984937161207, -0.00012312007311265916, 3.457812999840826e-05, -0.017390858381986618, -0.8195470571517944, -1.0178897380828857, 0.05114970728754997, -0.5015951334803148, -1.07994970789386, 4.071838523725614, 9362.0, 30146.0, 35388.0, 9362.0, 8.132232666015625, 0.1692960262298584, -0.14864739775657654, -0.06407222896814346, -0.12764307856559753, -0.01613600365817547, 0.9947963356971741, -0.06645777076482773, -0.1291980743408203, 1.4853515625, 1.5908203125, 0.395538330078125, 1.489013671875
63703, 0.0003316443180665374, 0.007436618208885193, -0.003208217676728964, -1.1332107533235103e-05, 3.116318566753762e-06, -0.0023791934363543987, -0.00013484244118444622, 3.477030622889288e-05, -0.017947731539607048, -0.8195242881774902, -1.0178818702697754, 0.05124025046825409, -0.5037625480341263, -1.0954317538097769, 4.0621708615503875, 9362.0, 30146.0, 35388.0, 9362.0, 8.132232666015625, -0.07313411682844162, 0.12799258530139923, -0.008873574435710907, -0.12632973492145538, -0.014601238071918488, 0.9926721453666687, -0.06645777076482773, -0.1291980743408203, 1.4853515625, 1.52783203125, 0.253387451171875, 1.489013671875
63713, 0.00033198230084963143, 0.006812205538153648, -0.003102667862549424, -1.2741507816826925e-05, 3.4715271794993896e-06, -0.0025612039025872946, -0.0001470352290198207, 3.628227932495065e-05, -0.01845395192503929, -0.8195576667785645, -1.017902135848999, 0.05112973973155022, -0.4999615739365215, -1.0718956337861982, 4.072661938838932, 9362.0, 30146.0, 35388.0, 9362.0, 8.132232666015625, -0.0935898870229721, 0.09541832655668259, 0.035993460565805435, -0.12413095682859421, -0.015987291932106018, 0.9901427030563354, -0.06645777076482773, -0.1291980743408203, 1.4853515625, 1.5322265625, 0.2628021240234375, 1.4853515625
63723, 0.0006478089489974082, 0.00575648108497262, -0.0026481868699193, -1.4275086869020015e-05, 3.8315338315442204e-06, -0.002749113133177161, -0.00015968790103215724, 3.571903653210029e-05, -0.01912747509777546, -0.8195487856864929, -1.0178853273391724, 0.05117543414235115, -0.507998163246319, -1.079549589303241, 4.07036747255065, 9362.0, 30146.0, 35388.0, 9362.0, 8.132232666015625, -0.24864952266216278, 0.145560622215271, -0.5633299350738525, -0.12723898887634277, -0.014692556113004684, 0.9909887909889221, -0.06645777076482773, -0.1291980743408203, 1.4853515625, 1.506591796875, 0.2088775634765625, 1.4853515625
63733, 0.0004355713608674705, 0.0037803472951054573, -0.005582702811807394, -1.5929725122987293e-05, 4.18591253037448e-06, -0.002945088082924485, -0.00017125712474808097, 3.516178549034521e-05, -0.020067108795046806, -0.8195569515228271, -1.0178982019424438, 0.051156606525182724, -0.5027361421658852, -1.0837623642794938, 4.075474012602381, 9362.0, 30146.0, 35388.0, 9362.0, 8.132232666015625, 0.1330784261226654, -0.056643322110176086, 0.12128272652626038, -0.12612125277519226, -0.013999325223267078, 0.9919834733009338, -0.06645777076482773, -0.1291980743408203, 1.4853515625, 1.471435546875, 0.14129638671875, 1.48974609375
63743, 0.0009781047701835632, 0.0038052555173635483, -0.00457646232098341, -1.7691128959995694e-05, 4.5320371100388e-06, -0.003150220727548003, -0.00018105441995430738, 3.406035102671012e-05, -0.020959028974175453, -0.8195380568504333, -1.0178924798965454, 0.05115974694490433, -0.5052329030704185, -1.075848081754458, 4.071664994161408, 9362.0, 30146.0, 35388.0, 9362.0, 8.132232666015625, 0.1564522683620453, -0.09495376795530319, 0.16820770502090454, -0.1260058879852295, -0.01825135014951229, 0.9908660054206848, -0.09444192051887512, 0.0052013397216796875, 1.496337890625, 1.557861328125, 0.3195037841796875, 1.48974609375
63753, 0.002104454208165407, 0.004078198224306107, -0.003822457743808627, -1.9533768863766454e-05, 4.868945779890055e-06, -0.003363868920132518, -0.00018747318245004863, 3.332893902552314e-05, -0.02177019603550434, -0.81955486536026, -1.0178977251052856, 0.051158517599105835, -0.5013884371460253, -1.082374386788473, 4.071006702753718, 9362.0, 30146.0, 35388.0, 9362.0, 8.132232666015625, 0.10152532160282135, -0.0704059973359108, -0.004526305478066206, -0.1291581392288208, -0.017625510692596436, 0.9933425784111023, -0.09444192051887512, 0.0052013397216796875, 1.496337890625, 1.535888671875, 0.2707366943359375, 1.486083984375
63763, 0.00141938088927418, 0.0029974228236824274, -0.002484312281012535, -2.1440790078486316e-05, 5.193938250158681e-06, -0.003585908794775605, -0.00019392676767893136, 3.1686537113273516e-05, -0.022637391462922096, -0.8195958137512207, -1.0179036855697632, 0.05111408233642578, -0.4959269338610688, -1.0595874008003818, 4.04946519982025, 9362.0, 30146.0, 35388.0, 9362.0, 8.132232666015625, 0.10770891606807709, 0.43955332040786743, 0.2573763132095337, -0.1282447874546051, -0.014425153844058514, 0.9942768216133118, -0.09444192051887512, 0.0052013397216796875, 1.496337890625, 1.52783203125, 0.253387451171875, 1.486083984375
63773, 0.0009801621781662107, 0.0009079273440875113, -6.389951158780605e-05, -2.3414724637405016e-05, 5.492917807714548e-06, -0.0038157657254487276, -0.00020087306620553136, 2.8100930649088696e-05, -0.023333590477705002, -0.8196008801460266, -1.0179117918014526, 0.05115065723657608, -0.4981497848295539, -1.0696149499384546, 4.063114116890784, 9362.0, 30146.0, 35388.0, 9362.0, 8.132232666015625, -0.30394721031188965, 0.04490504041314125, -0.4263930320739746, -0.1265406608581543, -0.013500574976205826, 0.9915902018547058, -0.09444192051887512, 0.0052013397216796875, 1.496337890625, 1.54248046875, 0.28521728515625, 1.489013671875
63783, -0.0007141015375964344, 0.0010364273330196738, -0.0019209791207686067, -2.5448962333030067e-05, 5.761849934060592e-06, -0.004052043426781893, -0.00020599579147528857, 2.5680810722406022e-05, -0.02392159029841423, -0.819601833820343, -1.0179044008255005, 0.05111851170659065, -0.4981472697508029, -1.0589085115734065, 4.057244954370481, 9362.0, 30146.0, 35388.0, 9362.0, 8.132232666015625, 0.05707243084907532, -0.3253731429576874, -0.013533921912312508, -0.12462799996137619, -0.015630656853318214, 0.9914427399635315, -0.09444192051887512, 0.0052013397216796875, 1.496337890625, 1.547607421875, 0.296478271484375, 1.489013671875
63793, 7.151604222599417e-05, 0.0031585844699293375, -0.002285935916006565, -2.7516629415913485e-05, 6.0103348005213775e-06, -0.004295234568417072, -0.00020753599528688937, 2.3992781279957853e-05, -0.024716250598430634, -0.8195909857749939, -1.0178980827331543, 0.05113249272108078, -0.4990571777483524, -1.0621586019593678, 4.056882558711268, 9362.0, 30146.0, 35388.0, 9362.0, 8.132232666015625, 0.16143128275871277, 0.20253349840641022, 0.2001824826002121, -0.1255725920200348, -0.014285440556704998, 0.990509569644928, -0.09444192051887512, 0.0052013397216796875, 1.496337890625, 1.51171875, 0.21942138671875, 1.48828125
63803, 0.0013310976792126894, 0.0015393099747598171, -0.00217968737706542, -2.960078745672945e-05, 6.2563249230152e-06, -0.004546515177935362, -0.00020926511206198484, 2.521652822906617e-05, -0.025539441034197807, -0.8195964694023132, -1.0179096460342407, 0.05113331228494644, -0.49406669134590897, -1.0663136169896745, 4.057262439762221, 9362.0, 30146.0, 35388.0, 9362.0, 8.132232666015625, -0.0331142283976078, -0.01617462746798992, 0.13292083144187927, -0.12501132488250732, -0.014434524811804295, 0.9917308688163757, -0.09444192051887512, 0.0052013397216796875, 1.496337890625, 1.5556640625, 0.3145904541015625, 1.48828125
63813, 0.0013836444122716784, 0.0002778604975901544, -0.0014914573403075337, -3.17202320729848e-05, 6.507884791062679e-06, -0.004806403536349535, -0.0002146489714505151, 2.511514503567014e-05, -0.026437873020768166, -0.8195955157279968, -1.0179076194763184, 0.05114121735095978, -0.4990841167185878, -1.0570584075407794, 4.052864783783795, 9362.0, 30146.0, 35388.0, 9362.0, 8.132232666015625, 0.0881800428032875, 0.022842464968562126, -0.0823502242565155, -0.12768952548503876, -0.015524227172136307, 0.9929357171058655, -0.09444192051887512, 0.0052013397216796875, 1.496337890625, 1.550537109375, 0.303131103515625, 1.493408203125
63823, 0.0019481948111206293, -0.0010042130015790462, -0.0019244044087827206, -3.387978722457774e-05, 6.747738552803639e-06, -0.005074972286820412, -0.0002172805106965825, 2.2856389477965422e-05, -0.02727550081908703, -0.8195959329605103, -1.0178987979888916, 0.0511472262442112, -0.4956999426565903, -1.0605042201139838, 4.053286560450662, 9362.0, 30146.0, 35388.0, 9362.0, 8.132232666015625, 0.15090349316596985, -0.2129000872373581, -0.12647977471351624, -0.1294558197259903, -0.015189376659691334, 0.9933586120605469, -0.09444192051887512, 0.0052013397216796875, 1.496337890625, 1.54541015625, 0.291656494140625, 1.493408203125
63833, 0.002175342757254839, 0.0012099978048354387, -0.003828734392300248, -3.605495294323191e-05, 6.964540716580814e-06, -0.0053511750884354115, -0.00021776840731035918, 2.0510809918050654e-05, -0.02796468697488308, -0.819606363773346, -1.0179128646850586, 0.05112088471651077, -0.4973442139821473, -1.067889991685547, 4.05539148278628, 9362.0, 30146.0, 35388.0, 9362.0, 8.132232666015625, -0.06605762243270874, -0.24951252341270447, 0.1572849452495575, -0.12726807594299316, -0.015886709094047546, 0.9911977648735046, -0.09444192051887512, 0.0052013397216796875, 1.496337890625, 1.46337890625, 0.1270751953125, 1.4912109375
63843, 0.002272483892738819, 0.0032980358228087425, -0.003602916607633233, -3.8224097806960344e-05, 7.1530839704792015e-06, -0.005634157452732325, -0.00021603518689516932, 1.7200398360728286e-05, -0.028631409630179405, -0.8196443319320679, -1.017895221710205, 0.05109124630689621, -0.5126793412560932, -1.046435237887522, 4.063189772343788, 9362.0, 30146.0, 35388.0, 9362.0, 8.132232666015625, -0.08680807799100876, -0.030635420233011246, -0.12673033773899078, -0.1286991685628891, -0.014863945543766022, 0.9928295612335205, -0.08806625753641129, -0.03959846496582031, 1.49267578125, 1.530029296875, 0.2581329345703125, 1.4912109375
63853, 0.0020931586623191833, 0.0040628802962601185, -0.005112709943205118, -4.0394723328063264e-05, 7.306618499569595e-06, -0.005924496334046125, -0.00021806084259878844, 1.3507898074749392e-05, -0.029436005279421806, -0.8196419477462769, -1.0179013013839722, 0.051092714071273804, -0.5049714664987179, -1.0450101635393878, 4.071133884055753, 9362.0, 30146.0, 35388.0, 9362.0, 8.132232666015625, 0.11307722330093384, 0.050005633383989334, -0.25100043416023254, -0.127334326505661, -0.015596725046634674, 0.9931448101997375, -0.08806625753641129, -0.03959846496582031, 1.49267578125, 1.5556640625, 0.3145904541015625, 1.496337890625
63863, 0.0024832910858094692, 0.002789510181173682, -0.006750475615262985, -4.260334389982745e-05, 7.422397175105289e-06, -0.006222700700163841, -0.00022365347831510007, 9.645618774811737e-06, -0.03020446002483368, -0.819635272026062, -1.0179004669189453, 0.051114052534103394, -0.5050721649242861, -1.0605472416825705, 4.0723557892235895, 9362.0, 30146.0, 35388.0, 9362.0, 8.132232666015625, -0.0018913713283836842, 0.03543959930539131, -0.11386672407388687, -0.1260916143655777, -0.01604248210787773, 0.9943673610687256, -0.08806625753641129, -0.03959846496582031, 1.49267578125, 1.51171875, 0.21942138671875, 1.496337890625
63873, 0.002284717047587037, 0.0018970315577462316, -0.006675015669316053, -4.48744285677094e-05, 7.5010580076195765e-06, -0.006528045050799847, -0.0002305780944880098, 6.091181603551377e-06, -0.03086405247449875, -0.81964111328125, -1.0179075002670288, 0.05110558494925499, -0.5126219199373065, -1.0546619265799961, 4.070401456737254, 9362.0, 30146.0, 35388.0, 9362.0, 8.132232666015625, 0.08274586498737335, 0.3107703924179077, 0.07965800166130066, -0.12636330723762512, -0.015283404849469662, 0.9939404129981995, -0.08806625753641129, -0.03959846496582031, 1.49267578125, 1.452392578125, 0.10870361328125, 1.48974609375
63883, 0.0027294366154819727, -6.470912921940908e-06, -0.006480972748249769, -4.720395372714847e-05, 7.540836122643668e-06, -0.00683950912207365, -0.00023533598869107664, 1.8624459698912688e-06, -0.03142835944890976, -0.8196398615837097, -1.0179107189178467, 0.05110497027635574, -0.50723627610266, -1.056980039396052, 4.070887401115919, 9362.0, 30146.0, 35388.0, 9362.0, 8.132232666015625, 0.16464029252529144, -0.00880937185138464, 0.0440632626414299, -0.12556086480617523, -0.017197096720337868, 0.9908930063247681, -0.08806625753641129, -0.03959846496582031, 1.49267578125, 1.544677734375, 0.2900543212890625, 1.48974609375
63893, 0.003117994638159871, 0.0002778547059278935, -0.006192571483552456, -4.957346027367748e-05, 7.540019396401476e-06, -0.007156706415116787, -0.00023858451459091157, -2.021253976636217e-06, -0.03201068565249443, -0.819646418094635, -1.0179152488708496, 0.05109906941652298, -0.5062044277973466, -1.0580328707799254, 4.075193336520065, 9362.0, 30146.0, 35388.0, 9362.0, 8.132232666015625, -0.11815626174211502, 0.38345867395401, 0.041523780673742294, -0.12706412374973297, -0.016520563513040543, 0.991519570350647, -0.08806625753641129, -0.03959846496582031, 1.49267578125, 1.56591796875, 0.337738037109375, 1.494873046875
63903, 0.002436192939057946, -0.0014610114740207791, -0.0062429411336779594, -5.195925405132584e-05, 7.496641046600416e-06, -0.0074810246005654335, -0.00023856984626036137, -6.648683665844146e-06, -0.03285253420472145, -0.8196361064910889, -1.017905831336975, 0.051102377474308014, -0.5083203607180025, -1.0525547478531792, 4.070406099419364, 9362.0, 30146.0, 35388.0, 9362.0, 8.132232666015625, 0.02035413682460785, -0.04222768172621727, -0.3374084234237671, -0.1267070174217224, -0.01627839356660843, 0.9927327036857605, -0.08806625753641129, -0.03959846496582031, 1.49267578125, 1.552734375, 0.3080596923828125, 1.494873046875
63923, 0.002762662013992667, 0.0023510735481977463, -0.008000372909009457, -5.195925405132584e-05, 7.496641046600416e-06, -0.0074810246005654335, -0.00023856984626036137, -6.648683665844146e-06, -0.03285253420472145, -0.8196337819099426, -1.0179089307785034, 0.0511159673333168, -0.5044923700309186, -1.064899500253972, 4.0734207502452735, 9362.0, 30146.0, 35388.0, 9362.0, 8.132232666015625, 0.17844288051128387, -0.30597537755966187, -0.07269462943077087, -0.12347396463155746, -0.017056070268154144, 0.9947049617767334, -0.08806625753641129, -0.03959846496582031, 1.49267578125, 1.47216796875, 0.142547607421875, 1.494873046875
63933, 0.0006486300262622535, 0.004184512421488762, -0.0049187359400093555, -5.195925405132584e-05, 7.496641046600416e-06, -0.0074810246005654335, -0.00023856984626036137, -6.648683665844146e-06, -0.03285253420472145, -0.8196452260017395, -1.01790452003479, 0.051091376692056656, -0.5128870513325673, -1.0556910110388742, 4.06887004811348, 9362.0, 30146.0, 35388.0, 9362.0, 8.132232666015625, 0.05833902582526207, 0.09038471430540085, -0.4188642203807831, -0.12347396463155746, -0.017056070268154144, 0.9947049617767334, -0.08806625753641129, -0.03959846496582031, 1.49267578125, 1.47216796875, 0.142547607421875, 1.490478515625
63953, 0.0016683987341821194, 0.001062481664121151, -0.006426481995731592, -6.145612132968381e-05, 6.858407232357422e-06, -0.008853857405483723, -0.00023915289784781635, -2.479301292623859e-05, -0.03552953898906708, -0.819633960723877, -1.0179040431976318, 0.0511043444275856, -0.5132181790568171, -1.0485442018559752, 4.073126853773466, 9362.0, 30146.0, 35388.0, 9362.0, 8.132232666015625, 0.09739977866411209, 0.021255845203995705, -0.2958301603794098, -0.12347396463155746, -0.017056070268154144, 0.9947049617767334, -0.11153491586446762, -0.15607833862304688, 1.483154296875, 1.47216796875, 0.142547607421875, 1.48828125
63963, 0.0022045429795980453, 0.00011871775495819747, -0.008237353526055813, -6.637880869675428e-05, 6.339997980830958e-06, -0.009574742056429386, -0.0002528463664930314, -2.7085252440883778e-05, -0.036598362028598785, -0.8196309804916382, -1.0179044008255005, 0.05109015852212906, -0.5116111319211997, -1.063051784457258, 4.070420091573384, 9362.0, 30146.0, 35388.0, 9362.0, 8.132232666015625, -0.027259746566414833, -0.03314211964607239, -0.304121196269989, -0.12567605078220367, -0.015618668869137764, 0.9907464981079102, -0.11153491586446762, -0.15607833862304688, 1.483154296875, 1.47216796875, 0.142547607421875, 1.48828125
63983, 0.0034890668466687202, 0.0008423773688264191, -0.01035220641642809, -6.637880869675428e-05, 6.339997980830958e-06, -0.009574742056429386, -0.0002528463664930314, -2.7085252440883778e-05, -0.036598362028598785, -0.8196134567260742, -1.017903447151184, 0.051159732043743134, -0.5044385310622019, -1.0681490309849266, 4.061499063704132, 9362.0, 30146.0, 35388.0, 9362.0, 8.132232666015625, 0.12606918811798096, 0.05684354156255722, 0.11897685378789902, -0.12512117624282837, -0.013634067960083485, 0.9924522638320923, -0.11153491586446762, -0.15607833862304688, 1.483154296875, 1.52783203125, 0.253387451171875, 1.489013671875
64003, 0.005334201734513044, -0.0026485733687877655, -0.010794981382787228, -6.637880869675428e-05, 6.339997980830958e-06, -0.009574742056429386, -0.0002528463664930314, -2.7085252440883778e-05, -0.036598362028598785, -0.819635272026062, -1.017904281616211, 0.051113300025463104, -0.508899556818695, -1.0509843987234149, 4.072208085656642, 9362.0, 30146.0, 35388.0, 9362.0, 8.132232666015625, 0.022795919328927994, -0.23997826874256134, -0.4346654415130615, -0.12455905973911285, -0.01933480240404606, 0.9922358989715576, -0.11153491586446762, -0.15607833862304688, 1.483154296875, 1.515380859375, 0.2270050048828125, 1.48388671875
64013, 0.005200165323913097, 0.0003507927758619189, -0.014473741874098778, -6.637880869675428e-05, 6.339997980830958e-06, -0.009574742056429386, -0.0002528463664930314, -2.7085252440883778e-05, -0.036598362028598785, -0.8196519017219543, -1.0179084539413452, 0.05107482522726059, -0.504970967341891, -1.0515499347120851, 4.074836031963842, 9362.0, 30146.0, 35388.0, 9362.0, 8.132232666015625, -0.10219328850507736, -0.03999176248908043, 0.19113050401210785, -0.12464183568954468, -0.015948360785841942, 0.9899498224258423, -0.11153491586446762, -0.15607833862304688, 1.483154296875, 1.515380859375, 0.2270050048828125, 1.48388671875
64023, 0.004121570847928524, 0.0016651006881147623, -0.01420639082789421, -8.171165973180905e-05, 3.918141374015249e-06, -0.011914670467376709, -0.00025285728042945266, -6.079230297473259e-05, -0.04155491665005684, -0.8196433186531067, -1.0179023742675781, 0.05107541382312775, -0.5142396898073693, -1.0496931442695256, 4.065240953171186, 9362.0, 30146.0, 35388.0, 9362.0, 8.132232666015625, -0.03878644108772278, -0.013352766633033752, -0.3262723684310913, -0.1276211440563202, -0.015038643963634968, 0.9912698268890381, -0.11153491586446762, -0.15607833862304688, 1.483154296875, 1.515380859375, 0.2270050048828125, 1.48388671875
64033, 0.004627787973731756, 0.0019479587208479643, -0.016078606247901917, -8.171165973180905e-05, 3.918141374015249e-06, -0.011914670467376709, -0.00025285728042945266, -6.079230297473259e-05, -0.04155491665005684, -0.8196390867233276, -1.0179024934768677, 0.05110150948166847, -0.5097613996054615, -1.0520235279104782, 4.077181303376201, 9362.0, 30146.0, 35388.0, 9362.0, 8.132232666015625, -0.1741747111082077, 0.044566597789525986, -0.06705763190984726, -0.1276211440563202, -0.015038643963634968, 0.9912698268890381, -0.11153491586446762, -0.15607833862304688, 1.483154296875, 1.442138671875, 0.0926361083984375, 1.48388671875
64053, 0.003950345329940319, 0.001957646571099758, -0.01690772920846939, -8.679168968228623e-05, 2.5348533654323546e-06, -0.012763870880007744, -0.0002562572481110692, -7.66165103414096e-05, -0.043329305946826935, -0.81961989402771, -1.0178967714309692, 0.05117376148700714, -0.5018890737995788, -1.068510690863377, 4.064024944598135, 9362.0, 30146.0, 35388.0, 9362.0, 8.132232666015625, 0.2069130390882492, -0.20815303921699524, -0.1405360847711563, -0.12607543170452118, -0.016085034236311913, 0.9913293719291687, -0.10464894026517868, 0.023120880126953125, 1.497802734375, 1.518310546875, 0.2331390380859375, 1.48388671875
64063, 0.0059394845739007, 0.003622106509283185, -0.01837901584804058, -9.198037150781602e-05, 8.498799957123992e-07, -0.01364197675138712, -0.00026232385425828397, -9.13911426323466e-05, -0.04444059357047081, -0.8196483850479126, -1.0178947448730469, 0.05108826607465744, -0.5125724743875091, -1.0560578805250032, 4.0676467186389935, 9362.0, 30146.0, 35388.0, 9362.0, 8.132232666015625, -0.36199891567230225, -0.2637041509151459, -0.02508765459060669, -0.12614978849887848, -0.018248844891786575, 0.9917566776275635, -0.10464894026517868, 0.023120880126953125, 1.497802734375, 1.518310546875, 0.2331390380859375, 1.48388671875
64073, 0.004926207009702921, 0.00567171536386013, -0.019365180283784866, -9.198037150781602e-05, 8.498799957123992e-07, -0.01364197675138712, -0.00026232385425828397, -9.13911426323466e-05, -0.04444059357047081, -0.819636881351471, -1.017896056175232, 0.05108432099223137, -0.5122498008772708, -1.0475183304572226, 4.0686903418577804, 9362.0, 30146.0, 35388.0, 9362.0, 8.132232666015625, 0.06907656788825989, -0.3560774028301239, -0.03969980403780937, -0.12614978849887848, -0.018248844891786575, 0.9917566776275635, -0.10464894026517868, 0.023120880126953125, 1.497802734375, 1.518310546875, 0.2331390380859375, 1.487548828125
64083, 0.0059411730617284775, 0.00846329890191555, -0.01888890191912651, -9.198037150781602e-05, 8.498799957123992e-07, -0.01364197675138712, -0.00026232385425828397, -9.13911426323466e-05, -0.04444059357047081, -0.819624125957489, -1.0178914070129395, 0.051107004284858704, -0.5075423074064341, -1.0513410150765878, 4.0670690421681, 9362.0, 30146.0, 35388.0, 9362.0, 8.132232666015625, 0.008759468793869019, -0.08804332464933395, 0.08334577828645706, -0.12614978849887848, -0.018248844891786575, 0.9917566776275635, -0.10464894026517868, 0.023120880126953125, 1.497802734375, 1.56591796875, 0.337738037109375, 1.487548828125
64093, 0.005474373698234558, 0.009231159463524818, -0.018269022926688194, -9.198037150781602e-05, 8.498799957123992e-07, -0.01364197675138712, -0.00026232385425828397, -9.13911426323466e-05, -0.04444059357047081, -0.819636881351471, -1.017899513244629, 0.05109679698944092, -0.5066186416657429, -1.052632953152937, 4.070542697660291, 9362.0, 30146.0, 35388.0, 9362.0, 8.132232666015625, -0.03293270990252495, 0.2068626433610916, -0.1148209422826767, -0.12491420656442642, -0.015669304877519608, 0.9904209971427917, -0.10464894026517868, 0.023120880126953125, 1.497802734375, 1.41796875, 0.05950927734375, 1.487548828125
64103, 0.005326706916093826, 0.008124439977109432, -0.019586462527513504, -9.198037150781602e-05, 8.498799957123992e-07, -0.01364197675138712, -0.00026232385425828397, -9.13911426323466e-05, -0.04444059357047081, -0.8196479678153992, -1.0179002285003662, 0.05107859522104263, -0.5082599215792084, -1.0500757762495425, 4.076217660825467, 9362.0, 30146.0, 35388.0, 9362.0, 8.132232666015625, -0.11441850662231445, -0.24158303439617157, -0.13862140476703644, -0.12543249130249023, -0.0141495605930686, 0.9946250915527344, -0.10464894026517868, 0.023120880126953125, 1.497802734375, 1.41796875, 0.05950927734375, 1.487548828125
64113, 0.005107600707560778, 0.008891934528946877, -0.020183496177196503, -9.198037150781602e-05, 8.498799957123992e-07, -0.01364197675138712, -0.00026232385425828397, -9.13911426323466e-05, -0.04444059357047081, -0.8196456432342529, -1.0178978443145752, 0.051076747477054596, -0.5074404291462171, -1.0463073403427074, 4.069891311076575, 9362.0, 30146.0, 35388.0, 9362.0, 8.132232666015625, -0.03729395940899849, -0.04242889583110809, 0.2868354916572571, -0.12543249130249023, -0.0141495605930686, 0.9946250915527344, -0.10464894026517868, 0.023120880126953125, 1.497802734375, 1.41796875, 0.05950927734375, 1.487548828125
64123, 0.00474992860108614, 0.00899968296289444, -0.01931423507630825, -0.00010917717008851469, -6.184661287989002e-06, -0.016451703384518623, -0.0003252311726100743, -0.00014496372023131698, -0.04904831573367119, -0.8196355700492859, -1.0178980827331543, 0.05110885202884674, -0.510465142506795, -1.0502584174074059, 4.071873331920027, 9362.0, 30146.0, 35388.0, 9362.0, 8.132232666015625, 0.058151401579380035, -0.11067187041044235, 0.12079193443059921, -0.12543249130249023, -0.0141495605930686, 0.9946250915527344, -0.10464894026517868, 0.023120880126953125, 1.497802734375, 1.41796875, 0.05950927734375, 1.487548828125
64133, 0.0050600082613527775, 0.010428665205836296, -0.018352556973695755, -0.00010917717008851469, -6.184661287989002e-06, -0.016451703384518623, -0.0003252311726100743, -0.00014496372023131698, -0.04904831573367119, -0.8196543455123901, -1.0179014205932617, 0.051088038831949234, -0.5083726030117544, -1.047845361414602, 4.0707727158093965, 9362.0, 30146.0, 35388.0, 9362.0, 8.132232666015625, 0.026370465755462646, -0.0388801246881485, 0.1982448548078537, -0.12543249130249023, -0.0141495605930686, 0.9946250915527344, -0.10464894026517868, 0.023120880126953125, 1.497802734375, 1.41796875, 0.05950927734375, 1.494140625
64153, 0.005719935521483421, 0.013938307762145996, -0.016067562624812126, -0.00010917717008851469, -6.184661287989002e-06, -0.016451703384518623, -0.0003252311726100743, -0.00014496372023131698, -0.04904831573367119, -0.8196378946304321, -1.0179027318954468, 0.05109331011772156, -0.5107245511162576, -1.0557446788562856, 4.069323508544371, 9362.0, 30146.0, 35388.0, 9362.0, 8.132232666015625, 0.04950285330414772, -0.2073502540588379, -0.21675322949886322, -0.12543249130249023, -0.0141495605930686, 0.9946250915527344, -0.10464894026517868, 0.023120880126953125, 1.497802734375, 1.508056640625, 0.211883544921875, 1.494140625
64173, 0.004483542870730162, 0.014619550667703152, -0.018165338784456253, -0.00010917717008851469, -6.184661287989002e-06, -0.016451703384518623, -0.0003252311726100743, -0.00014496372023131698, -0.04904831573367119, -0.8196365833282471, -1.017894983291626, 0.05110966041684151, -0.5061377693334997, -1.0479012047488538, 4.066129126606078, 9362.0, 30146.0, 35388.0, 9362.0, 8.132232666015625, 0.008057033643126488, 0.025015052407979965, -0.05730874836444855, -0.12445378303527832, -0.01789018139243126, 0.9934876561164856, -0.10464894026517868, 0.023120880126953125, 1.497802734375, 1.458251953125, 0.1184234619140625, 1.494140625
64183, 0.004478182177990675, 0.013273936696350574, -0.01770774833858013, -0.00010917717008851469, -6.184661287989002e-06, -0.016451703384518623, -0.0003252311726100743, -0.00014496372023131698, -0.04904831573367119, -0.8196436762809753, -1.0179020166397095, 0.05107928439974785, -0.5110291987822672, -1.046055693746922, 4.077381419366909, 9362.0, 30146.0, 35388.0, 9362.0, 8.132232666015625, 0.10380124300718307, -0.11159515380859375, -0.14568594098091125, -0.12445378303527832, -0.01789018139243126, 0.9934876561164856, -0.10464894026517868, 0.023120880126953125, 1.497802734375, 1.530029296875, 0.2581329345703125, 1.494140625
64193, 0.004625106230378151, 0.01327419001609087, -0.01858454942703247, -0.00010917717008851469, -6.184661287989002e-06, -0.016451703384518623, -0.0003252311726100743, -0.00014496372023131698, -0.04904831573367119, -0.8196375370025635, -1.017896294593811, 0.05108923837542534, -0.5067823583704797, -1.061333747236688, 4.077336885148998, 9362.0, 30146.0, 35388.0, 9362.0, 8.132232666015625, 0.07618489116430283, 0.345087468624115, 0.0775512158870697, -0.12748868763446808, -0.015177878551185131, 0.9938023090362549, -0.10464894026517868, 0.023120880126953125, 1.497802734375, 1.46484375, 0.1295928955078125, 1.494140625
64203, 0.005296969786286354, 0.012001958675682545, -0.01711294613778591, -0.00014108893810771406, -2.0582721845130436e-05, -0.020598402246832848, -0.0004880742053501308, -0.00021458348783198744, -0.05474403500556946, -0.8196464776992798, -1.0179009437561035, 0.05110306665301323, -0.5099423013344754, -1.06144762675126, 4.072660603942277, 9362.0, 30146.0, 35388.0, 9362.0, 8.132232666015625, 0.07618489116430283, 0.345087468624115, 0.0775512158870697, -0.12635661661624908, -0.01716410554945469, 0.9954745173454285, -0.10464894026517868, 0.023120880126953125, 1.497802734375, 1.46484375, 0.1295928955078125, 1.494140625
64223, 0.004397849552333355, 0.01135726273059845, -0.015468984842300415, -0.00014108893810771406, -2.0582721845130436e-05, -0.020598402246832848, -0.0004880742053501308, -0.00021458348783198744, -0.05474403500556946, -0.8196362257003784, -1.017899990081787, 0.05108647793531418, -0.5061470183106732, -1.0623273182332298, 4.071504534241048, 9362.0, 30146.0, 35388.0, 9362.0, 8.132232666015625, 0.01656506024301052, -0.06286495923995972, -0.01324163842946291, -0.1210155263543129, -0.016529232263565063, 0.9921143054962158, -0.10464894026517868, 0.023120880126953125, 1.497802734375, 1.502197265625, 0.20001220703125, 1.49267578125
64233, 0.0047119976952672005, 0.011976088397204876, -0.015115248039364815, -0.0001567043800605461, -2.739019510045182e-05, -0.022267503663897514, -0.0005514403455890715, -0.00023911107564345002, -0.0566282719373703, -0.819636881351471, -1.0178956985473633, 0.05112609639763832, -0.5076275140360612, -1.0500407802823304, 4.068013880845651, 9362.0, 30146.0, 35388.0, 9362.0, 8.132232666015625, 0.06826210021972656, -0.03730783984065056, 0.36544111371040344, -0.1210155263543129, -0.016529232263565063, 0.9921143054962158, -0.10464894026517868, 0.023120880126953125, 1.497802734375, 1.502197265625, 0.20001220703125, 1.49267578125
64243, 0.004887972958385944, 0.011824515648186207, -0.01190959196537733, -0.00016231523477472365, -2.981862417072989e-05, -0.022837746888399124, -0.0005707223317585886, -0.0002465707075316459, -0.0574200339615345, -0.8196354508399963, -1.0179076194763184, 0.05110521242022514, -0.5074901969524473, -1.0511365075589083, 4.076091579631655, 9362.0, 30146.0, 35388.0, 9362.0, 8.132232666015625, 0.06826210021972656, -0.03730783984065056, 0.36544111371040344, -0.1252758800983429, -0.013577990233898163, 0.9916456341743469, -0.10464894026517868, 0.023120880126953125, 1.497802734375, 1.502197265625, 0.20001220703125, 1.49267578125
64263, 0.006277894601225853, 0.009314817376434803, -0.010364369489252567, -0.00016812408284749836, -3.232428207411431e-05, -0.02341633476316929, -0.0005910479812882841, -0.0002545593597460538, -0.058297161012887955, -0.8196385502815247, -1.0179051160812378, 0.05109938606619835, -0.5124845689035078, -1.0501339741171023, 4.0693624821798196, 9362.0, 30146.0, 35388.0, 9362.0, 8.132232666015625, -0.045750029385089874, -0.6434310078620911, 0.08397453278303146, -0.12526150047779083, -0.01855948567390442, 0.9946288466453552, -0.10464894026517868, 0.023120880126953125, 1.497802734375, 1.5234375, 0.2439727783203125, 1.49267578125
64273, 0.006303629372268915, 0.013125769793987274, -0.008712024427950382, -0.00018033433298114687, -3.759025639737956e-05, -0.024598166346549988, -0.0006287457072176039, -0.0002729399420786649, -0.05982029810547829, -0.8196347951889038, -1.0178972482681274, 0.05110134556889534, -0.506030342820676, -1.0575664533829183, 4.072404096173152, 9362.0, 30146.0, 35388.0, 9362.0, 8.132232666015625, 0.15348094701766968, 0.2762843370437622, 0.3217128813266754, -0.12526150047779083, -0.01855948567390442, 0.9946288466453552, -0.10464894026517868, 0.023120880126953125, 1.497802734375, 1.5234375, 0.2439727783203125, 1.49267578125
64283, 0.006789339240640402, 0.010948692448437214, -0.006897968705743551, -0.00018033433298114687, -3.759025639737956e-05, -0.024598166346549988, -0.0006287457072176039, -0.0002729399420786649, -0.05982029810547829, -0.8196378350257874, -1.0179026126861572, 0.05109577998518944, -0.5084146400783855, -1.0468415327699745, 4.07143298269288, 9362.0, 30146.0, 35388.0, 9362.0, 8.132232666015625, 0.02191905491054058, -0.030278902500867844, -0.007648854050785303, -0.12526150047779083, -0.01855948567390442, 0.9946288466453552, -0.10464894026517868, 0.023120880126953125, 1.497802734375, 1.46484375, 0.1295928955078125, 1.49267578125
64303, 0.008143151178956032, 0.008513161912560463, -0.0056372531689703465, -0.00018033433298114687, -3.759025639737956e-05, -0.024598166346549988, -0.0006287457072176039, -0.0002729399420786649, -0.05982029810547829, -0.8196451663970947, -1.017895221710205, 0.05108868330717087, -0.5114561843901503, -1.0566781280630266, 4.07157870850633, 9362.0, 30146.0, 35388.0, 9362.0, 8.132232666015625, -0.024447888135910034, 0.23317448794841766, 0.283057302236557, -0.128017857670784, -0.01577061600983143, 0.9932619333267212, -0.10464894026517868, 0.023120880126953125, 1.497802734375, 1.465576171875, 0.130889892578125, 1.49267578125
64313, 0.0077420747838914394, 0.006096745375543833, -0.003265435341745615, -0.00018033433298114687, -3.759025639737956e-05, -0.024598166346549988, -0.0006287457072176039, -0.0002729399420786649, -0.05982029810547829, -0.8196302652359009, -1.0178943872451782, 0.051102012395858765, -0.5077701372954042, -1.0554550102158942, 4.070261887453508, 9362.0, 30146.0, 35388.0, 9362.0, 8.132232666015625, -0.1234162449836731, -0.1588992327451706, -0.2750284671783447, -0.12688446044921875, -0.014716853387653828, 0.9914277791976929, -0.10464894026517868, 0.023120880126953125, 1.497802734375, 1.465576171875, 0.130889892578125, 1.49267578125
64323, 0.0073511190712451935, 0.0064951698295772076, -0.005154862999916077, -0.00021407885651569813, -5.264040009933524e-05, -0.02766699343919754, -0.0007184004061855376, -0.0003323789860587567, -0.06293538957834244, -0.8196285963058472, -1.017899990081787, 0.05109502002596855, -0.5105664522565838, -1.0473427084695857, 4.073586348260971, 9362.0, 30146.0, 35388.0, 9362.0, 8.132232666015625, 0.03598339855670929, -0.28321370482444763, -0.16956791281700134, -0.12688446044921875, -0.014716853387653828, 0.9914277791976929, -0.10464894026517868, 0.023120880126953125, 1.497802734375, 1.465576171875, 0.130889892578125, 1.49267578125
64343, 0.008601422421634197, 0.008154409937560558, -0.006001623813062906, -0.00022865721257403493, -5.954756124992855e-05, -0.028942393139004707, -0.0007397651788778603, -0.00035798546741716564, -0.06462478637695312, -0.8196430802345276, -1.017905831336975, 0.0510956346988678, -0.507952430705499, -1.0556253342236914, 4.071331280930066, 9362.0, 30146.0, 35388.0, 9362.0, 8.132232666015625, 0.1357003152370453, -0.21284769475460052, -0.037788424640893936, -0.12657566368579865, -0.016344990581274033, 0.9929509162902832, -0.10464894026517868, 0.023120880126953125, 1.497802734375, 1.4765625, 0.1505584716796875, 1.49267578125
64353, 0.0073608774691820145, 0.009599911980330944, -0.005763830151408911, -0.00022865721257403493, -5.954756124992855e-05, -0.028942393139004707, -0.0007397651788778603, -0.00035798546741716564, -0.06462478637695312, -0.8196274638175964, -1.0178987979888916, 0.05110371112823486, -0.5086638191222166, -1.0449224746580796, 4.07147001474185, 9362.0, 30146.0, 35388.0, 9362.0, 8.132232666015625, -0.11236254870891571, -0.14036662876605988, 0.17656387388706207, -0.12657566368579865, -0.016344990581274033, 0.9929509162902832, -0.10464894026517868, 0.023120880126953125, 1.497802734375, 1.4765625, 0.1505584716796875, 1.48974609375
64363, 0.008030843921005726, 0.010801784694194794, -0.004012947902083397, -0.00024369687889702618, -6.699596269754693e-05, -0.03024931624531746, -0.0007652696804143488, -0.00038698973366990685, -0.06608150899410248, -0.8195897340774536, -1.0178838968276978, 0.05110428109765053, -0.5183637829179228, -1.0674017269034266, 4.090372687300166, 9362.0, 30146.0, 35388.0, 9362.0, 8.132232666015625, -0.12109285593032837, -0.004901699256151915, -0.09151360392570496, -0.12609967589378357, -0.01603120192885399, 0.9916771650314331, -0.10464894026517868, 0.023120880126953125, 1.497802734375, 1.4765625, 0.1505584716796875, 1.48974609375
64373, 0.008429323323071003, 0.011148255318403244, -0.003508965251967311, -0.00024369687889702618, -6.699596269754693e-05, -0.03024931624531746, -0.0007652696804143488, -0.00038698973366990685, -0.06608150899410248, -0.8196465373039246, -1.0179067850112915, 0.05108295753598213, -0.5096310256242899, -1.0402502420319308, 4.069265029121517, 9362.0, 30146.0, 35388.0, 9362.0, 8.132232666015625, -0.22824236750602722, -0.03682849183678627, -0.07832947373390198, -0.12507915496826172, -0.01582389697432518, 0.9937015771865845, -0.10464894026517868, 0.023120880126953125, 1.497802734375, 1.4765625, 0.1505584716796875, 1.494140625
64383, 0.007815169170498848, 0.011317616328597069, -0.003732451470568776, -0.0002593386161606759, -7.499149796785787e-05, -0.031585726886987686, -0.0007999130175448954, -0.0004131234309170395, -0.06759193539619446, -0.8196477890014648, -1.0178947448730469, 0.051091067492961884, -0.5058172469855424, -1.0507622743821798, 4.070707061848038, 9362.0, 30146.0, 35388.0, 9362.0, 8.132232666015625, 0.059576284140348434, 0.06067389249801636, 0.03089427761733532, -0.12508675456047058, -0.015638377517461777, 0.9941537380218506, -0.10464894026517868, 0.023120880126953125, 1.497802734375, 1.4765625, 0.1505584716796875, 1.494140625
64393, 0.008911334909498692, 0.0111191775649786, -0.0033359602093696594, -0.0002593386161606759, -7.499149796785787e-05, -0.031585726886987686, -0.0007999130175448954, -0.0004131234309170395, -0.06759193539619446, -0.8196411728858948, -1.0178983211517334, 0.051101718097925186, -0.5103013853649305, -1.0499023237800031, 4.070991250187897, 9362.0, 30146.0, 35388.0, 9362.0, 8.132232666015625, -0.168406143784523, 0.3368237316608429, 0.08082371205091476, -0.12753407657146454, -0.016470393165946007, 0.9934625625610352, -0.10464894026517868, 0.023120880126953125, 1.497802734375, 1.4765625, 0.1505584716796875, 1.491943359375
64403, 0.008357510901987553, 0.00917783658951521, -0.0023327963426709175, -0.0002757176698651165, -8.353562589036301e-05, -0.032949816435575485, -0.0008381452062167227, -0.0004407598462421447, -0.068790502846241, -0.8196417093276978, -1.017903447151184, 0.051103413105010986, -0.5047268076146978, -1.0531611443317388, 4.080071515737798, 9362.0, 30146.0, 35388.0, 9362.0, 8.132232666015625, -0.14617489278316498, 0.029298173263669014, 0.07117427885532379, -0.12753407657146454, -0.016470393165946007, 0.9934625625610352, -0.10464894026517868, 0.023120880126953125, 1.497802734375, 1.4765625, 0.1505584716796875, 1.491943359375
64413, 0.00798146240413189, 0.008883840404450893, -0.0012236133916303515, -0.0002757176698651165, -8.353562589036301e-05, -0.032949816435575485, -0.0008381452062167227, -0.0004407598462421447, -0.068790502846241, -0.8196382522583008, -1.0179133415222168, 0.051080122590065, -0.5040183884104487, -1.04441540395419, 4.068013797538847, 9362.0, 30146.0, 35388.0, 9362.0, 8.132232666015625, -0.16101974248886108, -0.034978218376636505, 0.06970149278640747, -0.12753407657146454, -0.016470393165946007, 0.9934625625610352, -0.10464894026517868, 0.023120880126953125, 1.497802734375, 1.4765625, 0.1505584716796875, 1.48974609375
64423, 0.006756570190191269, 0.009006807580590248, -0.000403527490561828, -0.00029284250922501087, -9.264927211916074e-05, -0.03433873876929283, -0.0008726909873075783, -0.0004701385914813727, -0.07010297477245331, -0.8196499943733215, -1.0178977251052856, 0.05109109356999397, -0.509285321261806, -1.056147776129194, 4.074064715102631, 9362.0, 30146.0, 35388.0, 9362.0, 8.132232666015625, 0.021118756383657455, 0.015454669483006, 0.013659984804689884, -0.12753407657146454, -0.016470393165946007, 0.9934625625610352, -0.10464894026517868, 0.023120880126953125, 1.497802734375, 1.4765625, 0.1505584716796875, 1.48974609375
64433, 0.00764989061281085, 0.007450495380908251, -0.0005999485729262233, -0.00029284250922501087, -9.264927211916074e-05, -0.03433873876929283, -0.0008726909873075783, -0.0004701385914813727, -0.07010297477245331, -0.8196415901184082, -1.017909049987793, 0.051100656390190125, -0.5032425328905864, -1.0635706908944371, 4.072264304470023, 9362.0, 30146.0, 35388.0, 9362.0, 8.132232666015625, 0.027086995542049408, 0.04289359971880913, 0.06016537919640541, -0.12753407657146454, -0.016470393165946007, 0.9934625625610352, -0.10464894026517868, 0.023120880126953125, 1.497802734375, 1.4765625, 0.1505584716796875, 1.491943359375
64453, 0.008175100199878216, 0.00555509002879262, -0.004336996003985405, -0.00029284250922501087, -9.264927211916074e-05, -0.03433873876929283, -0.0008726909873075783, -0.0004701385914813727, -0.07010297477245331, -0.8196290731430054, -1.017905831336975, 0.05109402537345886, -0.5033885750159242, -1.047803850194498, 4.067026069266088, 9362.0, 30146.0, 35388.0, 9362.0, 8.132232666015625, 0.08851709216833115, 0.1345823109149933, -0.07675690203905106, -0.12550288438796997, -0.015769660472869873, 0.9941389560699463, -0.09883183985948563, -0.3352775573730469, 1.468505859375, 1.426025390625, 0.069732666015625, 1.491943359375
64473, 0.009274373762309551, 0.0050863903015851974, -0.0057492367923259735, -0.00029284250922501087, -9.264927211916074e-05, -0.03433873876929283, -0.0008726909873075783, -0.0004701385914813727, -0.07010297477245331, -0.8196396827697754, -1.017903447151184, 0.05108746886253357, -0.5100902970215121, -1.0498990089682536, 4.069977136679397, 9362.0, 30146.0, 35388.0, 9362.0, 8.132232666015625, -0.06262903660535812, -0.034271981567144394, -0.1578691303730011, -0.12688811123371124, -0.015158702619373798, 0.9942546486854553, -0.09883183985948563, -0.3352775573730469, 1.468505859375, 1.5234375, 0.2439727783203125, 1.49267578125
64493, 0.010541899129748344, 0.002902195556089282, -0.007414364255964756, -0.00029284250922501087, -9.264927211916074e-05, -0.03433873876929283, -0.0008726909873075783, -0.0004701385914813727, -0.07010297477245331, -0.8196374773979187, -1.017903208732605, 0.0510978028178215, -0.507763553846103, -1.0534436783015337, 4.069980174548166, 9362.0, 30146.0, 35388.0, 9362.0, 8.132232666015625, 0.18185849487781525, -0.04239587485790253, -0.20789973437786102, -0.12305103987455368, -0.016869468614459038, 0.9940229058265686, -0.09883183985948563, -0.3352775573730469, 1.468505859375, 1.475830078125, 0.1492767333984375, 1.49267578125
64503, 0.011951090767979622, 0.0026185214519500732, -0.009284304454922676, -0.00029284250922501087, -9.264927211916074e-05, -0.03433873876929283, -0.0008726909873075783, -0.0004701385914813727, -0.07010297477245331, -0.8196306228637695, -1.0179133415222168, 0.05109075829386711, -0.506358198063728, -1.0656192722622961, 4.072830506197538, 9362.0, 30146.0, 35388.0, 9362.0, 8.132232666015625, 0.020056599751114845, -0.13151198625564575, -0.30269160866737366, -0.12305103987455368, -0.016869468614459038, 0.9940229058265686, -0.09883183985948563, -0.3352775573730469, 1.468505859375, 1.49267578125, 0.1811065673828125, 1.49267578125
64513, 0.012781625613570213, 0.004590201657265425, -0.011607496999204159, -0.00029284250922501087, -9.264927211916074e-05, -0.03433873876929283, -0.0008726909873075783, -0.0004701385914813727, -0.07010297477245331, -0.8196433782577515, -1.0178934335708618, 0.05109880492091179, -0.5107046018059975, -1.052418562193992, 4.073301706612242, 9362.0, 30146.0, 35388.0, 9362.0, 8.132232666015625, -0.27364298701286316, 0.35282769799232483, 0.0007651108899153769, -0.12645280361175537, -0.013028186745941639, 0.9919323921203613, -0.09883183985948563, -0.3352775573730469, 1.468505859375, 1.49267578125, 0.1811065673828125, 1.491943359375
64523, 0.011908591724932194, 0.0027758425567299128, -0.012276217341423035, -0.00038601801497861743, -0.0001464755041524768, -0.0416746512055397, -0.0009704275289550424, -0.0006195101304911077, -0.0766076073050499, -0.8196524977684021, -1.0178965330123901, 0.05108467489480972, -0.5101152974890597, -1.0527769790018624, 4.062627086565877, 9362.0, 30146.0, 35388.0, 9362.0, 8.132232666015625, -0.018567083403468132, 0.15112397074699402, 0.146560937166214, -0.12681463360786438, -0.01439425628632307, 0.9924306869506836, -0.09883183985948563, -0.3352775573730469, 1.468505859375, 1.49267578125, 0.1811065673828125, 1.491943359375
64533, 0.012223206460475922, 0.0008029098971746862, -0.01206997875124216, -0.00038601801497861743, -0.0001464755041524768, -0.0416746512055397, -0.0009704275289550424, -0.0006195101304911077, -0.0766076073050499, -0.819636344909668, -1.0179022550582886, 0.051097940653562546, -0.5119656700615731, -1.0511944849858708, 4.070149121548068, 9362.0, 30146.0, 35388.0, 9362.0, 8.132232666015625, 0.011194590479135513, -0.10347290337085724, -0.15983711183071136, -0.12681463360786438, -0.01439425628632307, 0.9924306869506836, -0.09883183985948563, -0.3352775573730469, 1.468505859375, 1.49267578125, 0.1811065673828125, 1.490478515625
