timeTick, roll, pitch, yaw, stateX, stateY, stateZ, stateVX, stateVY, stateVZ, otX0, otY0, otZ0, otRoll0, otPitch0, otYaw0, left wing, pitch motor, yaw motor, right wing, voltage, roll rate, pitch rate, yaw rate, A_x, A_y, A_z, current, i_raw, v_raw, airflow_voltage, airflow_speed, pot_Pitch
29179, -3.1684694290161133, 8.255170822143555, -11.327638626098633, 0, 0, 0, 0, 0, 0, -0.8202857375144958, -1.016939640045166, 0.051891010254621506, -0.713078349564352, -0.05476733533078004, 2.8124905580000994, 0, 0, 0, 0, 0, 0, 0, 0, 0, 0, 0, 0, 0, 0, 0, 0, 0
29189, -3.167959451675415, 8.255722045898438, -11.327704429626465, 0.004003982059657574, -0.0025432626716792583, -16.215103149414062, 0.11446147412061691, -0.07270607352256775, -1.1666148900985718, -0.8202886581420898, -1.0169456005096436, 0.05189105123281479, -0.7193869483396957, -0.055085702458910646, 2.81565824762654, 9362.0, 30146.0, 35388.0, 9362.0, 0, 0.02564547210931778, -0.3765468895435333, -0.2535143792629242, -0.0975017175078392, -0.025408128276467323, 0.9958136081695557, 0, 0, 0, 0, 0, 0
29199, -3.167746067047119, 8.256643295288086, -11.32768440246582, 0.005085267126560211, -0.0032301158644258976, -16.226778030395508, 0.10179561376571655, -0.0646645650267601, -1.168229103088379, -0.8202925324440002, -1.0169395208358765, 0.051891352981328964, -0.7198278765455047, -0.06562123227610073, 2.812451371738089, 9362.0, 30146.0, 35388.0, 9362.0, 0, 0.14425431191921234, -0.02189100719988346, 0.10403697192668915, -0.09707125276327133, -0.021005887538194656, 0.9925563931465149, 0, 0, 0, 1.40771484375, 0.0478363037109375, 0
29209, -3.1668310165405273, 8.258078575134277, -11.327034950256348, 0.006039957515895367, -0.0038366010412573814, -16.238468170166016, 0.08914244174957275, -0.05663245916366577, -1.1699484586715698, -0.8202856779098511, -1.0169410705566406, 0.051895592361688614, -0.7224952564853325, -0.06101755173352785, 2.817801621278925, 9362.0, 30146.0, 35388.0, 9362.0, 0, -0.005575584247708321, 0.0009332432528026402, 0.31203413009643555, -0.09511968493461609, -0.02076716534793377, 0.9929367303848267, 0, 0, 0, 1.575439453125, 0.3596649169921875, 1.493408203125
29219, -3.1667964458465576, 8.259431838989258, -11.326321601867676, 0.00686822272837162, -0.004362837877124548, -16.25017738342285, 0.07651057094335556, -0.04861511290073395, -1.1718426942825317, -0.8202836513519287, -1.0169421434402466, 0.05189535394310951, -0.7137489733761604, -0.05550615190776398, 2.819741000140539, 9362.0, 30146.0, 35388.0, 9362.0, 0, -0.09142597019672394, -0.28850769996643066, -0.06791528314352036, -0.09781128913164139, -0.022186463698744774, 0.9930108189582825, 0, 0, 0, 1.587158203125, 0.3869171142578125, 1.493408203125
29229, -3.167383909225464, 8.257311820983887, -11.327033996582031, 0.007570124696940184, -0.004808888304978609, -16.261905670166016, 0.06386978924274445, -0.040595073252916336, -1.173690676689148, -0.8202875852584839, -1.0169509649276733, 0.05189550295472145, -0.7109697029260329, -0.06261310660556774, 2.8151290214746334, 9362.0, 30146.0, 35388.0, 9362.0, 0, -0.17024238407611847, 0.267583429813385, -0.14494602382183075, -0.09897001832723618, -0.022356852889060974, 0.9927806854248047, 0, 0, 0, 0.9580078125, 4.03448486328125, 1.49853515625
29239, -3.16629695892334, 8.258197784423828, -11.328350067138672, 0.008145582862198353, -0.005174721125513315, -16.273651123046875, 0.051221832633018494, -0.032571371644735336, -1.175500750541687, -0.8202894926071167, -1.0169440507888794, 0.05190207064151764, -0.7134386888804672, -0.061050661820473806, 2.8162369120555693, 9362.0, 30146.0, 35388.0, 9362.0, 0, 0.08480992913246155, 0.012109591625630856, -0.2121783345937729, -0.09674350917339325, -0.02285897172987461, 0.9961848258972168, 0, 0, 0, 1.248046875, 0.169647216796875, 1.49853515625
29249, -3.1658012866973877, 8.258339881896973, -11.326399803161621, 0.008594504557549953, -0.0054602669551968575, -16.28541374206543, 0.03856278955936432, -0.024537550285458565, -1.1771962642669678, -0.8202806711196899, -1.0169413089752197, 0.05188770219683647, -0.7204538314774996, -0.05947927172684331, 2.8166798360886127, 9362.0, 30146.0, 35388.0, 9362.0, 0, 0.290704607963562, -0.06278329342603683, 0.18040521442890167, -0.0960727110505104, -0.023730957880616188, 0.9968534111976624, 0, 0, 0, 1.27587890625, 0.092620849609375, 1.493408203125
29259, -3.165980100631714, 8.257473945617676, -11.32601547241211, 0.008916680701076984, -0.005665387026965618, -16.29719352722168, 0.02587202563881874, -0.016486920416355133, -1.1786668300628662, -0.8202736377716064, -1.016939401626587, 0.05187326669692993, -0.7072842289769393, -0.06167801809093021, 2.8171961586589034, 9362.0, 30146.0, 35388.0, 9362.0, 0, -0.08144183456897736, 0.0001363070769002661, 0.031723812222480774, -0.09887898713350296, -0.022562064230442047, 0.9938677549362183, 0, 0, 0, 0.978515625, 3.49365234375, 1.493408203125
29269, -3.1656625270843506, 8.259193420410156, -11.324138641357422, 0.00911205168813467, -0.005790074355900288, -16.308988571166992, 0.013201993890106678, -0.008450595661997795, -1.1802983283996582, -0.8202854990959167, -1.0169498920440674, 0.05189542472362518, -0.7192642791980327, -0.05888039238519127, 2.8167132739008958, 9362.0, 30146.0, 35388.0, 9362.0, 0, 0.07911574840545654, -0.1314379721879959, 0.026225557550787926, -0.09953456372022629, -0.023735620081424713, 0.9951062202453613, 0, 0, 0, 1.635498046875, 0.5028533935546875, 1.491943359375
29279, -3.1650655269622803, 8.256653785705566, -11.323385238647461, 0.009180795401334763, -0.00583444070070982, -16.32080078125, 0.000546479073818773, -0.0004230727208778262, -1.1820311546325684, -0.8202893137931824, -1.0169435739517212, 0.05188198760151863, -0.7193131873627914, -0.05962137134082468, 2.8179903400128694, 9362.0, 30146.0, 35388.0, 9362.0, 8.390083312988281, 0.05611175671219826, 0.31823205947875977, 0.02547577954828739, -0.09878531843423843, -0.02313840016722679, 0.9955593347549438, -0.08487767726182938, -0.24567794799804688, 1.475830078125, 1.1044921875, 1.2117767333984375, 1.491943359375
29289, -3.1639132499694824, 8.255542755126953, -11.323264122009277, 0.009122880175709724, -0.00579847814515233, -16.33262825012207, -0.012129676528275013, 0.007615428417921066, -1.1836299896240234, -0.8202793598175049, -1.016944408416748, 0.05189673975110054, -0.713713755618107, -0.06385269498900925, 2.818140925702123, 9362.0, 30146.0, 35388.0, 9362.0, 8.390083312988281, 0.19261664152145386, -0.26273009181022644, -0.08711804449558258, -0.09963732212781906, -0.023353800177574158, 0.9945851564407349, -0.08487767726182938, -0.24567794799804688, 1.475830078125, 1.716064453125, 0.7117919921875, 1.493408203125
29299, -3.1649816036224365, 8.256699562072754, -11.32345962524414, 0.008938239887356758, -0.005682151298969984, -16.344472885131836, -0.02479846589267254, 0.01564992032945156, -1.1852543354034424, -0.8202678561210632, -1.0169355869293213, 0.05186403915286064, -0.7125307832115566, -0.0699408806255235, 2.8233941393123643, 9362.0, 30146.0, 35388.0, 9362.0, 8.390083312988281, -0.0006729083834215999, -0.06335669755935669, -0.1384778618812561, -0.10054238140583038, -0.024665672332048416, 0.9947717785835266, -0.08487767726182938, -0.24567794799804688, 1.475830078125, 1.651611328125, 0.5428314208984375, 1.493408203125
29309, -3.1648550033569336, 8.255472183227539, -11.32280445098877, 0.008627013303339481, -0.005485550966113806, -16.356334686279297, -0.037446800619363785, 0.02367018721997738, -1.1870226860046387, -0.8202815055847168, -1.0169451236724854, 0.051888685673475266, -0.7216623628162839, -0.06326923196704115, 2.8143732711658163, 9362.0, 30146.0, 35388.0, 9362.0, 8.390083312988281, -0.021033357828855515, -0.2741646468639374, -0.12542201578617096, -0.10040866583585739, -0.023535246029496193, 0.9954955577850342, -0.08487767726182938, -0.24567794799804688, 1.475830078125, 1.6376953125, 0.5082244873046875, 1.493408203125
29319, -3.164224624633789, 8.256146430969238, -11.322471618652344, 0.008189158514142036, -0.005208650138229132, -16.368213653564453, -0.05012430623173714, 0.03170986846089363, -1.188582181930542, -0.8202763199806213, -1.0169414281845093, 0.05190148577094078, -0.7192259385511339, -0.051669514120078475, 2.811643899928095, 9362.0, 30146.0, 35388.0, 9362.0, 8.390083312988281, 0.19488054513931274, -0.06794575601816177, 0.0525333434343338, -0.09701617807149887, -0.02219335362315178, 0.992196798324585, -0.08487767726182938, -0.24567794799804688, 1.475830078125, 1.563720703125, 0.3327789306640625, 1.493408203125
29329, -3.1645312309265137, 8.259736061096191, -11.323054313659668, 0.007624681573361158, -0.004851446952670813, -16.380107879638672, -0.06277107447385788, 0.03973063826560974, -1.190360188484192, -0.8202689290046692, -1.0169414281845093, 0.05186816304922104, -0.7148021075660267, -0.06474289221756635, 2.829481365707849, 9362.0, 30146.0, 35388.0, 9362.0, 8.390083312988281, -0.12960006296634674, -0.38633590936660767, -0.040906596928834915, -0.09843875467777252, -0.023923898115754128, 0.9935673475265503, -0.08487767726182938, -0.24567794799804688, 1.475830078125, 1.634033203125, 0.499237060546875, 1.490478515625
29339, -3.165116548538208, 8.260797500610352, -11.324105262756348, 0.00693381717428565, -0.004414096008986235, -16.39202117919922, -0.07540156692266464, 0.04773963987827301, -1.1922718286514282, -0.8202899694442749, -1.016942024230957, 0.051886074244976044, -0.7227881412879981, -0.060169088074815136, 2.8140827013284486, 9362.0, 30146.0, 35388.0, 9362.0, 8.390083312988281, 0.007101328112185001, 0.3195205628871918, -0.07864464074373245, -0.09746769070625305, -0.022937076166272163, 0.9953511953353882, -0.08487767726182938, -0.24567794799804688, 1.475830078125, 1.2275390625, 0.24749755859375, 1.490478515625
29349, -3.1646487712860107, 8.262408256530762, -11.326916694641113, 0.0061165038496255875, -0.003896573092788458, -16.40395164489746, -0.0880608782172203, 0.05576520785689354, -1.1940085887908936, -0.8202878832817078, -1.0169460773468018, 0.051898933947086334, -0.7149498867272677, -0.04965243911459538, 2.8098451068062693, 9362.0, 30146.0, 35388.0, 9362.0, 8.390083312988281, -0.18677635490894318, -0.10304652154445648, -0.40079471468925476, -0.09849521517753601, -0.02479032799601555, 0.9950780272483826, -0.08487767726182938, -0.24567794799804688, 1.475830078125, 1.45166015625, 0.107452392578125, 1.48828125
29359, -3.1652188301086426, 8.261228561401367, -11.329244613647461, 0.005172486416995525, -0.003298720344901085, -16.4158992767334, -0.1007421687245369, 0.06380590796470642, -1.1955866813659668, -0.8203014731407166, -1.0169413089752197, 0.05187861993908882, -0.7183225061877738, -0.05662215802098558, 2.81926782972519, 9362.0, 30146.0, 35388.0, 9362.0, 8.390083312988281, -0.02967747487127781, 0.19032271206378937, -0.23781397938728333, -0.09781982749700546, -0.023507967591285706, 0.9947140216827393, -0.08487767726182938, -0.24567794799804688, 1.475830078125, 1.134521484375, 0.88360595703125, 1.48828125
29369, -3.16422700881958, 8.26038646697998, -11.331184387207031, 0.004101732280105352, -0.0026205149479210377, -16.42786407470703, -0.11340834945440292, 0.07183574140071869, -1.1972991228103638, -0.820279598236084, -1.0169472694396973, 0.051909610629081726, -0.7148922718809647, -0.059191505461427596, 2.8115281196305117, 9362.0, 30146.0, 35388.0, 9362.0, 8.390083312988281, -0.021087512373924255, -0.01671345718204975, -0.22843138873577118, -0.09804310649633408, -0.024074459448456764, 0.9943737983703613, -0.08487767726182938, -0.24567794799804688, 1.475830078125, 1.5673828125, 0.3411102294921875, 1.491943359375
29379, -3.1651694774627686, 8.261197090148926, -11.332501411437988, 0.002904370427131653, -0.0018620322225615382, -16.43984603881836, -0.1260637640953064, 0.07986119389533997, -1.1990747451782227, -0.8202770352363586, -1.0169446468353271, 0.051904208958148956, -0.7101439799805971, -0.05619891480594674, 2.8149004938372864, 9362.0, 30146.0, 35388.0, 9362.0, 8.390083312988281, -0.1737734079360962, 0.15635791420936584, -0.1873505413532257, -0.0966138243675232, -0.022845076397061348, 0.9953784942626953, -0.09768262505531311, -0.08439826965332031, 1.489013671875, 1.420166015625, 0.0621337890625, 1.491943359375
29389, -3.1643760204315186, 8.262018203735352, -11.334083557128906, 0.0015803538262844086, -0.0010232346830889583, -16.451845169067383, -0.13873933255672455, 0.08789864927530289, -1.2006877660751343, -0.8202837705612183, -1.016944408416748, 0.051911361515522, -0.712939076150811, -0.05790158713045912, 2.805813202147169, 9362.0, 30146.0, 35388.0, 9362.0, 8.390083312988281, 0.022151432931423187, -0.48133644461631775, -0.13105103373527527, -0.09763805568218231, -0.022322537377476692, 0.9943907260894775, -0.09768262505531311, -0.08439826965332031, 1.489013671875, 1.54248046875, 0.28521728515625, 1.490478515625
29399, -3.164409637451172, 8.264066696166992, -11.336438179016113, 0.00012962869368493557, -0.00010408408707007766, -16.46385955810547, -0.151405468583107, 0.09593178331851959, -1.2023783922195435, -0.8202844858169556, -1.016938328742981, 0.05190199986100197, -0.7162823704460831, -0.0672441531171728, 2.814023448480196, 9362.0, 30146.0, 35388.0, 9362.0, 8.390083312988281, -0.00039463883149437606, 0.04301300644874573, -0.33600708842277527, -0.09957855939865112, -0.021383697167038918, 0.9930281639099121, -0.09768262505531311, -0.08439826965332031, 1.489013671875, 1.694091796875, 0.6522369384765625, 1.490478515625
29409, -3.164461135864258, 8.264248847961426, -11.339076042175293, -0.0014477308141067624, 0.000895372882951051, -16.47589111328125, -0.1640661358833313, 0.10396011918783188, -1.2041211128234863, -0.8202812671661377, -1.0169459581375122, 0.05190768465399742, -0.7171823962538123, -0.06631792492348154, 2.8199995881094577, 9362.0, 30146.0, 35388.0, 9362.0, 8.390083312988281, -0.08065295219421387, -0.20509904623031616, -0.11244679242372513, -0.09837961196899414, -0.02393551543354988, 0.9963374137878418, -0.09768262505531311, -0.08439826965332031, 1.489013671875, 1.71240234375, 0.70159912109375, 1.496337890625
29419, -3.1647143363952637, 8.265398025512695, -11.338269233703613, -0.0031517581082880497, 0.001975148217752576, -16.487939834594727, -0.1767389327287674, 0.11199551075696945, -1.2057945728302002, -0.8202803134918213, -1.016943335533142, 0.05190667510032654, -0.7229376339165696, -0.0627599764465856, 2.8130553455160565, 9362.0, 30146.0, 35388.0, 9362.0, 8.390083312988281, -0.0212605781853199, -0.3360559344291687, 0.008552111685276031, -0.09706736356019974, -0.02278522029519081, 0.9952093958854675, -0.09768262505531311, -0.08439826965332031, 1.489013671875, 1.7109375, 0.6976776123046875, 1.496337890625
29429, -3.162886619567871, 8.268585205078125, -11.341713905334473, -0.004982585087418556, 0.003135327249765396, -16.5000057220459, -0.1894265115261078, 0.12004008889198303, -1.2073582410812378, -0.8202659487724304, -1.016943097114563, 0.051858339458703995, -0.7145008440481517, -0.06579691628033402, 2.823266775598878, 9362.0, 30146.0, 35388.0, 9362.0, 8.390083312988281, 0.21086840331554413, -0.2449236512184143, -0.14883996546268463, -0.09894295781850815, -0.022566482424736023, 0.9932612776756287, -0.09768262505531311, -0.08439826965332031, 1.489013671875, 1.579833984375, 0.369873046875, 1.491943359375
29439, -3.1626808643341064, 8.271513938903809, -11.342850685119629, -0.0069401804357767105, 0.00437588058412075, -16.512088775634766, -0.20209196209907532, 0.12807129323482513, -1.2091014385223389, -0.8202759623527527, -1.0169425010681152, 0.05188639834523201, -0.7196411504673712, -0.06542182993450751, 2.8114982924507808, 9362.0, 30146.0, 35388.0, 9362.0, 8.390083312988281, -0.0435803160071373, -0.20141282677650452, 0.02328455075621605, -0.09825272113084793, -0.02343042381107807, 0.9968287348747253, -0.09768262505531311, -0.08439826965332031, 1.489013671875, 1.710205078125, 0.6956787109375, 1.491943359375
29449, -3.1628925800323486, 8.272994041442871, -11.3421049118042, -0.009024522267282009, 0.005696780979633331, -16.524187088012695, -0.21477623283863068, 0.13610906898975372, -1.2107453346252441, -0.8202735185623169, -1.0169439315795898, 0.05190318450331688, -0.7197182660916999, -0.06531630524540333, 2.8171581545034767, 9362.0, 30146.0, 35388.0, 9362.0, 8.390083312988281, -0.25935590267181396, -0.15316125750541687, 0.13719964027404785, -0.10036657005548477, -0.02560541220009327, 0.9948947429656982, -0.09768262505531311, -0.08439826965332031, 1.489013671875, 1.505126953125, 0.205902099609375, 1.48974609375
29459, -3.162184953689575, 8.274635314941406, -11.342605590820312, -0.01123578567057848, 0.007098098751157522, -16.53630256652832, -0.22747653722763062, 0.14415429532527924, -1.2123064994812012, -0.8202745914459229, -1.0169448852539062, 0.05191082879900932, -0.7197724469460027, -0.06034080591271618, 2.8185847979884553, 9362.0, 30146.0, 35388.0, 9362.0, 8.390083312988281, 0.108241967856884, -0.12474999576807022, 0.010964554734528065, -0.10076425224542618, -0.02306179888546467, 0.9956831932067871, -0.09768262505531311, -0.08439826965332031, 1.489013671875, 1.650146484375, 0.539215087890625, 1.48974609375
29469, -3.161132574081421, 8.275553703308105, -11.340474128723145, -0.01357401255518198, 0.008579839020967484, -16.548433303833008, -0.2401687353849411, 0.1521938592195511, -1.2139471769332886, -0.8202670812606812, -1.0169330835342407, 0.051884837448596954, -0.7260535491478638, -0.0644710742200516, 2.813295650059381, 9362.0, 30146.0, 35388.0, 9362.0, 8.390083312988281, 0.26762452721595764, -0.17503924667835236, 0.13430988788604736, -0.0970253050327301, -0.02189815044403076, 0.9934369921684265, -0.09768262505531311, -0.08439826965332031, 1.489013671875, 1.374755859375, 0.021392822265625, 1.491943359375
29479, -3.161313533782959, 8.274048805236816, -11.33983325958252, -0.01603914424777031, 0.010141952894628048, -16.56058120727539, -0.2528580129146576, 0.160228431224823, -1.2156342267990112, -0.8202729821205139, -1.0169345140457153, 0.0518924742937088, -0.7225314142295157, -0.05975033526516427, 2.814584654066607, 9362.0, 30146.0, 35388.0, 9362.0, 8.390083312988281, -0.006460081785917282, 0.4089011251926422, 0.15214277803897858, -0.09763073176145554, -0.024097662419080734, 0.9933256506919861, -0.10705661028623581, -0.14711761474609375, 1.48388671875, 1.398193359375, 0.03826904296875, 1.491943359375
29489, -3.1603639125823975, 8.271005630493164, -11.33603572845459, -0.01863105781376362, 0.01178432535380125, -16.57274627685547, -0.2655249238014221, 0.16824591159820557, -1.2175071239471436, -0.8202805519104004, -1.0169390439987183, 0.05188770592212677, -0.7226421579235184, -0.06119025077853735, 2.811650458389394, 9362.0, 30146.0, 35388.0, 9362.0, 8.390083312988281, 0.19500194489955902, 0.24621504545211792, 0.40151041746139526, -0.09677615016698837, -0.02535029873251915, 0.9963650703430176, -0.10705661028623581, -0.14711761474609375, 1.48388671875, 0.838623046875, 8.41827392578125, 1.4912109375
29499, -3.1604251861572266, 8.267565727233887, -11.330680847167969, -0.02134978398680687, 0.013506969437003136, -16.584930419921875, -0.27822086215019226, 0.17628204822540283, -1.2191431522369385, -0.8202663660049438, -1.0169399976730347, 0.05189890414476395, -0.7254829514848773, -0.06047777207538729, 2.8186294147276034, 9362.0, 30146.0, 35388.0, 9362.0, 8.390083312988281, 0.005262089893221855, 0.20628000795841217, 0.37505877017974854, -0.09862705320119858, -0.02236742153763771, 0.9946118593215942, -0.10705661028623581, -0.14711761474609375, 1.48388671875, 1.575439453125, 0.3596649169921875, 1.4912109375
29509, -3.160522222518921, 8.269896507263184, -11.328398704528809, -0.024195464327931404, 0.015309968031942844, -16.597129821777344, -0.29091620445251465, 0.1843165010213852, -1.2207536697387695, -0.8202843070030212, -1.0169469118118286, 0.051878977566957474, -0.7222116892549345, -0.05629798345481163, 2.8203487709148662, 9362.0, 30146.0, 35388.0, 9362.0, 8.390083312988281, -0.20448173582553864, -0.09551389515399933, 0.5244740843772888, -0.09842472523450851, -0.022419413551688194, 0.993687093257904, -0.10705661028623581, -0.14711761474609375, 1.48388671875, 1.177001953125, 0.52899169921875, 1.493408203125
29519, -3.1616039276123047, 8.268709182739258, -11.325315475463867, -0.02716795913875103, 0.017193228006362915, -16.609346389770508, -0.3035831153392792, 0.19233496487140656, -1.2225375175476074, -0.8202800750732422, -1.0169503688812256, 0.05190029740333557, -0.7144539925675909, -0.06279567357540827, 2.815193930041263, 9362.0, 30146.0, 35388.0, 9362.0, 8.390083312988281, -0.11190532892942429, -0.004512275569140911, 0.2257279008626938, -0.10028230398893356, -0.02318904735147953, 0.9942612648010254, -0.10705661028623581, -0.14711761474609375, 1.48388671875, 1.6962890625, 0.657958984375, 1.493408203125
29529, -3.163358449935913, 8.269658088684082, -11.322826385498047, -0.030267199501395226, 0.01915670931339264, -16.621580123901367, -0.31626537442207336, 0.20036058127880096, -1.2242382764816284, -0.8202680349349976, -1.0169498920440674, 0.05190686881542206, -0.7173885348026897, -0.06579799752921645, 2.814562021664476, 9362.0, 30146.0, 35388.0, 9362.0, 8.390083312988281, -0.1614081859588623, 0.11068279296159744, 0.33720871806144714, -0.10031689703464508, -0.023800456896424294, 0.9937477111816406, -0.10705661028623581, -0.14711761474609375, 1.48388671875, 1.6552734375, 0.5520477294921875, 1.4970703125
29539, -3.1643710136413574, 8.26878833770752, -11.317920684814453, -0.033493224531412125, 0.021200431510806084, -16.633831024169922, -0.3289397954940796, 0.20838342607021332, -1.2259831428527832, -0.8202741742134094, -1.0169477462768555, 0.051856629550457, -0.7118777488064983, -0.06442989869998428, 2.8168381612884734, 9362.0, 30146.0, 35388.0, 9362.0, 8.390083312988281, -0.09775301814079285, -0.4241664707660675, 0.21510306000709534, -0.10166538506746292, -0.022990234196186066, 0.9933794140815735, -0.10705661028623581, -0.14711761474609375, 1.48388671875, 1.024658203125, 2.4651947021484375, 1.4970703125
29549, -3.1654343605041504, 8.270736694335938, -11.31590461730957, -0.036845993250608444, 0.02332439087331295, -16.646099090576172, -0.34161442518234253, 0.21640750765800476, -1.2277394533157349, -0.8202838897705078, -1.0169488191604614, 0.05189939960837364, -0.7214841742722322, -0.057120319228431526, 2.8161594189983514, 9362.0, 30146.0, 35388.0, 9362.0, 8.390083312988281, 0.010790783911943436, -0.11506527662277222, 0.3349255919456482, -0.10085754096508026, -0.022617792710661888, 0.9939446449279785, -0.10705661028623581, -0.14711761474609375, 1.48388671875, 0.9931640625, 3.1399383544921875, 1.494140625
29559, -3.1654393672943115, 8.270939826965332, -11.314946174621582, -0.04032550007104874, 0.025528591126203537, -16.65838623046875, -0.3542872667312622, 0.22443228960037231, -1.2294983863830566, -0.8202848434448242, -1.016944169998169, 0.051870692521333694, -0.7142004468309343, -0.06159209806543231, 2.808567430132926, 9362.0, 30146.0, 35388.0, 9362.0, 8.390083312988281, -0.04501097649335861, 0.003552781417965889, 0.1955694854259491, -0.10032564401626587, -0.02164708636701107, 0.9950303435325623, -0.10705661028623581, -0.14711761474609375, 1.48388671875, 1.680908203125, 0.6174774169921875, 1.494140625
29569, -3.1658358573913574, 8.269824981689453, -11.310914039611816, -0.04393177106976509, 0.027813062071800232, -16.670690536499023, -0.36696696281433105, 0.23246176540851593, -1.2312278747558594, -0.820290744304657, -1.0169548988342285, 0.051904357969760895, -0.7145200477276351, -0.054920590363906285, 2.8128953598014674, 9362.0, 30146.0, 35388.0, 9362.0, 8.390083312988281, -0.12942613661289215, 0.19892241060733795, 0.07089760154485703, -0.09857174754142761, -0.021140873432159424, 0.99620121717453, -0.10705661028623581, -0.14711761474609375, 1.48388671875, 1.666259765625, 0.5798492431640625, 1.494873046875
29579, -3.167839765548706, 8.269379615783691, -11.30884075164795, -0.04766494035720825, 0.03017789125442505, -16.68301010131836, -0.3796674311161041, 0.24050301313400269, -1.2328057289123535, -0.8202720284461975, -1.0169519186019897, 0.05186848342418671, -0.719268982376758, -0.05720071924696413, 2.8153951809812203, 9362.0, 30146.0, 35388.0, 9362.0, 8.390083312988281, -0.16639059782028198, -0.17009884119033813, -0.1629990041255951, -0.09825511276721954, -0.02018853649497032, 0.9964694380760193, -0.08351171016693115, -0.030637741088867188, 1.493408203125, 1.56298828125, 0.3311767578125, 1.494873046875
29589, -3.1679749488830566, 8.267924308776855, -11.30734920501709, -0.05152515321969986, 0.032623156905174255, -16.695344924926758, -0.3923754096031189, 0.2485499382019043, -1.234313726425171, -0.820277988910675, -1.0169495344161987, 0.05188972130417824, -0.7180836790531419, -0.06464770402791942, 2.8144331115642216, 9362.0, 30146.0, 35388.0, 9362.0, 8.390083312988281, -0.1559002846479416, 0.1153814047574997, 0.20452670753002167, -0.10116221010684967, -0.020674843341112137, 0.9961499571800232, -0.08351171016693115, -0.030637741088867188, 1.493408203125, 1.65380859375, 0.548309326171875, 1.493408203125
29599, -3.16975736618042, 8.268210411071777, -11.304388046264648, -0.05551241338253021, 0.03514888882637024, -16.70769500732422, -0.4050765931606293, 0.25659623742103577, -1.235864281654358, -0.8202801942825317, -1.0169419050216675, 0.05183374136686325, -0.6926181960698323, -0.06123018466357166, 2.813259261342463, 9362.0, 30146.0, 35388.0, 9362.0, 8.390083312988281, -0.01619550958275795, 0.2001386284828186, 0.16747494041919708, -0.09939096868038177, -0.02287951111793518, 0.9955507516860962, -0.08351171016693115, -0.030637741088867188, 1.493408203125, 1.661865234375, 0.568572998046875, 1.493408203125
29609, -3.1693615913391113, 8.267769813537598, -11.304680824279785, -0.05962667241692543, 0.037755079567432404, -16.720062255859375, -0.4177757501602173, 0.26464152336120605, -1.2374145984649658, -0.8202939629554749, -1.0169594287872314, 0.05181189626455307, -0.6998360701093636, -0.06807793203472556, 2.809345295567744, 9362.0, 30146.0, 35388.0, 9362.0, 8.390083312988281, 0.11009226739406586, -0.0361090786755085, 0.061326466500759125, -0.09947356581687927, -0.024457985535264015, 0.9954323172569275, -0.08351171016693115, -0.030637741088867188, 1.493408203125, 1.609130859375, 0.4388580322265625, 1.496337890625
29619, -3.1700122356414795, 8.269169807434082, -11.303732872009277, -0.06386788189411163, 0.040441710501909256, -16.732444763183594, -0.43046677112579346, 0.2726849615573883, -1.2390257120132446, -0.8202875852584839, -1.0169516801834106, 0.05183742940425873, -0.7058748676623787, -0.06642322677492984, 2.8133191694655997, 9362.0, 30146.0, 35388.0, 9362.0, 8.390083312988281, 0.12058582901954651, -0.14484785497188568, 0.0737280622124672, -0.0983312577009201, -0.021465498954057693, 0.9939806461334229, -0.08351171016693115, -0.030637741088867188, 1.493408203125, 1.493408203125, 0.1825714111328125, 1.496337890625
29629, -3.1696324348449707, 8.267261505126953, -11.302605628967285, -0.06823596358299255, 0.04320874810218811, -16.744842529296875, -0.4431488513946533, 0.2807219326496124, -1.2407011985778809, -0.8202956914901733, -1.016948938369751, 0.05185209587216377, -0.7156161089670899, -0.06643556173600018, 2.809760889226463, 9362.0, 30146.0, 35388.0, 9362.0, 8.390083312988281, 0.1366383284330368, -0.055726900696754456, 0.08256425708532333, -0.09922696650028229, -0.019153418019413948, 0.993748128414154, -0.08351171016693115, -0.030637741088867188, 1.493408203125, 1.497802734375, 0.19122314453125, 1.493408203125
29639, -3.170351266860962, 8.266947746276855, -11.301861763000488, -0.07273077964782715, 0.046056099236011505, -16.757259368896484, -0.455814391374588, 0.2887483835220337, -1.2425202131271362, -0.8202933073043823, -1.016943097114563, 0.05186477676033974, -0.7169832098532781, -0.06626534359799052, 2.807516524971102, 9362.0, 30146.0, 35388.0, 9362.0, 8.390083312988281, -0.07203762978315353, 0.2417101263999939, 0.26136231422424316, -0.09975506365299225, -0.020551379770040512, 0.9952869415283203, -0.08351171016693115, -0.030637741088867188, 1.493408203125, 1.43408203125, 0.080810546875, 1.493408203125
29649, -3.1709442138671875, 8.269635200500488, -11.303533554077148, -0.07735234498977661, 0.048983775079250336, -16.76969337463379, -0.4684983193874359, 0.2967868745326996, -1.2441760301589966, -0.820289671421051, -1.016945719718933, 0.051879361271858215, -0.7110271982425934, -0.06449876608405702, 2.8068395051349517, 9362.0, 30146.0, 35388.0, 9362.0, 8.390083312988281, -0.22123558819293976, -0.37547141313552856, -0.3052250146865845, -0.09938705712556839, -0.022730713710188866, 0.9931595325469971, -0.08351171016693115, -0.030637741088867188, 1.493408203125, 0.99755859375, 3.038909912109375, 1.493408203125
29659, -3.171173572540283, 8.270865440368652, -11.304965019226074, -0.08210067451000214, 0.05199179798364639, -16.78214454650879, -0.4811679720878601, 0.30481845140457153, -1.2459332942962646, -0.8202959299087524, -1.0169451236724854, 0.05186213552951813, -0.723081857185848, -0.06658268803042233, 2.804748556855182, 9362.0, 30146.0, 35388.0, 9362.0, 8.390083312988281, -0.2080746442079544, -0.28168413043022156, -0.11972638219594955, -0.10006193816661835, -0.024069881066679955, 0.9950960874557495, -0.08351171016693115, -0.030637741088867188, 1.493408203125, 1.074462890625, 1.6134033203125, 1.493408203125
29669, -3.16902756690979, 8.269500732421875, -11.30826187133789, -0.08697573840618134, 0.05508016049861908, -16.794612884521484, -0.49384433031082153, 0.31285393238067627, -1.2476704120635986, -0.8202847838401794, -1.016944169998169, 0.051866400986909866, -0.7149596425558916, -0.06488031183923226, 2.811859824603387, 9362.0, 30146.0, 35388.0, 9362.0, 8.390083312988281, 0.17549405992031097, 0.0187260452657938, -0.3285351097583771, -0.10137040168046951, -0.024905068799853325, 0.9952453970909119, -0.08351171016693115, -0.030637741088867188, 1.493408203125, 1.2890625, 0.0663909912109375, 1.489013671875
29679, -3.1695752143859863, 8.27374267578125, -11.311478614807129, -0.08697573840618134, 0.05508016049861908, -16.794612884521484, -0.49384433031082153, 0.31285393238067627, -1.2476704120635986, -0.8202893137931824, -1.0169352293014526, 0.051869746297597885, -0.7216928201713313, -0.06616433604531835, 2.807063372919521, 9362.0, 30146.0, 35388.0, 9362.0, 8.390083312988281, -0.12400715798139572, -0.44137412309646606, -0.18056954443454742, -0.10137040168046951, -0.024905068799853325, 0.9952453970909119, -0.08351171016693115, -0.030637741088867188, 1.493408203125, 1.2890625, 0.0663909912109375, 1.489013671875
29689, -3.1697585582733154, 8.276806831359863, -11.314873695373535, -0.08697573840618134, 0.05508016049861908, -16.794612884521484, -0.49384433031082153, 0.31285393238067627, -1.2476704120635986, -0.8202836513519287, -1.0169386863708496, 0.05186544358730316, -0.7156366578628958, -0.06492949119635227, 2.815144529448481, 9362.0, 30146.0, 35388.0, 9362.0, 8.390083312988281, -0.10182676464319229, -0.20755994319915771, -0.400943398475647, -0.10137040168046951, -0.024905068799853325, 0.9952453970909119, -0.08351171016693115, -0.030637741088867188, 1.493408203125, 1.2890625, 0.0663909912109375, 1.489013671875
29699, -3.1697332859039307, 8.27710247039795, -11.316768646240234, -0.08697573840618134, 0.05508016049861908, -16.794612884521484, -0.49384433031082153, 0.31285393238067627, -1.2476704120635986, -0.8202968239784241, -1.0169469118118286, 0.051852405071258545, -0.7202755767142148, -0.06741387777682917, 2.8065556985298055, 9362.0, 30146.0, 35388.0, 9362.0, 8.390083312988281, -0.10387799143791199, -0.25303277373313904, -0.17630472779273987, -0.1050453707575798, -0.025671500712633133, 0.9959136247634888, -0.08351171016693115, -0.030637741088867188, 1.493408203125, 1.2890625, 0.0663909912109375, 1.489013671875
29709, -3.1686925888061523, 8.277602195739746, -11.317713737487793, -0.10774507373571396, 0.06823798269033432, -16.844650268554688, -0.5446394085884094, 0.3450453579425812, -1.2540748119354248, -0.8202964663505554, -1.0169471502304077, 0.0518682524561882, -0.7183269707213521, -0.0702248526750111, 2.81052083185391, 9362.0, 30146.0, 35388.0, 9362.0, 8.390083312988281, -0.060343120247125626, 0.12432050704956055, 0.06451570987701416, -0.1050453707575798, -0.025671500712633133, 0.9959136247634888, -0.08351171016693115, -0.030637741088867188, 1.493408203125, 1.2890625, 0.0663909912109375, 1.493408203125
29719, -3.1686224937438965, 8.279544830322266, -11.32007884979248, -0.11325504630804062, 0.07172871381044388, -16.85719871520996, -0.5573546290397644, 0.3531017303466797, -1.2556017637252808, -0.8203046321868896, -1.0169520378112793, 0.05186604708433151, -0.7260382253246856, -0.06419665204325042, 2.8079522910211616, 9362.0, 30146.0, 35388.0, 9362.0, 8.390083312988281, 0.051421429961919785, -0.12065643072128296, -0.5072177648544312, -0.09787936508655548, -0.022182384505867958, 0.9977907538414001, -0.08351171016693115, -0.030637741088867188, 1.493408203125, 1.2890625, 0.0663909912109375, 1.493408203125
29729, -3.167084217071533, 8.281397819519043, -11.322107315063477, -0.11889220774173737, 0.07530002295970917, -16.869762420654297, -0.5700767040252686, 0.36116084456443787, -1.257083535194397, -0.8202900290489197, -1.01694917678833, 0.05185313895344734, -0.7191674389262327, -0.0635120547913175, 2.805555839605841, 9362.0, 30146.0, 35388.0, 9362.0, 8.390083312988281, 0.15331611037254333, -0.14644494652748108, -0.09829490631818771, -0.09967101365327835, -0.022737212479114532, 0.9953679442405701, -0.08351171016693115, -0.030637741088867188, 1.493408203125, 1.2890625, 0.0663909912109375, 1.493408203125
29739, -3.1673073768615723, 8.283150672912598, -11.321967124938965, -0.12465658783912659, 0.07895191758871078, -16.882341384887695, -0.5827987194061279, 0.3692191243171692, -1.2585879564285278, -0.8202963471412659, -1.0169507265090942, 0.051864612847566605, -0.7164612078293793, -0.0621577913677811, 2.8084013834044512, 9362.0, 30146.0, 35388.0, 9362.0, 8.390083312988281, -0.0006811068742536008, -0.3674071133136749, -0.16152620315551758, -0.09967101365327835, -0.022737212479114532, 0.9953679442405701, -0.08351171016693115, -0.030637741088867188, 1.493408203125, 1.2890625, 0.0663909912109375, 1.493408203125
29749, -3.1646311283111572, 8.285492897033691, -11.324569702148438, -0.13054808974266052, 0.08268432319164276, -16.894935607910156, -0.5955023765563965, 0.37726137042045593, -1.2602609395980835, -0.8203186392784119, -1.0169438123703003, 0.05181921645998955, -0.7271247375767592, -0.06279694476967279, 2.823641523204618, 9362.0, 30146.0, 35388.0, 9362.0, 8.390083312988281, 0.12606120109558105, -0.11965195089578629, -0.06147470697760582, -0.09777048975229263, -0.022178128361701965, 0.9955814480781555, -0.08351171016693115, -0.030637741088867188, 1.493408203125, 1.2890625, 0.0663909912109375, 1.496337890625
29759, -3.1629889011383057, 8.285918235778809, -11.324837684631348, -0.13054808974266052, 0.08268432319164276, -16.894935607910156, -0.5955023765563965, 0.37726137042045593, -1.2602609395980835, -0.8203298449516296, -1.0169355869293213, 0.05181672051548958, -0.7276662575940592, -0.05335634850308679, 2.812713689126323, 9362.0, 30146.0, 35388.0, 9362.0, 8.390083312988281, 0.20554940402507782, -0.11766412109136581, -0.07675567269325256, -0.09877590835094452, -0.022347763180732727, 0.9939015507698059, -0.08351171016693115, -0.030637741088867188, 1.493408203125, 1.2890625, 0.0663909912109375, 1.496337890625
29769, -3.162353277206421, 8.289374351501465, -11.327420234680176, -0.14271248877048492, 0.09039053320884705, -16.9201717376709, -0.6209284663200378, 0.3933512568473816, -1.2635374069213867, -0.8203263282775879, -1.0169435739517212, 0.05181378126144409, -0.7262615906021177, -0.05831931314773442, 2.8159530600891487, 9362.0, 30146.0, 35388.0, 9362.0, 8.390083312988281, 0.03598202392458916, -0.3277788460254669, -0.23122508823871613, -0.09877590835094452, -0.022347763180732727, 0.9939015507698059, -0.08351171016693115, -0.030637741088867188, 1.493408203125, 1.2890625, 0.0663909912109375, 1.496337890625
29789, -3.1604692935943604, 8.293362617492676, -11.325277328491211, -0.14898526668548584, 0.09436418861150742, -16.932815551757812, -0.6336262822151184, 0.4013806879520416, -1.2653151750564575, -0.8203414082527161, -1.016950249671936, 0.051808085292577744, -0.7220042857833139, -0.05613767720586793, 2.8197185283240027, 9362.0, 30146.0, 35388.0, 9362.0, 8.390083312988281, -0.10057346522808075, -0.49704036116600037, 0.1497812569141388, -0.09979480504989624, -0.024362439289689064, 0.9959051609039307, -0.10485618561506271, -0.030637741088867188, 1.493408203125, 1.2890625, 0.0663909912109375, 1.4970703125
29799, -3.160813808441162, 8.294539451599121, -11.32103157043457, -0.1619122475385666, 0.10255260020494461, -16.958154678344727, -0.6590849161148071, 0.41746512055397034, -1.2685216665267944, -0.8203234672546387, -1.016958236694336, 0.051825206726789474, -0.717509316451482, -0.06103054315877898, 2.817774095735278, 9362.0, 30146.0, 35388.0, 9362.0, 8.390083312988281, 0.162848562002182, -0.3177340030670166, 0.4282676577568054, -0.09979480504989624, -0.024362439289689064, 0.9959051609039307, -0.10485618561506271, -0.030637741088867188, 1.493408203125, 1.2890625, 0.0663909912109375, 1.4970703125
29809, -3.159299850463867, 8.295138359069824, -11.319005966186523, -0.1685667634010315, 0.1067674532532692, -16.970848083496094, -0.6718183755874634, 0.42550498247146606, -1.270137906074524, -0.8203325271606445, -1.0169601440429688, 0.05181613564491272, -0.7197819964975113, -0.056768064583593514, 2.8237740657985664, 9362.0, 30146.0, 35388.0, 9362.0, 8.390083312988281, 0.05174057558178902, 0.06102468818426132, 0.2682127058506012, -0.09875106811523438, -0.023260049521923065, 0.9928261041641235, -0.10485618561506271, -0.030637741088867188, 1.493408203125, 1.2890625, 0.0663909912109375, 1.4970703125
29819, -3.159532308578491, 8.291136741638184, -11.314616203308105, -0.1685667634010315, 0.1067674532532692, -16.970848083496094, -0.6718183755874634, 0.42550498247146606, -1.270137906074524, -0.8203359246253967, -1.0169597864151, 0.05183583125472069, -0.7153263522937928, -0.060361491175626725, 2.8268054459779943, 9362.0, 30146.0, 35388.0, 9362.0, 8.390083312988281, 0.03736194223165512, 0.40113747119903564, 0.5378777980804443, -0.09875106811523438, -0.023260049521923065, 0.9928261041641235, -0.10485618561506271, -0.030637741088867188, 1.493408203125, 1.2890625, 0.0663909912109375, 1.4970703125
29829, -3.1597115993499756, 8.290937423706055, -11.310126304626465, -0.18225738406181335, 0.1154380589723587, -16.996286392211914, -0.6972585320472717, 0.4415615200996399, -1.273621916770935, -0.8203321695327759, -1.016950249671936, 0.05184207484126091, -0.7121225803092298, -0.0551741049409884, 2.820316112543351, 9362.0, 30146.0, 35388.0, 9362.0, 8.390083312988281, -0.08446811139583588, -0.3407013714313507, 0.5252804160118103, -0.1010604053735733, -0.022987674921751022, 0.9942168593406677, -0.10485618561506271, -0.030637741088867188, 1.493408203125, 1.2890625, 0.0663909912109375, 1.500732421875
29839, -3.1601967811584473, 8.290556907653809, -11.305414199829102, -0.18929360806941986, 0.11989384144544601, -17.009031295776367, -0.7099853157997131, 0.4495936632156372, -1.2752735614776611, -0.8203243017196655, -1.016951322555542, 0.051836952567100525, -0.7206116708418825, -0.05681163747343021, 2.8180281403314282, 9362.0, 30146.0, 35388.0, 9362.0, 8.390083312988281, 0.16266854107379913, -0.18543194234371185, 0.3740641176700592, -0.09865494817495346, -0.022223295643925667, 0.993502676486969, -0.10485618561506271, -0.030637741088867188, 1.493408203125, 1.2890625, 0.0663909912109375, 1.500732421875
29849, -3.160773754119873, 8.289605140686035, -11.302070617675781, -0.19645701348781586, 0.12442988902330399, -17.021793365478516, -0.7226959466934204, 0.457614541053772, -1.2770522832870483, -0.8203369379043579, -1.0169541835784912, 0.05181941017508507, -0.7188476506343354, -0.061710336734506654, 2.8239718989824296, 9362.0, 30146.0, 35388.0, 9362.0, 8.390083312988281, -0.02208075486123562, 0.1580580472946167, 0.1950717270374298, -0.09860756993293762, -0.02121942676603794, 0.9963051080703735, -0.10485618561506271, -0.030637741088867188, 1.493408203125, 1.2890625, 0.0663909912109375, 1.493408203125
29859, -3.1616454124450684, 8.289473533630371, -11.296947479248047, -0.20374760031700134, 0.12904618680477142, -17.03457260131836, -0.735421359539032, 0.4656449258327484, -1.2787142992019653, -0.8203351497650146, -1.016951560974121, 0.05182464048266411, -0.7161568168113472, -0.06424401288134618, 2.8272879325978564, 9362.0, 30146.0, 35388.0, 9362.0, 8.390083312988281, -0.07654299587011337, 0.1500123143196106, 0.49519675970077515, -0.09994785487651825, -0.022905554622411728, 0.9940045475959778, -0.10485618561506271, -0.030637741088867188, 1.493408203125, 1.2890625, 0.0663909912109375, 1.493408203125
29869, -3.1626393795013428, 8.29084300994873, -11.293900489807129, -0.2111654430627823, 0.1337427943944931, -17.047367095947266, -0.7481472492218018, 0.47367575764656067, -1.2803648710250854, -0.8203306794166565, -1.016945242881775, 0.05184856802225113, -0.7209922457991242, -0.057469395005767865, 2.8197810376501535, 9362.0, 30146.0, 35388.0, 9362.0, 8.390083312988281, -0.13881731033325195, -0.022221943363547325, 0.3384281396865845, -0.10127729177474976, -0.023989973589777946, 0.9936609268188477, -0.10485618561506271, -0.030637741088867188, 1.493408203125, 1.2890625, 0.0663909912109375, 1.493408203125
29879, -3.1633474826812744, 8.290596008300781, -11.293980598449707, -0.21871045231819153, 0.13851965963840485, -17.0601806640625, -0.7608540058135986, 0.48169538378715515, -1.2821590900421143, -0.820328414440155, -1.0169475078582764, 0.051829054951667786, -0.7213577347489274, -0.06354939147635719, 2.8252822166790006, 9362.0, 30146.0, 35388.0, 9362.0, 8.390083312988281, -0.13881731033325195, -0.022221943363547325, 0.3384281396865845, -0.10127729177474976, -0.023989973589777946, 0.9936609268188477, -0.11231008172035217, -0.12023735046386719, 1.486083984375, 1.2890625, 0.0663909912109375, 1.493408203125
29889, -3.1644206047058105, 8.290084838867188, -11.294203758239746, -0.21871045231819153, 0.13851965963840485, -17.0601806640625, -0.7608540058135986, 0.48169538378715515, -1.2821590900421143, -0.8203412294387817, -1.016955018043518, 0.051826439797878265, -0.7220846144920487, -0.0639756945257659, 2.8159639279728728, 9362.0, 30146.0, 35388.0, 9362.0, 8.390083312988281, -0.13881731033325195, -0.022221943363547325, 0.3384281396865845, -0.10193661600351334, -0.023798193782567978, 0.9948661923408508, -0.11231008172035217, -0.12023735046386719, 1.486083984375, 1.2890625, 0.0663909912109375, 1.494873046875
29899, -3.1660664081573486, 8.2874116897583, -11.292988777160645, -0.23418216407299042, 0.14831429719924927, -17.08585548400879, -0.7863138318061829, 0.49776721000671387, -1.2854225635528564, -0.8203318119049072, -1.0169495344161987, 0.05182737112045288, -0.7257514983005924, -0.06299100784704592, 2.822670479437022, 9362.0, 30146.0, 35388.0, 9362.0, 8.390083312988281, -0.22359487414360046, 0.6314484477043152, 0.40203070640563965, -0.09935349225997925, -0.024922149255871773, 0.9959661960601807, -0.11231008172035217, -0.12023735046386719, 1.486083984375, 1.2890625, 0.0663909912109375, 1.494873046875
29909, -3.1684839725494385, 8.286730766296387, -11.290946960449219, -0.23418216407299042, 0.14831429719924927, -17.08585548400879, -0.7863138318061829, 0.49776721000671387, -1.2854225635528564, -0.8203319907188416, -1.0169388055801392, 0.0518236942589283, -0.7268942257453872, -0.06548106673670873, 2.8297354308520624, 9362.0, 30146.0, 35388.0, 9362.0, 8.390083312988281, -0.34501686692237854, 0.06128024309873581, 0.1762729436159134, -0.0998159870505333, -0.024410424754023552, 0.9943721890449524, -0.11231008172035217, -0.12023735046386719, 1.486083984375, 1.2890625, 0.0663909912109375, 1.494873046875
29919, -3.169524669647217, 8.285921096801758, -11.291777610778809, -0.25016307830810547, 0.15843047201633453, -17.111595153808594, -0.8117693662643433, 0.5138462781906128, -1.2886619567871094, -0.8203230500221252, -1.0169395208358765, 0.05182590335607529, -0.7261819327838793, -0.06312180613230112, 2.817052108646013, 9362.0, 30146.0, 35388.0, 9362.0, 8.390083312988281, -0.022023161873221397, -0.08164510130882263, -0.0722617506980896, -0.0998159870505333, -0.024410424754023552, 0.9943721890449524, -0.11231008172035217, -0.12023735046386719, 1.486083984375, 1.2890625, 0.0663909912109375, 1.494873046875
29929, -3.172853946685791, 8.28661060333252, -11.290421485900879, -0.25016307830810547, 0.15843047201633453, -17.111595153808594, -0.8117693662643433, 0.5138462781906128, -1.2886619567871094, -0.8203259706497192, -1.0169509649276733, 0.0518379807472229, -0.7267480208600177, -0.06409887591962615, 2.8244165501758394, 9362.0, 30146.0, 35388.0, 9362.0, 8.390083312988281, -0.3719891309738159, 0.197292760014534, 0.34360653162002563, -0.10176251828670502, -0.023377053439617157, 0.9944577217102051, -0.11231008172035217, -0.12023735046386719, 1.486083984375, 1.2890625, 0.0663909912109375, 1.4970703125
29939, -3.1731083393096924, 8.284760475158691, -11.290310859680176, -0.25016307830810547, 0.15843047201633453, -17.111595153808594, -0.8117693662643433, 0.5138462781906128, -1.2886619567871094, -0.8203281164169312, -1.0169492959976196, 0.05182814225554466, -0.7263156496535853, -0.0643778991718591, 2.826172880911511, 9362.0, 30146.0, 35388.0, 9362.0, 8.390083312988281, 0.06402043998241425, 0.12756729125976562, 0.010248984210193157, -0.10194676369428635, -0.023494483903050423, 0.9948022365570068, -0.11231008172035217, -0.12023735046386719, 1.486083984375, 1.2890625, 0.0663909912109375, 1.4970703125
29949, -3.1729021072387695, 8.284637451171875, -11.291869163513184, -0.2750878930091858, 0.17420737445354462, -17.150333404541016, -0.8498878479003906, 0.5379562973976135, -1.2938889265060425, -0.8203263282775879, -1.0169471502304077, 0.05183820426464081, -0.7279070493667681, -0.06349675499168939, 2.8226442277368196, 9362.0, 30146.0, 35388.0, 9362.0, 8.390083312988281, 0.06402043998241425, 0.12756729125976562, 0.010248984210193157, -0.1012522429227829, -0.022802462801337242, 0.9961439967155457, -0.11231008172035217, -0.12023735046386719, 1.486083984375, 1.2890625, 0.0663909912109375, 1.4970703125
29959, -3.1736629009246826, 8.28339672088623, -11.293896675109863, -0.2750878930091858, 0.17420737445354462, -17.150333404541016, -0.8498878479003906, 0.5379562973976135, -1.2938889265060425, -0.8203415274620056, -1.016942024230957, 0.051843199878931046, -0.725045168920661, -0.06565648682365577, 2.8208997182444437, 9362.0, 30146.0, 35388.0, 9362.0, 8.390083312988281, -0.10057877004146576, 0.28992199897766113, -0.05400330573320389, -0.09858816117048264, -0.024479461833834648, 0.9943647980690002, -0.11231008172035217, -0.12023735046386719, 1.486083984375, 1.2890625, 0.0663909912109375, 1.4970703125
29969, -3.173999309539795, 8.281929969787598, -11.296051025390625, -0.2923400402069092, 0.18512754142284393, -17.17624282836914, -0.8753255605697632, 0.5540598034858704, -1.297116994857788, -0.8203350901603699, -1.016945719718933, 0.051813755184412, -0.7324467026789699, -0.059711001580694756, 2.8224814086438004, 9362.0, 30146.0, 35388.0, 9362.0, 8.390083312988281, -0.0953778475522995, 0.22186937928199768, -0.2597396671772003, -0.10002347826957703, -0.0228692889213562, 0.9919963479042053, -0.11231008172035217, -0.12023735046386719, 1.486083984375, 1.2890625, 0.0663909912109375, 1.4970703125
29989, -3.171976089477539, 8.287216186523438, -11.304631233215332, -0.3101001977920532, 0.19636936485767365, -17.20222282409668, -0.9006954431533813, 0.5701292753219604, -1.3007941246032715, -0.8203338980674744, -1.0169395208358765, 0.051827702671289444, -0.7261444279115151, -0.05586709413157109, 2.820656298015055, 9362.0, 30146.0, 35388.0, 9362.0, 8.390083312988281, 0.03273819386959076, -0.4333881437778473, -0.4745004177093506, -0.09922849386930466, -0.02350984700024128, 0.995273768901825, -0.08953932672739029, -0.05751800537109375, 1.4912109375, 1.2890625, 0.0663909912109375, 1.4970703125
29999, -3.1712093353271484, 8.287425994873047, -11.307901382446289, -0.31917068362236023, 0.2021109014749527, -17.215238571166992, -0.9134020805358887, 0.5781792998313904, -1.302459955215454, -0.820331871509552, -1.0169291496276855, 0.051824551075696945, -0.7194677223506637, -0.06435475961637849, 2.824911704989106, 9362.0, 30146.0, 35388.0, 9362.0, 8.390083312988281, -0.035706087946891785, -0.03417748585343361, -0.44217315316200256, -0.09922849386930466, -0.02350984700024128, 0.995273768901825, -0.08953932672739029, -0.05751800537109375, 1.4912109375, 1.2890625, 0.0663909912109375, 1.4970703125
30009, -3.1701033115386963, 8.288531303405762, -11.311153411865234, -0.32836827635765076, 0.20793293416500092, -17.228271484375, -0.926115870475769, 0.586228609085083, -1.304133415222168, -0.8203287720680237, -1.0169464349746704, 0.05183376371860504, -0.7232894684608604, -0.05220169515180828, 2.825433579742614, 9362.0, 30146.0, 35388.0, 9362.0, 8.390083312988281, -0.00936078280210495, -0.08437179774045944, -0.16709458827972412, -0.09922849386930466, -0.02350984700024128, 0.995273768901825, -0.08953932672739029, -0.05751800537109375, 1.4912109375, 1.2890625, 0.0663909912109375, 1.4970703125
30019, -3.170708179473877, 8.290308952331543, -11.31248664855957, -0.33769282698631287, 0.21383534371852875, -17.241323471069336, -0.9387930631637573, 0.5942542552947998, -1.3060845136642456, -0.8203319907188416, -1.0169486999511719, 0.051827095448970795, -0.727424755888379, -0.057703699986177526, 2.8176891846798804, 9362.0, 30146.0, 35388.0, 9362.0, 8.390083312988281, -0.08340735733509064, -0.37768304347991943, -0.3752780854701996, -0.09958867728710175, -0.023042695596814156, 0.9920815825462341, -0.08953932672739029, -0.05751800537109375, 1.4912109375, 1.2890625, 0.0663909912109375, 1.4970703125
30029, -3.1700098514556885, 8.292057991027832, -11.314315795898438, -0.34714412689208984, 0.21981799602508545, -17.25439453125, -0.9514693021774292, 0.6022769808769226, -1.3080570697784424, -0.8203239440917969, -1.0169415473937988, 0.05180736258625984, -0.7109081990212577, -0.06463051799912023, 2.834702680938841, 9362.0, 30146.0, 35388.0, 9362.0, 8.390083312988281, 0.16501587629318237, 0.004974699113518, 0.08404042571783066, -0.10066919028759003, -0.024828694760799408, 0.9924079179763794, -0.08953932672739029, -0.05751800537109375, 1.4912109375, 1.2890625, 0.0663909912109375, 1.4970703125
30039, -3.1687073707580566, 8.29346752166748, -11.315476417541504, -0.34714412689208984, 0.21981799602508545, -17.25439453125, -0.9514693021774292, 0.6022769808769226, -1.3080570697784424, -0.8203287124633789, -1.0169432163238525, 0.051816292107105255, -0.7194367609490002, -0.06242120722518507, 2.8273054606834758, 9362.0, 30146.0, 35388.0, 9362.0, 8.390083312988281, 0.06964688748121262, -0.1129082590341568, -0.1956225484609604, -0.09970545768737793, -0.024375369772315025, 0.995272159576416, -0.08953932672739029, -0.05751800537109375, 1.4912109375, 1.2890625, 0.0663909912109375, 1.4970703125
30049, -3.166266918182373, 8.29672622680664, -11.317161560058594, -0.3664274215698242, 0.23202422261238098, -17.28059196472168, -0.9768710732460022, 0.6183520555496216, -1.311692237854004, -0.820330798625946, -1.0169569253921509, 0.05182904750108719, -0.7236415396487321, -0.05995894945760938, 2.8260810863845687, 9362.0, 30146.0, 35388.0, 9362.0, 8.390083312988281, 0.23583562672138214, -0.24600766599178314, -0.2661473751068115, -0.09947873651981354, -0.02339278720319271, 0.9954118132591248, -0.08953932672739029, -0.05751800537109375, 1.4912109375, 1.2890625, 0.0663909912109375, 1.491943359375
30059, -3.1645829677581787, 8.298511505126953, -11.31485652923584, -0.3664274215698242, 0.23202422261238098, -17.28059196472168, -0.9768710732460022, 0.6183520555496216, -1.311692237854004, -0.820328950881958, -1.016947865486145, 0.051821328699588776, -0.7224908303239743, -0.06312273904146082, 2.826617671833985, 9362.0, 30146.0, 35388.0, 9362.0, 8.390083312988281, 0.05552753061056137, -0.2880013883113861, 0.10420718789100647, -0.09843144565820694, -0.02080441080033779, 0.9943740963935852, -0.08953932672739029, -0.05751800537109375, 1.4912109375, 1.2890625, 0.0663909912109375, 1.491943359375
30069, -3.1654367446899414, 8.298724174499512, -11.312779426574707, -0.38621950149536133, 0.24455231428146362, -17.30685806274414, -1.0023361444473267, 0.6344513893127441, -1.3149592876434326, -0.8203288912773132, -1.016945242881775, 0.0518343560397625, -0.7216296245925168, -0.061717258759614424, 2.8182036942442847, 9362.0, 30146.0, 35388.0, 9362.0, 8.390083312988281, -0.09824538975954056, -0.15421496331691742, 0.2376316487789154, -0.09706734865903854, -0.022321639582514763, 0.9942570328712463, -0.08953932672739029, -0.05751800537109375, 1.4912109375, 1.2890625, 0.0663909912109375, 1.491943359375
30089, -3.1618518829345703, 8.30024528503418, -11.312750816345215, -0.38621950149536133, 0.24455231428146362, -17.30685806274414, -1.0023361444473267, 0.6344513893127441, -1.3149592876434326, -0.8203332424163818, -1.016947627067566, 0.051825057715177536, -0.7205119179908185, -0.06392485916785517, 2.8232415866356915, 9362.0, 30146.0, 35388.0, 9362.0, 8.390083312988281, 0.12942981719970703, 0.08692028373479843, -0.07287603616714478, -0.09869666397571564, -0.023278193548321724, 0.9965052604675293, -0.09147590398788452, -0.10231781005859375, 1.487548828125, 1.2890625, 0.0663909912109375, 1.5
30099, -3.160586357116699, 8.301959991455078, -11.31183910369873, -0.416862428188324, 0.26394760608673096, -17.346384048461914, -1.040540337562561, 0.658577024936676, -1.319999098777771, -0.8203256130218506, -1.0169529914855957, 0.051831021904945374, -0.7195394269210256, -0.054553344990694086, 2.819724747064339, 9362.0, 30146.0, 35388.0, 9362.0, 8.390083312988281, 0.3300055265426636, 0.11427909880876541, 0.20956283807754517, -0.09869666397571564, -0.023278193548321724, 0.9965052604675293, -0.09147590398788452, -0.10231781005859375, 1.487548828125, 1.2890625, 0.0663909912109375, 1.5
30109, -3.160553216934204, 8.303034782409668, -11.311176300048828, -0.4273315370082855, 0.27057355642318726, -17.35959243774414, -1.0532790422439575, 0.6666150689125061, -1.321669340133667, -0.8203227519989014, -1.016945719718933, 0.051823899149894714, -0.7268887559166877, -0.06649387444599597, 2.8164771464131384, 9362.0, 30146.0, 35388.0, 9362.0, 8.390083312988281, -0.11327197402715683, -0.19424739480018616, 0.013938174583017826, -0.09930698573589325, -0.0209964532405138, 0.9942162036895752, -0.09147590398788452, -0.10231781005859375, 1.487548828125, 1.2890625, 0.0663909912109375, 1.5
30119, -3.1598503589630127, 8.303191184997559, -11.309837341308594, -0.4273315370082855, 0.27057355642318726, -17.35959243774414, -1.0532790422439575, 0.6666150689125061, -1.321669340133667, -0.8203231692314148, -1.0169472694396973, 0.051838792860507965, -0.7259777258306088, -0.06272046438462553, 2.82653812606147, 9362.0, 30146.0, 35388.0, 9362.0, 8.390083312988281, 0.17615509033203125, 0.2358960658311844, 0.2613103687763214, -0.09917795658111572, -0.02311856672167778, 0.9938576817512512, -0.09147590398788452, -0.10231781005859375, 1.487548828125, 1.2890625, 0.0663909912109375, 1.5
30129, -3.1599647998809814, 8.304092407226562, -11.30746078491211, -0.4273315370082855, 0.27057355642318726, -17.35959243774414, -1.0532790422439575, 0.6666150689125061, -1.321669340133667, -0.820328950881958, -1.0169459581375122, 0.05183213949203491, -0.717140594325916, -0.06083354292266563, 2.8250556982832786, 9362.0, 30146.0, 35388.0, 9362.0, 8.390083312988281, -0.08341497927904129, -0.15469059348106384, 0.18350327014923096, -0.09742557257413864, -0.024863438680768013, 0.9946240782737732, -0.09147590398788452, -0.10231781005859375, 1.487548828125, 1.2890625, 0.0663909912109375, 1.4970703125
30139, -3.159816265106201, 8.304694175720215, -11.30626106262207, -0.4595027267932892, 0.2909332811832428, -17.399320602416992, -1.0914748907089233, 0.6907002925872803, -1.326948642730713, -0.8203265070915222, -1.016950249671936, 0.05183546245098114, -0.7180885294141657, -0.06445570110088283, 2.8194744483943093, 9362.0, 30146.0, 35388.0, 9362.0, 8.390083312988281, 0.006473436951637268, -0.37793973088264465, 0.03681376948952675, -0.09742557257413864, -0.024863438680768013, 0.9946240782737732, -0.09147590398788452, -0.10231781005859375, 1.487548828125, 1.2890625, 0.0663909912109375, 1.4970703125
30149, -3.158853054046631, 8.305907249450684, -11.304569244384766, -0.4704812467098236, 0.29788050055503845, -17.41259765625, -1.1042308807373047, 0.6987411379814148, -1.328549861907959, -0.8203250169754028, -1.0169469118118286, 0.05181129649281502, -0.7232644647630777, -0.06416501512455852, 2.8258953792169184, 9362.0, 30146.0, 35388.0, 9362.0, 8.390083312988281, 0.2481776922941208, -0.1489715278148651, -0.0706535056233406, -0.09874964505434036, -0.018908780068159103, 0.9927754402160645, -0.09147590398788452, -0.10231781005859375, 1.487548828125, 1.2890625, 0.0663909912109375, 1.4970703125
30159, -3.159763813018799, 8.30935001373291, -11.306248664855957, -0.4815872311592102, 0.30490806698799133, -17.425891876220703, -1.1169689893722534, 0.7067697048187256, -1.3302932977676392, -0.8203200697898865, -1.0169403553009033, 0.05182439833879471, -0.7207148385912304, -0.06435517893947917, 2.8254526032275558, 9362.0, 30146.0, 35388.0, 9362.0, 8.390083312988281, -0.16228130459785461, -0.3126673102378845, -0.14175881445407867, -0.09897612035274506, -0.022669700905680656, 0.9937475323677063, -0.09147590398788452, -0.10231781005859375, 1.487548828125, 1.2890625, 0.0663909912109375, 1.4970703125
30169, -3.1603147983551025, 8.313285827636719, -11.307633399963379, -0.4928205609321594, 0.3120158612728119, -17.4392032623291, -1.129699468612671, 0.7147911787033081, -1.3321125507354736, -0.8203288316726685, -1.016951084136963, 0.05182972550392151, -0.7263448862482779, -0.06534157225050308, 2.8234400465818177, 9362.0, 30146.0, 35388.0, 9362.0, 8.390083312988281, -0.048951394855976105, -0.3841647803783417, -0.12611716985702515, -0.09897612035274506, -0.022669700905680656, 0.9937475323677063, -0.09147590398788452, -0.10231781005859375, 1.487548828125, 1.2890625, 0.0663909912109375, 1.4970703125
30179, -3.1626477241516113, 8.314168930053711, -11.306461334228516, -0.5041812658309937, 0.3192039132118225, -17.452533721923828, -1.1424437761306763, 0.7228209376335144, -1.3338667154312134, -0.8203176259994507, -1.016933798789978, 0.0518253929913044, -0.7233301295998485, -0.06069549860072243, 2.816186229912139, 9362.0, 30146.0, 35388.0, 9362.0, 8.390083312988281, -0.048951394855976105, -0.3841647803783417, -0.12611716985702515, -0.09897612035274506, -0.022669700905680656, 0.9937475323677063, -0.10778968036174774, -0.04855918884277344, 1.491943359375, 1.2890625, 0.0663909912109375, 1.4970703125
30189, -3.164533853530884, 8.312661170959473, -11.307188034057617, -0.5041812658309937, 0.3192039132118225, -17.452533721923828, -1.1424437761306763, 0.7228209376335144, -1.3338667154312134, -0.8203132152557373, -1.016941785812378, 0.05183866620063782, -0.7240853680471324, -0.06675325148754041, 2.820219141066563, 9362.0, 30146.0, 35388.0, 9362.0, 8.390083312988281, -0.23568731546401978, 0.2278634011745453, -0.04583035781979561, -0.09851691871881485, -0.021967744454741478, 0.9968680739402771, -0.10778968036174774, -0.04855918884277344, 1.491943359375, 1.2890625, 0.0663909912109375, 1.49267578125
30199, -3.1650402545928955, 8.313042640686035, -11.309412956237793, -0.5041812658309937, 0.3192039132118225, -17.452533721923828, -1.1424437761306763, 0.7228209376335144, -1.3338667154312134, -0.8203179836273193, -1.0169390439987183, 0.05181773751974106, -0.7250418337726452, -0.06867983680288603, 2.819821429882489, 9362.0, 30146.0, 35388.0, 9362.0, 8.390083312988281, -0.13992829620838165, -0.18384188413619995, -0.4291911721229553, -0.0991622731089592, -0.023788873106241226, 0.9941345453262329, -0.10778968036174774, -0.04855918884277344, 1.491943359375, 1.2890625, 0.0663909912109375, 1.49267578125
