timeTick, roll, pitch, yaw, stateX, stateY, stateZ, stateVX, stateVY, stateVZ, otX0, otY0, otZ0, otRoll0, otPitch0, otYaw0, left wing, pitch motor, yaw motor, right wing, voltage, roll rate, pitch rate, yaw rate, A_x, A_y, A_z, current, i_raw, v_raw, airflow_voltage, airflow_speed, pot_Pitch
42537, 0.8809999227523804, -7.673129558563232, -0.2201949805021286, 0, 0, 0, 0, 0, 0, -0.8179339170455933, -1.038390874862671, 0.05272240191698074, -0.8106256040934334, 1.1403757580226284, -4.463139616213668, 0, 0, 0, 0, 0, 0, 0, 0, 0, 0, 0, 0, 0, 0, 0, 0, 0
42547, 0.8810755610466003, -7.672577381134033, -0.21908049285411835, -0.003650614060461521, 0.00043541574268601835, -21.67117691040039, -0.10209652781486511, 0.012180314399302006, -1.0525710582733154, -0.817970871925354, -1.0383720397949219, 0.0526508167386055, -0.8434087693170463, 1.1633408791993531, -4.450111369619729, 9362.0, 30146.0, 35388.0, 9362.0, 0, 0.011031589470803738, -0.29664871096611023, -0.16033346951007843, 0, 0, 0, 0, 0, 0, 0, 0, 0
42557, 0.8820746541023254, -7.672632694244385, -0.2215212881565094, -0.004606249742209911, 0.0005494404467754066, -21.68170738220215, -0.08903055638074875, 0.010624876245856285, -1.0536469221115112, -0.8179139494895935, -1.0383905172348022, 0.05273564159870148, -0.8113441253610175, 1.1420395660587133, -4.466228525247906, 9362.0, 30146.0, 35388.0, 9362.0, 0, 0.13022826611995697, 0.262998104095459, -0.23475061357021332, -0.07271378487348557, -0.022134117782115936, 0.9974450469017029, 0, 0, 0, 1.672119140625, 0.5946807861328125, 0
42567, 0.8822618126869202, -7.675286293029785, -0.2219475656747818, -0.005431252531707287, 0.000647914013825357, -21.692249298095703, -0.07597006112337112, 0.009069270454347134, -1.054755687713623, -0.8179345726966858, -1.0383973121643066, 0.05272427946329117, -0.814151590611553, 1.1366198295727372, -4.4674488294699195, 9362.0, 30146.0, 35388.0, 9362.0, 0, 0.0684271976351738, 0.278559148311615, -0.1988687515258789, -0.07208085805177689, -0.025495318695902824, 0.9976600408554077, 0, 0, 0, 1.35205078125, 0.015380859375, 1.4853515625
42577, 0.8823136687278748, -7.675572395324707, -0.22251538932323456, -0.0061257039196789265, 0.0007308266358450055, -21.702802658081055, -0.06292027235031128, 0.0075131552293896675, -1.0559449195861816, -0.8179284334182739, -1.0383915901184082, 0.0527162104845047, -0.8134360478404747, 1.1438501851892227, -4.462212039692168, 9362.0, 30146.0, 35388.0, 9362.0, 0, -0.02603568136692047, -0.1450083702802658, 0.053847793489694595, -0.07119697332382202, -0.02434730716049671, 0.9961288571357727, 0, 0, 0, 1.716064453125, 0.7117919921875, 1.4853515625
42587, 0.8826176524162292, -7.674349784851074, -0.2216973453760147, -0.006689712405204773, 0.0007981851231306791, -21.713369369506836, -0.0498814694583416, 0.005958419758826494, -1.0572493076324463, -0.8179250359535217, -1.0384001731872559, 0.05274154245853424, -0.8159319340694724, 1.1411635356902536, -4.4702510594850295, 9362.0, 30146.0, 35388.0, 9362.0, 0, 0.06551280617713928, -0.10670378059148788, 0.2372317910194397, -0.07335921376943588, -0.024041546508669853, 0.9961296916007996, 0, 0, 0, 1.598876953125, 0.414520263671875, 1.493408203125
42597, 0.8821933269500732, -7.673795700073242, -0.22078196704387665, -0.007123264018446207, 0.0008499872637912631, -21.723947525024414, -0.036828864365816116, 0.004402198363095522, -1.0584548711776733, -0.817918062210083, -1.038390040397644, 0.05273611843585968, -0.8112329370208767, 1.143513540352842, -4.472966775327753, 9362.0, 30146.0, 35388.0, 9362.0, 0, 0.08644930273294449, 0.11933375895023346, 0.1654193103313446, -0.07272154837846756, -0.02486269548535347, 0.997305691242218, 0, 0, 0, 1.60986328125, 0.4406585693359375, 1.493408203125
42607, 0.881506085395813, -7.673427581787109, -0.22128891944885254, -0.007426261901855469, 0.0008862210088409483, -21.73453712463379, -0.023770632222294807, 0.002844763221219182, -1.0596033334732056, -0.817925751209259, -1.0383899211883545, 0.05274476855993271, -0.815062297521322, 1.1481787093273113, -4.462240285859264, 9362.0, 30146.0, 35388.0, 9362.0, 0, -0.017234262079000473, -0.1913163810968399, -0.12507936358451843, -0.07308871299028397, -0.022274598479270935, 0.997267484664917, 0, 0, 0, 1.576171875, 0.361328125, 1.493408203125
42617, 0.8810867667198181, -7.671950817108154, -0.22105610370635986, -0.0075987265445292, 0.0009068904328159988, -21.745140075683594, -0.010722330771386623, 0.0012890161015093327, -1.0608184337615967, -0.8179529905319214, -1.0383853912353516, 0.052740734070539474, -0.8211620436154152, 1.1600532575480713, -4.463249271497922, 9362.0, 30146.0, 35388.0, 9362.0, 0, 0.09761877357959747, 0.055355317890644073, 0.02207280322909355, -0.07297913730144501, -0.022465839982032776, 0.9953622817993164, 0, 0, 0, 1.53515625, 0.2692413330078125, 1.493408203125
42627, 0.8824679255485535, -7.6727213859558105, -0.22143416106700897, -0.007640795782208443, 0.0009120177710428834, -21.755754470825195, 0.0023085454013198614, -0.00026349860127083957, -1.062158226966858, -0.8179435133934021, -1.038373589515686, 0.052744172513484955, -0.8223578845226908, 1.1588638483344198, -4.464097817098267, 9362.0, 30146.0, 35388.0, 9362.0, 0, 0.17723537981510162, -0.23201631009578705, 0.26538726687431335, -0.07268717139959335, -0.023625612258911133, 0.9959267973899841, 0, 0, 0, 1.603271484375, 0.4249420166015625, 1.493408203125
42637, 0.8832776546478271, -7.6705708503723145, -0.21883003413677216, -0.00755250733345747, 0.0009016165276989341, -21.766382217407227, 0.015349132940173149, -0.0018168538808822632, -1.063407063484192, -0.8179281949996948, -1.0383925437927246, 0.05273110792040825, -0.8093782694871047, 1.1459512448414557, -4.46208713772085, 9362.0, 30146.0, 35388.0, 9362.0, 8.390083312988281, 0.16819651424884796, -0.05325433611869812, -0.19191770255565643, -0.07267910987138748, -0.02391720935702324, 0.995802104473114, 0, 0, 0, 1.64794921875, 0.533660888671875, 1.493408203125
42647, 0.8841421008110046, -7.670466899871826, -0.2196536362171173, -0.007333849556744099, 0.0008756745955906808, -21.777023315429688, 0.028382517397403717, -0.003370946040377021, -1.064719319343567, -0.8179302215576172, -1.0383895635604858, 0.052729107439517975, -0.815140503879154, 1.1455952068052113, -4.468966232343451, 9362.0, 30146.0, 35388.0, 9362.0, 8.390083312988281, -0.06404068320989609, -0.09969944506883621, 0.21161526441574097, -0.07162957638502121, -0.025569556280970573, 0.9950747489929199, -0.06066877394914627, 0.04104042053222656, 1.499267578125, 1.601806640625, 0.42144775390625, 1.491943359375
42657, 0.8838923573493958, -7.668223857879639, -0.21978603303432465, -0.006984951440244913, 0.0008341968641616404, -21.787677764892578, 0.0413970910012722, -0.004924781154841185, -1.0661439895629883, -0.8179768919944763, -1.0383907556533813, 0.05270656943321228, -0.8133998958615106, 1.1332612295266244, -4.442021701164923, 9362.0, 30146.0, 35388.0, 9362.0, 8.390083312988281, -0.11342474818229675, -0.2792964577674866, -0.08636417239904404, -0.07169558107852936, -0.022888656705617905, 0.9943150877952576, -0.06066877394914627, 0.04104042053222656, 1.499267578125, 1.61865234375, 0.461822509765625, 1.491943359375
42667, 0.8832725882530212, -7.667910575866699, -0.21880283951759338, -0.006505907047539949, 0.000777172390371561, -21.7983455657959, 0.05441178381443024, -0.006480147130787373, -1.06756591796875, -0.8179598450660706, -1.0383989810943604, 0.05272141844034195, -0.8198926322642376, 1.1491227907597477, -4.447467729402447, 9362.0, 30146.0, 35388.0, 9362.0, 8.390083312988281, 0.08774899691343307, 0.20865540206432343, 0.23007112741470337, -0.07308507710695267, -0.02354567125439644, 0.9948081970214844, -0.06066877394914627, 0.04104042053222656, 1.499267578125, 1.56298828125, 0.3311767578125, 1.49267578125
42677, 0.8847280740737915, -7.670633316040039, -0.21670450270175934, -0.005896683782339096, 0.000704590231180191, -21.80902862548828, 0.0674329474568367, -0.008036065846681595, -1.068912148475647, -0.8179575204849243, -1.0383943319320679, 0.052700914442539215, -0.8225103347241065, 1.1489308582353601, -4.4448221707094575, 9362.0, 30146.0, 35388.0, 9362.0, 8.390083312988281, -0.10589221119880676, 0.40914860367774963, 0.5093584060668945, -0.07265883684158325, -0.023423848673701286, 0.9956244826316833, -0.06066877394914627, 0.04104042053222656, 1.499267578125, 1.459716796875, 0.120849609375, 1.49267578125
42687, 0.8853420615196228, -7.673375606536865, -0.2155393362045288, -0.005157161504030228, 0.0006164445076137781, -21.81972312927246, 0.08047150820493698, -0.009592615999281406, -1.0701253414154053, -0.817962646484375, -1.0384060144424438, 0.052709661424160004, -0.8182101597686117, 1.1442902924374607, -4.451023853533869, 9362.0, 30146.0, 35388.0, 9362.0, 8.390083312988281, 0.10151669383049011, -0.19712573289871216, -0.0627765879034996, -0.07086344063282013, -0.023520372807979584, 0.9990071058273315, -0.06066877394914627, 0.04104042053222656, 1.499267578125, 1.69775390625, 0.6619415283203125, 1.491943359375
42697, 0.885811984539032, -7.672605514526367, -0.21500083804130554, -0.00428708316758275, 0.0005127055919729173, -21.830429077148438, 0.09354416280984879, -0.01115491334348917, -1.0711203813552856, -0.8179583549499512, -1.0383919477462769, 0.052713580429553986, -0.8207313899469435, 1.1386628804139605, -4.452865586014569, 9362.0, 30146.0, 35388.0, 9362.0, 8.390083312988281, 0.07867296785116196, 0.048945292830467224, -0.03075430355966091, -0.0719817727804184, -0.023784887045621872, 0.9977227449417114, -0.06066877394914627, 0.04104042053222656, 1.499267578125, 1.349853515625, 0.015350341796875, 1.491943359375
42707, 0.8870355486869812, -7.671123504638672, -0.21559858322143555, -0.0032863887026906013, 0.00039335567271336913, -21.84114646911621, 0.1065947636961937, -0.012714955024421215, -1.0723137855529785, -0.8179545402526855, -1.0383914709091187, 0.05270004644989967, -0.8195848948743135, 1.1349500388395768, -4.444374275511593, 9362.0, 30146.0, 35388.0, 9362.0, 8.390083312988281, 0.3551611304283142, -0.4104911983013153, -0.08761018514633179, -0.07054761052131653, -0.022828450426459312, 0.9964004158973694, -0.06066877394914627, 0.04104042053222656, 1.499267578125, 1.6171875, 0.4583282470703125, 1.4912109375
42717, 0.8866823315620422, -7.674007415771484, -0.21537017822265625, -0.0021552261896431446, 0.0002584057510830462, -21.85187530517578, 0.11963770538568497, -0.01427517645061016, -1.0735541582107544, -0.8180084824562073, -1.0383659601211548, 0.05262874439358711, -0.856699463059603, 1.167420422114617, -4.436516989550942, 9362.0, 30146.0, 35388.0, 9362.0, 8.390083312988281, -0.011318412609398365, 0.6033111810684204, -0.048490557819604874, -0.0730738416314125, -0.0238328967243433, 0.9963681101799011, -0.06066877394914627, 0.04104042053222656, 1.499267578125, 1.46923828125, 0.137359619140625, 1.4912109375
42727, 0.8878447413444519, -7.676573753356934, -0.21277031302452087, -0.0008936903905123472, 0.00010784775076899678, -21.86261749267578, 0.13266943395137787, -0.01583636738359928, -1.074859619140625, -0.817953884601593, -1.038388967514038, 0.05270716920495033, -0.823296496782132, 1.1452644410207427, -4.44806380427437, 9362.0, 30146.0, 35388.0, 9362.0, 8.390083312988281, -0.09065930545330048, 0.028105705976486206, 0.18867480754852295, -0.07393316179513931, -0.021717164665460587, 0.995134711265564, -0.06066877394914627, 0.04104042053222656, 1.499267578125, 1.68017578125, 0.6156768798828125, 1.493408203125
42737, 0.8866720199584961, -7.676370620727539, -0.21245042979717255, 0.0004981931997463107, -5.831972521264106e-05, -21.87337303161621, 0.14570729434490204, -0.017396550625562668, -1.076156497001648, -0.818010151386261, -1.0383625030517578, 0.05259700119495392, -0.8509206100329989, 1.1696058826042872, -4.435943771871055, 9362.0, 30146.0, 35388.0, 9362.0, 8.390083312988281, 0.01714070327579975, -0.2186451405286789, -0.13220982253551483, -0.07140955328941345, -0.022921526804566383, 0.9966314435005188, -0.06066877394914627, 0.04104042053222656, 1.499267578125, 1.248779296875, 0.1671905517578125, 1.493408203125
42747, 0.88686603307724, -7.674746036529541, -0.21438804268836975, 0.0020205588079988956, -0.00024010583001654595, -21.884140014648438, 0.15876583755016327, -0.018960578367114067, -1.077332615852356, -0.8179931640625, -1.0383634567260742, 0.052627336233854294, -0.857689583028377, 1.1684715699114179, -4.435448878178681, 9362.0, 30146.0, 35388.0, 9362.0, 8.390083312988281, 0.17639100551605225, 0.05757857486605644, -0.02160026691854, -0.07245106995105743, -0.024310395121574402, 0.9972243905067444, -0.07755588740110397, -0.0037593841552734375, 1.49560546875, 1.24072265625, 0.1952667236328125, 1.49267578125
42757, 0.8877137303352356, -7.674403667449951, -0.21346889436244965, 0.003673565573990345, -0.00043752870988100767, -21.89491844177246, 0.17183548212051392, -0.020524440333247185, -1.0784229040145874, -0.8180293440818787, -1.0383480787277222, 0.05265272408723831, -0.852730460374961, 1.1786813663640885, -4.4308791354637025, 9362.0, 30146.0, 35388.0, 9362.0, 8.390083312988281, -0.046288128942251205, -0.025592416524887085, 0.09012047946453094, -0.07448113709688187, -0.02346865087747574, 0.9979865550994873, -0.07755588740110397, -0.0037593841552734375, 1.49560546875, 1.68310546875, 0.6232757568359375, 1.49267578125
42767, 0.8874472379684448, -7.675852298736572, -0.21289288997650146, 0.005457208026200533, -0.0006505884230136871, -21.90570831298828, 0.18489308655261993, -0.022087298333644867, -1.0795825719833374, -0.8179641366004944, -1.0383940935134888, 0.05273039638996124, -0.8207761443512438, 1.1434730575209642, -4.45036096490968, 9362.0, 30146.0, 35388.0, 9362.0, 8.390083312988281, 0.0903589278459549, 0.10943112522363663, -0.16356609761714935, -0.07076380401849747, -0.024852819740772247, 0.9973431825637817, -0.07755588740110397, -0.0037593841552734375, 1.49560546875, 1.1396484375, 0.83428955078125, 1.4853515625
42777, 0.8870344161987305, -7.67625093460083, -0.21433232724666595, 0.007371458224952221, -0.0008792870212346315, -21.9165096282959, 0.1979568898677826, -0.02365228347480297, -1.0806914567947388, -0.8180080056190491, -1.0383625030517578, 0.05263173580169678, -0.8517055821989846, 1.1558111787915664, -4.441803867755956, 9362.0, 30146.0, 35388.0, 9362.0, 8.390083312988281, -0.2155381441116333, 0.196772500872612, -0.1765926331281662, -0.07184619456529617, -0.02483738586306572, 0.9987736344337463, -0.07755588740110397, -0.0037593841552734375, 1.49560546875, 1.6318359375, 0.4938812255859375, 1.4853515625
42787, 0.8869251012802124, -7.676275253295898, -0.21439363062381744, 0.009416395798325539, -0.0011236369609832764, -21.927322387695312, 0.21103054285049438, -0.025218026712536812, -1.081746220588684, -0.8179752230644226, -1.0383949279785156, 0.05268136039376259, -0.8221118573014446, 1.143393687838369, -4.442093483881296, 9362.0, 30146.0, 35388.0, 9362.0, 8.390083312988281, 0.04970944672822952, -0.056268319487571716, 0.12542842328548431, -0.07442741841077805, -0.026165297254920006, 0.9955798387527466, -0.07755588740110397, -0.0037593841552734375, 1.49560546875, 1.3974609375, 0.03759765625, 1.48974609375
42797, 0.887643039226532, -7.676030158996582, -0.2122310996055603, 0.011591828428208828, -0.0013836132129654288, -21.938146591186523, 0.22405597567558289, -0.02677723579108715, -1.0831637382507324, -0.8179687261581421, -1.0384025573730469, 0.052722468972206116, -0.8186273512011195, 1.146868503801329, -4.440855053438997, 9362.0, 30146.0, 35388.0, 9362.0, 8.390083312988281, -0.10519692301750183, -0.17801621556282043, 0.19309347867965698, -0.07419414818286896, -0.022646678611636162, 0.9957355260848999, -0.07755588740110397, -0.0037593841552734375, 1.49560546875, 1.7255859375, 0.7385406494140625, 1.48974609375
42807, 0.8881843090057373, -7.675736427307129, -0.21078427135944366, 0.013897663913667202, -0.0016591984312981367, -21.948984146118164, 0.23711124062538147, -0.0283393282443285, -1.0843602418899536, -0.8179656863212585, -1.0383912324905396, 0.05272066220641136, -0.8207033764374546, 1.1416176656825883, -4.4457339821135555, 9362.0, 30146.0, 35388.0, 9362.0, 8.390083312988281, -0.035349976271390915, 0.10289781540632248, 0.25079673528671265, -0.07182126492261887, -0.02236262708902359, 0.9978497624397278, -0.07755588740110397, -0.0037593841552734375, 1.49560546875, 1.65234375, 0.5445709228515625, 1.494140625
42817, 0.8882156014442444, -7.676595211029053, -0.20990219712257385, 0.01633405312895775, -0.0019504086812958121, -21.9598331451416, 0.25016677379608154, -0.029902400448918343, -1.085551381111145, -0.8179676532745361, -1.0383998155593872, 0.052710261195898056, -0.8216032398119459, 1.1337228098149126, -4.438514422923158, 9362.0, 30146.0, 35388.0, 9362.0, 8.390083312988281, 0.2185622751712799, -0.09283037483692169, -0.002150818007066846, -0.07382507622241974, -0.02161676250398159, 0.9954416155815125, -0.07755588740110397, -0.0037593841552734375, 1.49560546875, 1.658935546875, 0.561279296875, 1.494140625
42827, 0.8887789845466614, -7.6751532554626465, -0.2087879329919815, 0.018900981172919273, -0.002257250715047121, -21.97069549560547, 0.26321882009506226, -0.03146582469344139, -1.0867658853530884, -0.8179651498794556, -1.0383960008621216, 0.05269577354192734, -0.816343890072556, 1.141950073886136, -4.447904386095415, 9362.0, 30146.0, 35388.0, 9362.0, 8.390083312988281, 0.02860160544514656, -0.05546277388930321, 0.07414741814136505, -0.07364636659622192, -0.02267106994986534, 0.9992905259132385, -0.07755588740110397, -0.0037593841552734375, 1.49560546875, 1.045166015625, 2.0843963623046875, 1.491943359375
42837, 0.8882752060890198, -7.674482822418213, -0.20809032022953033, 0.02159857749938965, -0.002579743042588234, -21.9815673828125, 0.27630043029785156, -0.033032406121492386, -1.0877718925476074, -0.8179629445075989, -1.0383954048156738, 0.05270754173398018, -0.8216115499764096, 1.1359166173549795, -4.448689014261588, 9362.0, 30146.0, 35388.0, 9362.0, 8.390083312988281, -0.039615705609321594, -0.02005038410425186, -0.13412761688232422, -0.07146640866994858, -0.023654233664274216, 0.9979280829429626, -0.07755588740110397, -0.0037593841552734375, 1.49560546875, 1.70654296875, 0.68560791015625, 1.491943359375
42847, 0.8874815702438354, -7.673998832702637, -0.2070850431919098, 0.02442689798772335, -0.0029178953263908625, -21.992450714111328, 0.28936365246772766, -0.034597884863615036, -1.0888952016830444, -0.8179655075073242, -1.038392424583435, 0.052723128348588943, -0.8202164727933141, 1.145029288433534, -4.449576357082097, 9362.0, 30146.0, 35388.0, 9362.0, 8.390083312988281, -0.03356119617819786, -0.2812165319919586, 0.052996136248111725, -0.07200852781534195, -0.02555404044687748, 0.9971248507499695, -0.10583140701055527, -0.01271820068359375, 1.494873046875, 1.36083984375, 0.016387939453125, 1.48681640625
42857, 0.8884570598602295, -7.674080848693848, -0.2076636105775833, 0.027385840192437172, -0.003271696623414755, -22.003345489501953, 0.3024248480796814, -0.036162130534648895, -1.090026617050171, -0.8179696798324585, -1.0383893251419067, 0.05269460752606392, -0.816673534493444, 1.141486311038193, -4.450243593827937, 9362.0, 30146.0, 35388.0, 9362.0, 8.390083312988281, 0.1361905187368393, 0.2668873369693756, 0.14653898775577545, -0.07224494963884354, -0.025081604719161987, 0.9986222386360168, -0.10583140701055527, -0.01271820068359375, 1.494873046875, 1.682373046875, 0.6212310791015625, 1.48681640625
42867, 0.8888434767723083, -7.676118850708008, -0.20687678456306458, 0.030475463718175888, -0.00364114111289382, -22.014251708984375, 0.3154996633529663, -0.03772691637277603, -1.0910495519638062, -0.8179633617401123, -1.0383962392807007, 0.052693117409944534, -0.819845435781024, 1.1403446986187475, -4.447816027520037, 9362.0, 30146.0, 35388.0, 9362.0, 8.390083312988281, 0.17826053500175476, 0.2658211588859558, 0.11543102562427521, -0.0721474215388298, -0.025235457345843315, 0.9985039830207825, -0.10583140701055527, -0.01271820068359375, 1.494873046875, 1.60400390625, 0.4266204833984375, 1.493408203125
42877, 0.8881093859672546, -7.6775736808776855, -0.2070494145154953, 0.033695824444293976, -0.004026241600513458, -22.02516746520996, 0.3285728096961975, -0.03929297253489494, -1.0920863151550293, -0.817959189414978, -1.0383918285369873, 0.052712101489305496, -0.8222053387025209, 1.1421051729165015, -4.446617305810174, 9362.0, 30146.0, 35388.0, 9362.0, 8.390083312988281, 0.03417434170842171, 0.1681448519229889, -0.15482661128044128, -0.0742620974779129, -0.02356008253991604, 0.9968589544296265, -0.10583140701055527, -0.01271820068359375, 1.494873046875, 1.238525390625, 0.20343017578125, 1.493408203125
42887, 0.8887720704078674, -7.6762495040893555, -0.20708028972148895, 0.03704677149653435, -0.004426985047757626, -22.036094665527344, 0.34161674976348877, -0.04085580259561539, -1.0933667421340942, -0.8180258274078369, -1.0383497476577759, 0.05265750363469124, -0.8568640114510437, 1.1806285168119928, -4.432533046609976, 9362.0, 30146.0, 35388.0, 9362.0, 8.390083312988281, -0.01865050382912159, -0.1490713655948639, 0.15392160415649414, -0.07380219548940659, -0.023229235783219337, 0.9942110180854797, -0.10583140701055527, -0.01271820068359375, 1.494873046875, 1.400390625, 0.04034423828125, 1.48828125
42897, 0.8884401917457581, -7.6748809814453125, -0.20621609687805176, 0.04052808880805969, -0.004843341186642647, -22.047035217285156, 0.3546467423439026, -0.04241544380784035, -1.0947684049606323, -0.8180012702941895, -1.0383522510528564, 0.05261869728565216, -0.855210869086252, 1.1689848410449315, -4.439943377347546, 9362.0, 30146.0, 35388.0, 9362.0, 8.390083312988281, -0.18842464685440063, -0.27594807744026184, -0.1845504194498062, -0.0742751732468605, -0.023450061678886414, 0.9958360195159912, -0.10583140701055527, -0.01271820068359375, 1.494873046875, 1.31689453125, 0.0298919677734375, 1.48828125
42907, 0.8879709243774414, -7.675906181335449, -0.2065625786781311, 0.044139716774225235, -0.005275302100926638, -22.0579891204834, 0.3676788806915283, -0.04397652670741081, -1.0961371660232544, -0.8179693222045898, -1.0383869409561157, 0.05270547419786453, -0.8261195221353727, 1.1438781890119856, -4.444780772483523, 9362.0, 30146.0, 35388.0, 9362.0, 8.390083312988281, -0.08382220566272736, 0.1442607194185257, 0.034833960235118866, -0.0736844539642334, -0.023451823741197586, 0.9949153661727905, -0.10583140701055527, -0.01271820068359375, 1.494873046875, 1.648681640625, 0.5355377197265625, 1.4912109375
42917, 0.887592077255249, -7.676575660705566, -0.20779269933700562, 0.047881677746772766, -0.0057228729128837585, -22.06895637512207, 0.3807136118412018, -0.045537710189819336, -1.097469449043274, -0.8179697394371033, -1.0383868217468262, 0.052711762487888336, -0.8273062569173991, 1.1478287749660012, -4.447794224720802, 9362.0, 30146.0, 35388.0, 9362.0, 8.390083312988281, 0.12429351359605789, -0.05324382334947586, -0.06526705622673035, -0.07458460330963135, -0.024895496666431427, 0.9961865544319153, -0.10583140701055527, -0.01271820068359375, 1.494873046875, 1.6875, 0.634674072265625, 1.4912109375
42927, 0.8889581561088562, -7.674961090087891, -0.20757052302360535, 0.05175406113266945, -0.0061860596761107445, -22.079936981201172, 0.39376309514045715, -0.04709993302822113, -1.0987052917480469, -0.8180100917816162, -1.038358449935913, 0.05262768641114235, -0.8537178388550986, 1.1658978459924185, -4.43635764730251, 9362.0, 30146.0, 35388.0, 9362.0, 8.390083312988281, 0.052616268396377563, -0.08127761632204056, 0.1117870882153511, -0.0732567235827446, -0.025349607691168785, 0.9959152936935425, -0.10583140701055527, -0.01271820068359375, 1.494873046875, 1.693359375, 0.650238037109375, 1.494873046875
42937, 0.8884744644165039, -7.673792362213135, -0.20769888162612915, 0.055756933987140656, -0.006664865650236607, -22.090930938720703, 0.4068116843700409, -0.0486612394452095, -1.0999565124511719, -0.8180002570152283, -1.0383589267730713, 0.052599821239709854, -0.8548034217949834, 1.1682541128255934, -4.436046899180011, 9362.0, 30146.0, 35388.0, 9362.0, 8.390083312988281, 0.1207018569111824, -0.05875089019536972, -0.12369444966316223, -0.0728938952088356, -0.02595515549182892, 0.9968144297599792, -0.10583140701055527, -0.01271820068359375, 1.494873046875, 1.2421875, 0.19000244140625, 1.494873046875
42947, 0.8892472386360168, -7.674033164978027, -0.2086266428232193, 0.059890344738960266, -0.0071593038737773895, -22.10193634033203, 0.4198705554008484, -0.05022643133997917, -1.1011101007461548, -0.8179653882980347, -1.0383864641189575, 0.05270994454622269, -0.8220301868673525, 1.143816935476849, -4.44655515694436, 9362.0, 30146.0, 35388.0, 9362.0, 8.390083312988281, 0.19947342574596405, 0.15959195792675018, -0.24064326286315918, -0.07094797492027283, -0.024342410266399384, 0.998881995677948, -0.05647584795951843, -0.03959846496582031, 1.49267578125, 1.640625, 0.5154571533203125, 1.493408203125
42957, 0.8894855380058289, -7.673100471496582, -0.2092469036579132, 0.06415451318025589, -0.007669411599636078, -22.112951278686523, 0.43296369910240173, -0.05179537087678909, -1.101994514465332, -0.8179724812507629, -1.0383892059326172, 0.052682992070913315, -0.8250514256309492, 1.1552971601105355, -4.449158342724772, 9362.0, 30146.0, 35388.0, 9362.0, 8.390083312988281, 0.22380539774894714, -0.1530095487833023, -0.19244176149368286, -0.07136920839548111, -0.02232794277369976, 0.9998860359191895, -0.05647584795951843, -0.03959846496582031, 1.49267578125, 1.5556640625, 0.3145904541015625, 1.493408203125
42967, 0.8889092206954956, -7.673285961151123, -0.21130594611167908, 0.0685495138168335, -0.008195203728973866, -22.12397575378418, 0.44603580236434937, -0.05336320400238037, -1.1030375957489014, -0.8179727792739868, -1.0383926630020142, 0.052712708711624146, -0.8247216595409042, 1.1439082918504369, -4.444018472626624, 9362.0, 30146.0, 35388.0, 9362.0, 8.390083312988281, -0.027925293892621994, -0.012914948165416718, -0.10171062499284744, -0.07231258600950241, -0.024724949151277542, 0.9958724975585938, -0.05647584795951843, -0.03959846496582031, 1.49267578125, 1.64794921875, 0.533660888671875, 1.487548828125
42977, 0.8903399109840393, -7.672999858856201, -0.21253179013729095, 0.07307502627372742, -0.008736653253436089, -22.135013580322266, 0.4590662121772766, -0.05492709204554558, -1.1043782234191895, -0.8179750442504883, -1.038388967514038, 0.052704840898513794, -0.8216323639349006, 1.1489947023054867, -4.450540584960614, 9362.0, 30146.0, 35388.0, 9362.0, 8.390083312988281, 0.03347550332546234, -0.40831491351127625, 0.0041519212536513805, -0.07330726832151413, -0.025150908157229424, 0.9965234398841858, -0.05647584795951843, -0.03959846496582031, 1.49267578125, 1.55126953125, 0.304718017578125, 1.487548828125
42987, 0.890472412109375, -7.670874118804932, -0.21120545268058777, 0.0777309313416481, -0.009293749928474426, -22.14606285095215, 0.4721153974533081, -0.05649251118302345, -1.1055818796157837, -0.8179922103881836, -1.0383676290512085, 0.052725084125995636, -0.8357763428428772, 1.1635243743758394, -4.446562699149297, 9362.0, 30146.0, 35388.0, 9362.0, 8.390083312988281, 0.08922409266233444, -0.3219001293182373, 0.09522803127765656, -0.07151154428720474, -0.024293741211295128, 0.9967164397239685, -0.05647584795951843, -0.03959846496582031, 1.49267578125, 1.490478515625, 0.1768646240234375, 1.489013671875
42997, 0.8911219835281372, -7.667994976043701, -0.20975036919116974, 0.08251731842756271, -0.009866513311862946, -22.15712547302246, 0.4851621687412262, -0.058059800416231155, -1.1068001985549927, -0.8180084824562073, -1.0383615493774414, 0.0526161752641201, -0.8537812559674776, 1.1707959216146548, -4.440360560336999, 9362.0, 30146.0, 35388.0, 9362.0, 8.390083312988281, -0.06164240464568138, -0.0417940728366375, 0.1610879749059677, -0.07151154428720474, -0.024293741211295128, 0.9967164397239685, -0.05647584795951843, -0.03959846496582031, 1.49267578125, 1.14697265625, 0.7671356201171875, 1.489013671875
43017, 0.8913325667381287, -7.669005870819092, -0.21002110838890076, 0.09248118102550507, -0.011059033684432507, -22.17928695678711, 0.5112218260765076, -0.0611923411488533, -1.1093968152999878, -0.817989706993103, -1.0383764505386353, 0.052695367485284805, -0.8166401712700778, 1.138468020152601, -4.454221603967983, 9362.0, 30146.0, 35388.0, 9362.0, 8.390083312988281, 0.032367460429668427, -0.30064189434051514, -0.2065684050321579, -0.07151154428720474, -0.024293741211295128, 0.9967164397239685, -0.05647584795951843, -0.03959846496582031, 1.49267578125, 1.509521484375, 0.2148895263671875, 1.489013671875
43027, 0.891040027141571, -7.667907238006592, -0.21060608327388763, 0.09765854477882385, -0.011678791604936123, -22.190387725830078, 0.5242509841918945, -0.06275961548089981, -1.1106935739517212, -0.8180078268051147, -1.0383540391921997, 0.052606381475925446, -0.8557939161870739, 1.1700694854390292, -4.441722888068352, 9362.0, 30146.0, 35388.0, 9362.0, 8.390083312988281, 0.012975185178220272, 0.20893260836601257, -0.005277750547975302, -0.07151154428720474, -0.024293741211295128, 0.9967164397239685, -0.05647584795951843, -0.03959846496582031, 1.49267578125, 1.509521484375, 0.2148895263671875, 1.489013671875
43047, 0.8899115324020386, -7.668567180633545, -0.20919927954673767, 0.10296621918678284, -0.012314226478338242, -22.201501846313477, 0.5372836589813232, -0.06432756781578064, -1.111965298652649, -0.8180083632469177, -1.0383446216583252, 0.05261167883872986, -0.8542075982509852, 1.166994203074779, -4.437691379763861, 9362.0, 30146.0, 35388.0, 9362.0, 8.390083312988281, 0.13733841478824615, 0.12054531276226044, 0.4086998403072357, -0.07151154428720474, -0.024293741211295128, 0.9967164397239685, -0.06563087552785873, -0.04855918884277344, 1.491943359375, 1.509521484375, 0.2148895263671875, 1.489013671875
43057, 0.8907449841499329, -7.669516563415527, -0.2084740847349167, 0.10296621918678284, -0.012314226478338242, -22.201501846313477, 0.5372836589813232, -0.06432756781578064, -1.111965298652649, -0.8179680109024048, -1.0383800268173218, 0.05270195007324219, -0.818478706673409, 1.144034993363249, -4.450666692951728, 9362.0, 30146.0, 35388.0, 9362.0, 8.390083312988281, -0.0030529808718711138, 0.12782235443592072, 0.21455799043178558, -0.07151154428720474, -0.024293741211295128, 0.9967164397239685, -0.06563087552785873, -0.04855918884277344, 1.491943359375, 1.2099609375, 0.329986572265625, 1.489013671875
43067, 0.8899793028831482, -7.667069435119629, -0.20754827558994293, 0.10296621918678284, -0.012314226478338242, -22.201501846313477, 0.5372836589813232, -0.06432756781578064, -1.111965298652649, -0.8179656863212585, -1.0383920669555664, 0.05271018669009209, -0.8250599414054456, 1.1441421387314392, -4.442671069766937, 9362.0, 30146.0, 35388.0, 9362.0, 8.390083312988281, -0.11751163750886917, -0.12965059280395508, 0.1466073840856552, -0.07151154428720474, -0.024293741211295128, 0.9967164397239685, -0.06563087552785873, -0.04855918884277344, 1.491943359375, 1.6875, 0.634674072265625, 1.489013671875
43077, 0.8909494876861572, -7.667387008666992, -0.20760710537433624, 0.12550024688243866, -0.01501266099512577, -22.246078491210938, 0.5894412994384766, -0.07059554010629654, -1.1168369054794312, -0.8179891109466553, -1.038365125656128, 0.052704423666000366, -0.8306103380649974, 1.1635716419239657, -4.447773847952888, 9362.0, 30146.0, 35388.0, 9362.0, 8.390083312988281, 0.16463564336299896, 0.2051386684179306, -0.15164810419082642, -0.07151154428720474, -0.024293741211295128, 0.9967164397239685, -0.06563087552785873, -0.04855918884277344, 1.491943359375, 1.6875, 0.634674072265625, 1.489013671875
43087, 0.8909509181976318, -7.666779518127441, -0.2086804360151291, 0.12550024688243866, -0.01501266099512577, -22.246078491210938, 0.5894412994384766, -0.07059554010629654, -1.1168369054794312, -0.8179795742034912, -1.0383830070495605, 0.05267099663615227, -0.8159176887318914, 1.1429322089555285, -4.458716316433713, 9362.0, 30146.0, 35388.0, 9362.0, 8.390083312988281, -0.12632927298545837, -0.17540015280246735, -0.01998361013829708, -0.07151154428720474, -0.024293741211295128, 0.9967164397239685, -0.06563087552785873, -0.04855918884277344, 1.491943359375, 1.43701171875, 0.085052490234375, 1.489013671875
43107, 0.8903065919876099, -7.664375305175781, -0.21162977814674377, 0.13754971325397491, -0.016455885022878647, -22.26844024658203, 0.6155043244361877, -0.07372777163982391, -1.11935293674469, -0.8179723620414734, -1.0383861064910889, 0.05270237475633621, -0.823851219581588, 1.14036751243259, -4.446890400815248, 9362.0, 30146.0, 35388.0, 9362.0, 8.390083312988281, 0.05472484230995178, -0.0830216258764267, -0.09433986246585846, -0.07537537813186646, -0.02476615458726883, 0.998505175113678, -0.06563087552785873, -0.04855918884277344, 1.491943359375, 1.1748046875, 0.5444488525390625, 1.489013671875
43127, 0.8876984715461731, -7.66571569442749, -0.21199242770671844, 0.15660250186920166, -0.018738387152552605, -22.302066802978516, 0.654670000076294, -0.07843790203332901, -1.1225346326828003, -0.8180094361305237, -1.0383641719818115, 0.052616871893405914, -0.8497779747048789, 1.1668690355176352, -4.438225088268968, 9362.0, 30146.0, 35388.0, 9362.0, 8.390083312988281, -0.15358076989650726, -0.19622111320495605, -0.07297525554895401, -0.07537537813186646, -0.02476615458726883, 0.998505175113678, -0.06563087552785873, -0.04855918884277344, 1.491943359375, 1.62158203125, 0.46893310546875, 1.489013671875
43137, 0.8883286714553833, -7.663850784301758, -0.2119302898645401, 0.16321435570716858, -0.01953059434890747, -22.31329917907715, 0.6677009463310242, -0.0800035148859024, -1.1237597465515137, -0.8179666996002197, -1.0383944511413574, 0.05270722135901451, -0.8236462114365292, 1.14482990258864, -4.449350943543018, 9362.0, 30146.0, 35388.0, 9362.0, 8.390083312988281, -0.15358076989650726, -0.19622111320495605, -0.07297525554895401, -0.07537537813186646, -0.02476615458726883, 0.998505175113678, -0.06563087552785873, -0.04855918884277344, 1.491943359375, 1.62158203125, 0.46893310546875, 1.489013671875
43147, 0.8869304656982422, -7.663043022155762, -0.21085801720619202, 0.16995647549629211, -0.02033843658864498, -22.324542999267578, 0.6807217597961426, -0.08156479895114899, -1.125077247619629, -0.8179706931114197, -1.0383949279785156, 0.05268939957022667, -0.8203318748327083, 1.1459464371376384, -4.4478601052024835, 9362.0, 30146.0, 35388.0, 9362.0, 8.390083312988281, -0.23525086045265198, 0.020346064120531082, 0.09036827832460403, -0.07537537813186646, -0.02476615458726883, 0.998505175113678, -0.11309067904949188, -0.10231781005859375, 1.487548828125, 1.62158203125, 0.46893310546875, 1.489013671875
43157, 0.8881853222846985, -7.665092945098877, -0.21058933436870575, 0.16995647549629211, -0.02033843658864498, -22.324542999267578, 0.6807217597961426, -0.08156479895114899, -1.125077247619629, -0.8179746866226196, -1.0383793115615845, 0.0527070090174675, -0.8208882100372925, 1.1469850801851464, -4.456161928782313, 9362.0, 30146.0, 35388.0, 9362.0, 8.390083312988281, 0.1490764170885086, 0.37989434599876404, 0.07676467299461365, -0.07537537813186646, -0.02476615458726883, 0.998505175113678, -0.11309067904949188, -0.10231781005859375, 1.487548828125, 1.57763671875, 0.3647918701171875, 1.489013671875
43167, 0.8877879977226257, -7.6656718254089355, -0.211720272898674, 0.16995647549629211, -0.02033843658864498, -22.324542999267578, 0.6807217597961426, -0.08156479895114899, -1.125077247619629, -0.8180049061775208, -1.0383533239364624, 0.05260121822357178, -0.856875880057443, 1.1672594967585894, -4.427516734060961, 9362.0, 30146.0, 35388.0, 9362.0, 8.390083312988281, 0.2406311333179474, -0.31162911653518677, 0.21246983110904694, -0.07119818776845932, -0.02362070605158806, 0.9967976808547974, -0.11309067904949188, -0.10231781005859375, 1.487548828125, 1.300048828125, 0.0489654541015625, 1.490478515625
43177, 0.8886761665344238, -7.665261268615723, -0.20882022380828857, 0.19096487760543823, -0.02285575494170189, -22.358348846435547, 0.7198325991630554, -0.08625546097755432, -1.1286051273345947, -0.8179657459259033, -1.0383899211883545, 0.05270129442214966, -0.8228297929326593, 1.1487624134997247, -4.454496062126148, 9362.0, 30146.0, 35388.0, 9362.0, 8.390083312988281, -0.001539019518531859, -0.061473093926906586, 0.30473291873931885, -0.07119818776845932, -0.02362070605158806, 0.9967976808547974, -0.11309067904949188, -0.10231781005859375, 1.487548828125, 1.300048828125, 0.0489654541015625, 1.490478515625
43197, 0.8885461688041687, -7.664583206176758, -0.20756648480892181, 0.19096487760543823, -0.02285575494170189, -22.358348846435547, 0.7198325991630554, -0.08625546097755432, -1.1286051273345947, -0.8179621696472168, -1.0383890867233276, 0.052693065255880356, -0.8195762323386625, 1.143047333021002, -4.450435692652483, 9362.0, 30146.0, 35388.0, 9362.0, 8.390083312988281, -0.12787602841854095, 0.12122143059968948, 0.15308541059494019, -0.07320936024188995, -0.023377511650323868, 0.997887372970581, -0.11309067904949188, -0.10231781005859375, 1.487548828125, 1.23193359375, 0.2292022705078125, 1.491943359375
43207, 0.888468325138092, -7.664509296417236, -0.2074568122625351, 0.21314632892608643, -0.02551374025642872, -22.392261505126953, 0.7589408755302429, -0.09094393998384476, -1.1322025060653687, -0.8179724216461182, -1.038392186164856, 0.052690424025058746, -0.8218124830114021, 1.1479761304125873, -4.442554901461238, 9362.0, 30146.0, 35388.0, 9362.0, 8.390083312988281, 0.11865508556365967, -0.17156347632408142, -0.1279570758342743, -0.07320936024188995, -0.023377511650323868, 0.997887372970581, -0.11309067904949188, -0.10231781005859375, 1.487548828125, 1.404052734375, 0.04400634765625, 1.491943359375
43217, 0.888468325138092, -7.664509296417236, -0.2074568122625351, 0.21314632892608643, -0.02551374025642872, -22.392261505126953, 0.7589408755302429, -0.09094393998384476, -1.1322025060653687, -0.8180046081542969, -1.0383598804473877, 0.0526072233915329, -0.8531589747740895, 1.163420447425807, -4.4393048140021305, 9362.0, 30146.0, 35388.0, 9362.0, 8.390083312988281, 0.11865508556365967, -0.17156347632408142, -0.1279570758342743, -0.07320936024188995, -0.023377511650323868, 0.997887372970581, -0.11309067904949188, -0.10231781005859375, 1.487548828125, 1.320556640625, 0.02685546875, 1.491943359375
43247, 0.8880482316017151, -7.665430545806885, -0.2073352038860321, 0.24454617500305176, -0.0292765274643898, -22.437650680541992, 0.8110281229019165, -0.09719403833150864, -1.137431263923645, -0.8180111050605774, -1.038364052772522, 0.052627306431531906, -0.8470027035687484, 1.1627390395134398, -4.435029618728723, 9362.0, 30146.0, 35388.0, 9362.0, 8.390083312988281, -0.10411464422941208, 0.15416884422302246, 0.0762275978922844, -0.07526461035013199, -0.0263284333050251, 0.9959493279457092, -0.08851799368858337, -0.11127853393554688, 1.48681640625, 1.142578125, 0.8070068359375, 1.491943359375
43257, 0.8892340660095215, -7.665066719055176, -0.20703324675559998, 0.24454617500305176, -0.0292765274643898, -22.437650680541992, 0.8110281229019165, -0.09719403833150864, -1.137431263923645, -0.8179571032524109, -1.038394808769226, 0.05270720273256302, -0.82245875640872, 1.1447126968628822, -4.4470215154122466, 9362.0, 30146.0, 35388.0, 9362.0, 8.390083312988281, -0.19001607596874237, -0.15081696212291718, 0.10627449303865433, -0.07526461035013199, -0.0263284333050251, 0.9959493279457092, -0.08851799368858337, -0.11127853393554688, 1.48681640625, 1.503662109375, 0.2029876708984375, 1.491943359375
43277, 0.8886528611183167, -7.663453102111816, -0.2056819647550583, 0.26946350932121277, -0.03226269409060478, -22.47182846069336, 0.850128710269928, -0.101885125041008, -1.1410679817199707, -0.8179780840873718, -1.0383979082107544, 0.052711982280015945, -0.816648309822655, 1.1422038721597971, -4.456437952185426, 9362.0, 30146.0, 35388.0, 9362.0, 8.390083312988281, 0.020495137199759483, 0.2122010588645935, 0.004230658523738384, -0.07526461035013199, -0.0263284333050251, 0.9959493279457092, -0.08851799368858337, -0.11127853393554688, 1.48681640625, 1.685302734375, 0.6289520263671875, 1.490478515625
43297, 0.8904846906661987, -7.667217254638672, -0.20515193045139313, 0.28672683238983154, -0.03433167189359665, -22.494674682617188, 0.8762070536613464, -0.1050129309296608, -1.1434077024459839, -0.8180047273635864, -1.0383586883544922, 0.052631691098213196, -0.8497381263272242, 1.1682824054746561, -4.44097433209746, 9362.0, 30146.0, 35388.0, 9362.0, 8.390083312988281, -0.11382404714822769, 0.17464448511600494, -0.047798041254282, -0.07277931272983551, -0.025237668305635452, 0.9965789318084717, -0.08851799368858337, -0.11127853393554688, 1.48681640625, 1.59375, 0.4024658203125, 1.493408203125
43317, 0.8898963332176208, -7.668309211730957, -0.20737691223621368, 0.29555419087409973, -0.035389646887779236, -22.506113052368164, 0.8892672657966614, -0.10658184438943863, -1.1444525718688965, -0.8179761171340942, -1.0383955240249634, 0.05268292501568794, -0.8184852413058793, 1.1470629796435503, -4.451582626430019, 9362.0, 30146.0, 35388.0, 9362.0, 8.390083312988281, -0.06199846789240837, -0.024579672142863274, 0.10430620610713959, -0.07277931272983551, -0.025237668305635452, 0.9965789318084717, -0.08851799368858337, -0.11127853393554688, 1.48681640625, 1.12939453125, 0.9347991943359375, 1.493408203125
43337, 0.889764130115509, -7.667032718658447, -0.20513278245925903, 0.29555419087409973, -0.035389646887779236, -22.506113052368164, 0.8892672657966614, -0.10658184438943863, -1.1444525718688965, -0.8180126547813416, -1.038358449935913, 0.05262041464447975, -0.8564518701063375, 1.1711633144160487, -4.438909981964829, 9362.0, 30146.0, 35388.0, 9362.0, 8.390083312988281, -0.17097872495651245, 0.022490251809358597, -0.10813065618276596, -0.07277931272983551, -0.025237668305635452, 0.9965789318084717, -0.08851799368858337, -0.11127853393554688, 1.48681640625, 1.365234375, 0.0175933837890625, 1.493408203125
43347, 0.8891465663909912, -7.667792797088623, -0.20529644191265106, 0.29555419087409973, -0.035389646887779236, -22.506113052368164, 0.8892672657966614, -0.10658184438943863, -1.1444525718688965, -0.818013608455658, -1.0383604764938354, 0.052611373364925385, -0.8543554963107471, 1.1724972697800524, -4.43557964049959, 9362.0, 30146.0, 35388.0, 9362.0, 8.390083312988281, -0.026561297476291656, -0.12756189703941345, -0.0045791915617883205, -0.07277931272983551, -0.025237668305635452, 0.9965789318084717, -0.08851799368858337, -0.11127853393554688, 1.48681640625, 1.071533203125, 1.656829833984375, 1.493408203125
43357, 0.8903366923332214, -7.668344497680664, -0.20567336678504944, 0.34164708852767944, -0.0409143827855587, -22.56348991394043, 0.9544721245765686, -0.11440913379192352, -1.150394082069397, -0.8179839849472046, -1.0383641719818115, 0.05269896611571312, -0.8295763202222622, 1.1693103251291461, -4.447149418311887, 9362.0, 30146.0, 35388.0, 9362.0, 8.390083312988281, -0.026561297476291656, -0.12756189703941345, -0.0045791915617883205, -0.07277931272983551, -0.025237668305635452, 0.9965789318084717, -0.08851799368858337, -0.11127853393554688, 1.48681640625, 1.071533203125, 1.656829833984375, 1.493408203125
43367, 0.8899312615394592, -7.667032718658447, -0.20614475011825562, 0.34164708852767944, -0.0409143827855587, -22.56348991394043, 0.9544721245765686, -0.11440913379192352, -1.150394082069397, -0.8179753422737122, -1.0383849143981934, 0.05270667374134064, -0.8235480523737742, 1.145796475891757, -4.447123314863103, 9362.0, 30146.0, 35388.0, 9362.0, 8.390083312988281, -0.026561297476291656, -0.12756189703941345, -0.0045791915617883205, -0.07277931272983551, -0.025237668305635452, 0.9965789318084717, -0.08851799368858337, -0.11127853393554688, 1.48681640625, 1.56005859375, 0.324493408203125, 1.491943359375
43387, 0.8896597623825073, -7.670436859130859, -0.2051781266927719, 0.3708677887916565, -0.04441709443926811, -22.598058700561523, 0.9935649037361145, -0.11910361051559448, -1.1541998386383057, -0.8179751634597778, -1.038379192352295, 0.052685387432575226, -0.8180133414579271, 1.144590634724267, -4.455631027186982, 9362.0, 30146.0, 35388.0, 9362.0, 8.390083312988281, -0.12006819248199463, 0.15553903579711914, 0.1905810385942459, -0.07277931272983551, -0.025237668305635452, 0.9965789318084717, -0.08851799368858337, -0.11127853393554688, 1.48681640625, 1.263427734375, 0.1233062744140625, 1.491943359375
43407, 0.8894245028495789, -7.673131465911865, -0.20466923713684082, 0.3909996747970581, -0.046830423176288605, -22.621170043945312, 1.0196338891983032, -0.12223049253225327, -1.1567782163619995, -0.8179736137390137, -1.0383955240249634, 0.05270490422844887, -0.8225935847439763, 1.1400780107408366, -4.447921868724641, 9362.0, 30146.0, 35388.0, 9362.0, 8.390083312988281, 0.04279423505067825, 0.11651293188333511, -0.030196992680430412, -0.07277931272983551, -0.025237668305635452, 0.9965789318084717, -0.08851799368858337, -0.11127853393554688, 1.48681640625, 1.6875, 0.634674072265625, 1.491943359375
43427, 0.8918469548225403, -7.6720805168151855, -0.2053930014371872, 0.41165345907211304, -0.04930634796619415, -22.644329071044922, 1.0457321405410767, -0.12536095082759857, -1.1591728925704956, -0.8179667592048645, -1.038396954536438, 0.05269341543316841, -0.8221962570222665, 1.1470299355432587, -4.452788772273862, 9362.0, 30146.0, 35388.0, 9362.0, 8.390083312988281, 0.12300287187099457, -0.38821160793304443, -0.3017408847808838, -0.07277931272983551, -0.025237668305635452, 0.9965789318084717, -0.08851799368858337, -0.11127853393554688, 1.48681640625, 1.683837890625, 0.625091552734375, 1.491943359375
43437, 0.8915237784385681, -7.67065954208374, -0.20643025636672974, 0.42217597365379333, -0.05056779459118843, -22.655927658081055, 1.0587704181671143, -0.12692886590957642, -1.1604435443878174, -0.8179616332054138, -1.0383819341659546, 0.05270581319928169, -0.8235007572948883, 1.1464129726492729, -4.450325818546642, 9362.0, 30146.0, 35388.0, 9362.0, 8.390083312988281, 0.1506502479314804, 0.06600727885961533, 0.21136564016342163, -0.07277931272983551, -0.025237668305635452, 0.9965789318084717, -0.08851799368858337, -0.11127853393554688, 1.48681640625, 1.68896484375, 0.6385955810546875, 1.491943359375
43447, 0.8920590877532959, -7.669013500213623, -0.2065594494342804, 0.42217597365379333, -0.05056779459118843, -22.655927658081055, 1.0587704181671143, -0.12692886590957642, -1.1604435443878174, -0.817977249622345, -1.038380742073059, 0.05269462615251541, -0.8278082672735827, 1.145178687466455, -4.449098929450594, 9362.0, 30146.0, 35388.0, 9362.0, 8.390083312988281, 0.0887107402086258, 0.1074000895023346, 0.05510440468788147, -0.07277931272983551, -0.025237668305635452, 0.9965789318084717, -0.08851799368858337, -0.11127853393554688, 1.48681640625, 1.402587890625, 0.0425262451171875, 1.491943359375
43457, 0.8922001719474792, -7.669607162475586, -0.20554351806640625, 0.42217597365379333, -0.05056779459118843, -22.655927658081055, 1.0587704181671143, -0.12692886590957642, -1.1604435443878174, -0.8179771304130554, -1.0383952856063843, 0.052691612392663956, -0.8240665628928501, 1.1519748494830537, -4.443843243890963, 9362.0, 30146.0, 35388.0, 9362.0, 8.390083312988281, -0.05864198878407478, 0.013132105581462383, 0.27001485228538513, -0.07277931272983551, -0.025237668305635452, 0.9965789318084717, -0.08851799368858337, -0.11127853393554688, 1.48681640625, 1.55859375, 0.3211212158203125, 1.491943359375
43467, 0.8917781114578247, -7.669661521911621, -0.20548373460769653, 0.42217597365379333, -0.05056779459118843, -22.655927658081055, 1.0587704181671143, -0.12692886590957642, -1.1604435443878174, -0.8179744482040405, -1.0383867025375366, 0.05268866941332817, -0.8273125268642977, 1.1498744334892024, -4.44851591648406, 9362.0, 30146.0, 35388.0, 9362.0, 8.390083312988281, -0.08923178166151047, -0.1202654018998146, 0.19916853308677673, -0.07277931272983551, -0.025237668305635452, 0.9965789318084717, -0.08851799368858337, -0.11127853393554688, 1.48681640625, 1.48681640625, 0.1698150634765625, 1.494140625
43477, 0.8918424844741821, -7.669312477111816, -0.20296894013881683, 0.4655703008174896, -0.05577046424150467, -22.702442169189453, 1.1109083890914917, -0.1331997513771057, -1.1655161380767822, -0.817977249622345, -1.0383977890014648, 0.05270222947001457, -0.8241633473016948, 1.1483276785957344, -4.445191735080582, 9362.0, 30146.0, 35388.0, 9362.0, 8.390083312988281, 0.2878582775592804, 0.17871256172657013, 0.03138264641165733, -0.07277931272983551, -0.025237668305635452, 0.9965789318084717, -0.08851799368858337, -0.11127853393554688, 1.48681640625, 1.48681640625, 0.1698150634765625, 1.494140625
43487, 0.8932036757469177, -7.671956539154053, -0.20222124457359314, 0.4655703008174896, -0.05577046424150467, -22.702442169189453, 1.1109083890914917, -0.1331997513771057, -1.1655161380767822, -0.8179764151573181, -1.0383926630020142, 0.05269596353173256, -0.8263345046885983, 1.1470164420146318, -4.446945338321674, 9362.0, 30146.0, 35388.0, 9362.0, 8.390083312988281, 0.2878582775592804, 0.17871256172657013, 0.03138264641165733, -0.07277931272983551, -0.025237668305635452, 0.9965789318084717, -0.08851799368858337, -0.11127853393554688, 1.48681640625, 1.380615234375, 0.024749755859375, 1.4912109375
43497, 0.8924869298934937, -7.671745777130127, -0.20398464798927307, 0.4880489110946655, -0.058465778827667236, -22.725778579711914, 1.136961817741394, -0.13633421063423157, -1.1681920289993286, -0.8179818391799927, -1.038386583328247, 0.052690982818603516, -0.8158446891674227, 1.1432181313398075, -4.444939611709415, 9362.0, 30146.0, 35388.0, 9362.0, 8.390083312988281, -0.16702154278755188, -0.18469931185245514, 0.1457134336233139, -0.07126932591199875, -0.02211182378232479, 0.9963399767875671, -0.08851799368858337, -0.11127853393554688, 1.48681640625, 1.380615234375, 0.024749755859375, 1.4912109375
43507, 0.8918723464012146, -7.669885158538818, -0.20324110984802246, 0.49948373436927795, -0.059836965054273605, -22.73746681213379, 1.1500033140182495, -0.13790297508239746, -1.1694344282150269, -0.8179713487625122, -1.0383940935134888, 0.05273030325770378, -0.8259393986332795, 1.1450476657263948, -4.447959074432998, 9362.0, 30146.0, 35388.0, 9362.0, 8.390083312988281, -0.06138945743441582, 0.17166365683078766, -0.08326177299022675, -0.07450560480356216, -0.023337755352258682, 0.9966880083084106, -0.08851799368858337, -0.11127853393554688, 1.48681640625, 1.480224609375, 0.157379150390625, 1.4912109375
43517, 0.8913279175758362, -7.669817924499512, -0.20361514389514923, 0.5110489726066589, -0.0612238347530365, -22.74916648864746, 1.1630430221557617, -0.1394708901643753, -1.1706664562225342, -0.817983090877533, -1.0383862257003784, 0.052688293159008026, -0.8238666505673511, 1.1542100118878977, -4.452678995897644, 9362.0, 30146.0, 35388.0, 9362.0, 8.390083312988281, 0.057771965861320496, 0.06320229917764664, -0.08894655108451843, -0.07450560480356216, -0.023337755352258682, 0.9966880083084106, -0.08851799368858337, -0.11127853393554688, 1.48681640625, 1.550537109375, 0.303131103515625, 1.4912109375
43537, 0.8909336924552917, -7.6691060066223145, -0.20114776492118835, 0.5110489726066589, -0.0612238347530365, -22.74916648864746, 1.1630430221557617, -0.1394708901643753, -1.1706664562225342, -0.8179727792739868, -1.0383862257003784, 0.052697572857141495, -0.8188577472937583, 1.1489035716195417, -4.448925400479756, 9362.0, 30146.0, 35388.0, 9362.0, 8.390083312988281, 0.013438772410154343, -0.04448213800787926, 0.17925074696540833, -0.07450560480356216, -0.023337755352258682, 0.9966880083084106, -0.08851799368858337, -0.11127853393554688, 1.48681640625, 1.60400390625, 0.4266204833984375, 1.49267578125
43577, 0.8917171955108643, -7.67230224609375, -0.2021556794643402, 0.5831785798072815, -0.06987404823303223, -22.819629669189453, 1.241288423538208, -0.14887207746505737, -1.1781247854232788, -0.8179765939712524, -1.0383901596069336, 0.05269851163029671, -0.8217915588669711, 1.1507041384526815, -4.449368454171615, 9362.0, 30146.0, 35388.0, 9362.0, 8.390083312988281, 0.06907585263252258, -0.05940203741192818, 0.04042886570096016, -0.07450560480356216, -0.023337755352258682, 0.9966880083084106, -0.08851799368858337, -0.11127853393554688, 1.48681640625, 1.694091796875, 0.6522369384765625, 1.49267578125
43587, 0.8921212553977966, -7.67097806930542, -0.2034739851951599, 0.5956566333770752, -0.07137060165405273, -22.831417083740234, 1.2543212175369263, -0.15043839812278748, -1.1794390678405762, -0.8179752826690674, -1.0383788347244263, 0.0527014397084713, -0.8315030732354999, 1.142793634617533, -4.451658485702761, 9362.0, 30146.0, 35388.0, 9362.0, 8.390083312988281, -0.003028622129932046, -0.10923578590154648, 0.0028279332909733057, -0.07450560480356216, -0.023337755352258682, 0.9966880083084106, -0.08851799368858337, -0.11127853393554688, 1.48681640625, 1.639892578125, 0.5136566162109375, 1.49267578125
43597, 0.8917789459228516, -7.668112754821777, -0.20547081530094147, 0.5956566333770752, -0.07137060165405273, -22.831417083740234, 1.2543212175369263, -0.15043839812278748, -1.1794390678405762, -0.8179827928543091, -1.0384045839309692, 0.05268994718790054, -0.8218427886571694, 1.147755842533968, -4.445116231260321, 9362.0, 30146.0, 35388.0, 9362.0, 8.390083312988281, 0.08680114150047302, -0.20871515572071075, -0.16490983963012695, -0.07450560480356216, -0.023337755352258682, 0.9966880083084106, -0.08851799368858337, -0.11127853393554688, 1.48681640625, 1.399658203125, 0.0396575927734375, 1.49267578125
43617, 0.891668975353241, -7.664604663848877, -0.20734725892543793, 0.6210035681724548, -0.07441070675849915, -22.855031967163086, 1.2803651094436646, -0.15357135236263275, -1.1821577548980713, -0.8179723620414734, -1.0383981466293335, 0.052697066217660904, -0.8201680641825301, 1.147098205230236, -4.450014338885023, 9362.0, 30146.0, 35388.0, 9362.0, 8.390083312988281, -0.0338204950094223, -0.0510704480111599, -0.0776066705584526, -0.07450560480356216, -0.023337755352258682, 0.9966880083084106, -0.08851799368858337, -0.11127853393554688, 1.48681640625, 1.54833984375, 0.298126220703125, 1.49267578125
43627, 0.8919914364814758, -7.664028644561768, -0.20952118933200836, 0.6210035681724548, -0.07441070675849915, -22.855031967163086, 1.2803651094436646, -0.15357135236263275, -1.1821577548980713, -0.8179857134819031, -1.0383892059326172, 0.05268793925642967, -0.8192667267266563, 1.1423427917235927, -4.450870641054252, 9362.0, 30146.0, 35388.0, 9362.0, 8.390083312988281, -0.0338204950094223, -0.0510704480111599, -0.0776066705584526, -0.07450560480356216, -0.023337755352258682, 0.9966880083084106, -0.08851799368858337, -0.11127853393554688, 1.48681640625, 1.66259765625, 0.5705108642578125, 1.494140625
43637, 0.8916099667549133, -7.6647047996521, -0.21076332032680511, 0.6210035681724548, -0.07441070675849915, -22.855031967163086, 1.2803651094436646, -0.15357135236263275, -1.1821577548980713, -0.817976713180542, -1.0383905172348022, 0.05270899459719658, -0.822042640177597, 1.1517419184547464, -4.451463928499112, 9362.0, 30146.0, 35388.0, 9362.0, 8.390083312988281, -0.0338204950094223, -0.0510704480111599, -0.0776066705584526, -0.07450560480356216, -0.023337755352258682, 0.9966880083084106, -0.08851799368858337, -0.11127853393554688, 1.48681640625, 1.4033203125, 0.043182373046875, 1.494140625
43647, 0.891126275062561, -7.663621425628662, -0.21240007877349854, 0.6210035681724548, -0.07441070675849915, -22.855031967163086, 1.2803651094436646, -0.15357135236263275, -1.1821577548980713, -0.8179830312728882, -1.0383960008621216, 0.05270478129386902, -0.82037746810081, 1.1534456479486437, -4.449375794003829, 9362.0, 30146.0, 35388.0, 9362.0, 8.390083312988281, 0.14425092935562134, -0.2618255317211151, 0.022240836173295975, -0.07450560480356216, -0.023337755352258682, 0.9966880083084106, -0.08851799368858337, -0.11127853393554688, 1.48681640625, 1.6201171875, 0.4653778076171875, 1.261962890625
43657, 0.8912926316261292, -7.661160469055176, -0.2117120325565338, 0.6866509318351746, -0.08228535950183868, -22.914291381835938, 1.3454980850219727, -0.16141262650489807, -1.1884474754333496, -0.8179870843887329, -1.038392424583435, 0.05268670991063118, -0.823756890274121, 1.1526467233063897, -4.447840438297079, 9362.0, 30146.0, 35388.0, 9362.0, 8.390083312988281, -0.08335089683532715, -0.16078035533428192, 0.04526962712407112, -0.07450560480356216, -0.023337755352258682, 0.9966880083084106, -0.08851799368858337, -0.11127853393554688, 1.48681640625, 1.6201171875, 0.4653778076171875, 1.261962890625
43667, 0.8902526497840881, -7.658950328826904, -0.2131119966506958, 0.6866509318351746, -0.08228535950183868, -22.914291381835938, 1.3454980850219727, -0.16141262650489807, -1.1884474754333496, -0.8179743885993958, -1.0383830070495605, 0.05269978567957878, -0.8229274168405877, 1.153688493983168, -4.4593440718809845, 9362.0, 30146.0, 35388.0, 9362.0, 8.390083312988281, -0.053229864686727524, 0.04846714064478874, 0.09559748321771622, -0.07450560480356216, -0.023337755352258682, 0.9966880083084106, -0.08851799368858337, -0.11127853393554688, 1.48681640625, 1.146240234375, 0.7736968994140625, 1.261962890625
43677, 0.8903549909591675, -7.660200119018555, -0.21218831837177277, 0.7138214707374573, -0.08554500341415405, -22.93808364868164, 1.3715577125549316, -0.16455037891864777, -1.1908042430877686, -0.8180186152458191, -1.038349986076355, 0.05260098725557327, -0.8542055134080875, 1.165594012001577, -4.434859580262455, 9362.0, 30146.0, 35388.0, 9362.0, 8.390083312988281, -0.1214761957526207, -0.18492582440376282, -0.26609334349632263, -0.07450560480356216, -0.023337755352258682, 0.9966880083084106, -0.08851799368858337, -0.11127853393554688, 1.48681640625, 1.146240234375, 0.7736968994140625, 1.261962890625
43687, 0.889596700668335, -7.66003942489624, -0.21342909336090088, 0.7138214707374573, -0.08554500341415405, -22.93808364868164, 1.3715577125549316, -0.16455037891864777, -1.1908042430877686, -0.8179672956466675, -1.0383862257003784, 0.05268600210547447, -0.8225877442832646, 1.1526194087498425, -4.448804318141208, 9362.0, 30146.0, 35388.0, 9362.0, 8.390083312988281, -0.07449890673160553, -0.14182287454605103, 0.11029735952615738, -0.07450560480356216, -0.023337755352258682, 0.9966880083084106, -0.08851799368858337, -0.11127853393554688, 1.48681640625, 1.318359375, 0.028656005859375, 1.261962890625
43697, 0.8901541233062744, -7.658025741577148, -0.2133430540561676, 0.7138214707374573, -0.08554500341415405, -22.93808364868164, 1.3715577125549316, -0.16455037891864777, -1.1908042430877686, -0.8179782629013062, -1.0383915901184082, 0.05268183350563049, -0.8277872867307543, 1.1516487489682845, -4.456449110234936, 9362.0, 30146.0, 35388.0, 9362.0, 8.390083312988281, -0.10498964786529541, 0.06592375040054321, -0.19186776876449585, -0.07450560480356216, -0.023337755352258682, 0.9966880083084106, -0.08851799368858337, -0.11127853393554688, 1.48681640625, 1.71826171875, 0.7178955078125, 1.261962890625
43707, 0.8881101608276367, -7.657969951629639, -0.21411557495594025, 0.7138214707374573, -0.08554500341415405, -22.93808364868164, 1.3715577125549316, -0.16455037891864777, -1.1908042430877686, -0.8179849982261658, -1.0383862257003784, 0.05267050117254257, -0.8258461885907422, 1.1487642042321795, -4.451506985406053, 9362.0, 30146.0, 35388.0, 9362.0, 8.390083312988281, -0.16782622039318085, 0.3217851519584656, 0.12851974368095398, -0.07450560480356216, -0.023337755352258682, 0.9966880083084106, -0.08851799368858337, -0.11127853393554688, 1.48681640625, 1.603271484375, 0.4249420166015625, 1.261962890625
