timeTick, roll, pitch, yaw, stateX, stateY, stateZ, stateVX, stateVY, stateVZ, otX0, otY0, otZ0, otRoll0, otPitch0, otYaw0, left wing, pitch motor, yaw motor, right wing, voltage, roll rate, pitch rate, yaw rate, A_x, A_y, A_z, current, i_raw, v_raw, airflow_voltage, airflow_speed, pot_Pitch
50399, -1.264758247998543e-05, 0.0031250205356627703, -0.00026127067394554615, 0, 0, 0, 0, 0, 0, -0.8177140355110168, -1.033519983291626, 0.05201316624879837, -0.15362599011639744, 0.30245085179743114, 3.22369533072078, 0, 0, 0, 0, 0, 0, 0, 0, 0, 0, 0, 0, 0, 0, 0, 0, 0
50409, -2.4429145923932083e-06, 0.002499919617548585, -0.0005517274839803576, 0.0, 0.0, 1.1738098692148924e-05, -1.280437658124356e-07, 5.188015017587588e-10, 0.0023476171772927046, -0.8177129030227661, -1.0335050821304321, 0.05200152471661568, -0.15198569527665795, 0.29642619994444885, 3.22821050519302, 9362.0, 30146.0, 35388.0, 9362.0, 0, 0.0030797282233834267, -0.5294966697692871, -0.2289206087589264, 0, 0, 0, 0, 0, 0, 0, 0, 0
50419, -0.00012697148486040533, 0.0061108265072107315, -0.003247304121032357, -2.871027682260774e-08, 1.1632690644081123e-10, 4.7626381274312735e-05, -5.5869245443318505e-06, 2.2332004689928908e-08, 0.004830434452742338, -0.8177035450935364, -1.0335007905960083, 0.05196563899517059, -0.14520970991854168, 0.3109355864703218, 3.230738284872309, 9362.0, 30146.0, 35388.0, 9362.0, 0, -0.3416197597980499, 0.31596478819847107, 0.17388099431991577, -0.09383799135684967, -0.013025513850152493, 1.0232625007629395, 0, 0, 0, 1.55419921875, 0.311279296875, 0
50429, -0.0015617890749126673, 0.00434262165799737, -0.0029509947635233402, -1.064854231458412e-07, 3.612642407446742e-10, 0.00010749220382422209, -1.0113848475157283e-05, 3.1888898632814744e-08, 0.007143126334995031, -0.8177163004875183, -1.033511757850647, 0.05199255049228668, -0.15334543933030817, 0.29500723666112094, 3.228818413094976, 9362.0, 30146.0, 35388.0, 9362.0, 0, 0.032257936894893646, -0.24610039591789246, 0.10721684247255325, -0.09358807653188705, -0.015344473533332348, 1.0229249000549316, 0, 0, 0, 1.54248046875, 0.28521728515625, 1.49267578125
50439, -0.0013584548141807318, 0.00645049475133419, -0.00309906923212111, -2.61143156876642e-07, 1.7952146436073235e-09, 0.00019022519700229168, -2.0747929738718085e-05, 3.1145148682298895e-07, 0.00940387137234211, -0.8177021145820618, -1.0335012674331665, 0.05197959393262863, -0.14837604939967697, 0.30366610385257786, 3.22624578618569, 9362.0, 30146.0, 35388.0, 9362.0, 0, 0.13317237794399261, 0.2481517344713211, 0.025804240256547928, -0.09265917539596558, -0.015784844756126404, 1.0221107006072998, 0, 0, 0, 1.550537109375, 0.303131103515625, 1.49267578125
50449, -0.000843433546833694, 0.004450879525393248, -0.003192609641700983, -5.066358994554321e-07, 1.858314746527867e-08, 0.0002953149378299713, -2.843193396984134e-05, 3.038314844161505e-06, 0.011614480055868626, -0.81771320104599, -1.033513069152832, 0.05199204757809639, -0.15091173139857064, 0.3020005713946148, 3.2242571832385085, 9362.0, 30146.0, 35388.0, 9362.0, 0, 0.19110286235809326, 0.20601968467235565, -0.12509390711784363, -0.0915505439043045, -0.01499997079372406, 1.0227365493774414, 0, 0, 0, 1.5439453125, 0.2884979248046875, 1.49267578125
50459, -0.00017217877029906958, 0.001980038359761238, -0.004194188863039017, -8.474114565615309e-07, 6.085896586682793e-08, 0.00042243010830134153, -3.9646594814257696e-05, 5.3971402849128935e-06, 0.013808955438435078, -0.817720890045166, -1.0335571765899658, 0.05211862549185753, -0.19837608997225223, 0.2430356935428506, 3.257295832812975, 9362.0, 30146.0, 35388.0, 9362.0, 0, -0.21913567185401917, 0.012774846516549587, 0.20461225509643555, -0.09181277453899384, -0.014626584015786648, 1.0226067304611206, 0, 0, 0, 1.5380859375, 0.2755889892578125, 1.49267578125
50469, -0.001758968341164291, 0.0017777802422642708, -0.002754296874627471, -1.2828448916479829e-06, 1.222168606318519e-07, 0.0005716482992284, -4.734407048090361e-05, 6.848496923339553e-06, 0.016035083681344986, -0.8177204728126526, -1.0335137844085693, 0.05200428515672684, -0.15286222548994813, 0.2982630689388941, 3.2256433135917275, 9362.0, 30146.0, 35388.0, 9362.0, 0, 0.06096332147717476, -0.05478273332118988, -0.24335457384586334, -0.09475065022706985, -0.014232859015464783, 1.024747610092163, 0, 0, 0, 1.57763671875, 0.3647918701171875, 1.497802734375
50479, -0.0011610782239586115, 0.0014121567364782095, -0.0033918023109436035, -1.7736483641783707e-06, 1.922129371223491e-07, 0.0007439240580424666, -5.080821574665606e-05, 7.2166803875006735e-06, 0.018420463427901268, -0.8177263140678406, -1.0335155725479126, 0.051983792334795, -0.15354747888521578, 0.2936340940321145, 3.2315777944579582, 9362.0, 30146.0, 35388.0, 9362.0, 0, 0.0068685756996273994, -0.00470068259164691, -0.011630353517830372, -0.09634704887866974, -0.013535883277654648, 1.025519609451294, 0, 0, 0, 1.510986328125, 0.217864990234375, 1.497802734375
50489, -0.0014277816517278552, 0.001921768533065915, -0.0032120838295668364, -2.2973365503276e-06, 2.7982201800114126e-07, 0.0009406138560734689, -5.391344166127965e-05, 1.0279116395395249e-05, 0.02091789059340954, -0.8176842927932739, -1.0334960222244263, 0.051971763372421265, -0.14425412810127652, 0.31361862866671686, 3.2194984636342148, 9362.0, 30146.0, 35388.0, 9362.0, 0, -0.08290328830480576, 0.15202347934246063, -0.060372721403837204, -0.09486952424049377, -0.014546139165759087, 1.0225880146026611, 0, 0, 0, 1.5380859375, 0.2755889892578125, 1.493408203125
50499, -0.002815414685755968, 0.0004694985691457987, -0.002761708339676261, -2.8488402676885016e-06, 3.9278452845792344e-07, 0.0011611829977482557, -5.640758536173962e-05, 1.2323984265094623e-05, 0.02319631725549698, -0.8176965713500977, -1.0334900617599487, 0.05196361988782883, -0.1389791362756046, 0.30658928410909425, 3.2392173872248726, 9362.0, 30146.0, 35388.0, 9362.0, 8.132232666015625, -0.05090811848640442, -0.017665673047304153, -0.1643189936876297, -0.092912457883358, -0.015311619266867638, 1.0228371620178223, 0, 0, 0, 1.56298828125, 0.3311767578125, 1.493408203125
50509, -0.0028228871524333954, 0.000730655447114259, -0.004206853453069925, -3.429739308558055e-06, 5.285246515995823e-07, 0.0014042342081665993, -5.9716036048484966e-05, 1.4877709872962441e-05, 0.02541433833539486, -0.8177009224891663, -1.033503532409668, 0.05198117345571518, -0.14583995254620347, 0.3105400669723508, 3.2281010576068083, 9362.0, 30146.0, 35388.0, 9362.0, 8.132232666015625, 0.029506094753742218, 0.024170588701963425, -0.023518135771155357, -0.09149390459060669, -0.015006041154265404, 1.0237575769424438, -0.08428756892681122, -0.11127853393554688, 1.48681640625, 1.579833984375, 0.369873046875, 1.4912109375
50519, -0.0021889477502554655, 0.001679267268627882, -0.004916498437523842, -4.031011940242024e-06, 7.019691565801622e-07, 0.0016698730178177357, -6.054885307094082e-05, 1.981150489882566e-05, 0.027713820338249207, -0.8177235722541809, -1.0335187911987305, 0.05201073735952377, -0.15329951348883836, 0.2961981390056394, 3.225759554224754, 9362.0, 30146.0, 35388.0, 9362.0, 8.132232666015625, 0.11217186599969864, 0.0882643535733223, 0.16977155208587646, -0.08947639912366867, -0.014167333953082561, 1.0229616165161133, -0.08428756892681122, -0.11127853393554688, 1.48681640625, 1.590087890625, 0.3937835693359375, 1.4912109375
50529, -0.0016359187429770827, 0.0020611132495105267, -0.004041733220219612, -4.64289951196406e-06, 9.248147421203612e-07, 0.001958454493433237, -6.186651444295421e-05, 2.473231143085286e-05, 0.03000285103917122, -0.8177087903022766, -1.0335091352462769, 0.052016664296388626, -0.15480646038910756, 0.2895506134424295, 3.2230405238237596, 9362.0, 30146.0, 35388.0, 9362.0, 8.132232666015625, 0.16398051381111145, 0.38525938987731934, 0.3530552387237549, -0.09065651148557663, -0.015055914409458637, 1.022567868232727, -0.08428756892681122, -0.11127853393554688, 1.48681640625, 1.534423828125, 0.267578125, 1.48974609375
50539, -0.0010010867845267057, -0.0003277932992205024, -0.0012532041873782873, -5.27626252733171e-06, 1.1913002708752174e-06, 0.0022695250809192657, -6.482088065240532e-05, 2.854342710634228e-05, 0.03221166878938675, -0.817707896232605, -1.0335053205490112, 0.05200296267867088, -0.15413228112148097, 0.2925055377882586, 3.230493005831905, 9362.0, 30146.0, 35388.0, 9362.0, 8.132232666015625, 0.09972651302814484, 0.09655332565307617, 0.051977045834064484, -0.09377647936344147, -0.015589386224746704, 1.0237761735916138, -0.08428756892681122, -0.11127853393554688, 1.48681640625, 1.587158203125, 0.3869171142578125, 1.48974609375
50549, -0.0002309982810402289, -0.0010740228462964296, 0.00011444942356320098, -5.942533789493609e-06, 1.4910729078110307e-06, 0.0026032780297100544, -6.833650695625693e-05, 3.138510510325432e-05, 0.034539323300123215, -0.8177154660224915, -1.033509612083435, 0.05201788991689682, -0.15456615922223105, 0.29839667635752676, 3.2288379667824723, 9362.0, 30146.0, 35388.0, 9362.0, 8.132232666015625, -0.1465584933757782, -0.22752979397773743, 0.08949586004018784, -0.09309694916009903, -0.013888628222048283, 1.0230096578598022, -0.08428756892681122, -0.11127853393554688, 1.48681640625, 1.56884765625, 0.3444366455078125, 1.490478515625
50559, -0.0006692991591989994, 0.000724400975741446, 0.0009218706982210279, -6.623027729801834e-06, 1.81369205165538e-06, 0.0029600022826343775, -6.77328062010929e-05, 3.310827014502138e-05, 0.03680593520402908, -0.81772780418396, -1.033510684967041, 0.05199045315384865, -0.15642427914399096, 0.2994037838276711, 3.225710361262962, 9362.0, 30146.0, 35388.0, 9362.0, 8.132232666015625, 0.04290197789669037, 0.3439752459526062, 0.30516788363456726, -0.0912620946764946, -0.011850131675601006, 1.021864652633667, -0.08428756892681122, -0.11127853393554688, 1.48681640625, 1.509521484375, 0.2148895263671875, 1.490478515625
50569, -1.4286043551692273e-05, -0.0015548054361715913, 0.0024418234825134277, -7.290957000805065e-06, 2.1467963051691186e-06, 0.0033389688469469547, -6.592146382899955e-05, 3.352930070832372e-05, 0.038987789303064346, -0.8177123069763184, -1.033497929573059, 0.05196850001811981, -0.14788457693368987, 0.310364476161169, 3.231539246474859, 9362.0, 30146.0, 35388.0, 9362.0, 8.132232666015625, 0.13965216279029846, 0.23478929698467255, -0.11806493997573853, -0.09321535378694534, -0.015337311662733555, 1.0221055746078491, -0.08428756892681122, -0.11127853393554688, 1.48681640625, 1.611328125, 0.44427490234375, 1.4912109375
50579, 0.0011972241336479783, -0.0031942653004080057, 0.0014835180481895804, -7.956510671647266e-06, 2.4879459488147404e-06, 0.0037397299893200397, -6.710277375532314e-05, 3.4675729693844914e-05, 0.041164834052324295, -0.8177261352539062, -1.0335177183151245, 0.05200355872511864, -0.15380964167319747, 0.2904495114095198, 3.227885319254141, 9362.0, 30146.0, 35388.0, 9362.0, 8.132232666015625, -0.006953657139092684, -0.06726483255624771, 0.10003319382667542, -0.09561129659414291, -0.014532538130879402, 1.0235660076141357, -0.08428756892681122, -0.11127853393554688, 1.48681640625, 1.5234375, 0.2439727783203125, 1.4912109375
50589, 0.0012619650224223733, -0.002085040556266904, 0.001136510749347508, -8.61391981743509e-06, 2.8348290470603388e-06, 0.004162742290645838, -6.4313986513298e-05, 3.46527922374662e-05, 0.043437983840703964, -0.817715048789978, -1.0335092544555664, 0.052011046558618546, -0.1542977700747924, 0.29048447401515887, 3.2311075840217347, 9362.0, 30146.0, 35388.0, 9362.0, 8.132232666015625, -0.09325004369020462, -0.11830371618270874, 0.08560656011104584, -0.09195532649755478, -0.012404902838170528, 1.0254509449005127, -0.08428756892681122, -0.11127853393554688, 1.48681640625, 1.5556640625, 0.3145904541015625, 1.48974609375
50599, 0.00018965444178320467, -0.0005105383461341262, 0.0011857692152261734, -9.229029274138156e-06, 3.170852096445742e-06, 0.004609392955899239, -5.875548959011212e-05, 3.254900002502836e-05, 0.045892540365457535, -0.8177115321159363, -1.0335044860839844, 0.05198104679584503, -0.14753010745822281, 0.30650710579243423, 3.223301710020751, 9362.0, 30146.0, 35388.0, 9362.0, 8.152067184448242, -0.08517244458198547, -0.07486028969287872, -0.05527462065219879, -0.09329954534769058, -0.013268962502479553, 1.0261292457580566, -0.08428756892681122, -0.11127853393554688, 1.48681640625, 1.51318359375, 0.2224273681640625, 1.48974609375
50609, -0.0006521411123685539, 0.0009177992469631135, 0.0005610492662526667, -9.79827109404141e-06, 3.485258503133082e-06, 0.005081051494926214, -5.516278906725347e-05, 3.037993337784428e-05, 0.048439595848321915, -0.8177179098129272, -1.0335049629211426, 0.051991380751132965, -0.1580107960459717, 0.29645986594573515, 3.234131913054614, 9362.0, 30146.0, 35388.0, 9362.0, 8.152067184448242, -0.034982625395059586, 0.05741020664572716, -0.06756515055894852, -0.09514909237623215, -0.014344664290547371, 1.0247691869735718, -0.07688016444444656, -0.1650371551513672, 1.482421875, 1.51025390625, 0.2164154052734375, 1.4912109375
50619, -0.0013345814077183604, -0.0001289675710722804, -4.6251789171947166e-05, -1.0345419468649197e-05, 3.787393779930426e-06, 0.005577662028372288, -5.432777470559813e-05, 3.008300882356707e-05, 0.05088290944695473, -0.8177310228347778, -1.033563494682312, 0.05212835595011711, -0.19873355725725086, 0.2428807892286784, 3.253535197424287, 9362.0, 30146.0, 35388.0, 9362.0, 8.152067184448242, 0.2356262058019638, -0.1364980787038803, -0.006921012885868549, -0.09495812654495239, -0.014354586601257324, 1.0251997709274292, -0.07688016444444656, -0.1650371551513672, 1.482421875, 1.600341796875, 0.4178924560546875, 1.4912109375
50629, -0.00017941049009095877, 0.0008292424608953297, -0.00011731909035006538, -1.089675151888514e-05, 4.093946699867956e-06, 0.006098777987062931, -5.589368811342865e-05, 3.125682269455865e-05, 0.053340740501880646, -0.8177112340927124, -1.0335160493850708, 0.052014678716659546, -0.15728404455618455, 0.2993027930914707, 3.2294521662085796, 9362.0, 30146.0, 35388.0, 9362.0, 8.152067184448242, -0.15752863883972168, -0.09371595829725266, 0.029876679182052612, -0.09429170936346054, -0.015169475227594376, 1.0238789319992065, -0.07688016444444656, -0.1650371551513672, 1.482421875, 1.5966796875, 0.409210205078125, 1.490478515625
50639, -0.0015351182082667947, 0.0016829540254548192, -0.00023474385670851916, -1.1454558261903003e-05, 4.418213393364567e-06, 0.006643927656114101, -5.570684515987523e-05, 3.3549218642292544e-05, 0.05568962171673775, -0.8177254796028137, -1.0335091352462769, 0.05200909823179245, -0.15282454713074556, 0.29186712128168324, 3.229962152318545, 9362.0, 30146.0, 35388.0, 9362.0, 8.152067184448242, -0.07027444243431091, -0.21875055134296417, 0.12779588997364044, -0.09309420734643936, -0.014857056550681591, 1.0229731798171997, -0.07688016444444656, -0.1650371551513672, 1.482421875, 1.612060546875, 0.4459686279296875, 1.490478515625
50649, -0.0018159208120778203, 0.001943905372172594, 0.00047885620733723044, -1.2018890629406087e-05, 4.755277132062474e-06, 0.00721223559230566, -5.719367618439719e-05, 3.3917531254701316e-05, 0.057972341775894165, -0.8177096247673035, -1.033511996269226, 0.052002858370542526, -0.15583160216645855, 0.29556636936987957, 3.230329159217105, 9362.0, 30146.0, 35388.0, 9362.0, 8.152067184448242, -0.13992206752300262, 0.1145113855600357, -0.021447928622364998, -0.09228645265102386, -0.01376350224018097, 1.0220308303833008, -0.07688016444444656, -0.1650371551513672, 1.482421875, 1.60546875, 0.43011474609375, 1.491943359375
50659, -0.0022161253727972507, 0.0003761369443964213, 6.866201147204265e-05, -1.2605556548805907e-05, 5.107887773192488e-06, 0.007802901789546013, -6.014944665366784e-05, 3.6615252611227334e-05, 0.060161300003528595, -0.8177056908607483, -1.0334994792938232, 0.05198727920651436, -0.1401407037799358, 0.3131844160746766, 3.2297913879831017, 9362.0, 30146.0, 35388.0, 9362.0, 8.152067184448242, 0.0008305926457978785, -0.2386716604232788, -0.04445360600948334, -0.09368091076612473, -0.0148277897387743, 1.0217454433441162, -0.07688016444444656, -0.1650371551513672, 1.482421875, 1.601806640625, 0.42144775390625, 1.491943359375
50669, -0.0027457603719085455, 0.0013903937069699168, 9.067790961125866e-05, -1.3224052054283675e-05, 5.489921932166908e-06, 0.008415116928517818, -6.349170143948868e-05, 3.9806422137189656e-05, 0.06228216364979744, -0.8177147507667542, -1.0335091352462769, 0.052006278187036514, -0.15894356022895872, 0.2964470317007226, 3.2235699919583376, 9362.0, 30146.0, 35388.0, 9362.0, 8.152067184448242, -0.09640735387802124, -0.05897858738899231, -0.02768801897764206, -0.09357883036136627, -0.015173494815826416, 1.0233039855957031, -0.07688016444444656, -0.1650371551513672, 1.482421875, 1.52197265625, 0.2408599853515625, 1.4912109375
50679, -0.0030303490348160267, 0.002593322191387415, -0.00014637262211181223, -1.3862262676411774e-05, 5.907393187953858e-06, 0.009049185551702976, -6.419028068194166e-05, 4.3708583689294755e-05, 0.06453192234039307, -0.8177270889282227, -1.0335592031478882, 0.0521247498691082, -0.1972092952479336, 0.2500253117095781, 3.254791850594783, 9362.0, 30146.0, 35388.0, 9362.0, 8.152067184448242, 0.008728746324777603, 0.17431622743606567, 0.21278321743011475, -0.09418924897909164, -0.01672643981873989, 1.0239243507385254, -0.07688016444444656, -0.1650371551513672, 1.482421875, 1.563720703125, 0.3327789306640625, 1.4912109375
50689, -0.003101957496255636, 0.002499014837667346, -0.0003760248946491629, -1.4516350347548723e-05, 6.368541107804049e-06, 0.009706109762191772, -6.667588604614139e-05, 4.853253994951956e-05, 0.06685327738523483, -0.8177101612091064, -1.0335679054260254, 0.05213847756385803, -0.19722646406129746, 0.2534378466260705, 3.251407452066312, 9362.0, 30146.0, 35388.0, 9362.0, 8.152067184448242, -0.019907193258404732, 0.1428535431623459, 0.02026577852666378, -0.09388121217489243, -0.01544841006398201, 1.0247926712036133, -0.07688016444444656, -0.1650371551513672, 1.482421875, 1.55419921875, 0.311279296875, 1.4912109375
50699, -0.0036790387239307165, 0.0014551044441759586, -0.0008378304191865027, -1.5205858289846219e-05, 6.88044929120224e-06, 0.010386748239398003, -7.122167880879715e-05, 5.3852116252528504e-05, 0.06927487999200821, -0.8177562952041626, -1.0335785150527954, 0.05210153013467789, -0.19323952823816246, 0.24705764924595996, 3.2446782400253715, 9362.0, 30146.0, 35388.0, 9362.0, 8.132232666015625, 0.18360477685928345, 0.05274501442909241, 0.08502371609210968, -0.09239807724952698, -0.01765531860291958, 1.0215240716934204, -0.07688016444444656, -0.1650371551513672, 1.482421875, 1.59521484375, 0.4058380126953125, 1.4912109375
50709, -0.0028520124033093452, 0.0007850616821087897, -0.0014194620307534933, -1.5939949662424624e-05, 7.44612361813779e-06, 0.0110905347391963, -7.555642514489591e-05, 5.930498809902929e-05, 0.07148274034261703, -0.8177597522735596, -1.033565878868103, 0.05210656672716141, -0.19622904536165425, 0.2527279825866344, 3.24539702528272, 9362.0, 30146.0, 35388.0, 9362.0, 8.132232666015625, 0.05109619349241257, 0.0822954997420311, 0.2648163139820099, -0.09353328496217728, -0.013337362557649612, 1.02176034450531, -0.06911513209342957, -0.030637741088867188, 1.493408203125, 1.541015625, 0.2819976806640625, 1.489013671875
50719, -0.0035388695541769266, 0.00026504459674470127, -0.0012938919244334102, -1.6708239854779094e-05, 8.071352567640133e-06, 0.011816003359854221, -7.807683141436428e-05, 6.57101409160532e-05, 0.07361140847206116, -0.8177205920219421, -1.0335081815719604, 0.052003324031829834, -0.1587969914500209, 0.2957901609838416, 3.2270568574769007, 9362.0, 30146.0, 35388.0, 9362.0, 8.132232666015625, 0.20498985052108765, 0.3340863883495331, 0.09768092632293701, -0.092934250831604, -0.012458263896405697, 1.0224862098693848, -0.06911513209342957, -0.030637741088867188, 1.493408203125, 1.60693359375, 0.4335479736328125, 1.489013671875
50729, -0.0028130339924246073, -0.0015834103105589747, -0.0014325756346806884, -1.7495878637419082e-05, 8.753415386308916e-06, 0.012563081458210945, -7.943103992147371e-05, 7.0728718128521e-05, 0.07580456137657166, -0.8177594542503357, -1.0335707664489746, 0.05209971219301224, -0.19169388386377015, 0.2507969983462601, 3.244428267701141, 9362.0, 30146.0, 35388.0, 9362.0, 8.132232666015625, -0.004037581849843264, -0.2525818943977356, -0.32282501459121704, -0.095742367208004, -0.014856358990073204, 1.0223944187164307, -0.06911513209342957, -0.030637741088867188, 1.493408203125, 1.550537109375, 0.303131103515625, 1.48828125
50739, -0.0029746033251285553, -0.0007619999814778566, -0.0033529188949614763, -1.8292506865691394e-05, 9.491668606642634e-06, 0.013331974856555462, -7.982477836776525e-05, 7.689441554248333e-05, 0.07797443866729736, -0.8177208304405212, -1.0335084199905396, 0.051992595195770264, -0.15548162914662184, 0.30098988393370973, 3.229497256765969, 9362.0, 30146.0, 35388.0, 9362.0, 8.132232666015625, 0.3950231671333313, 0.001416620216332376, -0.016475969925522804, -0.09361182898283005, -0.01627102866768837, 1.0207105875015259, -0.06911513209342957, -0.030637741088867188, 1.493408203125, 1.56884765625, 0.3444366455078125, 1.48828125
50749, -0.0005980878486298025, -0.0015259012579917908, -0.004176058806478977, -1.907691876112949e-05, 1.0285192729497794e-05, 0.014121866784989834, -7.70864135120064e-05, 8.181598241208121e-05, 0.08000437170267105, -0.8177520036697388, -1.0335667133331299, 0.0521044097840786, -0.20868199550886957, 0.24145293128160006, 3.2776329510126576, 9362.0, 30146.0, 35388.0, 9362.0, 8.132232666015625, -0.07652273029088974, 0.2772830128669739, 0.08873524516820908, -0.09197387099266052, -0.017567427828907967, 1.0220191478729248, -0.06911513209342957, -0.030637741088867188, 1.493408203125, 1.587158203125, 0.3869171142578125, 1.48974609375
50759, -0.0005724328802898526, -0.0028138374909758568, -0.004525062628090382, -1.9841116227325983e-05, 1.1129372978757601e-05, 0.014932619407773018, -7.57243178668432e-05, 8.693133713677526e-05, 0.08214657753705978, -0.8177337646484375, -1.0335007905960083, 0.05193200334906578, -0.15564955927499996, 0.3081128810960081, 3.246342071620504, 9362.0, 30146.0, 35388.0, 9362.0, 8.132232666015625, -0.0670931339263916, -0.33799004554748535, -0.05191478878259659, -0.09709081053733826, -0.01455184817314148, 1.0219202041625977, -0.06911513209342957, -0.030637741088867188, 1.493408203125, 1.5966796875, 0.409210205078125, 1.48974609375
50769, -0.0008591624209657311, 6.846283940831199e-05, -0.005958894733339548, -2.058500103885308e-05, 1.2003921256109606e-05, 0.01576516032218933, -7.300287688849494e-05, 8.797728514764458e-05, 0.08436212688684464, -0.817733883857727, -1.03350031375885, 0.05193207040429115, -0.15677338646615605, 0.30855761907673696, 3.2549115465160834, 9362.0, 30146.0, 35388.0, 9362.0, 8.132232666015625, 0.2368493229150772, -0.050298530608415604, -0.15084649622440338, -0.09411221742630005, -0.01565488800406456, 1.0237040519714355, -0.06911513209342957, -0.030637741088867188, 1.493408203125, 1.5703125, 0.34783935546875, 1.494873046875
50779, -0.00012010508362436667, -4.89245894641499e-06, -0.007281697355210781, -2.1290379663696513e-05, 1.2888706805824768e-05, 0.01662020944058895, -6.818764813942835e-05, 8.899110252968967e-05, 0.08664800226688385, -0.8177525401115417, -1.0335644483566284, 0.05211595818400383, -0.20426916561904768, 0.2472697282312879, 3.272110367628141, 9362.0, 30146.0, 35388.0, 9362.0, 8.132232666015625, -0.12026823312044144, 0.17089006304740906, 0.4292924106121063, -0.09579110890626907, -0.016729263588786125, 1.0260119438171387, -0.06911513209342957, -0.030637741088867188, 1.493408203125, 1.5849609375, 0.381805419921875, 1.494873046875
50789, -0.0004819782334379852, -0.0014467374421656132, -0.0046919360756874084, -2.1972857211949304e-05, 1.3786160707240924e-05, 0.017499228939414024, -6.830444908700883e-05, 9.046742343343794e-05, 0.08915620297193527, -0.8177416920661926, -1.0335161685943604, 0.05197843164205551, -0.15854334515218038, 0.3052032528399877, 3.24960073959489, 9362.0, 30146.0, 35388.0, 9362.0, 8.132232666015625, -0.14999985694885254, 0.5327780246734619, 0.10115521401166916, -0.09252436459064484, -0.012305617332458496, 1.022690773010254, -0.06911513209342957, -0.030637741088867188, 1.493408203125, 1.568115234375, 0.3428955078125, 1.4912109375
50799, -0.001116772647947073, -0.005553074646741152, -0.003762681968510151, -2.2655858629150316e-05, 1.4691887372464407e-05, 0.01840226724743843, -6.823812873335555e-05, 9.069230145541951e-05, 0.09145180135965347, -0.8177515268325806, -1.0335625410079956, 0.05210233852267265, -0.2020097861824271, 0.24945484365389348, 3.2686215870764985, 9362.0, 30146.0, 35388.0, 9362.0, 8.152067184448242, 0.19297344982624054, -0.059197526425123215, 0.07368720322847366, -0.09163032472133636, -0.013193022459745407, 1.0238916873931885, -0.06911513209342957, -0.030637741088867188, 1.493408203125, 1.600341796875, 0.4178924560546875, 1.4912109375
50809, -7.511273906857241e-06, -0.005730928387492895, -0.0026107775047421455, -2.33255595958326e-05, 1.5603032807121053e-05, 0.019328417256474495, -6.553565617650747e-05, 9.156262967735529e-05, 0.09377861022949219, -0.817725419998169, -1.0334981679916382, 0.05195135250687599, -0.1533389758917872, 0.3157280233924098, 3.2499768031402456, 9362.0, 30146.0, 35388.0, 9362.0, 8.152067184448242, -0.2361140251159668, -0.09537579864263535, -0.04685163497924805, -0.09362064301967621, -0.01300075650215149, 1.0223408937454224, -0.08912921696901321, -0.28151702880859375, 1.472900390625, 1.572509765625, 0.3528594970703125, 1.493408203125
50819, -0.0012796707451343536, -0.005843681283295155, -0.0018375951331108809, -2.3932290787342936e-05, 1.652843457122799e-05, 0.020277397707104683, -5.5803833674872294e-05, 9.347461309516802e-05, 0.09601790457963943, -0.8177445530891418, -1.0335161685943604, 0.05198083072900772, -0.1623426636657742, 0.29952481365111794, 3.253562164123499, 9362.0, 30146.0, 35388.0, 9362.0, 8.152067184448242, -0.09733670949935913, -0.22281628847122192, -0.15748357772827148, -0.0938304215669632, -0.012515123933553696, 1.0233467817306519, -0.08912921696901321, -0.28151702880859375, 1.472900390625, 1.506591796875, 0.2088775634765625, 1.493408203125
50829, -0.0014382170047610998, -0.004934260621666908, -0.001674980972893536, -2.4440154447802342e-05, 1.7463244148530066e-05, 0.021248696371912956, -4.576467472361401e-05, 9.3536771601066e-05, 0.0982421487569809, -0.8177980780601501, -1.0335652828216553, 0.05205601081252098, -0.19371243116767042, 0.24576521187373146, 3.268069682806759, 9362.0, 30146.0, 35388.0, 9362.0, 8.152067184448242, 0.02481669932603836, 0.013225031085312366, -0.05378597229719162, -0.09468236565589905, -0.014206298626959324, 1.023065209388733, -0.08912921696901321, -0.28151702880859375, 1.472900390625, 1.600341796875, 0.4178924560546875, 1.49267578125
50839, -0.0010436796583235264, -0.004781522322446108, -0.001408995478413999, -2.484661126800347e-05, 1.840982076828368e-05, 0.02224252186715603, -3.556275987648405e-05, 9.578473691362888e-05, 0.1005234643816948, -0.8177772164344788, -1.0335359573364258, 0.05196584016084671, -0.16525654594154796, 0.2936532335645836, 3.245506413622412, 9362.0, 30146.0, 35388.0, 9362.0, 8.152067184448242, 0.12064475566148758, 0.11130847781896591, 0.24739935994148254, -0.0920330360531807, -0.015114033594727516, 1.0223902463912964, -0.08912921696901321, -0.28151702880859375, 1.472900390625, 1.54833984375, 0.298126220703125, 1.49267578125
50849, -0.0009903439786285162, -0.0041723125614225864, -0.00047324871411547065, -2.515906271582935e-05, 1.9380251615075395e-05, 0.023258615285158157, -2.6933154003927484e-05, 9.828656766330823e-05, 0.10269559174776077, -0.8177367448806763, -1.0335118770599365, 0.05197194963693619, -0.15737849254032776, 0.3041806422174602, 3.2456787172042745, 9362.0, 30146.0, 35388.0, 9362.0, 8.152067184448242, 0.10254793614149094, -0.10706991702318192, -0.14935876429080963, -0.0932614803314209, -0.015754980966448784, 1.0215973854064941, -0.08912921696901321, -0.28151702880859375, 1.472900390625, 1.597412109375, 0.4110870361328125, 1.48974609375
50859, -0.0008334129815921187, -0.00300908787176013, -0.002352700335904956, -2.5386560082552023e-05, 2.0372246581246145e-05, 0.0242963507771492, -1.8589340470498428e-05, 0.00010011073027271777, 0.10485175997018814, -0.8177566528320312, -1.0335103273391724, 0.051966592669487, -0.16371726877966367, 0.2914647239979047, 3.2543426568905334, 9362.0, 30146.0, 35388.0, 9362.0, 8.152067184448242, 0.1072472482919693, -0.22180521488189697, 0.05984413996338844, -0.09409801661968231, -0.014101780951023102, 1.0239144563674927, -0.08912921696901321, -0.28151702880859375, 1.472900390625, 1.58349609375, 0.3784332275390625, 1.48974609375
50869, -0.0008543864823877811, -0.0018355961656197906, -0.0018198610050603747, -2.5535886379657313e-05, 2.1382033082772978e-05, 0.02535652182996273, -1.1323106264171656e-05, 0.00010183994163526222, 0.10718276351690292, -0.8177472352981567, -1.0335612297058105, 0.05209881439805031, -0.20292106714569483, 0.25099906481045764, 3.27400008950819, 9362.0, 30146.0, 35388.0, 9362.0, 8.152067184448242, -0.04620102047920227, -0.12782327830791473, -0.0385051853954792, -0.09425687789916992, -0.014287850819528103, 1.0259352922439575, -0.08912921696901321, -0.28151702880859375, 1.472900390625, 1.622314453125, 0.470672607421875, 1.491943359375
50879, -0.0015661136712878942, -0.00132871198002249, -0.0005352310836315155, -2.5622701286920346e-05, 2.240774847450666e-05, 0.02644084207713604, -6.090891929488862e-06, 0.00010330398072255775, 0.10968170315027237, -0.8177201151847839, -1.0334925651550293, 0.05195328965783119, -0.15383511834907515, 0.31522841247476663, 3.2461869402296477, 9362.0, 30146.0, 35388.0, 9362.0, 8.152067184448242, -0.022641528397798538, -0.13174346089363098, -0.021794578060507774, -0.0927950069308281, -0.015022436156868935, 1.0209227800369263, -0.08912921696901321, -0.28151702880859375, 1.472900390625, 1.57177734375, 0.3512115478515625, 1.491943359375
50889, -0.0016117285704240203, 1.1786402865254786e-05, -0.0001964571129065007, -2.5667555746622384e-05, 2.3448259526048787e-05, 0.027548274025321007, -2.898749698942993e-06, 0.0001048248159349896, 0.11180522292852402, -0.8177768588066101, -1.033555507659912, 0.05205930396914482, -0.18795703133460934, 0.2530438783690556, 3.2628987130932288, 9362.0, 30146.0, 35388.0, 9362.0, 8.152067184448242, 0.1326269805431366, -0.3029433488845825, -0.2031385451555252, -0.09370941668748856, -0.015156039968132973, 1.0198978185653687, -0.08912921696901321, -0.28151702880859375, 1.472900390625, 1.568115234375, 0.3428955078125, 1.493408203125
50899, -0.0009426341857761145, 0.0018804980209097266, -0.0010786978527903557, -2.5684941647341475e-05, 2.4510180082870647e-05, 0.028676066547632217, -6.241022560971032e-07, 0.0001075610562111251, 0.11375357955694199, -0.8177536129951477, -1.0335156917572021, 0.05195768177509308, -0.16274374946676337, 0.3006924583192756, 3.250341180476357, 9362.0, 30146.0, 35388.0, 9362.0, 8.132232666015625, 0.04782528430223465, 0.14756983518600464, 0.08920000493526459, -0.09284617751836777, -0.015518051572144032, 1.0212163925170898, -0.08912921696901321, -0.28151702880859375, 1.472900390625, 1.5703125, 0.34783935546875, 1.493408203125
50909, -0.0013558948412537575, -0.0008203836623579264, 0.0002999163989443332, -2.5691286282381043e-05, 2.5599878426874056e-05, 0.02982393652200699, -7.119788847376185e-07, 0.00011035461648134515, 0.11582089960575104, -0.8177530169487, -1.0335174798965454, 0.05196534842252731, -0.1649259111474959, 0.2976053217391268, 3.2543471151948795, 9362.0, 30146.0, 35388.0, 9362.0, 8.132232666015625, 0.07086008042097092, -0.02074415422976017, -0.15197423100471497, -0.09391137957572937, -0.015013468451797962, 1.0239757299423218, -0.08313850313425064, -0.05751800537109375, 1.4912109375, 1.600341796875, 0.4178924560546875, 1.49267578125
50919, -0.0014108639443293214, -0.000839221989735961, -0.00013902895443607122, -2.5714885850902647e-05, 2.6711684768088162e-05, 0.030993757769465446, -3.898577688232763e-06, 0.00011202342284377664, 0.11814361065626144, -0.8177578449249268, -1.033507227897644, 0.05194102227687836, -0.15141075954859046, 0.2933531168581567, 3.251091372101903, 9362.0, 30146.0, 35388.0, 9362.0, 8.132232666015625, 0.14289438724517822, -0.05700567364692688, 0.04632889851927757, -0.09352947771549225, -0.014868550933897495, 1.0211622714996338, -0.08313850313425064, -0.05751800537109375, 1.4912109375, 1.53515625, 0.2692413330078125, 1.49267578125
50929, -0.00030622445046901703, -0.0007684928714297712, 0.00013413546548690647, -2.5746696337591857e-05, 2.784377647913061e-05, 0.032185763120651245, -2.462978045514319e-06, 0.00011439697118476033, 0.12025757133960724, -0.8177506923675537, -1.033509612083435, 0.05192536860704422, -0.1544151144113199, 0.29751864395012717, 3.252743153805954, 9362.0, 30146.0, 35388.0, 9362.0, 8.132232666015625, 0.1132313683629036, 0.05287047475576401, 0.27806907892227173, -0.09390609711408615, -0.014275161549448967, 1.0218077898025513, -0.08313850313425064, -0.05751800537109375, 1.4912109375, 1.541015625, 0.2819976806640625, 1.490478515625
50939, -0.0006603084621019661, -0.00033543483004905283, 0.001110612298361957, -2.5746696337591857e-05, 2.784377647913061e-05, 0.032185763120651245, -2.462978045514319e-06, 0.00011439697118476033, 0.12025757133960724, -0.8177233338356018, -1.033501148223877, 0.05193864181637764, -0.14931714467383958, 0.3134227653226276, 3.2494492691528083, 9362.0, 30146.0, 35388.0, 9362.0, 8.132232666015625, 0.10094253718852997, -0.06319592893123627, 0.1095249354839325, -0.09206905215978622, -0.014922525733709335, 1.0247334241867065, -0.08313850313425064, -0.05751800537109375, 1.4912109375, 1.541015625, 0.2819976806640625, 1.490478515625
50949, -4.892407105216989e-06, 0.002144086407497525, 0.0008112184586934745, -2.5767219995032065e-05, 3.0171013349900022e-05, 0.03463488444685936, 3.3235917840102047e-07, 0.00011737611930584535, 0.12479440867900848, -0.8177470564842224, -1.0335042476654053, 0.051960501819849014, -0.15897340307027594, 0.2965276227421896, 3.2498766802427914, 9362.0, 30146.0, 35388.0, 9362.0, 8.132232666015625, 0.10094253718852997, -0.06319592893123627, 0.1095249354839325, -0.09206905215978622, -0.014922525733709335, 1.0247334241867065, -0.08313850313425064, -0.05751800537109375, 1.4912109375, 1.541015625, 0.2819976806640625, 1.490478515625
50959, 0.0013209491735324264, 0.0035181751009076834, 0.00024305148690473288, -2.5767219995032065e-05, 3.0171013349900022e-05, 0.03463488444685936, 3.3235917840102047e-07, 0.00011737611930584535, 0.12479440867900848, -0.8177538514137268, -1.0335655212402344, 0.05209892615675926, -0.20208194216942632, 0.24140665732977595, 3.2727742460742855, 9362.0, 30146.0, 35388.0, 9362.0, 8.132232666015625, 0.12987178564071655, -0.14316201210021973, -0.23022302985191345, -0.09255965799093246, -0.013551543466746807, 1.0243895053863525, -0.08313850313425064, -0.05751800537109375, 1.4912109375, 1.541015625, 0.2819976806640625, 1.490478515625
50969, 0.002067416673526168, 0.004882192704826593, -0.0012497131247073412, -2.5771560103748925e-05, 3.2535674108657986e-05, 0.03717752918601036, -2.99739122056053e-06, 0.00011846036795759574, 0.1295003592967987, -0.8177579641342163, -1.033555030822754, 0.05209282040596008, -0.20512691088799287, 0.24404574325888007, 3.2767154328286403, 9362.0, 30146.0, 35388.0, 9362.0, 8.132232666015625, -0.0004851596604567021, -0.08593060821294785, -0.25411131978034973, -0.09255965799093246, -0.013551543466746807, 1.0243895053863525, -0.08313850313425064, -0.05751800537109375, 1.4912109375, 1.541015625, 0.2819976806640625, 1.490478515625
50979, 0.002600020030513406, 0.006213626358658075, -0.0032193262595683336, -2.5832354367594235e-05, 3.370870399521664e-05, 0.03848396986722946, -9.215983482135925e-06, 0.00011611627269303426, 0.13178814947605133, -0.8177486062049866, -1.033510684967041, 0.05197375640273094, -0.16029810848479847, 0.2972226750299285, 3.2533891802311383, 9362.0, 30146.0, 35388.0, 9362.0, 8.132232666015625, -0.1313159018754959, 0.2676839828491211, 4.0583719965070486e-05, -0.09458234161138535, -0.014336206950247288, 1.0235029458999634, -0.08313850313425064, -0.05751800537109375, 1.4912109375, 1.541015625, 0.2819976806640625, 1.490478515625
50989, 0.002109983703121543, 0.005116439424455166, -0.0038583476562052965, -2.596727790660225e-05, 3.4851756936404854e-05, 0.039813216775655746, -1.7821763321990147e-05, 0.00011247381917200983, 0.13406163454055786, -0.8177490830421448, -1.0335099697113037, 0.0519644096493721, -0.15941980783658818, 0.29540613503939994, 3.244472720773859, 9362.0, 30146.0, 35388.0, 9362.0, 8.132232666015625, -0.001809462672099471, 0.05043893679976463, 0.06296270340681076, -0.09458234161138535, -0.014336206950247288, 1.0235029458999634, -0.08313850313425064, -0.05751800537109375, 1.4912109375, 1.541015625, 0.2819976806640625, 1.487548828125
50999, 0.0016178119694814086, 0.004561284556984901, -0.004388438072055578, -2.619998122099787e-05, 3.5953700717072934e-05, 0.041165731847286224, -2.8673432098003104e-05, 0.00010793523688334972, 0.13644173741340637, -0.8177462816238403, -1.0335012674331665, 0.051950354129076004, -0.15671190081722589, 0.29785365193058055, 3.250046052052144, 9362.0, 30146.0, 35388.0, 9362.0, 8.152067184448242, 0.1705303192138672, -0.10536232590675354, -0.1368929147720337, -0.09458234161138535, -0.014336206950247288, 1.0235029458999634, -0.08313850313425064, -0.05751800537109375, 1.4912109375, 1.541015625, 0.2819976806640625, 1.487548828125
51009, 0.0022197698708623648, 0.004755795933306217, -0.0052727204747498035, -2.619998122099787e-05, 3.5953700717072934e-05, 0.041165731847286224, -2.8673432098003104e-05, 0.00010793523688334972, 0.13644173741340637, -0.8177275061607361, -1.033496379852295, 0.051945336163043976, -0.14875752689965757, 0.30799214735915825, 3.2510334039057343, 9362.0, 30146.0, 35388.0, 9362.0, 8.152067184448242, 0.06361471116542816, 0.11842287331819534, 0.2474508434534073, -0.09458234161138535, -0.014336206950247288, 1.0235029458999634, -0.08313850313425064, -0.05751800537109375, 1.4912109375, 1.541015625, 0.2819976806640625, 1.487548828125
51019, 0.002705996623262763, 0.0033419409301131964, -0.0044898344203829765, -2.619998122099787e-05, 3.5953700717072934e-05, 0.041165731847286224, -2.8673432098003104e-05, 0.00010793523688334972, 0.13644173741340637, -0.8177312612533569, -1.033504843711853, 0.051958754658699036, -0.16139967747139158, 0.3025656825420242, 3.2472074677067524, 9362.0, 30146.0, 35388.0, 9362.0, 8.152067184448242, -0.06261641532182693, 0.23323678970336914, 0.022433163598179817, -0.09287171810865402, -0.014664015732705593, 1.0222312211990356, -0.08313850313425064, -0.05751800537109375, 1.4912109375, 1.541015625, 0.2819976806640625, 1.487548828125
51029, 0.001876680413261056, 0.0005491931224241853, -0.004559516906738281, -2.744507946772501e-05, 3.903771721525118e-05, 0.045356981456279755, -5.386625707615167e-05, 9.750687604537234e-05, 0.14294733107089996, -0.8177628517150879, -1.033553123474121, 0.05207578465342522, -0.19878735547518805, 0.2330833491967894, 3.2795711946296406, 9362.0, 30146.0, 35388.0, 9362.0, 8.152067184448242, 0.2718561291694641, 0.20606659352779388, -0.11654887348413467, -0.09287171810865402, -0.014664015732705593, 1.0222312211990356, -0.08313850313425064, -0.05751800537109375, 1.4912109375, 1.541015625, 0.2819976806640625, 1.487548828125
51039, 0.0028700705152004957, -0.0005469844327308238, -0.005542286671698093, -2.744507946772501e-05, 3.903771721525118e-05, 0.045356981456279755, -5.386625707615167e-05, 9.750687604537234e-05, 0.14294733107089996, -0.8177525997161865, -1.0335609912872314, 0.05209311470389366, -0.20655909643978687, 0.24536817848948544, 3.2774170096947524, 9362.0, 30146.0, 35388.0, 9362.0, 8.152067184448242, 0.04576387628912926, 0.18190868198871613, -0.018355734646320343, -0.09426289051771164, -0.016767041757702827, 1.0230684280395508, -0.08313850313425064, -0.05751800537109375, 1.4912109375, 1.541015625, 0.2819976806640625, 1.487548828125
51059, 0.0047458624467253685, -0.0007114122854545712, -0.007867066189646721, -2.8613931135623716e-05, 4.090064612682909e-05, 0.048261288553476334, -6.052956814528443e-05, 8.947341120801866e-05, 0.14748132228851318, -0.8177475333213806, -1.0335150957107544, 0.05195854231715202, -0.16069262663582137, 0.2973523943535952, 3.2510461550076672, 9362.0, 30146.0, 35388.0, 9362.0, 8.152067184448242, 0.06528528779745102, -0.06740220636129379, -0.2933163046836853, -0.09438120573759079, -0.0149850994348526, 1.0222660303115845, -0.08313850313425064, -0.05751800537109375, 1.4912109375, 1.610595703125, 0.442352294921875, 1.4912109375
51069, 0.005482064560055733, 0.0004442362696863711, -0.010399903170764446, -2.9797394745401107e-05, 4.2578794818837196e-05, 0.05125373601913452, -5.7076485973084345e-05, 7.728116179350764e-05, 0.151643767952919, -0.8177340030670166, -1.033492922782898, 0.051926955580711365, -0.14452068965841045, 0.30422609446907245, 3.2561757256262096, 9362.0, 30146.0, 35388.0, 9362.0, 8.152067184448242, -0.0002572955854702741, -0.175764262676239, -0.21366195380687714, -0.09377874433994293, -0.014580381102859974, 1.019071102142334, -0.08313850313425064, -0.05751800537109375, 1.4912109375, 1.610595703125, 0.442352294921875, 1.4912109375
51079, 0.005957862362265587, 0.001058970927260816, -0.011814882978796959, -3.0361959943547845e-05, 4.3310210458002985e-05, 0.052779439836740494, -5.587418854702264e-05, 6.897791899973527e-05, 0.1534971296787262, -0.8177332282066345, -1.0335005521774292, 0.051934514194726944, -0.16049159954773606, 0.3132271202830452, 3.2409744297048686, 9362.0, 30146.0, 35388.0, 9362.0, 8.152067184448242, 0.004594285041093826, -0.008239674381911755, -0.2218928039073944, -0.09153501689434052, -0.013968209736049175, 1.0226078033447266, -0.08313850313425064, -0.05751800537109375, 1.4912109375, 1.610595703125, 0.442352294921875, 1.4912109375
51089, 0.005817985162138939, 0.0005635691923089325, -0.013061564415693283, -3.092459883191623e-05, 4.395201540319249e-05, 0.054325323551893234, -5.667705772793852e-05, 5.936494926572777e-05, 0.15567973256111145, -0.8177382349967957, -1.0334975719451904, 0.05194155499339104, -0.15760521585610363, 0.2962983785135691, 3.251052435402316, 9362.0, 30146.0, 35388.0, 9362.0, 8.152067184448242, -0.0019231095211580396, 0.1864209920167923, -0.182245135307312, -0.09228947013616562, -0.013782208785414696, 1.0243867635726929, -0.08313850313425064, -0.05751800537109375, 1.4912109375, 1.58642578125, 0.3851776123046875, 1.4912109375
51099, 0.006495619658380747, -0.00202030036598444, -0.013211430050432682, -3.150066186208278e-05, 4.4493437599157915e-05, 0.0558939054608345, -5.851579044247046e-05, 4.8925216105999425e-05, 0.1580367535352707, -0.8177500367164612, -1.0335023403167725, 0.051979757845401764, -0.1645960754971046, 0.2965306474068825, 3.2464286099697817, 9362.0, 30146.0, 35388.0, 9362.0, 8.152067184448242, -0.1259802132844925, 0.01597435399889946, -0.05953878164291382, -0.09215196967124939, -0.014848886989057064, 1.023674726486206, -0.08313850313425064, -0.05751800537109375, 1.4912109375, 1.5732421875, 0.354736328125, 1.4912109375
51109, 0.006079672835767269, -0.0018759717931970954, -0.01352439634501934, -3.209077112842351e-05, 4.4931701268069446e-05, 0.057485926896333694, -5.940106348134577e-05, 3.869989814120345e-05, 0.16036760807037354, -0.8177233338356018, -1.0334882736206055, 0.05195437744259834, -0.1526596300689983, 0.3080073261153018, 3.248616602107491, 9362.0, 30146.0, 35388.0, 9362.0, 8.152067184448242, 0.12725679576396942, 0.012190348468720913, 0.2605419456958771, -0.09251217544078827, -0.014227376319468021, 1.0238776206970215, -0.10164504498243332, -0.24567794799804688, 1.475830078125, 1.635498046875, 0.5028533935546875, 1.48974609375
51119, 0.005692990496754646, -0.0014169699279591441, -0.013039876706898212, -3.266708881710656e-05, 4.526177144725807e-05, 0.05910121276974678, -5.586862243944779e-05, 2.733107794483658e-05, 0.16268979012966156, -0.8177328109741211, -1.0335114002227783, 0.05196152999997139, -0.16234896223851009, 0.30038322738900547, 3.2449545441928134, 9362.0, 30146.0, 35388.0, 9362.0, 8.152067184448242, 0.03970774635672569, -0.09557854384183884, 0.08173462748527527, -0.09328923374414444, -0.014582851901650429, 1.0205973386764526, -0.10164504498243332, -0.24567794799804688, 1.475830078125, 1.635498046875, 0.5028533935546875, 1.48974609375
51139, 0.006487904582172632, -0.003219049656763673, -0.014230928383767605, -3.372307764948346e-05, 4.559926674119197e-05, 0.06239692121744156, -5.0129496230510995e-05, 6.760192718502367e-06, 0.16686728596687317, -0.8177593350410461, -1.0335142612457275, 0.05196789652109146, -0.1649040049426247, 0.2966071129397392, 3.247650749397565, 9362.0, 30146.0, 35388.0, 9362.0, 8.152067184448242, -0.010559442453086376, -0.3338257372379303, -0.029073787853121758, -0.09288084506988525, -0.016376888379454613, 1.021437406539917, -0.10164504498243332, -0.24567794799804688, 1.475830078125, 1.635498046875, 0.5028533935546875, 1.48974609375
51149, 0.005733465310186148, -0.0012898395070806146, -0.013087937608361244, -3.4211392630822957e-05, 4.561750392895192e-05, 0.06407728791236877, -4.7462861402891576e-05, -3.1475663035962498e-06, 0.16920624673366547, -0.8177470564842224, -1.0335593223571777, 0.052099764347076416, -0.20389816882666692, 0.249129893755196, 3.2754993413629236, 9362.0, 30146.0, 35388.0, 9362.0, 8.152067184448242, 0.22879934310913086, -0.08215883374214172, 0.143779918551445, -0.09146682173013687, -0.013811357319355011, 1.0230458974838257, -0.10164504498243332, -0.24567794799804688, 1.475830078125, 1.635498046875, 0.5028533935546875, 1.48974609375
51159, 0.006817057263106108, -0.0009506894857622683, -0.011251556687057018, -3.465782356215641e-05, 4.552916288957931e-05, 0.06578096002340317, -4.190146137261763e-05, -1.4489580280496739e-05, 0.17152874171733856, -0.8177958726882935, -1.0335637331008911, 0.05206755921244621, -0.19670520626318908, 0.2526367167938304, 3.26425097952865, 9362.0, 30146.0, 35388.0, 9362.0, 8.152067184448242, -0.043410252779722214, -0.07056999951601028, -0.1050940677523613, -0.09160763025283813, -0.014969727955758572, 1.023193597793579, -0.10164504498243332, -0.24567794799804688, 1.475830078125, 1.635498046875, 0.5028533935546875, 1.48974609375
51169, 0.00691074226051569, 9.510737436357886e-05, -0.012020965106785297, -3.506555367494002e-05, 4.533405081019737e-05, 0.0675075426697731, -3.9657566958339885e-05, -2.4575334464316256e-05, 0.17378787696361542, -0.8177552223205566, -1.0335183143615723, 0.0519753098487854, -0.16004152763358265, 0.2959303479038624, 3.2488782513315355, 9362.0, 30146.0, 35388.0, 9362.0, 8.152067184448242, 0.06345769017934799, 0.15269188582897186, 0.08412773907184601, -0.09379257261753082, -0.013932415284216404, 1.0227328538894653, -0.10164504498243332, -0.24567794799804688, 1.475830078125, 1.635498046875, 0.5028533935546875, 1.48974609375
51179, 0.007296385709196329, 0.0004307384660933167, -0.011992242187261581, -3.545381696312688e-05, 4.502860247157514e-05, 0.06925663352012634, -3.803597792284563e-05, -3.651813312899321e-05, 0.17603090405464172, -0.8177493214607239, -1.0335148572921753, 0.05197237804532051, -0.16280385248643925, 0.29575284388144496, 3.251269283258637, 9362.0, 30146.0, 35388.0, 9362.0, 8.152067184448242, 0.18796272575855255, 0.6703305840492249, 0.2033064365386963, -0.09379257261753082, -0.013932415284216404, 1.0227328538894653, -0.10164504498243332, -0.24567794799804688, 1.475830078125, 1.529296875, 0.2564849853515625, 1.48974609375
51189, 0.008086835965514183, -0.0034141067881137133, -0.011203057132661343, -3.583502257242799e-05, 4.460289710550569e-05, 0.07102824747562408, -3.8218331610551104e-05, -4.863839421886951e-05, 0.1782926321029663, -0.8177956938743591, -1.033549189567566, 0.05206025019288063, -0.19059938353641157, 0.24823185493815458, 3.2676387515487195, 9362.0, 30146.0, 35388.0, 9362.0, 8.152067184448242, 0.09410406649112701, -0.2037331461906433, -0.009406832978129387, -0.09251659363508224, -0.012674468569457531, 1.0233855247497559, -0.10164504498243332, -0.24567794799804688, 1.475830078125, 1.529296875, 0.2564849853515625, 1.49267578125
51209, 0.008550699800252914, -0.000783795490860939, -0.012551728636026382, -3.622099393396638e-05, 4.405258732731454e-05, 0.07282266020774841, -3.882177043124102e-05, -6.145509541966021e-05, 0.1805896759033203, -0.817753255367279, -1.0335086584091187, 0.05197921022772789, -0.16404532777950281, 0.29781996409701605, 3.250702239709766, 9362.0, 30146.0, 35388.0, 9362.0, 8.152067184448242, -0.04421652853488922, -0.09083099663257599, 0.06279995292425156, -0.0951760858297348, -0.01280332449823618, 1.0237993001937866, -0.11021655797958374, -0.28151702880859375, 1.472900390625, 1.529296875, 0.2564849853515625, 1.4912109375
51219, 0.008145683445036411, -0.0008189885411411524, -0.011225679889321327, -3.6897177778882906e-05, 4.253039514878765e-05, 0.07648033648729324, -3.0665603844681755e-05, -9.166945528704673e-05, 0.18521268665790558, -0.8177552223205566, -1.0335137844085693, 0.051972806453704834, -0.16298143279386512, 0.30071658215356933, 3.2522723265369438, 9362.0, 30146.0, 35388.0, 9362.0, 8.152067184448242, 0.1558160036802292, -0.04214702546596527, 0.1687757521867752, -0.0951760858297348, -0.01280332449823618, 1.0237993001937866, -0.11021655797958374, -0.28151702880859375, 1.472900390625, 1.529296875, 0.2564849853515625, 1.4912109375
51229, 0.008758044801652431, -0.0031311344355344772, -0.00914355181157589, -3.7196983612375334e-05, 4.153876943746582e-05, 0.07834403961896896, -2.92934291792335e-05, -0.0001066392069333233, 0.18752877414226532, -0.8177802562713623, -1.0335681438446045, 0.05206804722547531, -0.19722437056342457, 0.2558501811622307, 3.259698631425593, 9362.0, 30146.0, 35388.0, 9362.0, 8.152067184448242, 0.214265376329422, -0.10561855137348175, 0.15640921890735626, -0.09411713480949402, -0.014642726629972458, 1.0213696956634521, -0.11021655797958374, -0.28151702880859375, 1.472900390625, 1.617919921875, 0.4600677490234375, 1.4912109375
51239, 0.009676153771579266, -0.003531926777213812, -0.008270922116935253, -3.748276867554523e-05, 4.040113708470017e-05, 0.08022990822792053, -2.7778049116022885e-05, -0.00012090970267308876, 0.18964475393295288, -0.8177521228790283, -1.0335136651992798, 0.05199095606803894, -0.16564348712163562, 0.2974337468712349, 3.2447001151688557, 9362.0, 30146.0, 35388.0, 9362.0, 8.152067184448242, 0.09888432174921036, -0.2164146453142166, -0.28622153401374817, -0.09602613002061844, -0.01384243555366993, 1.0232515335083008, -0.11021655797958374, -0.28151702880859375, 1.472900390625, 1.5791015625, 0.368133544921875, 1.4912109375
51249, 0.010778737254440784, -0.001426514470949769, -0.010057524777948856, -3.7733141653006896e-05, 3.9115337131079286e-05, 0.08213761448860168, -2.2280517441686243e-05, -0.00013628584565594792, 0.1918962448835373, -0.8177430629730225, -1.0335149765014648, 0.05198747292160988, -0.16390786631178098, 0.3026441344909472, 3.251536657641061, 9362.0, 30146.0, 35388.0, 9362.0, 8.152067184448242, -0.23742333054542542, -0.16049672663211823, -0.015158837661147118, -0.09539531916379929, -0.015131514519453049, 1.0232144594192505, -0.11021655797958374, -0.28151702880859375, 1.472900390625, 1.576171875, 0.361328125, 1.490478515625
51259, 0.010091323405504227, 0.0009669631253927946, -0.010520887561142445, -3.792501229327172e-05, 3.7667694414267316e-05, 0.08406807482242584, -1.617875022930093e-05, -0.00015328686276916414, 0.19419680535793304, -0.8177897930145264, -1.0335766077041626, 0.05207453668117523, -0.19970409108214, 0.25677939211928447, 3.2657642119034715, 9362.0, 30146.0, 35388.0, 9362.0, 8.152067184448242, 0.05908438190817833, 0.04307708889245987, -0.05282655358314514, -0.09360171109437943, -0.014001403003931046, 1.0235074758529663, -0.11021655797958374, -0.28151702880859375, 1.472900390625, 1.552001953125, 0.3063201904296875, 1.490478515625
51269, 0.010667205788195133, 0.001199657446704805, -0.011193860322237015, -3.807431858149357e-05, 3.604038283810951e-05, 0.0860215499997139, -1.3778439097222872e-05, -0.00017214770196005702, 0.19649840891361237, -0.8177460432052612, -1.033522605895996, 0.05199000611901283, -0.16941626797636497, 0.2959714589410396, 3.252975440458575, 9362.0, 30146.0, 35388.0, 9362.0, 8.152067184448242, -0.21248134970664978, 0.39029166102409363, 0.37366318702697754, -0.09437135607004166, -0.01345141138881445, 1.02457857131958, -0.11021655797958374, -0.28151702880859375, 1.472900390625, 1.54541015625, 0.291656494140625, 1.4912109375
51279, 0.009527758695185184, -0.000494285486638546, -0.009414046071469784, -3.822060170932673e-05, 3.423038651817478e-05, 0.08799862116575241, -1.5488107237615623e-05, -0.00018987554358318448, 0.19891683757305145, -0.8177515864372253, -1.0335127115249634, 0.0519728884100914, -0.16596097059410722, 0.29735945864928226, 3.2489385177389756, 9362.0, 30146.0, 35388.0, 9362.0, 8.152067184448242, -0.08124563843011856, -0.4009402096271515, -0.05010797083377838, -0.09482836723327637, -0.014426243491470814, 1.0233495235443115, -0.11021655797958374, -0.28151702880859375, 1.472900390625, 1.64208984375, 0.519073486328125, 1.4912109375
51289, 0.009625129401683807, 0.0022301161661744118, -0.01012897677719593, -3.8386013329727575e-05, 3.2238174753729254e-05, 0.08999927341938019, -1.7525448129163124e-05, -0.00020852142188232392, 0.20121416449546814, -0.8177521228790283, -1.033522129058838, 0.05197601765394211, -0.16504421391571847, 0.301117328647166, 3.246989985837888, 9362.0, 30146.0, 35388.0, 9362.0, 8.152067184448242, -0.30886635184288025, -0.3788294792175293, -0.10341496765613556, -0.09330593049526215, -0.014417882077395916, 1.0227607488632202, -0.11021655797958374, -0.28151702880859375, 1.472900390625, 1.5556640625, 0.3145904541015625, 1.489013671875
51299, 0.008952224627137184, 0.0037519067991524935, -0.010657203383743763, -3.85569546779152e-05, 3.0069528293097392e-05, 0.09202263504266739, -1.6769239664427005e-05, -0.00022521177015732974, 0.20345906913280487, -0.8177495002746582, -1.0335078239440918, 0.052001576870679855, -0.1622955796515476, 0.2928349476933363, 3.2517844408918894, 9362.0, 30146.0, 35388.0, 9362.0, 8.132232666015625, -0.07787539809942245, -0.13435479998588562, -0.14103025197982788, -0.09333348274230957, -0.015019191429018974, 1.022469401359558, -0.11021655797958374, -0.28151702880859375, 1.472900390625, 1.61865234375, 0.461822509765625, 1.489013671875
51309, 0.009174016304314137, 0.003305672900751233, -0.011248759925365448, -3.874417961924337e-05, 2.7733169190469198e-05, 0.09406821429729462, -2.0734525605803356e-05, -0.00024203438078984618, 0.20565740764141083, -0.817749559879303, -1.0335135459899902, 0.05197568237781525, -0.1618033511721141, 0.2961515329650126, 3.251703954264524, 9362.0, 30146.0, 35388.0, 9362.0, 8.132232666015625, 0.11753254383802414, -0.06994155049324036, -0.2295704036951065, -0.09207456558942795, -0.015451519750058651, 1.0234375, -0.08523619920015335, 0.014162063598632812, 1.4970703125, 1.58056640625, 0.3715972900390625, 1.49267578125
51319, 0.009808013215661049, 0.004276461899280548, -0.011710730381309986, -3.898440263583325e-05, 2.5234417989850044e-05, 0.09613615274429321, -2.7292659069644287e-05, -0.00025772463413886726, 0.2079302966594696, -0.817755401134491, -1.0335545539855957, 0.052105166018009186, -0.20005701524268116, 0.2377227866806777, 3.283756882247413, 9362.0, 30146.0, 35388.0, 9362.0, 8.132232666015625, 0.14577478170394897, -0.10511670261621475, -0.3679804503917694, -0.09270071238279343, -0.014827067963778973, 1.0222219228744507, -0.08523619920015335, 0.014162063598632812, 1.4970703125, 1.590087890625, 0.3937835693359375, 1.49267578125
51329, 0.010151452384889126, 0.004661446902900934, -0.013158750720322132, -3.928628939320333e-05, 2.2576850824407302e-05, 0.0982266291975975, -3.3122549211839214e-05, -0.0002738134644459933, 0.21016564965248108, -0.8177708387374878, -1.0335153341293335, 0.05198962986469269, -0.16655677500786104, 0.29152572064987226, 3.236868443751517, 9362.0, 30146.0, 35388.0, 9362.0, 8.132232666015625, 0.04538508877158165, -0.19224166870117188, -0.026836279779672623, -0.09398093074560165, -0.01462925598025322, 1.0233650207519531, -0.08523619920015335, 0.014162063598632812, 1.4970703125, 1.6083984375, 0.437225341796875, 1.49267578125
51339, 0.009824401699006557, 0.005582983139902353, -0.014207296073436737, -3.965498399338685e-05, 1.975282975763548e-05, 0.10033956170082092, -4.063193409820087e-05, -0.0002910041657742113, 0.21242085099220276, -0.8177399039268494, -1.0334995985031128, 0.051950499415397644, -0.1613839862975714, 0.3097957962506257, 3.2523489972612545, 9362.0, 30146.0, 35388.0, 9362.0, 8.132232666015625, 0.2568489611148834, 0.1817067414522171, -0.099708691239357, -0.09288877248764038, -0.015287395566701889, 1.0231256484985352, -0.08523619920015335, 0.014162063598632812, 1.4970703125, 1.610595703125, 0.442352294921875, 1.49267578125
51349, 0.010041261091828346, 0.005411282181739807, -0.015669070184230804, -4.010215343441814e-05, 1.6753881936892867e-05, 0.1024751141667366, -4.8838515795068815e-05, -0.0003087721997871995, 0.21468974649906158, -0.8177444934844971, -1.0335052013397217, 0.05197341367602348, -0.16604582777185256, 0.3014687722639735, 3.247315377286404, 9362.0, 30146.0, 35388.0, 9362.0, 8.132232666015625, 0.1462218463420868, 0.10677390545606613, -0.3837921619415283, -0.09254781901836395, -0.01690823771059513, 1.0231114625930786, -0.08523619920015335, 0.014162063598632812, 1.4970703125, 1.55419921875, 0.311279296875, 1.490478515625
51359, 0.010331986472010612, 0.005288385786116123, -0.018235204741358757, -4.010215343441814e-05, 1.6753881936892867e-05, 0.1024751141667366, -4.8838515795068815e-05, -0.0003087721997871995, 0.21468974649906158, -0.8177515864372253, -1.0335098505020142, 0.05198052525520325, -0.1687638723347619, 0.2951200240578373, 3.2481741917699645, 9362.0, 30146.0, 35388.0, 9362.0, 8.132232666015625, 0.007898272946476936, -0.22069451212882996, -0.19155095517635345, -0.09254781901836395, -0.01690823771059513, 1.0231114625930786, -0.08523619920015335, 0.014162063598632812, 1.4970703125, 1.55419921875, 0.311279296875, 1.490478515625
51379, 0.00951055996119976, 0.00860985741019249, -0.022506946697831154, -4.010215343441814e-05, 1.6753881936892867e-05, 0.1024751141667366, -4.8838515795068815e-05, -0.0003087721997871995, 0.21468974649906158, -0.8177406191825867, -1.0335090160369873, 0.05198938399553299, -0.16477170093430632, 0.3055180378808302, 3.253228847165668, 9362.0, 30146.0, 35388.0, 9362.0, 8.132232666015625, 0.12297230958938599, 0.30532145500183105, 0.08584173023700714, -0.09330961108207703, -0.015948032960295677, 1.0239672660827637, -0.08523619920015335, 0.014162063598632812, 1.4970703125, 1.55419921875, 0.311279296875, 1.490478515625
51399, 0.011737077496945858, 0.00436477130278945, -0.022511770948767662, -4.382049883133732e-05, -8.606612027506344e-07, 0.11349501460790634, -0.00010552820458542556, -0.0003950387181248516, 0.2261473536491394, -0.8177530169487, -1.0335030555725098, 0.05197901278734207, -0.16258331389779263, 0.29520120630689917, 3.252615994860172, 9362.0, 30146.0, 35388.0, 9362.0, 8.132232666015625, 0.06168891116976738, 0.10282167047262192, 0.1616203933954239, -0.09407107532024384, -0.014879857189953327, 1.0235854387283325, -0.08523619920015335, 0.014162063598632812, 1.4970703125, 1.5849609375, 0.381805419921875, 1.490478515625
