timeTick, roll, pitch, yaw, stateX, stateY, stateZ, stateVX, stateVY, stateVZ, otX0, otY0, otZ0, otRoll0, otPitch0, otYaw0, left wing, pitch motor, yaw motor, right wing, voltage, roll rate, pitch rate, yaw rate, A_x, A_y, A_z, current, i_raw, v_raw, airflow_voltage, airflow_speed, pot_Pitch
48087, -0.0009407084435224533, 0.0016697593964636326, 0.0016670315526425838, 0, 0, 0, 0, 0, 0, -0.8380883932113647, -0.899840772151947, 0.05654509738087654, -2.366801249605403, 1.1978718496128522, 177.15617023317907, 0, 0, 0, 0, 0, 0, 0, 0, 0, 0, 0, 0, 0, 0, 0, 0, 0
48097, -0.001112100319005549, 0.002431896748021245, 0.0012260546209290624, 0.0, 0.0, -8.528615580871701e-06, 4.9710351390785945e-08, -2.800384280021717e-08, -0.0017057195072993636, -0.8380963206291199, -0.8998395204544067, 0.05654827505350113, -2.3754899768398783, 1.1985386670840796, 177.15733114618055, 9362.0, 30146.0, 35388.0, 9362.0, 0, 0.0414443239569664, 0.06827033311128616, -0.05159365385770798, -0.08566957712173462, -0.01868749037384987, 0.9823664426803589, 0, 0, 0, 0, 0, 0
48107, -0.0009633363224565983, 0.003249820787459612, 0.0011067508021369576, -1.6445733663772444e-08, 9.264544686971021e-09, -3.77283722627908e-05, -3.0145945402182406e-06, 1.7068155102606397e-06, -0.003602921962738037, -0.8380922079086304, -0.8998507857322693, 0.05656269192695618, -2.371180643621256, 1.199411505331426, 177.15764290162522, 9362.0, 30146.0, 35388.0, 9362.0, 0, 0.013924933969974518, -0.19854266941547394, -0.2006806582212448, -0.08469242602586746, -0.018212594091892242, 0.984908938407898, 0, 0, 0, 1.53662109375, 0.27239990234375, 0
48117, -0.001415829872712493, 0.0027217292226850986, 0.0009834796655923128, -6.704277666358394e-08, 3.5684390553569756e-08, -8.24328453745693e-05, -7.080049272190081e-06, 3.581666305763065e-06, -0.0053375777788460255, -0.8380972743034363, -0.8998500108718872, 0.05656397342681885, -2.3760902588524715, 1.190447824760298, 177.1637458771311, 9362.0, 30146.0, 35388.0, 9362.0, 0, 0.08658512681722641, 0.34707018733024597, -0.023387674242258072, -0.08517570048570633, -0.018060436472296715, 0.9841476678848267, 0, 0, 0, 1.481689453125, 0.1600799560546875, 1.491943359375
48127, -0.0017594908131286502, -6.630146526731551e-05, 6.76230265526101e-05, -1.6524319335076143e-07, 7.96225521071392e-08, -0.00014323985669761896, -1.257372150575975e-05, 5.1942429308837745e-06, -0.006823429837822914, -0.8380902409553528, -0.8998427987098694, 0.056574251502752304, -2.3583507790386333, 1.1952786377425184, 177.15565991196254, 9362.0, 30146.0, 35388.0, 9362.0, 0, 0.08269762247800827, -0.09422439336776733, -0.10960539430379868, -0.08553724735975266, -0.019522778689861298, 0.9832891225814819, 0, 0, 0, 1.478759765625, 0.1546478271484375, 1.491943359375
48137, -0.0006666573463007808, 0.001702458830550313, -0.001005824189633131, -3.139107320748735e-07, 1.4349271282299014e-07, -0.00021926741464994848, -1.7235568520845845e-05, 7.570512934762519e-06, -0.008381683379411697, -0.8380964398384094, -0.8998684287071228, 0.05655749887228012, -2.377501154562391, 1.1974929463470971, 177.14666001328047, 9362.0, 30146.0, 35388.0, 9362.0, 0, 0.30941569805145264, 0.24525529146194458, -0.09987235814332962, -0.08544451743364334, -0.018882429227232933, 0.9832483530044556, 0, 0, 0, 1.512451171875, 0.2209625244140625, 1.48974609375
48147, 0.0013336214469745755, -0.0010558987269178033, -0.0015941988676786423, -4.857082558373804e-07, 2.34010514077454e-07, -0.00031122672953642905, -1.7073627532226965e-05, 1.0564095646259375e-05, -0.010009785182774067, -0.838087260723114, -0.8998485207557678, 0.056560590863227844, -2.3750073660962587, 1.2037397790348336, 177.15571074324626, 9362.0, 30146.0, 35388.0, 9362.0, 0, 0.30024412274360657, -0.09078692644834518, 0.006861414294689894, -0.08516337722539902, -0.015360393561422825, 0.9829925298690796, 0, 0, 0, 1.505859375, 0.2073974609375, 1.48974609375
48157, 0.0026726890355348587, 0.0011581451399251819, -0.0021332104224711657, -6.707742841172148e-07, 3.452630892297748e-07, -0.0004195573565084487, -2.001880966417957e-05, 1.1743907634809148e-05, -0.011655937880277634, -0.8380908370018005, -0.8998483419418335, 0.05653255805373192, -2.3685814514937227, 1.1966056082029013, 177.15598562515663, 9362.0, 30146.0, 35388.0, 9362.0, 0, 0.12259747087955475, 0.0893687754869461, 0.10128571838140488, -0.08223828673362732, -0.017082028090953827, 0.9843098521232605, 0, 0, 0, 1.50146484375, 0.1985626220703125, 1.49267578125
48167, 0.0037871303502470255, 0.00046091273543424904, -0.0007228039321489632, -8.62076831253944e-07, 4.5147893956709595e-07, -0.0005444486159831285, -1.8177357560489327e-05, 9.538172889733687e-06, -0.013321910053491592, -0.8380889296531677, -0.8998479247093201, 0.056557491421699524, -2.3739800330850636, 1.2061818846988785, 177.15274927530356, 9362.0, 30146.0, 35388.0, 9362.0, 0, -0.15258385241031647, -0.23303742706775665, 0.002421571174636483, -0.0829453244805336, -0.017936747521162033, 0.9841653108596802, 0, 0, 0, 1.5205078125, 0.237762451171875, 1.49267578125
48177, 0.002791584702208638, 0.0013469875557348132, -0.0010995912598446012, -1.0536102763580857e-06, 5.243398391030496e-07, -0.0006853691302239895, -2.014795427385252e-05, 5.063901426183293e-06, -0.014861787669360638, -0.8381072282791138, -0.899833619594574, 0.05655232444405556, -2.3686061771479854, 1.200910727936673, 177.16225645486267, 9362.0, 30146.0, 35388.0, 9362.0, 0, 0.22094380855560303, 0.06182672828435898, -0.07210704684257507, -0.08439217507839203, -0.019530240446329117, 0.9845229983329773, 0, 0, 0, 1.490478515625, 0.1768646240234375, 1.4912109375
48187, 0.005104271229356527, -0.000282364635495469, -0.0004042640211991966, -1.2589741800184129e-06, 5.430658802652033e-07, -0.0008416727068834007, -2.0901114112348296e-05, -1.3453812925945385e-06, -0.016398536041378975, -0.8380848169326782, -0.8998460173606873, 0.056565605103969574, -2.381056882114315, 1.1933171693358986, 177.15950489625442, 9362.0, 30146.0, 35388.0, 9362.0, 8.152067184448242, 0.12214483320713043, 0.22052565217018127, -0.012157585471868515, -0.08718299120664597, -0.020615430548787117, 0.9831959009170532, -0.08284454792737961, -0.18295860290527344, 1.48095703125, 1.428955078125, 0.073577880859375, 1.4912109375
48197, 0.005938311107456684, -0.0013911896385252476, -0.0002280208864249289, -1.4793394029766205e-06, 5.060822445557278e-07, -0.0010132163297384977, -2.3214843167806976e-05, -5.990388672216795e-06, -0.017909804359078407, -0.8380979299545288, -0.8998529314994812, 0.05653953552246094, -2.368068827182164, 1.1857062758951997, 177.15503474493016, 9362.0, 30146.0, 35388.0, 9362.0, 8.152067184448242, 0.019298134371638298, -0.2684824764728546, 0.021993838250637054, -0.0845421627163887, -0.01922096498310566, 0.9829839468002319, -0.08284454792737961, -0.18295860290527344, 1.48095703125, 1.481689453125, 0.1600799560546875, 1.494873046875
48207, 0.006659486796706915, -0.0008481281693093479, 0.0014372660079970956, -1.7091109612010769e-06, 4.0320739458366006e-07, -0.0012004626914858818, -2.2770971554564312e-05, -1.4560870113200508e-05, -0.019539060071110725, -0.838100016117096, -0.8998538851737976, 0.0565197616815567, -2.3639443626718815, 1.1802549412481937, 177.15239999493895, 9362.0, 30146.0, 35388.0, 9362.0, 8.152067184448242, 0.06430042535066605, -0.04316791892051697, -0.1803659200668335, -0.08311250805854797, -0.017413636669516563, 0.9844560027122498, -0.08284454792737961, -0.18295860290527344, 1.48095703125, 1.516845703125, 0.23004150390625, 1.494873046875
48217, 0.0076087461784482, -0.0009595969459041953, 0.0021509286016225815, -1.9251151570642833e-06, 2.0763252450706204e-07, -0.0014042551629245281, -2.0413644961081445e-05, -2.4532899260520935e-05, -0.021219052374362946, -0.8380919098854065, -0.8998567461967468, 0.05654209852218628, -2.3638056978264563, 1.2065939826745762, 177.15069143298055, 9362.0, 30146.0, 35388.0, 9362.0, 8.152067184448242, -0.016978971660137177, -0.3157322406768799, -0.2876979410648346, -0.08502667397260666, -0.018596919253468513, 0.9830541014671326, -0.08284454792737961, -0.18295860290527344, 1.48095703125, 1.45458984375, 0.11224365234375, 1.4912109375
48227, 0.00792599469423294, 0.0013270835625007749, 0.00034418972791172564, -2.1221048882580362e-06, -9.380056553709437e-08, -0.001624245080165565, -1.898720620374661e-05, -3.5727873182622716e-05, -0.02277854084968567, -0.8381047248840332, -0.8998492956161499, 0.05654650181531906, -2.3612265537250274, 1.1915692544972103, 177.15527121806934, 9362.0, 30146.0, 35388.0, 9362.0, 8.152067184448242, -0.03611670434474945, -0.0009915395639836788, 0.07307706773281097, -0.0855274647474289, -0.017886823043227196, 0.9826143980026245, -0.08284454792737961, -0.18295860290527344, 1.48095703125, 1.535888671875, 0.2707366943359375, 1.4912109375
48237, 0.007571748923510313, 0.0018189882393926382, 0.0005673456471413374, -2.303896735611488e-06, -5.151284767634934e-07, -0.001860221615061164, -1.730623080220539e-05, -4.852868732996285e-05, -0.024416383355855942, -0.8380849361419678, -0.8998481631278992, 0.05659513920545578, -2.371440812006696, 1.2044883924432668, 177.16087907042433, 9362.0, 30146.0, 35388.0, 9362.0, 8.152067184448242, 0.10734646022319794, -0.003709268756210804, -0.09549332410097122, -0.08424956351518631, -0.019554540514945984, 0.9830724000930786, -0.08284454792737961, -0.18295860290527344, 1.48095703125, 1.509521484375, 0.2148895263671875, 1.487548828125
48247, 0.008325076662003994, 0.0006610596319660544, 0.0016705667367205024, -2.488123300281586e-06, -1.0670953543012729e-06, -0.0021128656808286905, -1.9524457457009703e-05, -6.187520921230316e-05, -0.026112034916877747, -0.8380882740020752, -0.8998407125473022, 0.05651775747537613, -2.3628477797895187, 1.1984639770981858, 177.15883199906463, 9362.0, 30146.0, 35388.0, 9362.0, 8.152067184448242, 0.048395976424217224, -0.17993810772895813, 0.2416357547044754, -0.08336152881383896, -0.018989844247698784, 0.9834913611412048, -0.08284454792737961, -0.18295860290527344, 1.48095703125, 1.528564453125, 0.2548828125, 1.487548828125
48257, 0.007980776950716972, 0.00259353406727314, 0.004145188257098198, -2.698677462831256e-06, -1.7495781321485993e-06, -0.0023822332732379436, -2.2619451556238346e-05, -7.459973858203739e-05, -0.02776109054684639, -0.8380888104438782, -0.8998485803604126, 0.05656975507736206, -2.378786533947563, 1.1975705227071387, 177.15652305603064, 9362.0, 30146.0, 35388.0, 9362.0, 8.152067184448242, -0.012307638302445412, -0.3988942801952362, 0.017301926389336586, -0.08423849940299988, -0.01941966824233532, 0.9837697744369507, -0.08284454792737961, -0.18295860290527344, 1.48095703125, 1.5087890625, 0.21337890625, 1.491943359375
48267, 0.008350476622581482, 0.0055011240765452385, 0.0051947482861578465, -2.9304342206160072e-06, -2.565650902397465e-06, -0.0026680640876293182, -2.367590604990255e-05, -8.862477261573076e-05, -0.029404692351818085, -0.8380942344665527, -0.899854302406311, 0.05656290054321289, -2.3628141497616477, 1.2002977481006099, 177.1525391735195, 9362.0, 30146.0, 35388.0, 9362.0, 8.152067184448242, 0.13432486355304718, -0.14767113327980042, -0.20637598633766174, -0.08627255260944366, -0.016469484195113182, 0.9835150241851807, -0.08284454792737961, -0.18295860290527344, 1.48095703125, 1.39453125, 0.035003662109375, 1.491943359375
48277, 0.009494194760918617, 0.006029156036674976, 0.004393534269183874, -3.1890240279608406e-06, -3.51909193341271e-06, -0.002970226341858506, -2.7959482395090163e-05, -0.00010205306170973927, -0.031027361750602722, -0.8380928039550781, -0.8998454213142395, 0.056556303054094315, -2.366406359681806, 1.1846751967910905, 177.15348349339817, 9362.0, 30146.0, 35388.0, 9362.0, 8.152067184448242, 0.019142240285873413, -0.17482368648052216, 0.14806772768497467, -0.08647125959396362, -0.01609538309276104, 0.9827367663383484, -0.08284454792737961, -0.18295860290527344, 1.48095703125, 1.540283203125, 0.280364990234375, 1.491943359375
48287, 0.010017868131399155, 0.0065894233994185925, 0.005563848186284304, -3.514919171720976e-06, -4.609918505593669e-06, -0.003288703504949808, -3.720464155776426e-05, -0.00011607933265622705, -0.03266768530011177, -0.8380860686302185, -0.8998424410820007, 0.056551601737737656, -2.35964398538697, 1.1983247604104008, 177.15121172534282, 9362.0, 30146.0, 35388.0, 9362.0, 8.152067184448242, 0.11873170733451843, -0.09638573974370956, 0.011294622905552387, -0.08426113426685333, -0.017269475385546684, 0.9839249849319458, -0.09554708749055862, -0.15607833862304688, 1.483154296875, 1.50439453125, 0.2044219970703125, 1.491943359375
48297, 0.010401967912912369, 0.006974205840379, 0.0059197405353188515, -3.937692781619262e-06, -5.85060615776456e-06, -0.0036237549502402544, -4.733342211693525e-05, -0.0001320431474596262, -0.03434223309159279, -0.8380874395370483, -0.8998419642448425, 0.05653142184019089, -2.366538693352595, 1.1898457568686354, 177.15613414048738, 9362.0, 30146.0, 35388.0, 9362.0, 8.152067184448242, 0.18604432046413422, -0.3381492793560028, 0.5010454058647156, -0.08176543563604355, -0.016838032752275467, 0.9835523962974548, -0.09554708749055862, -0.15607833862304688, 1.483154296875, 1.505126953125, 0.205902099609375, 1.4912109375
48307, 0.010962769389152527, 0.006789627019315958, 0.009190790355205536, -4.466496193344938e-06, -7.255384844029322e-06, -0.003975295461714268, -5.841628080816008e-05, -0.0001489018031861633, -0.035965438932180405, -0.838088870048523, -0.8998417258262634, 0.056564245373010635, -2.371724094660384, 1.2070393412197404, 177.1598222471022, 9362.0, 30146.0, 35388.0, 9362.0, 8.152067184448242, -0.0048081460408866405, -0.40558451414108276, -0.21484024822711945, -0.08440104871988297, -0.01687631383538246, 0.9836585521697998, -0.09554708749055862, -0.15607833862304688, 1.483154296875, 1.510986328125, 0.217864990234375, 1.4912109375
48317, 0.01141158677637577, 0.008749720640480518, 0.008277815766632557, -5.109379344503395e-06, -8.832003004499711e-06, -0.004342967178672552, -7.016448944341391e-05, -0.00016640684043522924, -0.03756849467754364, -0.8380658626556396, -0.8998499512672424, 0.05657193809747696, -2.3670196278835514, 1.204943487597717, 177.154624985889, 9362.0, 30146.0, 35388.0, 9362.0, 8.152067184448242, -0.0449337400496006, 0.013558718375861645, 0.250167578458786, -0.08589383959770203, -0.02158484421670437, 0.9837653040885925, -0.09554708749055862, -0.15607833862304688, 1.483154296875, 1.45458984375, 0.11224365234375, 1.494873046875
48327, 0.011462409980595112, 0.00833035260438919, 0.010259786620736122, -5.868201242265059e-06, -1.0588423720037099e-05, -0.004726527724415064, -8.154633542289957e-05, -0.00018486485350877047, -0.03914323076605797, -0.838076651096344, -0.8998522162437439, 0.05654344707727432, -2.360884801965069, 1.1870937812586249, 177.15667878325638, 9362.0, 30146.0, 35388.0, 9362.0, 8.152067184448242, -0.09260465949773788, -0.4210885465145111, 0.26289093494415283, -0.08658801019191742, -0.021132705733180046, 0.9822410941123962, -0.09554708749055862, -0.15607833862304688, 1.483154296875, 1.5322265625, 0.2628021240234375, 1.494873046875
48337, 0.011129285208880901, 0.011221550405025482, 0.012102182023227215, -6.757361916243099e-06, -1.2533218978205696e-05, -0.005125777795910835, -9.629657870391384e-05, -0.00020409324497450143, -0.040706388652324677, -0.8380855917930603, -0.8998375535011292, 0.05651972442865372, -2.3562420361915732, 1.1950861036082472, 177.15360309656555, 9362.0, 30146.0, 35388.0, 9362.0, 8.152067184448242, -0.10845110565423965, -0.0806998759508133, -0.01300843246281147, -0.08455359935760498, -0.01786465011537075, 0.9820545315742493, -0.09554708749055862, -0.15607833862304688, 1.483154296875, 1.472900390625, 0.1439361572265625, 1.490478515625
48347, 0.011080784723162651, 0.012560862116515636, 0.012769388034939766, -7.7903705459903e-06, -1.4670565178676043e-05, -0.0055414726957678795, -0.00011021747923223302, -0.00022338647977449, -0.042432233691215515, -0.8380753993988037, -0.8998479843139648, 0.05658712983131409, -2.3675771813786888, 1.1898119048424576, 177.155127197288, 9362.0, 30146.0, 35388.0, 9362.0, 8.152067184448242, -0.14903543889522552, -0.0809759721159935, 0.06724477559328079, -0.08528422564268112, -0.017835643142461777, 0.9837894439697266, -0.09554708749055862, -0.15607833862304688, 1.483154296875, 1.483154296875, 0.162841796875, 1.490478515625
48357, 0.01100277341902256, 0.01379817072302103, 0.013689622282981873, -8.986873581307009e-06, -1.6998023056657985e-05, -0.005974565166980028, -0.00012904203322250396, -0.00024210668925661594, -0.04418587684631348, -0.8380901217460632, -0.8998410701751709, 0.056557923555374146, -2.366542377677859, 1.197908294749567, 177.15937608010304, 9362.0, 30146.0, 35388.0, 9362.0, 8.152067184448242, 0.1528923511505127, -0.29743197560310364, -0.0442340113222599, -0.08427796512842178, -0.018878042697906494, 0.9843558073043823, -0.09554708749055862, -0.15607833862304688, 1.483154296875, 1.4765625, 0.1505584716796875, 1.49267578125
48367, 0.01242108829319477, 0.013586055487394333, 0.013886308297514915, -1.0383038897998631e-05, -1.951241574715823e-05, -0.006424477323889732, -0.00015015604731161147, -0.00026077457005158067, -0.04579617455601692, -0.8380867838859558, -0.8998321294784546, 0.05658123642206192, -2.361925892700611, 1.1975442817899022, 177.16093252275422, 9362.0, 30146.0, 35388.0, 9362.0, 8.152067184448242, 0.03667530417442322, 0.243352472782135, 0.12027660757303238, -0.08716990053653717, -0.02044430561363697, 0.9825037717819214, -0.09554708749055862, -0.15607833862304688, 1.483154296875, 1.516845703125, 0.23004150390625, 1.49267578125
48377, 0.01228147279471159, 0.01355798076838255, 0.014210167340934277, -1.2000861715932842e-05, -2.221291470050346e-05, -0.006890078540891409, -0.00017341409693472087, -0.00027928760391660035, -0.04732368141412735, -0.8380789756774902, -0.8998450636863708, 0.05658399686217308, -2.3665098116314063, 1.1912558465967606, 177.15337195708645, 9362.0, 30146.0, 35388.0, 9362.0, 8.152067184448242, 0.12344944477081299, 0.10533472150564194, 0.04893456771969795, -0.08667279779911041, -0.018323255702853203, 0.9839045405387878, -0.09554708749055862, -0.15607833862304688, 1.483154296875, 1.505126953125, 0.205902099609375, 1.493408203125
48387, 0.012986860238015652, 0.01578935980796814, 0.0143807427957654, -1.3849274182575755e-05, -2.511031379981432e-05, -0.007371800020337105, -0.00019626901485025883, -0.00030019652331247926, -0.04902026429772377, -0.8380895853042603, -0.8998305797576904, 0.056575872004032135, -2.3604141666330922, 1.1973220445796642, 177.1546127603524, 9362.0, 30146.0, 35388.0, 9362.0, 8.152067184448242, -0.037459492683410645, 0.020329032093286514, -0.0064862994477152824, -0.08647843450307846, -0.017687754705548286, 0.9842645525932312, -0.06799818575382233, -0.2904777526855469, 1.47216796875, 1.446533203125, 0.09930419921875, 1.493408203125
48397, 0.012261467054486275, 0.017086628824472427, 0.014194818213582039, -1.5926108972053044e-05, -2.8215727070346475e-05, -0.007870021276175976, -0.00021903554443269968, -0.0003208667039871216, -0.050623584538698196, -0.8380870819091797, -0.8998397588729858, 0.05655810609459877, -2.3620880556603185, 1.1933034107366893, 177.15724247779028, 9362.0, 30146.0, 35388.0, 9362.0, 8.152067184448242, 0.0857241153717041, 0.04929910972714424, 0.19240005314350128, -0.08512941002845764, -0.01972956396639347, 0.9844912886619568, -0.06799818575382233, -0.2904777526855469, 1.47216796875, 1.496337890625, 0.1883087158203125, 1.49267578125
48407, 0.013454267755150795, 0.017119932919740677, 0.01445161271840334, -1.824949140427634e-05, -3.1533865694655105e-05, -0.008383934386074543, -0.000245606352109462, -0.0003427803749218583, -0.052158668637275696, -0.8380826711654663, -0.8998398780822754, 0.056569699198007584, -2.3630554563432944, 1.1970545129858579, 177.15998129860435, 9362.0, 30146.0, 35388.0, 9362.0, 8.152067184448242, -0.14162802696228027, -0.1981818526983261, 0.04480563476681709, -0.08457287400960922, -0.019592396914958954, 0.9834386706352234, -0.06799818575382233, -0.2904777526855469, 1.47216796875, 1.5087890625, 0.21337890625, 1.49267578125
48417, 0.012695929035544395, 0.018540315330028534, 0.014638860709965229, -2.0849536667810753e-05, -3.506504435790703e-05, -0.008913126774132252, -0.00027440188569016755, -0.00036342418752610683, -0.05367939919233322, -0.8380842208862305, -0.899835467338562, 0.056587494909763336, -2.3659317436643414, 1.2005556689466346, 177.15873360144064, 9362.0, 30146.0, 35388.0, 9362.0, 8.152067184448242, -0.16147378087043762, -0.08263205736875534, -0.0544314868748188, -0.08611364662647247, -0.01845497265458107, 0.9851539731025696, -0.06799818575382233, -0.2904777526855469, 1.47216796875, 1.497802734375, 0.19122314453125, 1.49267578125
48427, 0.011431989260017872, 0.01936117745935917, 0.01550139021128416, -2.3737722585792653e-05, -3.881264274241403e-05, -0.009457836858928204, -0.00030319608049467206, -0.00038611667696386576, -0.055262163281440735, -0.8380782008171082, -0.8998568058013916, 0.056561682373285294, -2.3720648599003016, 1.193045676518068, 177.15544275974796, 9362.0, 30146.0, 35388.0, 9362.0, 8.152067184448242, 0.14178912341594696, -0.14465844631195068, 0.27778831124305725, -0.08660751581192017, -0.01777215115725994, 0.984276533126831, -0.06799818575382233, -0.2904777526855469, 1.47216796875, 1.527099609375, 0.2517852783203125, 1.49267578125
48437, 0.011612972244620323, 0.021213753148913383, 0.016840817406773567, -2.692594352993183e-05, -4.278086998965591e-05, -0.010017979890108109, -0.0003344261785969138, -0.0004075625038240105, -0.05676615610718727, -0.8380796313285828, -0.8998475074768066, 0.056573040783405304, -2.3649669435928327, 1.2039549978997002, 177.15982045518615, 9362.0, 30146.0, 35388.0, 9362.0, 8.152067184448242, 0.21646112203598022, -0.20397008955478668, -0.26766207814216614, -0.08567886054515839, -0.019025199115276337, 0.9809468984603882, -0.06799818575382233, -0.2904777526855469, 1.47216796875, 1.513916015625, 0.224029541015625, 1.48974609375
48447, 0.012348144315183163, 0.024090800434350967, 0.01640903949737549, -3.0433322535827756e-05, -4.695286770584062e-05, -0.0105933528393507, -0.0003669991856440902, -0.0004268330230843276, -0.05830802395939827, -0.8380797505378723, -0.8998433351516724, 0.05657927319407463, -2.3700945023522886, 1.2097172650969412, 177.16563164902826, 9362.0, 30146.0, 35388.0, 9362.0, 8.152067184448242, 0.06613125652074814, -0.02177288383245468, 0.13597890734672546, -0.08303295075893402, -0.019723497331142426, 0.982079803943634, -0.06799818575382233, -0.2904777526855469, 1.47216796875, 1.517578125, 0.231689453125, 1.48974609375
48457, 0.012395218014717102, 0.024823298677802086, 0.01778155192732811, -3.4281521948287264e-05, -5.131882062414661e-05, -0.011185536161065102, -0.00040254980558529496, -0.00044633421930484474, -0.06012819707393646, -0.838085949420929, -0.8998430967330933, 0.05656971409916878, -2.3687519422935095, 1.203741771628728, 177.1469411575079, 9362.0, 30146.0, 35388.0, 9362.0, 8.152067184448242, 0.2631285786628723, -0.554996132850647, -0.42306819558143616, -0.0852205827832222, -0.01982126571238041, 0.9831370115280151, -0.06799818575382233, -0.2904777526855469, 1.47216796875, 1.50146484375, 0.1985626220703125, 1.493408203125
48467, 0.014111156575381756, 0.029552970081567764, 0.015571540221571922, -3.85094499506522e-05, -5.588599378825165e-05, -0.011795801110565662, -0.0004430125991348177, -0.00046710026799701154, -0.06192442774772644, -0.8380753397941589, -0.8998348116874695, 0.05658677592873573, -2.3743034285290996, 1.1954325687788412, 177.15573552634876, 9362.0, 30146.0, 35388.0, 9362.0, 8.152067184448242, 0.2873176038265228, -0.048942748457193375, -0.19090232253074646, -0.0869596004486084, -0.021034404635429382, 0.9830933213233948, -0.06799818575382233, -0.2904777526855469, 1.47216796875, 1.46630859375, 0.132171630859375, 1.493408203125
48477, 0.015686513856053352, 0.029330193996429443, 0.014839907176792622, -4.314849866204895e-05, -6.066139758331701e-05, -0.012423249892890453, -0.0004846625088248402, -0.0004879301122855395, -0.06356501579284668, -0.8380922675132751, -0.8998420834541321, 0.05655118077993393, -2.348414032213097, 1.1932649960727986, 177.15870309222532, 9362.0, 30146.0, 35388.0, 9362.0, 8.152067184448242, 0.1035093367099762, -0.25187283754348755, 0.11810112744569778, -0.08810308575630188, -0.01922169327735901, 0.9846532344818115, -0.06799818575382233, -0.2904777526855469, 1.47216796875, 1.508056640625, 0.211883544921875, 1.493408203125
48487, 0.01598329283297062, 0.03225291520357132, 0.01506296917796135, -4.82438481412828e-05, -6.565954390680417e-05, -0.013067128136754036, -0.0005344137316569686, -0.0005116531974636018, -0.06521019339561462, -0.8380758762359619, -0.8998390436172485, 0.056552987545728683, -2.358285650944425, 1.1896690577272864, 177.154906302336, 9362.0, 30146.0, 35388.0, 9362.0, 8.152067184448242, -0.1710241287946701, -0.1486334353685379, 0.15359865128993988, -0.08687082678079605, -0.018677007406949997, 0.98473060131073, -0.06569014489650726, -0.04855918884277344, 1.491943359375, 1.487548828125, 0.1712188720703125, 1.493408203125
48497, 0.015591868199408054, 0.03218329697847366, 0.015946194529533386, -5.383515963330865e-05, -7.090835424605757e-05, -0.01372681837528944, -0.0005837708595208824, -0.0005381007213145494, -0.06672748178243637, -0.8380720615386963, -0.8998465538024902, 0.05658307299017906, -2.3599252706464116, 1.2028677770379943, 177.15670555817886, 9362.0, 30146.0, 35388.0, 9362.0, 8.152067184448242, 0.029198188334703445, -0.25231659412384033, 0.02858605794608593, -0.08723221719264984, -0.01991470344364643, 0.9824000000953674, -0.06569014489650726, -0.04855918884277344, 1.491943359375, 1.5029296875, 0.201446533203125, 1.491943359375
48507, 0.015937061980366707, 0.03379096835851669, 0.014913523569703102, -5.9944763052044436e-05, -7.64241922297515e-05, -0.01440152246505022, -0.0006381512503139675, -0.0005650775856338441, -0.06821297109127045, -0.8380895256996155, -0.8998351097106934, 0.05657872185111046, -2.3646524343206536, 1.1988087388209578, 177.15559972947935, 9362.0, 30146.0, 35388.0, 9362.0, 8.152067184448242, 0.14612525701522827, -0.3233255445957184, -0.0393020361661911, -0.08724632114171982, -0.017529884353280067, 0.9814695715904236, -0.06569014489650726, -0.04855918884277344, 1.491943359375, 1.4794921875, 0.155975341796875, 1.491943359375
48517, 0.016950994729995728, 0.03541877120733261, 0.014571655541658401, -6.659701466560364e-05, -8.220622839871794e-05, -0.015092090703547001, -0.0006922524771653116, -0.0005913181230425835, -0.06990037113428116, -0.8380720019340515, -0.8998450636863708, 0.056592583656311035, -2.372341098894768, 1.1993833697409002, 177.15925591846735, 9362.0, 30146.0, 35388.0, 9362.0, 8.152067184448242, 0.20120494067668915, -0.203733429312706, -0.11304181069135666, -0.0840865820646286, -0.019421324133872986, 0.9837443828582764, -0.06569014489650726, -0.04855918884277344, 1.491943359375, 1.43994140625, 0.089324951171875, 1.48974609375
48527, 0.01755600981414318, 0.03600064292550087, 0.014886532910168171, -7.380349416052923e-05, -8.825342229101807e-05, -0.015800058841705322, -0.0007489932468160987, -0.0006180891068652272, -0.07169274240732193, -0.8380706310272217, -0.8998528122901917, 0.0565611757338047, -2.368423074764776, 1.1892267534822736, 177.15640560525554, 9362.0, 30146.0, 35388.0, 9362.0, 8.152067184448242, -0.04880794882774353, 0.07822196930646896, 0.258061021566391, -0.0847797840833664, -0.020214932039380074, 0.9824473857879639, -0.06569014489650726, -0.04855918884277344, 1.491943359375, 1.531494140625, 0.26129150390625, 1.48974609375
48537, 0.0169961079955101, 0.036006152629852295, 0.01570817455649376, -8.159163553500548e-05, -9.457712440053001e-05, -0.01652502454817295, -0.0008086188463494182, -0.0006466350168921053, -0.07329988479614258, -0.8380743265151978, -0.8998591303825378, 0.05658283084630966, -2.361041600883697, 1.186906751474936, 177.1538085010872, 9362.0, 30146.0, 35388.0, 9362.0, 8.152067184448242, -0.15416589379310608, -0.27421900629997253, 0.029247669503092766, -0.08549840748310089, -0.016760077327489853, 0.9845144152641296, -0.06569014489650726, -0.04855918884277344, 1.491943359375, 1.458251953125, 0.1184234619140625, 1.4912109375
48547, 0.017200633883476257, 0.03817470371723175, 0.014731986448168755, -8.99806764209643e-05, -0.00010119126091012731, -0.01726646162569523, -0.0008691895054653287, -0.0006762098637409508, -0.07498704642057419, -0.838067352771759, -0.8998337388038635, 0.05659380927681923, -2.368737638193975, 1.2015669965821019, 177.1635578459252, 9362.0, 30146.0, 35388.0, 9362.0, 8.152067184448242, 0.15294626355171204, 0.11901932954788208, -0.22264964878559113, -0.08523724973201752, -0.017649546265602112, 0.983432948589325, -0.06569014489650726, -0.04855918884277344, 1.491943359375, 1.484619140625, 0.1656646728515625, 1.4912109375
48567, 0.0198048185557127, 0.039638906717300415, 0.012642108835279942, -0.00010859515168704093, -0.00011529009498190135, -0.01879771053791046, -0.000994064030237496, -0.0007338047144003212, -0.07817540317773819, -0.8380906581878662, -0.8998433351516724, 0.056618381291627884, -2.365998180300455, 1.1974654391886475, 177.16366206653723, 9362.0, 30146.0, 35388.0, 9362.0, 8.152067184448242, -0.12860409915447235, 0.02581501007080078, -0.13880883157253265, -0.08600492030382156, -0.017471468076109886, 0.9843336939811707, -0.06569014489650726, -0.04855918884277344, 1.491943359375, 1.490478515625, 0.1768646240234375, 1.49267578125
48617, 0.020180875435471535, 0.05142427980899811, 0.009329521097242832, -0.00012977154983673245, -0.0001305936457356438, -0.020392607897520065, -0.0011248859809711576, -0.0007979048532433808, -0.081287682056427, -0.8380680680274963, -0.8998432755470276, 0.056603603065013885, -2.3683900479420723, 1.1866256351690367, 177.1534721963689, 9362.0, 30146.0, 35388.0, 9362.0, 8.152067184448242, 0.07849334180355072, 0.10367673635482788, 0.3269047141075134, -0.08553500473499298, -0.020355964079499245, 0.9837934970855713, -0.06569014489650726, -0.04855918884277344, 1.491943359375, 1.490478515625, 0.1768646240234375, 1.493408203125
48627, 0.020741013810038567, 0.05062258243560791, 0.010773633606731892, -0.00018068760982714593, -0.00016516416508238763, -0.023759663105010986, -0.0014336243038997054, -0.0009315516799688339, -0.08720632642507553, -0.8380759954452515, -0.8998390436172485, 0.05662160739302635, -2.3766412091436027, 1.2058592492228684, 177.1582366218578, 9362.0, 30146.0, 35388.0, 9362.0, 8.152067184448242, 0.12013131380081177, -0.177596777677536, -0.31949684023857117, -0.08677129447460175, -0.01945989578962326, 0.9859784841537476, -0.06569014489650726, -0.04855918884277344, 1.491943359375, 1.490478515625, 0.1768646240234375, 1.493408203125
48637, 0.02171732671558857, 0.05188162997364998, 0.0076367962174117565, -0.00019545701798051596, -0.0001746497437125072, -0.02463958039879799, -0.0015202773502096534, -0.0009655526373535395, -0.08877655863761902, -0.8380498290061951, -0.8998481035232544, 0.0566546805202961, -2.372406449852787, 1.2023184483082616, 177.16326128819546, 9362.0, 30146.0, 35388.0, 9362.0, 8.152067184448242, -0.10174967348575592, 0.18299821019172668, 0.1289137601852417, -0.08473524451255798, -0.018137196078896523, 0.9842525124549866, -0.06569014489650726, -0.04855918884277344, 1.491943359375, 1.490478515625, 0.1768646240234375, 1.48974609375
48647, 0.021771658211946487, 0.05166133865714073, 0.0077712656930089, -0.00021108689543325454, -0.00018448034825269133, -0.025534402579069138, -0.001605669385753572, -0.001000541029497981, -0.09018754959106445, -0.8380802273750305, -0.899856686592102, 0.05659009888768196, -2.3648685810314305, 1.1841923218231614, 177.16710874418607, 9362.0, 30146.0, 35388.0, 9362.0, 8.152067184448242, -0.0992574468255043, 0.4010557532310486, -0.043684814125299454, -0.08384785056114197, -0.01816859096288681, 0.9830002784729004, -0.06569014489650726, -0.04855918884277344, 1.491943359375, 1.490478515625, 0.1768646240234375, 1.48974609375
48657, 0.021796364337205887, 0.049559157341718674, 0.007585983723402023, -0.00022758086561225355, -0.00019466887169983238, -0.026443839073181152, -0.0016931311693042517, -0.0010371619137004018, -0.09169944375753403, -0.8380599617958069, -0.8998293876647949, 0.05659060925245285, -2.362774139782392, 1.202537265902663, 177.15047949443314, 9362.0, 30146.0, 35388.0, 9362.0, 8.152067184448242, 0.2469760775566101, 0.22658300399780273, 0.04964178055524826, -0.08322557806968689, -0.01865268126130104, 0.9843665361404419, -0.06569014489650726, -0.04855918884277344, 1.491943359375, 1.527099609375, 0.2517852783203125, 1.496337890625
48667, 0.022342510521411896, 0.047910790890455246, 0.008772462606430054, -0.00022758086561225355, -0.00019466887169983238, -0.026443839073181152, -0.0016931311693042517, -0.0010371619137004018, -0.09169944375753403, -0.8380653858184814, -0.8998473286628723, 0.056608375161886215, -2.373493215064239, 1.193974147688806, 177.1533139325761, 9362.0, 30146.0, 35388.0, 9362.0, 8.152067184448242, 0.05348606035113335, 0.18719743192195892, -0.0050850179977715015, -0.08290793001651764, -0.01916714943945408, 0.9847525954246521, -0.06569014489650726, -0.04855918884277344, 1.491943359375, 1.527099609375, 0.2517852783203125, 1.496337890625
48677, 0.02246677875518799, 0.046442676335573196, 0.009107301943004131, -0.00022758086561225355, -0.00019466887169983238, -0.026443839073181152, -0.0016931311693042517, -0.0010371619137004018, -0.09169944375753403, -0.8380610346794128, -0.8998424410820007, 0.05663347244262695, -2.379127696271716, 1.2017383544966265, 177.16421477831582, 9362.0, 30146.0, 35388.0, 9362.0, 8.152067184448242, 0.13325802981853485, -0.15728230774402618, 0.02385837770998478, -0.08608150482177734, -0.017924636602401733, 0.983829140663147, -0.06569014489650726, -0.04855918884277344, 1.491943359375, 1.527099609375, 0.2517852783203125, 1.4912109375
48697, 0.02406289428472519, 0.046740684658288956, 0.010488735511898994, -0.00022758086561225355, -0.00019466887169983238, -0.026443839073181152, -0.0016931311693042517, -0.0010371619137004018, -0.09169944375753403, -0.8380665183067322, -0.8998419046401978, 0.0566214993596077, -2.373776333900266, 1.193287606456579, 177.16357059858805, 9362.0, 30146.0, 35388.0, 9362.0, 8.152067184448242, 0.14756666123867035, -0.08364426344633102, -0.06432463228702545, -0.08539927005767822, -0.0191475972533226, 0.9838660359382629, -0.08566914498806, -0.07543754577636719, 1.48974609375, 1.527099609375, 0.2517852783203125, 1.494873046875
48717, 0.02609357051551342, 0.04985279589891434, 0.011791408061981201, -0.00022758086561225355, -0.00019466887169983238, -0.026443839073181152, -0.0016931311693042517, -0.0010371619137004018, -0.09169944375753403, -0.8380818367004395, -0.8998417258262634, 0.05658387765288353, -2.3597872233207755, 1.1959449240713127, 177.15794261504502, 9362.0, 30146.0, 35388.0, 9362.0, 8.152067184448242, 0.053370725363492966, -0.13183097541332245, -0.12983687222003937, -0.08542854338884354, -0.01857631653547287, 0.982833206653595, -0.08566914498806, -0.07543754577636719, 1.48974609375, 1.527099609375, 0.2517852783203125, 1.491943359375
48737, 0.027124742045998573, 0.05108097940683365, 0.011335045099258423, -0.0003892948152497411, -0.00028975470922887325, -0.03429130092263222, -0.0023427424021065235, -0.0013510064454749227, -0.10459639132022858, -0.8380580544471741, -0.8998430967330933, 0.05662350356578827, -2.3665781474221985, 1.19400835838303, 177.16376117078934, 9362.0, 30146.0, 35388.0, 9362.0, 8.152067184448242, 0.0493818037211895, -0.38728538155555725, -0.03917529061436653, -0.08584638684988022, -0.01709258370101452, 0.9837202429771423, -0.08566914498806, -0.07543754577636719, 1.48974609375, 1.527099609375, 0.2517852783203125, 1.491943359375
48747, 0.027750562876462936, 0.05235622078180313, 0.01251617819070816, -0.0003892948152497411, -0.00028975470922887325, -0.03429130092263222, -0.0023427424021065235, -0.0013510064454749227, -0.10459639132022858, -0.8380680084228516, -0.8998452425003052, 0.05664042755961418, -2.373279299218219, 1.2029048153813449, 177.16188502224801, 9362.0, 30146.0, 35388.0, 9362.0, 8.152067184448242, 0.0493818037211895, -0.38728538155555725, -0.03917529061436653, -0.08438102155923843, -0.01885577104985714, 0.9822138547897339, -0.08566914498806, -0.07543754577636719, 1.48974609375, 1.527099609375, 0.2517852783203125, 1.491943359375
48767, 0.027076587080955505, 0.05651022866368294, 0.014300507493317127, -0.0003892948152497411, -0.00028975470922887325, -0.03429130092263222, -0.0023427424021065235, -0.0013510064454749227, -0.10459639132022858, -0.8380601406097412, -0.8998446464538574, 0.056609589606523514, -2.3694565598030968, 1.1878429135287831, 177.1631450887441, 9362.0, 30146.0, 35388.0, 9362.0, 8.152067184448242, -0.03348296508193016, -0.10501322150230408, -0.09646029770374298, -0.08555012196302414, -0.017810186371207237, 0.9830138683319092, -0.08566914498806, -0.07543754577636719, 1.48974609375, 1.527099609375, 0.2517852783203125, 1.491943359375
48797, 0.025425253435969353, 0.059648193418979645, 0.014670868404209614, -0.0005173173267394304, -0.0003630001738201827, -0.0397336520254612, -0.002787947654724121, -0.0015798421809449792, -0.11310955882072449, -0.8380711078643799, -0.8998526930809021, 0.05659788101911545, -2.371294606364949, 1.2027368306180506, 177.16026092699988, 9362.0, 30146.0, 35388.0, 9362.0, 8.152067184448242, 0.13109132647514343, -0.21751897037029266, 0.06003676727414131, -0.08476667106151581, -0.016867298632860184, 0.9848606586456299, -0.09286172688007355, 0.05000114440917969, 1.5, 1.527099609375, 0.2517852783203125, 1.49267578125
48847, 0.028711466118693352, 0.06485051661729813, 0.01169593259692192, -0.0006689386209473014, -0.0004474833549465984, -0.04558607190847397, -0.00329141435213387, -0.0017979333642870188, -0.12119369208812714, -0.8380807042121887, -0.8998223543167114, 0.05661462992429733, -2.3596030472307596, 1.1878800374555851, 177.16435119299274, 9362.0, 30146.0, 35388.0, 9362.0, 8.152067184448242, 0.12659984827041626, -0.026071319356560707, 0.2265533208847046, -0.08631947636604309, -0.017403099685907364, 0.9849430918693542, -0.09286172688007355, 0.05000114440917969, 1.5, 1.527099609375, 0.2517852783203125, 1.49267578125
48857, 0.029010990634560585, 0.06574063748121262, 0.013359487056732178, -0.0006689386209473014, -0.0004474833549465984, -0.04558607190847397, -0.00329141435213387, -0.0017979333642870188, -0.12119369208812714, -0.8380523324012756, -0.8998652696609497, 0.05664776265621185, -2.3792646720049135, 1.20003619908141, 177.1510262061596, 9362.0, 30146.0, 35388.0, 9362.0, 8.152067184448242, 0.0945739895105362, 0.36008933186531067, -0.014578314498066902, -0.08553290367126465, -0.01923278532922268, 0.9837487936019897, -0.09286172688007355, 0.05000114440917969, 1.5, 1.527099609375, 0.2517852783203125, 1.49267578125
48867, 0.029060352593660355, 0.0635063424706459, 0.014162490144371986, -0.0007725412142463028, -0.0005034832865931094, -0.04929649457335472, -0.0036174010019749403, -0.001937392633408308, -0.12606897950172424, -0.8380739688873291, -0.8998488783836365, 0.056621253490448, -2.372660499697467, 1.1987163718051193, 177.1657510309364, 9362.0, 30146.0, 35388.0, 9362.0, 8.152067184448242, 0.03707069531083107, 0.08202579617500305, 0.09776055812835693, -0.08602380752563477, -0.019400544464588165, 0.982808530330658, -0.09286172688007355, 0.05000114440917969, 1.5, 1.436279296875, 0.0838775634765625, 1.49267578125
48877, 0.0302603580057621, 0.061561018228530884, 0.015449688769876957, -0.0008092689677141607, -0.0005231017130427063, -0.05056501552462578, -0.0037282125558704138, -0.001986297545954585, -0.12763454020023346, -0.838054895401001, -0.8998360633850098, 0.056640129536390305, -2.3759354085528583, 1.2058803905247544, 177.1638845045621, 9362.0, 30146.0, 35388.0, 9362.0, 8.152067184448242, -0.05017415061593056, 0.0266673993319273, -0.11697270721197128, -0.08689060807228088, -0.01915832608938217, 0.9836633801460266, -0.09286172688007355, 0.05000114440917969, 1.5, 1.5, 0.19561767578125, 1.491943359375
48907, 0.03146237134933472, 0.06066915765404701, 0.012807916849851608, -0.0009258530335500836, -0.000584942230489105, -0.054467182606458664, -0.0040406156331300735, -0.002138931769877672, -0.13245722651481628, -0.8380674123764038, -0.8998316526412964, 0.056651316583156586, -2.3669990840195028, 1.194176825630592, 177.1617597927907, 9362.0, 30146.0, 35388.0, 9362.0, 8.152067184448242, -0.2129581868648529, -0.1843399554491043, -0.20272089540958405, -0.0863797515630722, -0.019723542034626007, 0.9851149320602417, -0.0886082872748375, -0.2546367645263672, 1.47509765625, 1.51171875, 0.21942138671875, 1.491943359375
48917, 0.030864622443914413, 0.061725616455078125, 0.011875634081661701, -0.0009258530335500836, -0.000584942230489105, -0.054467182606458664, -0.0040406156331300735, -0.002138931769877672, -0.13245722651481628, -0.8380764126777649, -0.8998366594314575, 0.056616850197315216, -2.364071871303484, 1.1965606286233594, 177.15933929338618, 9362.0, 30146.0, 35388.0, 9362.0, 8.152067184448242, 0.13753902912139893, -0.09976452589035034, -0.059032704681158066, -0.08355922996997833, -0.020462946966290474, 0.9833478331565857, -0.0886082872748375, -0.2546367645263672, 1.47509765625, 1.51171875, 0.21942138671875, 1.49560546875
48937, 0.03176385536789894, 0.06289643049240112, 0.011461795307695866, -0.0009258530335500836, -0.000584942230489105, -0.054467182606458664, -0.0040406156331300735, -0.002138931769877672, -0.13245722651481628, -0.8380671143531799, -0.8998605608940125, 0.05661436915397644, -2.367482894973463, 1.1851511860536732, 177.15717755763131, 9362.0, 30146.0, 35388.0, 9362.0, 8.152067184448242, 0.1616533249616623, 0.10843317210674286, 0.1399627923965454, -0.08267486840486526, -0.016612783074378967, 0.9845475554466248, -0.0886082872748375, -0.2546367645263672, 1.47509765625, 1.51171875, 0.21942138671875, 1.494873046875
48947, 0.03330084681510925, 0.0630073994398117, 0.011616590432822704, -0.0009258530335500836, -0.000584942230489105, -0.054467182606458664, -0.0040406156331300735, -0.002138931769877672, -0.13245722651481628, -0.8380752801895142, -0.8998273611068726, 0.056636206805706024, -2.3624214422674243, 1.1955364364172567, 177.16538972322195, 9362.0, 30146.0, 35388.0, 9362.0, 8.152067184448242, -0.0711745023727417, -0.09203312546014786, -0.10723711550235748, -0.08216778188943863, -0.01779482327401638, 0.983799159526825, -0.0886082872748375, -0.2546367645263672, 1.47509765625, 1.51171875, 0.21942138671875, 1.494873046875
48957, 0.03285897150635719, 0.06405019760131836, 0.011013194918632507, -0.0009258530335500836, -0.000584942230489105, -0.054467182606458664, -0.0040406156331300735, -0.002138931769877672, -0.13245722651481628, -0.8380697965621948, -0.8998385667800903, 0.05661171302199364, -2.371839361293798, 1.203893332179291, 177.15724528518055, 9362.0, 30146.0, 35388.0, 9362.0, 8.152067184448242, 0.07243320345878601, -0.08856566995382309, 0.09065355360507965, -0.08310084044933319, -0.01860094629228115, 0.9854998588562012, -0.0886082872748375, -0.2546367645263672, 1.47509765625, 1.51171875, 0.21942138671875, 1.493408203125
48967, 0.032141074538230896, 0.06511922180652618, 0.011707000434398651, -0.0009258530335500836, -0.000584942230489105, -0.054467182606458664, -0.0040406156331300735, -0.002138931769877672, -0.13245722651481628, -0.8380555510520935, -0.8998581767082214, 0.05660626292228699, -2.3729536312535546, 1.200903681437552, 177.1566354306905, 9362.0, 30146.0, 35388.0, 9362.0, 8.152067184448242, 0.14570388197898865, 0.006501344498246908, -0.14697426557540894, -0.08563324064016342, -0.019787972792983055, 0.9825308322906494, -0.0886082872748375, -0.2546367645263672, 1.47509765625, 1.51171875, 0.21942138671875, 1.493408203125
49007, 0.034631550312042236, 0.068797767162323, 0.01598196290433407, -0.0013824659399688244, -0.0008257810841314495, -0.068498894572258, -0.005108352284878492, -0.002681947313249111, -0.14840295910835266, -0.8380555510520935, -0.8998428583145142, 0.05662571266293526, -2.3677873593627075, 1.1968246074493436, 177.15435598247885, 9362.0, 30146.0, 35388.0, 9362.0, 8.152067184448242, -0.006181380245834589, -0.36228692531585693, -0.13041774928569794, -0.08512149006128311, -0.01888057217001915, 0.9831669330596924, -0.09754297137260437, -0.0037593841552734375, 1.49560546875, 1.51171875, 0.21942138671875, 1.493408203125
49017, 0.03459226340055466, 0.07041044533252716, 0.016274992376565933, -0.0013824659399688244, -0.0008257810841314495, -0.068498894572258, -0.005108352284878492, -0.002681947313249111, -0.14840295910835266, -0.8380607962608337, -0.8998523950576782, 0.05660523101687431, -2.366587594334237, 1.2038542416346445, 177.1576115423759, 9362.0, 30146.0, 35388.0, 9362.0, 8.152067184448242, 0.17163819074630737, 0.1154724508523941, 0.07182158529758453, -0.08591348677873611, -0.01831674762070179, 0.9830700755119324, -0.09754297137260437, -0.0037593841552734375, 1.49560546875, 1.51171875, 0.21942138671875, 1.491943359375
49037, 0.036341600120067596, 0.07184571027755737, 0.014051769860088825, -0.0013824659399688244, -0.0008257810841314495, -0.068498894572258, -0.005108352284878492, -0.002681947313249111, -0.14840295910835266, -0.8380612730979919, -0.8998330235481262, 0.056617047637701035, -2.361350387431812, 1.2009651898957827, 177.15712786555105, 9362.0, 30146.0, 35388.0, 9362.0, 8.152067184448242, 0.2735121250152588, 0.03350233659148216, -0.13292886316776276, -0.0870797261595726, -0.017855685204267502, 0.9839351773262024, -0.09754297137260437, -0.0037593841552734375, 1.49560546875, 1.51171875, 0.21942138671875, 1.494873046875
49057, 0.03506207838654518, 0.07671744376420975, 0.016483942046761513, -0.0016524373786523938, -0.0009671211591921747, -0.07612670958042145, -0.005694098304957151, -0.0029755793511867523, -0.15667343139648438, -0.8380674719810486, -0.8998345136642456, 0.05663134530186653, -2.3599582397954366, 1.1949718444267035, 177.1606955533912, 9362.0, 30146.0, 35388.0, 9362.0, 8.152067184448242, 0.19620029628276825, -0.31304803490638733, 0.014506299048662186, -0.08615580946207047, -0.019341010600328445, 0.9849939346313477, -0.09754297137260437, -0.0037593841552734375, 1.49560546875, 1.51171875, 0.21942138671875, 1.491943359375
49077, 0.0355846993625164, 0.08059237152338028, 0.018004266545176506, -0.0016524373786523938, -0.0009671211591921747, -0.07612670958042145, -0.005694098304957151, -0.0029755793511867523, -0.15667343139648438, -0.8380648493766785, -0.8998417258262634, 0.056603483855724335, -2.362672019382368, 1.192910857317088, 177.14938394561435, 9362.0, 30146.0, 35388.0, 9362.0, 8.152067184448242, -0.17183047533035278, -0.30082741379737854, 0.20465576648712158, -0.0860215499997139, -0.017578376457095146, 0.9851051568984985, -0.09754297137260437, -0.0037593841552734375, 1.49560546875, 1.51171875, 0.21942138671875, 1.491943359375
49097, 0.03631627559661865, 0.08411471545696259, 0.019163694232702255, -0.001890455954708159, -0.0010909931734204292, -0.08251190930604935, -0.006216768175363541, -0.003217157907783985, -0.16248910129070282, -0.8380607962608337, -0.8998362421989441, 0.05661751702427864, -2.356808963861012, 1.1971775900458965, 177.15398969890077, 9362.0, 30146.0, 35388.0, 9362.0, 8.152067184448242, 0.132398322224617, -0.1089673563838005, 0.20260950922966003, -0.08379384130239487, -0.022801686078310013, 0.9831368923187256, -0.0775320827960968, 0.03208160400390625, 1.49853515625, 1.51171875, 0.21942138671875, 1.494873046875
49107, 0.03722166270017624, 0.0866941288113594, 0.021001171320676804, -0.0019533131271600723, -0.0011234621051698923, -0.08414477854967117, -0.0063546146266162395, -0.003276610979810357, -0.1640838384628296, -0.8380654454231262, -0.8998182415962219, 0.05661175772547722, -2.36899781578829, 1.2016602305638173, 177.15982889080135, 9362.0, 30146.0, 35388.0, 9362.0, 8.152067184448242, -0.04102393984794617, -0.19394122064113617, -0.07327264547348022, -0.08378930389881134, -0.019105102866888046, 0.9822863936424255, -0.0775320827960968, 0.03208160400390625, 1.49853515625, 1.4619140625, 0.1246185302734375, 1.494873046875
49117, 0.037283219397068024, 0.08832953870296478, 0.0211104117333889, -0.002017567167058587, -0.001156534068286419, -0.08579391986131668, -0.006496097426861525, -0.0033377634827047586, -0.1657441109418869, -0.8380598425865173, -0.8998156189918518, 0.0566457100212574, -2.3657985168901474, 1.1979864268785718, 177.15790310297214, 9362.0, 30146.0, 35388.0, 9362.0, 8.152067184448242, 0.2450663149356842, -0.100950688123703, -0.0995640680193901, -0.08532485365867615, -0.016104135662317276, 0.9831040501594543, -0.0775320827960968, 0.03208160400390625, 1.49853515625, 1.446533203125, 0.09930419921875, 1.491943359375
49137, 0.04020499065518379, 0.0890418291091919, 0.019712617620825768, -0.0020832570735365152, -0.0011902250116690993, -0.08746001869440079, -0.006641840096563101, -0.003400420071557164, -0.16747534275054932, -0.8380641937255859, -0.8998149633407593, 0.05661403387784958, -2.342964787016843, 1.191289423791062, 177.16193596826898, 9362.0, 30146.0, 35388.0, 9362.0, 8.152067184448242, -0.06193717569112778, -0.4291542172431946, 0.031561918556690216, -0.08445688337087631, -0.017598869279026985, 0.9838981628417969, -0.0775320827960968, 0.03208160400390625, 1.49853515625, 1.446533203125, 0.09930419921875, 1.493408203125
49167, 0.040636658668518066, 0.08901158720254898, 0.018711933866143227, -0.0022892109118402004, -0.0012951305834576488, -0.0925600677728653, -0.0070892395451664925, -0.0035966148134320974, -0.1724540740251541, -0.8380536437034607, -0.8998076319694519, 0.056594640016555786, -2.341987484799979, 1.198013630890813, 177.1539881263236, 9362.0, 30146.0, 35388.0, 9362.0, 8.152067184448242, 0.06642626225948334, -0.1198706403374672, -0.2699272334575653, -0.08586367219686508, -0.02122965082526207, 0.9866753220558167, -0.0775320827960968, 0.03208160400390625, 1.49853515625, 1.446533203125, 0.09930419921875, 1.493408203125
49197, 0.04290393739938736, 0.09193645417690277, 0.017698805779218674, -0.0022892109118402004, -0.0012951305834576488, -0.0925600677728653, -0.0070892395451664925, -0.0035966148134320974, -0.1724540740251541, -0.8380482196807861, -0.8998215198516846, 0.05663919448852539, -2.3440445922334434, 1.195107066204855, 177.16222707401525, 9362.0, 30146.0, 35388.0, 9362.0, 8.152067184448242, -0.27196380496025085, -0.3382813632488251, -0.05027605593204498, -0.08584927022457123, -0.01724129170179367, 0.9823489785194397, -0.08682501316070557, -0.3352775573730469, 1.468505859375, 1.446533203125, 0.09930419921875, 1.493408203125
49207, 0.04273311048746109, 0.0935656949877739, 0.017515480518341064, -0.0026627788320183754, -0.0014834875473752618, -0.10137064009904861, -0.007849406450986862, -0.003940477501600981, -0.1798437088727951, -0.8380506038665771, -0.8998188376426697, 0.05661479011178017, -2.3345895817909432, 1.1913115086402684, 177.15263164373513, 9362.0, 30146.0, 35388.0, 9362.0, 8.152067184448242, -0.16637206077575684, 0.4582728445529938, 0.04705315828323364, -0.08729534596204758, -0.017880288884043694, 0.9826473593711853, -0.08682501316070557, -0.3352775573730469, 1.468505859375, 1.446533203125, 0.09930419921875, 1.493408203125
49237, 0.04218122735619545, 0.08979769796133041, 0.015985067933797836, -0.0029052544850856066, -0.001604940858669579, -0.1068422794342041, -0.008314695209264755, -0.004155395552515984, -0.18488985300064087, -0.8380411863327026, -0.8998157978057861, 0.056558072566986084, -2.3232089372982485, 1.1969352086705953, 177.15401557976918, 9362.0, 30146.0, 35388.0, 9362.0, 8.152067184448242, 0.24305462837219238, -0.09094981849193573, -0.0683542788028717, -0.08606573939323425, -0.016821708530187607, 0.9857630133628845, -0.08682501316070557, -0.3352775573730469, 1.468505859375, 1.446533203125, 0.09930419921875, 1.493408203125
49247, 0.04382641240954399, 0.09109165519475937, 0.015179133974015713, -0.0029052544850856066, -0.001604940858669579, -0.1068422794342041, -0.008314695209264755, -0.004155395552515984, -0.18488985300064087, -0.8380488753318787, -0.8998090028762817, 0.05661528930068016, -2.3492510126548667, 1.200018547576235, 177.15225583930868, 9362.0, 30146.0, 35388.0, 9362.0, 8.152067184448242, 0.14611439406871796, -0.11986018717288971, -0.05422142893075943, -0.08386801928281784, -0.016931824386119843, 0.9869951605796814, -0.08682501316070557, -0.3352775573730469, 1.468505859375, 1.446533203125, 0.09930419921875, 1.493408203125
49257, 0.04488692805171013, 0.09229575097560883, 0.014793770387768745, -0.003074615728110075, -0.0016894867876544595, -0.11057060211896896, -0.008620140142738819, -0.004298691172152758, -0.18788652122020721, -0.8380533456802368, -0.8998249769210815, 0.056610722094774246, -2.340222338238287, 1.1983571638565422, 177.1569894969646, 9362.0, 30146.0, 35388.0, 9362.0, 8.152067184448242, 0.16552266478538513, 0.48128068447113037, 0.3188432455062866, -0.08560211956501007, -0.019113877788186073, 0.9857696294784546, -0.08682501316070557, -0.3352775573730469, 1.468505859375, 1.446533203125, 0.09930419921875, 1.493408203125
49267, 0.046376146376132965, 0.08792255818843842, 0.017226506024599075, -0.0031615865882486105, -0.0017328441608697176, -0.11245593428611755, -0.008774002082645893, -0.004372755065560341, -0.18918000161647797, -0.8380434513092041, -0.8998170495033264, 0.056625429540872574, -2.346944456371235, 1.20410209143364, 177.15227138804173, 9362.0, 30146.0, 35388.0, 9362.0, 8.152067184448242, -0.04386517032980919, 0.09249801933765411, 0.050478506833314896, -0.08712873607873917, -0.017192848026752472, 0.9845019578933716, -0.08682501316070557, -0.3352775573730469, 1.468505859375, 1.446533203125, 0.09930419921875, 1.493408203125
49297, 0.048421476036310196, 0.08871054649353027, 0.01844959706068039, -0.0033401455730199814, -0.0018218273762613535, -0.11626768112182617, -0.009078126400709152, -0.0045267632231116295, -0.19205312430858612, -0.8380568623542786, -0.8998374342918396, 0.05660802870988846, -2.3600350201409124, 1.2067281039286684, 177.15835230933936, 9362.0, 30146.0, 35388.0, 9362.0, 8.152067184448242, 0.04068586975336075, -0.24209554493427277, -0.0690046027302742, -0.08409513533115387, -0.01692885346710682, 0.9839963316917419, -0.07330667972564697, -0.1650371551513672, 1.482421875, 1.446533203125, 0.09930419921875, 1.493408203125
49307, 0.04702628403902054, 0.08664117753505707, 0.022131234407424927, -0.0033401455730199814, -0.0018218273762613535, -0.11626768112182617, -0.009078126400709152, -0.0045267632231116295, -0.19205312430858612, -0.8380414843559265, -0.8998480439186096, 0.056571073830127716, -2.356134149630268, 1.2015116525261362, 177.14810261527498, 9362.0, 30146.0, 35388.0, 9362.0, 8.152067184448242, -0.041875068098306656, 0.1387171894311905, 0.14275626838207245, -0.08461571484804153, -0.017030220478773117, 0.9829258918762207, -0.07330667972564697, -0.1650371551513672, 1.482421875, 1.446533203125, 0.09930419921875, 1.493408203125
49317, 0.04635132476687431, 0.08444743603467941, 0.023943547159433365, -0.003619121154770255, -0.001961250090971589, -0.12209837883710861, -0.009521996602416039, -0.004769834689795971, -0.19659103453159332, -0.8380644917488098, -0.8998170495033264, 0.056594155728816986, -2.346868010519556, 1.1899690528102838, 177.1541721404804, 9362.0, 30146.0, 35388.0, 9362.0, 8.152067184448242, 0.04216230660676956, 0.03891830891370773, -0.20095670223236084, -0.08501089364290237, -0.018490483984351158, 0.9826703667640686, -0.07330667972564697, -0.1650371551513672, 1.482421875, 1.41943359375, 0.0612945556640625, 1.49267578125
49327, 0.04597432166337967, 0.08399224281311035, 0.022582845762372017, -0.0037150701973587275, -0.002009344520047307, -0.1240726187825203, -0.009667852893471718, -0.004849064163863659, -0.19825692474842072, -0.8380741477012634, -0.8998275995254517, 0.05660529434680939, -2.3543161346193355, 1.192758362928572, 177.16117262647026, 9362.0, 30146.0, 35388.0, 9362.0, 8.152067184448242, 0.19408346712589264, 0.32721492648124695, 0.2712291181087494, -0.08619411289691925, -0.019653981551527977, 0.9832214117050171, -0.07330667972564697, -0.1650371551513672, 1.482421875, 1.452392578125, 0.10870361328125, 1.49267578125
49337, 0.04835571348667145, 0.08089040964841843, 0.02466541901230812, -0.0038124588318169117, -0.002058225218206644, -0.1260637491941452, -0.009809899143874645, -0.004927107132971287, -0.1999695748090744, -0.8380539417266846, -0.899842381477356, 0.056618571281433105, -2.375958032319275, 1.2086552619529414, 177.1628412647039, 9362.0, 30146.0, 35388.0, 9362.0, 8.152067184448242, 0.013910730369389057, -0.3432672321796417, -0.10953021794557571, -0.08725868910551071, -0.02009204775094986, 0.9797086715698242, -0.07330667972564697, -0.1650371551513672, 1.482421875, 1.489013671875, 0.174041748046875, 1.49560546875
49347, 0.04918118566274643, 0.08274998515844345, 0.024716181680560112, -0.003911264706403017, -0.002107883570715785, -0.12807166576385498, -0.009951354004442692, -0.005004496313631535, -0.20161299407482147, -0.8380728363990784, -0.8998339176177979, 0.0565996915102005, -2.357736210220726, 1.1974634288035872, 177.16792726777237, 9362.0, 30146.0, 35388.0, 9362.0, 8.152067184448242, -0.14461903274059296, 0.47677797079086304, 0.23607602715492249, -0.08638409525156021, -0.017301246523857117, 0.9839455485343933, -0.07330667972564697, -0.1650371551513672, 1.482421875, 1.464111328125, 0.1283111572265625, 1.49560546875
49357, 0.04903308302164078, 0.08027157187461853, 0.029106760397553444, -0.004011457320302725, -0.0021583347115665674, -0.13009728491306305, -0.010087077505886555, -0.005085719749331474, -0.2035100758075714, -0.8380780816078186, -0.8998173475265503, 0.05660238862037659, -2.36227478820696, 1.1975307816149439, 177.1662340917422, 9362.0, 30146.0, 35388.0, 9362.0, 8.152067184448242, 0.06297659128904343, 0.3082193434238434, 0.6163802146911621, -0.08563719689846039, -0.01883639208972454, 0.9847304224967957, -0.07330667972564697, -0.1650371551513672, 1.482421875, 1.48828125, 0.172576904296875, 1.49560546875
49407, 0.038617104291915894, 0.0779571458697319, 0.04599188640713692, -0.0045327115803956985, -0.002422834513708949, -0.14047802984714508, -0.010753382928669453, -0.005486344452947378, -0.2119821161031723, -0.8380553722381592, -0.8998334407806396, 0.05660104751586914, -2.3543349904257735, 1.2050221928053304, 177.15718182572905, 9362.0, 30146.0, 35388.0, 9362.0, 8.152067184448242, -0.47158244252204895, 0.03894594684243202, -0.7164377570152283, -0.08411547541618347, -0.018277201801538467, 0.9867683053016663, -0.07383519411087036, -0.05751800537109375, 1.4912109375, 1.48828125, 0.172576904296875, 1.49560546875
49427, 0.033741578459739685, 0.07862307876348495, 0.042649444192647934, -0.004750416148453951, -0.002533931052312255, -0.1447477787733078, -0.01101691648364067, -0.005621315445750952, -0.21488381922245026, -0.8380492329597473, -0.8998266458511353, 0.056612346321344376, -2.3575717400158402, 1.2008483056739863, 177.15038877457047, 9362.0, 30146.0, 35388.0, 9362.0, 8.152067184448242, -0.05275490880012512, -0.04634406417608261, 0.5255622863769531, -0.08348154276609421, -0.01912323758006096, 0.9812197685241699, -0.07383519411087036, -0.05751800537109375, 1.4912109375, 1.48828125, 0.172576904296875, 1.49560546875
49437, 0.03234991058707237, 0.07971424609422684, 0.04640190303325653, -0.004861237946897745, -0.0025904385838657618, -0.1469043493270874, -0.011147434823215008, -0.005680210422724485, -0.21643072366714478, -0.8380522727966309, -0.8998309373855591, 0.05662865564227104, -2.355612042609394, 1.2000863408065072, 177.16216027638725, 9362.0, 30146.0, 35388.0, 9362.0, 8.152067184448242, -0.43617722392082214, 0.06633714586496353, 0.11585637927055359, -0.08489937335252762, -0.018797332420945168, 0.9829980134963989, -0.07383519411087036, -0.05751800537109375, 1.4912109375, 1.437744140625, 0.086029052734375, 1.487548828125
