timeTick, roll, pitch, yaw, stateX, stateY, stateZ, stateVX, stateVY, stateVZ, otX0, otY0, otZ0, otRoll0, otPitch0, otYaw0, left wing, pitch motor, yaw motor, right wing, voltage, roll rate, pitch rate, yaw rate, A_x, A_y, A_z, current, i_raw, v_raw, airflow_voltage, airflow_speed, pot_Pitch
53169, -5.771950721740723, 4.7842559814453125, 7.075320243835449, 0, 0, 0, 0, 0, 0, -0.8429241180419922, -0.9131991267204285, 0.0560043603181839, -1.9805082146989466, 0.8328776232954738, 175.37856748018456, 0, 0, 0, 0, 0, 0, 0, 0, 0, 0, 0, 0, 0, 0, 0, 0, 0
53179, -5.772444725036621, 4.782936096191406, 7.073662757873535, 0.0038234663661569357, -0.0036136554554104805, -38.44186782836914, 0.11358017474412918, -0.1073458343744278, -1.482277750968933, -0.8429343104362488, -0.9132084846496582, 0.055973149836063385, -1.9817490193986895, 0.8350767346216799, 175.3833682605538, 9362.0, 30146.0, 35388.0, 9362.0, 0, -0.045247871428728104, 0.06543336808681488, 0.0055907913483679295, -0.08176595717668533, -0.02676103450357914, 0.9973203539848328, 0, 0, 0, 0, 0, 0
53189, -5.772632598876953, 4.785406589508057, 7.073307991027832, 0.00491298409178853, -0.004643348045647144, -38.456695556640625, 0.10432358086109161, -0.09859242290258408, -1.4835007190704346, -0.8429487943649292, -0.9131951928138733, 0.05597468465566635, -1.976812271373764, 0.8334758988974613, 175.38480067063625, 9362.0, 30146.0, 35388.0, 9362.0, 0, -0.07909171283245087, -0.073563352227211, -0.14184749126434326, -0.08153139799833298, -0.0289835836738348, 0.9968757033348083, 0, 0, 0, 1.51171875, 0.21942138671875, 0
53199, -5.772945880889893, 4.7862935066223145, 7.07238245010376, 0.005909893661737442, -0.0055854483507573605, -38.471534729003906, 0.09505842626094818, -0.08982760459184647, -1.484610676765442, -0.8429327011108398, -0.9132013916969299, 0.056009408086538315, -1.9778915892061297, 0.830862390891582, 175.38110993851407, 9362.0, 30146.0, 35388.0, 9362.0, 0, -0.11165201663970947, 0.1534169614315033, -0.1582949459552765, -0.08172281086444855, -0.026523686945438385, 0.996213436126709, 0, 0, 0, 1.474365234375, 0.14654541015625, 1.491943359375
53209, -5.77327823638916, 4.7833757400512695, 7.071683883666992, 0.006814152002334595, -0.0064399209804832935, -38.486385345458984, 0.0857933983206749, -0.0810668021440506, -1.4857648611068726, -0.8430399894714355, -0.9130935668945312, 0.05595279857516289, -1.981905758854245, 0.8131757788816003, 175.38685091224028, 9362.0, 30146.0, 35388.0, 9362.0, 0, 0.017429426312446594, 0.49876290559768677, 0.15311186015605927, -0.08176511526107788, -0.026355965062975883, 0.9964576959609985, 0, 0, 0, 1.481689453125, 0.1600799560546875, 1.491943359375
53219, -5.7728962898254395, 4.779273986816406, 7.072214603424072, 0.007625774946063757, -0.007206804119050503, -38.50124740600586, 0.07653127610683441, -0.07230974733829498, -1.4869648218154907, -0.8429476022720337, -0.9131996631622314, 0.055992238223552704, -1.979947188671718, 0.8345410645946743, 175.381869516807, 9362.0, 30146.0, 35388.0, 9362.0, 0, 0.044698238372802734, -0.1167646050453186, -0.029416216537356377, -0.08089323341846466, -0.026970749720931053, 0.994592010974884, 0, 0, 0, 1.487548828125, 0.1712188720703125, 1.49560546875
53229, -5.7725749015808105, 4.781389236450195, 7.071099758148193, 0.008344809524714947, -0.007886117324233055, -38.5161247253418, 0.06727539002895355, -0.06355307251214981, -1.48818039894104, -0.842940092086792, -0.9132056832313538, 0.05597041919827461, -1.9781627262133297, 0.8456639799190384, 175.38688588751577, 9362.0, 30146.0, 35388.0, 9362.0, 0, -0.09371156245470047, -0.24460209906101227, -0.055854443460702896, -0.080685093998909, -0.026576204225420952, 0.9941565990447998, 0, 0, 0, 1.518310546875, 0.2331390380859375, 1.49560546875
53239, -5.771402359008789, 4.78317928314209, 7.070596218109131, 0.008971396833658218, -0.008477937430143356, -38.53101348876953, 0.05804232880473137, -0.05481068789958954, -1.4895591735839844, -0.842930018901825, -0.9132059216499329, 0.055992912501096725, -1.973138391097222, 0.8329461830758476, 175.37736182426968, 9362.0, 30146.0, 35388.0, 9362.0, 0, 0.18588021397590637, -0.23681309819221497, -0.3680364191532135, -0.08080317080020905, -0.027531621977686882, 0.9983077645301819, 0, 0, 0, 1.5029296875, 0.201446533203125, 1.48974609375
53249, -5.7703166007995605, 4.782369613647461, 7.0678300857543945, 0.009505603462457657, -0.00898230541497469, -38.54591751098633, 0.04879911616444588, -0.04606286436319351, -1.4908677339553833, -0.8429334759712219, -0.9131964445114136, 0.05598192662000656, -1.9811714194333165, 0.8391923945554822, 175.37943130148625, 9362.0, 30146.0, 35388.0, 9362.0, 0, -0.027517568320035934, 0.5421586036682129, -0.13824941217899323, -0.082309789955616, -0.025662671774625778, 0.9972707629203796, 0, 0, 0, 1.553466796875, 0.309661865234375, 1.48974609375
53259, -5.7703986167907715, 4.778684616088867, 7.067206382751465, 0.009947225451469421, -0.00939907506108284, -38.56083297729492, 0.039525698870420456, -0.037290651351213455, -1.491884708404541, -0.8429372906684875, -0.9132027626037598, 0.055966705083847046, -1.9717813138934637, 0.8313742753931308, 175.39177055955673, 9362.0, 30146.0, 35388.0, 9362.0, 0, 0.1733408421278, 0.14300811290740967, 0.038198962807655334, -0.08037897199392319, -0.023628978058695793, 0.9964829087257385, 0, 0, 0, 1.500732421875, 0.1970977783203125, 1.48974609375
53269, -5.768752098083496, 4.778854846954346, 7.066620826721191, 0.010296187363564968, -0.009728188626468182, -38.57575607299805, 0.030266696587204933, -0.028532087802886963, -1.4930347204208374, -0.8429352045059204, -0.9131971001625061, 0.05599087104201317, -1.9695348789847356, 0.8327390494577287, 175.3734001621611, 9362.0, 30146.0, 35388.0, 9362.0, 8.191736221313477, -0.016513027250766754, -0.011022782884538174, -0.41507628560066223, -0.08097779750823975, -0.02623746730387211, 0.9967060089111328, -0.08213751763105392, -0.09335899353027344, 1.48828125, 1.505859375, 0.2073974609375, 1.48974609375
53279, -5.769089698791504, 4.78071403503418, 7.064319133758545, 0.010552609339356422, -0.00996972993016243, -38.59069061279297, 0.02101775072515011, -0.019776038825511932, -1.494223952293396, -0.8429268002510071, -0.9131896495819092, 0.055994946509599686, -1.9669446347968387, 0.8370564285644093, 175.3802839201119, 9362.0, 30146.0, 35388.0, 9362.0, 8.191736221313477, -0.03161180391907692, 0.24842539429664612, -0.02787354402244091, -0.08330963551998138, -0.02538207173347473, 0.9977921843528748, -0.08213751763105392, -0.09335899353027344, 1.48828125, 1.50146484375, 0.1985626220703125, 1.49560546875
53289, -5.768759727478027, 4.780823707580566, 7.064667224884033, 0.01071650255471468, -0.010123686864972115, -38.60563659667969, 0.01176125556230545, -0.011014876887202263, -1.4953296184539795, -0.8429351449012756, -0.9132060408592224, 0.05596457049250603, -1.976991793769759, 0.8334015058259752, 175.38895209261514, 9362.0, 30146.0, 35388.0, 9362.0, 8.191736221313477, -0.07776345312595367, -0.40303924679756165, 0.07279293239116669, -0.08262497186660767, -0.02496524155139923, 0.9955828189849854, -0.08213751763105392, -0.09335899353027344, 1.48828125, 1.51025390625, 0.2164154052734375, 1.49560546875
53299, -5.76912260055542, 4.784013748168945, 7.064884662628174, 0.01078782044351101, -0.010190032422542572, -38.6205940246582, 0.0025022048503160477, -0.002254300517961383, -1.4964431524276733, -0.8429349660873413, -0.9131994843482971, 0.05597253143787384, -1.9743942647945818, 0.836629799206662, 175.38161620903745, 9362.0, 30146.0, 35388.0, 9362.0, 8.191736221313477, -0.01831189915537834, -0.20698872208595276, -0.27185767889022827, -0.08142590522766113, -0.025408217683434486, 0.995876669883728, -0.08213751763105392, -0.09335899353027344, 1.48828125, 1.4912109375, 0.178253173828125, 1.4912109375
53309, -5.769275188446045, 4.782962799072266, 7.063179016113281, 0.010766638442873955, -0.010168861597776413, -38.63556671142578, -0.006738637574017048, 0.006488369312137365, -1.4977484941482544, -0.8429518938064575, -0.913200855255127, 0.056013576686382294, -1.9802962899187246, 0.8307581622800626, 175.39044810105463, 9362.0, 30146.0, 35388.0, 9362.0, 8.191736221313477, 0.11642672121524811, 0.3807094395160675, -0.041899316012859344, -0.08274563401937485, -0.026905164122581482, 0.997490644454956, -0.08213751763105392, -0.09335899353027344, 1.48828125, 1.472900390625, 0.1439361572265625, 1.4912109375
53319, -5.768562316894531, 4.781338691711426, 7.063105583190918, 0.010652960278093815, -0.010060207918286324, -38.650550842285156, -0.01599671132862568, 0.015242584981024265, -1.4989287853240967, -0.8429369330406189, -0.9132028818130493, 0.05598802864551544, -1.980719186568476, 0.8334085897177488, 175.38500314254244, 9362.0, 30146.0, 35388.0, 9362.0, 8.191736221313477, 0.02748342975974083, -0.04925736412405968, 0.09490110725164413, -0.08321981132030487, -0.025980811566114426, 0.9973325133323669, -0.08213751763105392, -0.09335899353027344, 1.48828125, 1.477294921875, 0.1519775390625, 1.4912109375
53329, -5.768980979919434, 4.78037166595459, 7.063933849334717, 0.010446659289300442, -0.00986395962536335, -38.66554641723633, -0.025263480842113495, 0.024007117375731468, -1.4999994039535522, -0.8429455161094666, -0.9132028222084045, 0.05597550421953201, -1.9760157277009267, 0.8377806852046206, 175.38385232463452, 9362.0, 30146.0, 35388.0, 9362.0, 8.191736221313477, -0.03127814829349518, 0.41845932602882385, 0.037155356258153915, -0.08259786665439606, -0.02427404746413231, 0.9976944923400879, -0.08213751763105392, -0.09335899353027344, 1.48828125, 1.5, 0.19561767578125, 1.4912109375
53339, -5.769063472747803, 4.780024528503418, 7.0641374588012695, 0.01014771405607462, -0.009580078534781933, -38.6805534362793, -0.03452564403414726, 0.03276895731687546, -1.5010892152786255, -0.8429814577102661, -0.9131131768226624, 0.05587537959218025, -1.95110888028909, 0.7846532542301361, 175.34621167772346, 9362.0, 30146.0, 35388.0, 9362.0, 8.191736221313477, 0.21809476613998413, -0.30083033442497253, 0.0418812520802021, -0.08307728916406631, -0.023961331695318222, 0.9977290034294128, -0.08213751763105392, -0.09335899353027344, 1.48828125, 1.4560546875, 0.1147003173828125, 1.496337890625
53349, -5.768254280090332, 4.779643535614014, 7.065088272094727, 0.009756147861480713, -0.009208569303154945, -38.6955680847168, -0.04378751292824745, 0.04153283312916756, -1.5021660327911377, -0.8429379463195801, -0.9131866097450256, 0.05600515753030777, -1.977860986573061, 0.8353613142364509, 175.38615391741016, 9362.0, 30146.0, 35388.0, 9362.0, 8.191736221313477, 0.14848630130290985, 0.046508196741342545, -0.09414525330066681, -0.08070048689842224, -0.0239667147397995, 0.9975916743278503, -0.08213751763105392, -0.09335899353027344, 1.48828125, 1.484619140625, 0.1656646728515625, 1.496337890625
53359, -5.767272472381592, 4.781206130981445, 7.0637593269348145, 0.009271948598325253, -0.008749404922127724, -38.710594177246094, -0.05305241048336029, 0.0502999983727932, -1.5032063722610474, -0.8429362773895264, -0.9131940603256226, 0.055991340428590775, -1.9759939433385625, 0.8341852357802111, 175.3806424897847, 9362.0, 30146.0, 35388.0, 9362.0, 8.191736221313477, 0.17944449186325073, -0.1877424418926239, 0.23479488492012024, -0.07991731911897659, -0.024945028126239777, 0.9967036247253418, -0.08213751763105392, -0.09335899353027344, 1.48828125, 1.48681640625, 0.1698150634765625, 1.49267578125
53369, -5.766912937164307, 4.781970500946045, 7.064809799194336, 0.008695130236446857, -0.008202600292861462, -38.72563171386719, -0.06231100857257843, 0.05906115099787712, -1.5043021440505981, -0.8429383635520935, -0.9132105708122253, 0.05598418787121773, -1.9790740175484198, 0.8374351605752963, 175.38000904436151, 9362.0, 30146.0, 35388.0, 9362.0, 8.191736221313477, -0.1443837583065033, -0.005936786532402039, 0.10420693457126617, -0.0800454244017601, -0.02532823011279106, 0.9973722696304321, -0.09080304950475693, -0.01271820068359375, 1.494873046875, 1.48974609375, 0.1755218505859375, 1.49267578125
53379, -5.767892837524414, 4.780526161193848, 7.067030429840088, 0.008025736548006535, -0.007568213623017073, -38.74068069458008, -0.07156780362129211, 0.06781592220067978, -1.5054441690444946, -0.8429741263389587, -0.9131180644035339, 0.055899813771247864, -1.9394212799404442, 0.7728227732831954, 175.35061749139285, 9362.0, 30146.0, 35388.0, 9362.0, 8.191736221313477, 0.05044935271143913, -0.1885983645915985, 0.1717405468225479, -0.08172803372144699, -0.02608870156109333, 0.996769368648529, -0.09080304950475693, -0.01271820068359375, 1.494873046875, 1.433349609375, 0.0797576904296875, 1.493408203125
53389, -5.767394542694092, 4.781363010406494, 7.066798210144043, 0.0072637442499399185, -0.006846260745078325, -38.755741119384766, -0.08083105087280273, 0.07657424360513687, -1.5065349340438843, -0.8432888388633728, -0.9130209684371948, 0.056016430258750916, -1.8991370862335453, 0.6322660897491517, 175.49256990687888, 9362.0, 30146.0, 35388.0, 9362.0, 8.191736221313477, 0.16936126351356506, -0.19822178781032562, -0.22146686911582947, -0.08265664428472519, -0.025913449004292488, 0.9974918365478516, -0.09080304950475693, -0.01271820068359375, 1.494873046875, 1.44287109375, 0.0936279296875, 1.493408203125
53399, -5.765286445617676, 4.781014919281006, 7.0684590339660645, 0.0064091552048921585, -0.006036742124706507, -38.77081298828125, -0.09008675813674927, 0.08532954752445221, -1.5076812505722046, -0.8432857990264893, -0.9130183458328247, 0.056047797203063965, -1.897172171042745, 0.6167748419696579, 175.48790766687583, 9362.0, 30146.0, 35388.0, 9362.0, 8.191736221313477, 0.012819360941648483, 0.41545990109443665, 0.239980086684227, -0.08001335710287094, -0.02430170774459839, 0.9980999231338501, -0.09080304950475693, -0.01271820068359375, 1.494873046875, 1.513916015625, 0.224029541015625, 1.494140625
53409, -5.765581130981445, 4.779022693634033, 7.067751407623291, 0.005461953580379486, -0.005139628890901804, -38.78589630126953, -0.0993538647890091, 0.09409288316965103, -1.5087239742279053, -0.8434185981750488, -0.9128809571266174, 0.05596856400370598, -1.8859534079660198, 0.5733625186614972, 175.49554877606852, 9362.0, 30146.0, 35388.0, 9362.0, 8.191736221313477, 0.012895496562123299, -0.054073579609394073, -0.36678382754325867, -0.08016428351402283, -0.025167951360344887, 0.9967397451400757, -0.09080304950475693, -0.01271820068359375, 1.494873046875, 1.45458984375, 0.11224365234375, 1.494140625
53419, -5.765904426574707, 4.77763557434082, 7.066315174102783, 0.004422091878950596, -0.004154907539486885, -38.800987243652344, -0.10861847549676895, 0.10285144299268723, -1.5097811222076416, -0.8433459997177124, -0.9128995537757874, 0.05590566247701645, -1.8335024951196672, 0.5274388184014924, 175.44948402278118, 9362.0, 30146.0, 35388.0, 9362.0, 8.191736221313477, 0.025169845670461655, -0.1663825958967209, 0.10453920066356659, -0.07974663376808167, -0.026015952229499817, 0.9958585500717163, -0.09080304950475693, -0.01271820068359375, 1.494873046875, 1.493408203125, 0.1825714111328125, 1.491943359375
53429, -5.764933109283447, 4.780127048492432, 7.065749168395996, 0.0032896646298468113, -0.0030826558358967304, -38.81608963012695, -0.11786676198244095, 0.11159913241863251, -1.510972261428833, -0.84328293800354, -0.9130239486694336, 0.05602574348449707, -1.8971170695229544, 0.6079377461105651, 175.49618525298956, 9362.0, 30146.0, 35388.0, 9362.0, 8.191736221313477, 0.04556909576058388, -0.021595073863863945, -0.11013098061084747, -0.08005181699991226, -0.025331761687994003, 0.9950078129768372, -0.09080304950475693, -0.01271820068359375, 1.494873046875, 1.53076171875, 0.2596435546875, 1.491943359375
53439, -5.765705108642578, 4.780844688415527, 7.064276218414307, 0.0020648143254220486, -0.0019229670288041234, -38.831207275390625, -0.12710319459438324, 0.12033875286579132, -1.5122625827789307, -0.8432767987251282, -0.9130105972290039, 0.056062523275613785, -1.901199740650212, 0.6177838045518627, 175.49229035455687, 9362.0, 30146.0, 35388.0, 9362.0, 8.191736221313477, -0.025634130463004112, 0.026190726086497307, 0.12543722987174988, -0.0820089802145958, -0.028538567945361137, 0.9973004460334778, -0.09080304950475693, -0.01271820068359375, 1.494873046875, 1.42529296875, 0.0688018798828125, 1.49560546875
53449, -5.7643866539001465, 4.780614376068115, 7.063112258911133, 0.0007475619204342365, -0.0006758748786523938, -38.846336364746094, -0.13634702563285828, 0.1290799230337143, -1.5135154724121094, -0.8432788848876953, -0.9130144715309143, 0.05606525391340256, -1.8931551059777312, 0.6227765032447792, 175.48627359282156, 9362.0, 30146.0, 35388.0, 9362.0, 8.191736221313477, -0.13374488055706024, 0.38769465684890747, 0.09225139021873474, -0.07820561528205872, -0.02795185148715973, 0.997793436050415, -0.09080304950475693, -0.01271820068359375, 1.494873046875, 1.436279296875, 0.0838775634765625, 1.49560546875
53459, -5.764130592346191, 4.780395984649658, 7.062680244445801, -0.0006621982902288437, 0.0006586958188563585, -38.86147689819336, -0.14560483396053314, 0.13783445954322815, -1.514634132385254, -0.8433438539505005, -0.912887692451477, 0.05591093748807907, -1.8356150536075473, 0.5269818167023175, 175.4586367233933, 9362.0, 30146.0, 35388.0, 9362.0, 8.191736221313477, 0.23434551060199738, -0.04947453737258911, -0.08316358178853989, -0.0801161676645279, -0.027822257950901985, 0.9987602829933167, -0.09080304950475693, -0.01271820068359375, 1.494873046875, 1.4677734375, 0.1347198486328125, 1.494140625
53469, -5.764491558074951, 4.780872821807861, 7.061232089996338, -0.002164584118872881, 0.0020808507688343525, -38.87662887573242, -0.15487225353717804, 0.14659664034843445, -1.515644907951355, -0.8433501124382019, -0.9129063487052917, 0.055911771953105927, -1.831688949264292, 0.5433783021258591, 175.45175145420208, 9362.0, 30146.0, 35388.0, 9362.0, 8.191736221313477, -0.007935091853141785, -0.10445993393659592, -0.2846164405345917, -0.08003773540258408, -0.024828532710671425, 0.9949523210525513, -0.09144532680511475, -0.05751800537109375, 1.4912109375, 1.50732421875, 0.2104644775390625, 1.494140625
53479, -5.76448917388916, 4.7813310623168945, 7.06085729598999, -0.003759648883715272, 0.003590633161365986, -38.891788482666016, -0.16414043307304382, 0.15536005795001984, -1.516640305519104, -0.8433578610420227, -0.91289883852005, 0.05590611696243286, -1.8407296849927377, 0.5366950116659268, 175.45238082643144, 9362.0, 30146.0, 35388.0, 9362.0, 8.191736221313477, 0.13526616990566254, 0.2761194407939911, -0.1293015480041504, -0.08066978305578232, -0.02557777240872383, 0.9945756196975708, -0.09144532680511475, -0.05751800537109375, 1.4912109375, 1.45751953125, 0.117095947265625, 1.489013671875
53489, -5.765194416046143, 4.779492378234863, 7.058962345123291, -0.005447222851216793, 0.005187886767089367, -38.90696334838867, -0.17337428033351898, 0.1640908271074295, -1.5180039405822754, -0.8432741165161133, -0.9130162000656128, 0.05606755614280701, -1.8933719791789796, 0.6178683063425865, 175.48989863008518, 9362.0, 30146.0, 35388.0, 9362.0, 8.191736221313477, -0.033262718468904495, 0.33016151189804077, 0.16023477911949158, -0.08096664398908615, -0.02488964982330799, 0.9949619174003601, -0.09144532680511475, -0.05751800537109375, 1.4912109375, 1.51171875, 0.21942138671875, 1.489013671875
53499, -5.7641377449035645, 4.777731895446777, 7.058692455291748, -0.007227153051644564, 0.006872461177408695, -38.922149658203125, -0.18261152505874634, 0.17282448709011078, -1.5193381309509277, -0.8433529734611511, -0.9128994345664978, 0.0559021532535553, -1.8357837607481025, 0.5289617460378508, 175.4569523975373, 9362.0, 30146.0, 35388.0, 9362.0, 8.191736221313477, 0.0551316998898983, 0.0616307370364666, -0.022995181381702423, -0.0822264701128006, -0.026328502222895622, 0.9976534843444824, -0.09144532680511475, -0.05751800537109375, 1.4912109375, 1.491943359375, 0.179656982421875, 1.4912109375
53509, -5.762426376342773, 4.7783050537109375, 7.057522296905518, -0.00909949280321598, 0.008644431829452515, -38.937347412109375, -0.19185636937618256, 0.18156971037387848, -1.52056086063385, -0.8433478474617004, -0.9128970503807068, 0.05592687427997589, -1.8364609587723344, 0.5355868108088941, 175.45315641587834, 9362.0, 30146.0, 35388.0, 9362.0, 8.191736221313477, -0.0032551304902881384, -0.31638628244400024, -0.19996662437915802, -0.08091748505830765, -0.026661712676286697, 0.9982083439826965, -0.09144532680511475, -0.05751800537109375, 1.4912109375, 1.468505859375, 0.13604736328125, 1.4912109375
53519, -5.76214075088501, 4.780538558959961, 7.05648136138916, -0.011064351536333561, 0.01050393097102642, -38.95255661010742, -0.20111532509326935, 0.19033034145832062, -1.5216002464294434, -0.8433551788330078, -0.9129019975662231, 0.055893488228321075, -1.8399711319948695, 0.5259735302173567, 175.4506509193334, 9362.0, 30146.0, 35388.0, 9362.0, 8.191736221313477, 0.19975639879703522, -0.3728284239768982, 0.1022663414478302, -0.07921399176120758, -0.025747178122401237, 0.9969304800033569, -0.09144532680511475, -0.05751800537109375, 1.4912109375, 1.4970703125, 0.18975830078125, 1.494140625
53529, -5.761782646179199, 4.782445430755615, 7.057690620422363, -0.013121791183948517, 0.012451011687517166, -38.967777252197266, -0.21037232875823975, 0.19908581674098969, -1.5226637125015259, -0.8433641195297241, -0.9129044413566589, 0.05588763207197189, -1.8384196375625328, 0.5287750437416889, 175.45408099547083, 9362.0, 30146.0, 35388.0, 9362.0, 8.191736221313477, 0.09537719190120697, -0.31598415970802307, -0.02999916300177574, -0.07967649400234222, -0.0226938147097826, 0.9966074824333191, -0.09144532680511475, -0.05751800537109375, 1.4912109375, 1.46044921875, 0.12200927734375, 1.494140625
53539, -5.761207103729248, 4.7836785316467285, 7.056552410125732, -0.015271766111254692, 0.014485593885183334, -38.983009338378906, -0.2196229100227356, 0.20783044397830963, -1.5238368511199951, -0.8432899713516235, -0.9130182266235352, 0.05605164170265198, -1.8979147681195139, 0.6109197168654248, 175.49598096798476, 9362.0, 30146.0, 35388.0, 9362.0, 8.191736221313477, 0.22633551061153412, 0.11117519438266754, -0.1530265212059021, -0.0812002494931221, -0.025835614651441574, 0.9976015090942383, -0.09144532680511475, -0.05751800537109375, 1.4912109375, 1.450927734375, 0.1063690185546875, 1.491943359375
53549, -5.759442329406738, 4.782784461975098, 7.053720474243164, -0.017514273524284363, 0.016607627272605896, -38.998252868652344, -0.22887857258319855, 0.21657626330852509, -1.524986982345581, -0.8432868719100952, -0.913007915019989, 0.056044455617666245, -1.8878070724069034, 0.6234696802538053, 175.49159859624672, 9362.0, 30146.0, 35388.0, 9362.0, 8.191736221313477, 0.049543000757694244, -0.023962583392858505, -0.06655961275100708, -0.08066701143980026, -0.027164848521351814, 0.9968358278274536, -0.09144532680511475, -0.05751800537109375, 1.4912109375, 1.529296875, 0.2564849853515625, 1.491943359375
53559, -5.758330345153809, 4.783921241760254, 7.053187847137451, -0.01984938606619835, 0.018817149102687836, -39.01350784301758, -0.23814356327056885, 0.22532859444618225, -1.5260562896728516, -0.84335857629776, -0.9128963351249695, 0.05592823773622513, -1.8428241026152845, 0.5190630735027923, 175.45867125370464, 9362.0, 30146.0, 35388.0, 9362.0, 8.191736221313477, 0.14688803255558014, 0.1529250293970108, 0.2596389949321747, -0.08111489564180374, -0.026583969593048096, 0.9969974160194397, -0.09144532680511475, -0.05751800537109375, 1.4912109375, 1.4296875, 0.07464599609375, 1.49267578125
53569, -5.758605480194092, 4.781329154968262, 7.055098533630371, -0.022277090698480606, 0.021114137023687363, -39.02877426147461, -0.2473970502614975, 0.23406921327114105, -1.5272250175476074, -0.8433470726013184, -0.9128825068473816, 0.05592680722475052, -1.8303493818796206, 0.5300296433570395, 175.45166973432305, 9362.0, 30146.0, 35388.0, 9362.0, 8.191736221313477, 0.007385485805571079, -0.24935658276081085, 0.025842787697911263, -0.08297557383775711, -0.025037718936800957, 0.9985931515693665, -0.08227158337831497, -0.1291980743408203, 1.4853515625, 1.47216796875, 0.142547607421875, 1.49267578125
53579, -5.758747100830078, 4.783247470855713, 7.054042339324951, -0.024797383695840836, 0.023498564958572388, -39.04405212402344, -0.25666189193725586, 0.24281619489192963, -1.5282961130142212, -0.8432974219322205, -0.9130087494850159, 0.05607307702302933, -1.901908811433057, 0.614825813713793, 175.48370828506916, 9362.0, 30146.0, 35388.0, 9362.0, 8.191736221313477, 0.07661953568458557, -0.07714634388685226, 0.07179093360900879, -0.08321208506822586, -0.02390058897435665, 0.9972812533378601, -0.08227158337831497, -0.1291980743408203, 1.4853515625, 1.4853515625, 0.1669921875, 1.493408203125
53589, -5.75905179977417, 4.783304691314697, 7.056362152099609, -0.027410337701439857, 0.025970496237277985, -39.05934143066406, -0.26592859625816345, 0.251570463180542, -1.5292996168136597, -0.8432809114456177, -0.913000226020813, 0.05605194345116615, -1.8977376167339124, 0.6163090545327634, 175.49146821086117, 9362.0, 30146.0, 35388.0, 9362.0, 8.191736221313477, -0.02683919109404087, -0.052735861390829086, -0.08226339519023895, -0.08154008537530899, -0.026349199935793877, 0.9955956935882568, -0.08227158337831497, -0.1291980743408203, 1.4853515625, 1.404052734375, 0.04400634765625, 1.493408203125
53609, -5.759635925292969, 4.786194801330566, 7.056149005889893, -0.030115880072116852, 0.028529882431030273, -39.074642181396484, -0.2751803398132324, 0.26030659675598145, -1.53049898147583, -0.8432780504226685, -0.9130173325538635, 0.05606262385845184, -1.8966730954465048, 0.6177270969236588, 175.488003220921, 9362.0, 30146.0, 35388.0, 9362.0, 8.191736221313477, -0.006750977598130703, 0.26557657122612, -0.1608019769191742, -0.08004575222730637, -0.023709911853075027, 0.9927205443382263, -0.08227158337831497, -0.1291980743408203, 1.4853515625, 1.48828125, 0.172576904296875, 1.496337890625
53619, -5.758125305175781, 4.784713268280029, 7.055703639984131, -0.030115880072116852, 0.028529882431030273, -39.074642181396484, -0.2751803398132324, 0.26030659675598145, -1.53049898147583, -0.8433601260185242, -0.9128979444503784, 0.055916622281074524, -1.840529409924119, 0.5276127175453951, 175.45034663176583, 9362.0, 30146.0, 35388.0, 9362.0, 8.191736221313477, -0.06495076417922974, -0.05623670667409897, -0.03120064176619053, -0.0808940902352333, -0.024444542825222015, 0.9968331456184387, -0.08227158337831497, -0.1291980743408203, 1.4853515625, 1.48828125, 0.172576904296875, 1.494140625
53629, -5.758777141571045, 4.7868757247924805, 7.055183410644531, -0.030115880072116852, 0.028529882431030273, -39.074642181396484, -0.2751803398132324, 0.26030659675598145, -1.53049898147583, -0.8433722853660583, -0.912885844707489, 0.055930472910404205, -1.829874207376623, 0.5192679398366522, 175.45289689491526, 9362.0, 30146.0, 35388.0, 9362.0, 8.191736221313477, -0.12022005766630173, -0.20753999054431915, -0.01812894642353058, -0.0810164287686348, -0.023924946784973145, 0.9966158866882324, -0.08227158337831497, -0.1291980743408203, 1.4853515625, 1.48828125, 0.172576904296875, 1.494140625
53639, -5.759101867675781, 4.786714553833008, 7.054755210876465, -0.030115880072116852, 0.028529882431030273, -39.074642181396484, -0.2751803398132324, 0.26030659675598145, -1.53049898147583, -0.8432853817939758, -0.9130134582519531, 0.056045204401016235, -1.8971259563647485, 0.6159534832577549, 175.496702708603, 9362.0, 30146.0, 35388.0, 9362.0, 8.191736221313477, 0.08938069641590118, -0.08475783467292786, -0.2550865113735199, -0.0810164287686348, -0.023924946784973145, 0.9966158866882324, -0.08227158337831497, -0.1291980743408203, 1.4853515625, 1.39599609375, 0.0362701416015625, 1.494140625
53649, -5.758606910705566, 4.7879509925842285, 7.055749893188477, -0.030115880072116852, 0.028529882431030273, -39.074642181396484, -0.2751803398132324, 0.26030659675598145, -1.53049898147583, -0.8433634638786316, -0.9128926396369934, 0.055912427604198456, -1.8372037372626686, 0.5265159745588903, 175.45556216388042, 9362.0, 30146.0, 35388.0, 9362.0, 8.191736221313477, 0.07888378947973251, -0.13622470200061798, -0.09366778284311295, -0.08293015509843826, -0.024605045095086098, 0.9997915029525757, -0.08227158337831497, -0.1291980743408203, 1.4853515625, 1.39599609375, 0.0362701416015625, 1.494140625
53659, -5.758698463439941, 4.789531230926514, 7.055523872375488, -0.030115880072116852, 0.028529882431030273, -39.074642181396484, -0.2751803398132324, 0.26030659675598145, -1.53049898147583, -0.8433735966682434, -0.9128932356834412, 0.05592036247253418, -1.835926905934124, 0.5096737697270726, 175.457606020518, 9362.0, 30146.0, 35388.0, 9362.0, 8.191736221313477, 0.06310907006263733, -0.12278322130441666, 0.0031298385001719, -0.08055399358272552, -0.024583211168646812, 1.0011425018310547, -0.08227158337831497, -0.1291980743408203, 1.4853515625, 1.383544921875, 0.026611328125, 1.494140625
53679, -5.757284641265869, 4.793792724609375, 7.057088375091553, -0.05164370313286781, 0.048889610916376114, -39.182090759277344, -0.3399609327316284, 0.3214477300643921, -1.5390114784240723, -0.8433530926704407, -0.9128915667533875, 0.05590393766760826, -1.832540000499103, 0.5240855752800826, 175.45385683846956, 9362.0, 30146.0, 35388.0, 9362.0, 8.191736221313477, 0.17347781360149384, -0.12085273861885071, 0.35674241185188293, -0.08056983351707458, -0.024859046563506126, 0.9948481917381287, -0.08227158337831497, -0.1291980743408203, 1.4853515625, 1.456787109375, 0.115966796875, 1.494140625
53689, -5.757313251495361, 4.791933536529541, 7.0580902099609375, -0.05862870812416077, 0.055493757128715515, -39.212886810302734, -0.35852089524269104, 0.3389473259449005, -1.541063666343689, -0.843296229839325, -0.9130105376243591, 0.056047771126031876, -1.891658550951998, 0.6222782634060309, 175.4924860087552, 9362.0, 30146.0, 35388.0, 9362.0, 8.191736221313477, 0.19068439304828644, 0.5180801153182983, 0.03925088793039322, -0.08013128489255905, -0.02461981773376465, 0.9955646395683289, -0.08227158337831497, -0.1291980743408203, 1.4853515625, 1.456787109375, 0.115966796875, 1.494140625
53709, -5.757104396820068, 4.793185710906982, 7.060037136077881, -0.06598436087369919, 0.0624472014605999, -39.24373245239258, -0.37704163789749146, 0.35639578104019165, -1.5436217784881592, -0.8432847261428833, -0.9130169153213501, 0.056065719574689865, -1.8980516975399755, 0.6146875898297992, 175.49731906946403, 9362.0, 30146.0, 35388.0, 9362.0, 8.191736221313477, 0.04459883272647858, 0.13620705902576447, -0.04315835237503052, -0.08013128489255905, -0.02461981773376465, 0.9955646395683289, -0.08227158337831497, -0.1291980743408203, 1.4853515625, 1.46630859375, 0.132171630859375, 1.494140625
53729, -5.757698059082031, 4.7924089431762695, 7.061158657073975, -0.06598436087369919, 0.0624472014605999, -39.24373245239258, -0.37704163789749146, 0.35639578104019165, -1.5436217784881592, -0.8433669209480286, -0.9128941893577576, 0.055908266454935074, -1.8407487588758848, 0.5265156936686424, 175.466106903146, 9362.0, 30146.0, 35388.0, 9362.0, 8.191736221313477, 0.19099128246307373, 0.31409507989883423, 0.07928918302059174, -0.08054832369089127, -0.024318711832165718, 0.9962155818939209, -0.08227158337831497, -0.1291980743408203, 1.4853515625, 1.4296875, 0.07464599609375, 1.491943359375
53739, -5.757737636566162, 4.791926383972168, 7.061481475830078, -0.06598436087369919, 0.0624472014605999, -39.24373245239258, -0.37704163789749146, 0.35639578104019165, -1.5436217784881592, -0.8432773947715759, -0.9130116105079651, 0.05604173243045807, -1.8899583111765823, 0.6150514920222463, 175.49061673629691, 9362.0, 30146.0, 35388.0, 9362.0, 8.191736221313477, 0.05954383313655853, -0.1306195706129074, -0.04891667887568474, -0.07907027006149292, -0.024401767179369926, 0.9975185394287109, -0.08227158337831497, -0.1291980743408203, 1.4853515625, 1.4296875, 0.07464599609375, 1.494873046875
53749, -5.758028030395508, 4.790496349334717, 7.061165809631348, -0.06598436087369919, 0.0624472014605999, -39.24373245239258, -0.37704163789749146, 0.35639578104019165, -1.5436217784881592, -0.843286395072937, -0.91301429271698, 0.05604453384876251, -1.898257455157107, 0.6111483101815622, 175.48512470108602, 9362.0, 30146.0, 35388.0, 9362.0, 8.191736221313477, -0.1834898591041565, 0.28678736090660095, 0.3039032816886902, -0.08090458065271378, -0.027322357520461082, 0.9979395866394043, -0.08227158337831497, -0.1291980743408203, 1.4853515625, 1.4296875, 0.07464599609375, 1.494873046875
53759, -5.75905179977417, 4.789365768432617, 7.062204360961914, -0.06598436087369919, 0.0624472014605999, -39.24373245239258, -0.37704163789749146, 0.35639578104019165, -1.5436217784881592, -0.8432966470718384, -0.9130104184150696, 0.056084681302309036, -1.8963536047432614, 0.6102637047465862, 175.48741526687886, 9362.0, 30146.0, 35388.0, 9362.0, 8.191736221313477, -0.1181352511048317, 0.017648348584771156, -0.0012006635079160333, -0.08090458065271378, -0.027322357520461082, 0.9979395866394043, -0.08227158337831497, -0.1291980743408203, 1.4853515625, 1.404052734375, 0.04400634765625, 1.494873046875
53779, -5.759044647216797, 4.787293910980225, 7.059724807739258, -0.09027429670095444, 0.08540188521146774, -39.336570739746094, -0.4326457381248474, 0.408785879611969, -1.5508091449737549, -0.8433012366294861, -0.913002073764801, 0.05606221407651901, -1.8927421871714947, 0.6057307698396812, 175.48259281451533, 9362.0, 30146.0, 35388.0, 9362.0, 8.191736221313477, 0.13575367629528046, 0.23172259330749512, -0.10861166566610336, -0.07967663556337357, -0.02365843579173088, 0.9961498379707336, -0.08227158337831497, -0.1291980743408203, 1.4853515625, 1.404052734375, 0.04400634765625, 1.497802734375
53789, -5.75880765914917, 4.786062717437744, 7.058270454406738, -0.09911252558231354, 0.09375234693288803, -39.367610931396484, -0.4511721730232239, 0.42625635862350464, -1.553205966949463, -0.8432895541191101, -0.9130068421363831, 0.05603364109992981, -1.8967742525006484, 0.6340278771340309, 175.49094876582137, 9362.0, 30146.0, 35388.0, 9362.0, 8.191736221313477, -0.05641796812415123, 0.09817130863666534, 0.004684348125010729, -0.08074820786714554, -0.028733985498547554, 0.9957067966461182, -0.08227158337831497, -0.1291980743408203, 1.4853515625, 1.404052734375, 0.04400634765625, 1.497802734375
53799, -5.759219646453857, 4.786328315734863, 7.059361934661865, -0.09911252558231354, 0.09375234693288803, -39.367610931396484, -0.4511721730232239, 0.42625635862350464, -1.553205966949463, -0.8432996869087219, -0.9129869937896729, 0.05607497692108154, -1.8849154229753728, 0.6336099923981067, 175.49176289892904, 9362.0, 30146.0, 35388.0, 9362.0, 8.191736221313477, 0.04084678366780281, -0.03627834469079971, -0.007311569061130285, -0.08233387023210526, -0.026623815298080444, 0.9979249238967896, -0.08227158337831497, -0.1291980743408203, 1.4853515625, 1.404052734375, 0.04400634765625, 1.497802734375
53809, -5.75897741317749, 4.784430980682373, 7.060904026031494, -0.09911252558231354, 0.09375234693288803, -39.367610931396484, -0.4511721730232239, 0.42625635862350464, -1.553205966949463, -0.8433650135993958, -0.9128880500793457, 0.055921562016010284, -1.826478638165779, 0.5322340948561362, 175.45666425221089, 9362.0, 30146.0, 35388.0, 9362.0, 8.191736221313477, -0.0760950818657875, 0.11065436899662018, 0.31081560254096985, -0.08161996304988861, -0.02593027427792549, 0.9960680603981018, -0.08227158337831497, -0.1291980743408203, 1.4853515625, 1.41796875, 0.05950927734375, 1.497802734375
53829, -5.758271217346191, 4.78412389755249, 7.061433792114258, -0.09911252558231354, 0.09375234693288803, -39.367610931396484, -0.4511721730232239, 0.42625635862350464, -1.553205966949463, -0.8432948589324951, -0.9130078554153442, 0.056063637137413025, -1.8959627228470948, 0.6250893879875434, 175.49487143581757, 9362.0, 30146.0, 35388.0, 9362.0, 8.191736221313477, 0.18641507625579834, 0.03294527903199196, -0.07020103186368942, -0.08104541152715683, -0.025432225316762924, 0.9984894394874573, -0.08227158337831497, -0.1291980743408203, 1.4853515625, 1.45166015625, 0.107452392578125, 1.490478515625
53839, -5.757358074188232, 4.784142017364502, 7.059751033782959, -0.09911252558231354, 0.09375234693288803, -39.367610931396484, -0.4511721730232239, 0.42625635862350464, -1.553205966949463, -0.8433645963668823, -0.9128823280334473, 0.0559527613222599, -1.8267534952992606, 0.5171538364613752, 175.4557643074139, 9362.0, 30146.0, 35388.0, 9362.0, 8.191736221313477, 0.034246690571308136, -0.10817062854766846, 0.031023744493722916, -0.08050563931465149, -0.022933728992938995, 0.9967281222343445, -0.08227158337831497, -0.1291980743408203, 1.4853515625, 1.45166015625, 0.107452392578125, 1.49560546875
53849, -5.757692813873291, 4.783358097076416, 7.058365821838379, -0.09911252558231354, 0.09375234693288803, -39.367610931396484, -0.4511721730232239, 0.42625635862350464, -1.553205966949463, -0.8434280753135681, -0.9128711223602295, 0.05601142719388008, -1.8721314684032067, 0.5643564848093945, 175.4935029858535, 9362.0, 30146.0, 35388.0, 9362.0, 8.191736221313477, -0.09448304027318954, 0.19087620079517365, -0.057682935148477554, -0.08258844912052155, -0.023762302473187447, 0.9979265928268433, -0.08227158337831497, -0.1291980743408203, 1.4853515625, 1.45166015625, 0.107452392578125, 1.49560546875
53859, -5.7587361335754395, 4.782652854919434, 7.060637474060059, -0.09911252558231354, 0.09375234693288803, -39.367610931396484, -0.4511721730232239, 0.42625635862350464, -1.553205966949463, -0.8433631062507629, -0.9128995537757874, 0.05594128370285034, -1.8302412508743047, 0.5335071846767221, 175.45153095560624, 9362.0, 30146.0, 35388.0, 9362.0, 8.191736221313477, -0.008452076464891434, 0.23925890028476715, 0.3542028069496155, -0.08193978667259216, -0.026614846661686897, 0.9939932823181152, -0.08227158337831497, -0.1291980743408203, 1.4853515625, 1.389404296875, 0.03082275390625, 1.49560546875
53879, -5.757618427276611, 4.780882358551025, 7.061408519744873, -0.13816866278648376, 0.13064847886562347, -39.49224853515625, -0.5252496600151062, 0.4961700439453125, -1.562413215637207, -0.8433635830879211, -0.9128885865211487, 0.055928632616996765, -1.8297403763196, 0.5234870180024984, 175.45323668638915, 9362.0, 30146.0, 35388.0, 9362.0, 8.17190170288086, 0.13833561539649963, -0.03024076670408249, -0.19113798439502716, -0.0787791982293129, -0.026265984401106834, 0.9993199110031128, -0.08227158337831497, -0.1291980743408203, 1.4853515625, 1.39306640625, 0.0337982177734375, 1.49560546875
53889, -5.758105278015137, 4.780581951141357, 7.061007022857666, -0.13816866278648376, 0.13064847886562347, -39.49224853515625, -0.5252496600151062, 0.4961700439453125, -1.562413215637207, -0.8433672189712524, -0.9128866791725159, 0.055928364396095276, -1.8341582780876229, 0.5276270583741791, 175.45829890202083, 9362.0, 30146.0, 35388.0, 9362.0, 8.17190170288086, 0.0034584880340844393, -0.1354278326034546, -0.25651007890701294, -0.08199566602706909, -0.02320595271885395, 0.997988224029541, -0.08227158337831497, -0.1291980743408203, 1.4853515625, 1.376220703125, 0.0222930908203125, 1.49560546875
53899, -5.757265567779541, 4.7814435958862305, 7.059759140014648, -0.13816866278648376, 0.13064847886562347, -39.49224853515625, -0.5252496600151062, 0.4961700439453125, -1.562413215637207, -0.8432832956314087, -0.9130074977874756, 0.05608151853084564, -1.8866916750556786, 0.6103796198556779, 175.4870522159173, 9362.0, 30146.0, 35388.0, 9362.0, 8.17190170288086, 0.027699990198016167, 0.10106530040502548, -0.1671740710735321, -0.0811670795083046, -0.02460220456123352, 0.9965445399284363, -0.08227158337831497, -0.1291980743408203, 1.4853515625, 1.376220703125, 0.0222930908203125, 1.49560546875
53909, -5.756297588348389, 4.778220176696777, 7.058169364929199, -0.13816866278648376, 0.13064847886562347, -39.49224853515625, -0.5252496600151062, 0.4961700439453125, -1.562413215637207, -0.8433820009231567, -0.9129027128219604, 0.055966172367334366, -1.8365609265893283, 0.5265603926620201, 175.45337718083468, 9362.0, 30146.0, 35388.0, 9362.0, 8.17190170288086, 0.00817133393138647, 0.3491210639476776, -0.06783958524465561, -0.08023486286401749, -0.025071682408452034, 0.9968504905700684, -0.08227158337831497, -0.1291980743408203, 1.4853515625, 1.430419921875, 0.0756378173828125, 1.49560546875
53919, -5.757969379425049, 4.776945114135742, 7.059037208557129, -0.13816866278648376, 0.13064847886562347, -39.49224853515625, -0.5252496600151062, 0.4961700439453125, -1.562413215637207, -0.8433693051338196, -0.9128750562667847, 0.05594372749328613, -1.831115794408533, 0.5176384728778487, 175.4518648282532, 9362.0, 30146.0, 35388.0, 9362.0, 8.17190170288086, -0.06899338215589523, -0.11093515902757645, 0.14685368537902832, -0.08124014735221863, -0.026694223284721375, 0.9959808588027954, -0.08227158337831497, -0.1291980743408203, 1.4853515625, 1.430419921875, 0.0756378173828125, 1.4970703125
53929, -5.757477283477783, 4.7794952392578125, 7.058285713195801, -0.13816866278648376, 0.13064847886562347, -39.49224853515625, -0.5252496600151062, 0.4961700439453125, -1.562413215637207, -0.8433099389076233, -0.9129971861839294, 0.05605917051434517, -1.8895987100500087, 0.6185299948035379, 175.49151987096218, 9362.0, 30146.0, 35388.0, 9362.0, 8.17190170288086, 0.23832854628562927, -0.18061921000480652, -0.09125324338674545, -0.08333876729011536, -0.028265688568353653, 0.9974382519721985, -0.08227158337831497, -0.1291980743408203, 1.4853515625, 1.430419921875, 0.0756378173828125, 1.4970703125
53939, -5.756611347198486, 4.778838157653809, 7.056440353393555, -0.13816866278648376, 0.13064847886562347, -39.49224853515625, -0.5252496600151062, 0.4961700439453125, -1.562413215637207, -0.8433573246002197, -0.9129000902175903, 0.055935826152563095, -1.8350213773025925, 0.5372027737779206, 175.44811343932903, 9362.0, 30146.0, 35388.0, 9362.0, 8.17190170288086, 0.04919803887605667, -0.03522922471165657, -0.055792998522520065, -0.08213606476783752, -0.02561415173113346, 0.9978482723236084, -0.08227158337831497, -0.1291980743408203, 1.4853515625, 1.430419921875, 0.0756378173828125, 1.493408203125
53949, -5.756748676300049, 4.779242992401123, 7.057210445404053, -0.13816866278648376, 0.13064847886562347, -39.49224853515625, -0.5252496600151062, 0.4961700439453125, -1.562413215637207, -0.8433944582939148, -0.9128907322883606, 0.055917173624038696, -1.8324675017564833, 0.5191620939397126, 175.45878051436407, 9362.0, 30146.0, 35388.0, 9362.0, 8.17190170288086, -0.14755119383335114, -0.16210943460464478, -0.06241898238658905, -0.08171346783638, -0.0275046918541193, 0.996078610420227, -0.08227158337831497, -0.1291980743408203, 1.4853515625, 1.430419921875, 0.0756378173828125, 1.493408203125
53959, -5.756739616394043, 4.780789375305176, 7.056589126586914, -0.13816866278648376, 0.13064847886562347, -39.49224853515625, -0.5252496600151062, 0.4961700439453125, -1.562413215637207, -0.8432946801185608, -0.9130000472068787, 0.056062810122966766, -1.8918043916046963, 0.6074393690824706, 175.49314822535214, 9362.0, 30146.0, 35388.0, 9362.0, 8.17190170288086, -0.05227073282003403, -0.2399621307849884, -0.21180422604084015, -0.08082643151283264, -0.027923090383410454, 0.996651291847229, -0.08227158337831497, -0.1291980743408203, 1.4853515625, 1.40185546875, 0.0417938232421875, 1.493408203125
53979, -5.75649356842041, 4.782201290130615, 7.0555830001831055, -0.19531913101673126, 0.18463432788848877, -39.649070739746094, -0.6177570223808289, 0.5835551023483276, -1.5739338397979736, -0.8432855606079102, -0.9130125045776367, 0.05607637017965317, -1.8937461597194192, 0.618819092769769, 175.4859368966895, 9362.0, 30146.0, 35388.0, 9362.0, 8.191736221313477, 0.13891072571277618, 0.18569883704185486, 0.20841769874095917, -0.0822601169347763, -0.02700011432170868, 0.9952768087387085, -0.08227158337831497, -0.1291980743408203, 1.4853515625, 1.386474609375, 0.028656005859375, 1.493408203125
53989, -5.756551265716553, 4.781914710998535, 7.056358814239502, -0.2078593373298645, 0.1964801847934723, -39.68056869506836, -0.6362602710723877, 0.6010259389877319, -1.576252818107605, -0.8433629870414734, -0.9129111170768738, 0.05594188719987869, -1.8403636724153591, 0.5282430013942303, 175.45035561578152, 9362.0, 30146.0, 35388.0, 9362.0, 8.191736221313477, 0.04180113598704338, 0.022743085399270058, 0.15149568021297455, -0.08247343450784683, -0.024781223386526108, 0.9956104755401611, -0.08227158337831497, -0.1291980743408203, 1.4853515625, 1.386474609375, 0.028656005859375, 1.493408203125
53999, -5.75680685043335, 4.780876636505127, 7.057823181152344, -0.2078593373298645, 0.1964801847934723, -39.68056869506836, -0.6362602710723877, 0.6010259389877319, -1.576252818107605, -0.8433638215065002, -0.9128815531730652, 0.055938348174095154, -1.8312544425661483, 0.526795270878381, 175.45413463576944, 9362.0, 30146.0, 35388.0, 9362.0, 8.191736221313477, -0.136952206492424, 0.018264509737491608, 0.1706666499376297, -0.08190701901912689, -0.023999296128749847, 0.9987991452217102, -0.08227158337831497, -0.1291980743408203, 1.4853515625, 1.386474609375, 0.028656005859375, 1.493408203125
54009, -5.757025718688965, 4.779783725738525, 7.059132099151611, -0.22076933085918427, 0.20867517590522766, -39.712120056152344, -0.6547461748123169, 0.6184786558151245, -1.5787854194641113, -0.8433681726455688, -0.9128954410552979, 0.05594939738512039, -1.8345213834436263, 0.5156160428028613, 175.46386247038416, 9362.0, 30146.0, 35388.0, 9362.0, 8.191736221313477, 0.13085931539535522, -0.1413002461194992, 0.08996102213859558, -0.08271530270576477, -0.026503710076212883, 0.9994040727615356, -0.08227158337831497, -0.1291980743408203, 1.4853515625, 1.437744140625, 0.086029052734375, 1.493408203125
54029, -5.7578935623168945, 4.787275791168213, 7.060309410095215, -0.22076933085918427, 0.20867517590522766, -39.712120056152344, -0.6547461748123169, 0.6184786558151245, -1.5787854194641113, -0.8434349894523621, -0.9128826260566711, 0.05602604150772095, -1.8784278084432704, 0.5631986529319875, 175.49503114848477, 9362.0, 30146.0, 35388.0, 9362.0, 8.191736221313477, 0.006747652310878038, -0.020282739773392677, 0.3442465662956238, -0.07769528776407242, -0.02544254995882511, 0.9978911280632019, -0.08227158337831497, -0.1291980743408203, 1.4853515625, 1.4296875, 0.07464599609375, 1.48681640625
54039, -5.75801420211792, 4.788695335388184, 7.062098503112793, -0.22076933085918427, 0.20867517590522766, -39.712120056152344, -0.6547461748123169, 0.6184786558151245, -1.5787854194641113, -0.8433545231819153, -0.9128937125205994, 0.0559476837515831, -1.835264237540337, 0.537471420208135, 175.45935841383573, 9362.0, 30146.0, 35388.0, 9362.0, 8.191736221313477, 0.04490531608462334, -0.1948714554309845, -0.11182880401611328, -0.07942042499780655, -0.023545105010271072, 0.9973404407501221, -0.08227158337831497, -0.1291980743408203, 1.4853515625, 1.4296875, 0.07464599609375, 1.493408203125
54049, -5.758003234863281, 4.787423610687256, 7.060579299926758, -0.22076933085918427, 0.20867517590522766, -39.712120056152344, -0.6547461748123169, 0.6184786558151245, -1.5787854194641113, -0.8432757258415222, -0.91300368309021, 0.05607756972312927, -1.8881856064861655, 0.6179194505666317, 175.495149220762, 9362.0, 30146.0, 35388.0, 9362.0, 8.191736221313477, 0.14851497113704681, 0.3058615028858185, 0.03425177186727524, -0.08294317871332169, -0.02399447001516819, 0.9978423714637756, -0.08227158337831497, -0.1291980743408203, 1.4853515625, 1.4296875, 0.07464599609375, 1.493408203125
54059, -5.759346008300781, 4.786098003387451, 7.062151908874512, -0.22076933085918427, 0.20867517590522766, -39.712120056152344, -0.6547461748123169, 0.6184786558151245, -1.5787854194641113, -0.8434375524520874, -0.9128671288490295, 0.056006647646427155, -1.8755842580105353, 0.5790810606256969, 175.50144399160868, 9362.0, 30146.0, 35388.0, 9362.0, 8.191736221313477, 0.21574492752552032, 0.2931424081325531, 0.20774057507514954, -0.08002883940935135, -0.023310698568820953, 0.9976133108139038, -0.08227158337831497, -0.1291980743408203, 1.4853515625, 1.4296875, 0.07464599609375, 1.493408203125
54079, -5.759998798370361, 4.78168249130249, 7.063403129577637, -0.26172274351119995, 0.247359037399292, -39.80702590942383, -0.7103705406188965, 0.670969545841217, -1.584944248199463, -0.8433568477630615, -0.9128954410552979, 0.05594880133867264, -1.8297100356625016, 0.516030560801795, 175.4527264895885, 9362.0, 30146.0, 35388.0, 9362.0, 8.191736221313477, 0.14353245496749878, 0.05180561915040016, -0.09159480035305023, -0.08222120255231857, -0.02652529627084732, 0.9967824816703796, -0.08227158337831497, -0.1291980743408203, 1.4853515625, 1.40625, 0.04620361328125, 1.493408203125
54089, -5.75938606262207, 4.781383037567139, 7.0617594718933105, -0.2761155068874359, 0.26095330715179443, -39.8387451171875, -0.7289020419120789, 0.6884583234786987, -1.587134599685669, -0.8433622717857361, -0.912879228591919, 0.05597592145204544, -1.8313893892308808, 0.5198466254153402, 175.45889456408872, 9362.0, 30146.0, 35388.0, 9362.0, 8.191736221313477, -0.07064857333898544, -0.03173493966460228, -0.40242624282836914, -0.0816265344619751, -0.026566818356513977, 0.9966261386871338, -0.08227158337831497, -0.1291980743408203, 1.4853515625, 1.40625, 0.04620361328125, 1.493408203125
54099, -5.75896692276001, 4.780874252319336, 7.06147575378418, -0.2761155068874359, 0.26095330715179443, -39.8387451171875, -0.7289020419120789, 0.6884583234786987, -1.587134599685669, -0.8433530330657959, -0.9128915071487427, 0.05593181774020195, -1.8359870122601403, 0.5261251091600627, 175.45445622457373, 9362.0, 30146.0, 35388.0, 9362.0, 8.191736221313477, 0.11438370496034622, 0.31949582695961, 0.06075515225529671, -0.08148729801177979, -0.024989694356918335, 0.9968661069869995, -0.08227158337831497, -0.1291980743408203, 1.4853515625, 1.40625, 0.04620361328125, 1.493408203125
54109, -5.758872032165527, 4.7805914878845215, 7.06152868270874, -0.290878564119339, 0.2748972177505493, -39.87051010131836, -0.7474046945571899, 0.705935537815094, -1.589500904083252, -0.8433653116226196, -0.9128826260566711, 0.055938996374607086, -1.8287029153003596, 0.5242710772773478, 175.46180265409404, 9362.0, 30146.0, 35388.0, 9362.0, 8.191736221313477, 0.11438370496034622, 0.31949582695961, 0.06075515225529671, -0.08171818405389786, -0.02542140893638134, 0.9975200295448303, -0.08227158337831497, -0.1291980743408203, 1.4853515625, 1.396728515625, 0.0370025634765625, 1.493408203125
54129, -5.757359504699707, 4.783237934112549, 7.058307647705078, -0.290878564119339, 0.2748972177505493, -39.87051010131836, -0.7474046945571899, 0.705935537815094, -1.589500904083252, -0.8433586955070496, -0.9128910899162292, 0.055954642593860626, -1.8385127217076194, 0.5305288064512013, 175.45412894503679, 9362.0, 30146.0, 35388.0, 9362.0, 8.191736221313477, -0.09274779260158539, -0.06716492772102356, -0.18776364624500275, -0.08207443356513977, -0.022304316982626915, 0.9958110451698303, -0.08227158337831497, -0.1291980743408203, 1.4853515625, 1.396728515625, 0.0370025634765625, 1.491943359375
54139, -5.757082939147949, 4.785117149353027, 7.056534767150879, -0.290878564119339, 0.2748972177505493, -39.87051010131836, -0.7474046945571899, 0.705935537815094, -1.589500904083252, -0.8432803750038147, -0.9130092263221741, 0.05610474944114685, -1.8931310538518284, 0.60733581263014, 175.4893640067422, 9362.0, 30146.0, 35388.0, 9362.0, 8.191736221313477, 0.10955289006233215, 0.04411726072430611, 0.1903044581413269, -0.0795491635799408, -0.022699479013681412, 0.9952341914176941, -0.08227158337831497, -0.1291980743408203, 1.4853515625, 1.396728515625, 0.0370025634765625, 1.493408203125
54149, -5.7572922706604, 4.786067485809326, 7.054858684539795, -0.290878564119339, 0.2748972177505493, -39.87051010131836, -0.7474046945571899, 0.705935537815094, -1.589500904083252, -0.8433887362480164, -0.9128687381744385, 0.055940382182598114, -1.8426554391247048, 0.5329840008726876, 175.45676994869487, 9362.0, 30146.0, 35388.0, 9362.0, 8.191736221313477, 0.1468629240989685, 0.15246352553367615, 0.003487616078928113, -0.08230245858430862, -0.02507094480097294, 0.9952067136764526, -0.08227158337831497, -0.1291980743408203, 1.4853515625, 1.396728515625, 0.0370025634765625, 1.493408203125
54159, -5.756368160247803, 4.78413724899292, 7.0540971755981445, -0.290878564119339, 0.2748972177505493, -39.87051010131836, -0.7474046945571899, 0.705935537815094, -1.589500904083252, -0.8433451652526855, -0.9128938317298889, 0.055951520800590515, -1.8279055689269263, 0.5424812546728219, 175.45278960670197, 9362.0, 30146.0, 35388.0, 9362.0, 8.191736221313477, 0.12478485703468323, 0.29673972725868225, 0.07839635759592056, -0.08087092638015747, -0.02487587369978428, 0.9966599941253662, -0.08227158337831497, -0.1291980743408203, 1.4853515625, 1.382080078125, 0.0256195068359375, 1.493408203125
54179, -5.756306171417236, 4.78525447845459, 7.050946235656738, -0.290878564119339, 0.2748972177505493, -39.87051010131836, -0.7474046945571899, 0.705935537815094, -1.589500904083252, -0.8433495163917542, -0.9128832221031189, 0.05595302954316139, -1.8285921087221468, 0.5212007901598952, 175.4519990557879, 9362.0, 30146.0, 35388.0, 9362.0, 8.17190170288086, -0.025381049141287804, 0.03976001217961311, -0.12474223226308823, -0.08182340115308762, -0.024433014914393425, 0.9959551095962524, -0.08227158337831497, -0.1291980743408203, 1.4853515625, 1.40771484375, 0.0478363037109375, 1.493408203125
54189, -5.755717754364014, 4.7873687744140625, 7.0510945320129395, -0.35363197326660156, 0.33416810631752014, -39.998043060302734, -0.8214203715324402, 0.7758128046989441, -1.5990326404571533, -0.8433717489242554, -0.9128967523574829, 0.055939123034477234, -1.8327189289076244, 0.5219283234106911, 175.46195451135435, 9362.0, 30146.0, 35388.0, 9362.0, 8.17190170288086, 0.15428705513477325, -0.0040530557744205, -0.15634281933307648, -0.08279488980770111, -0.025852734223008156, 0.996364176273346, -0.08227158337831497, -0.1291980743408203, 1.4853515625, 1.487548828125, 0.1712188720703125, 1.493408203125
54199, -5.754718780517578, 4.787547588348389, 7.04991340637207, -0.35363197326660156, 0.33416810631752014, -39.998043060302734, -0.8214203715324402, 0.7758128046989441, -1.5990326404571533, -0.8432804942131042, -0.9130200147628784, 0.056073203682899475, -1.8974203422228082, 0.6202960889381472, 175.4833776119786, 9362.0, 30146.0, 35388.0, 9362.0, 8.17190170288086, 0.12910588085651398, 0.2227959781885147, -0.3136535584926605, -0.08177491277456284, -0.024983126670122147, 0.9967601299285889, -0.08227158337831497, -0.1291980743408203, 1.4853515625, 1.478759765625, 0.1546478271484375, 1.493408203125
54209, -5.7542643547058105, 4.787375450134277, 7.0486955642700195, -0.35363197326660156, 0.33416810631752014, -39.998043060302734, -0.8214203715324402, 0.7758128046989441, -1.5990326404571533, -0.8433736562728882, -0.9128922820091248, 0.055943142622709274, -1.8344504540707818, 0.5124926379631347, 175.46050826350057, 9362.0, 30146.0, 35388.0, 9362.0, 8.17190170288086, -0.0349816270172596, -0.46340903639793396, -0.37012356519699097, -0.08206065744161606, -0.027285713702440262, 0.9980294704437256, -0.08227158337831497, -0.1291980743408203, 1.4853515625, 1.40771484375, 0.0478363037109375, 1.493408203125
54219, -5.754056453704834, 4.789248466491699, 7.047331809997559, -0.35363197326660156, 0.33416810631752014, -39.998043060302734, -0.8214203715324402, 0.7758128046989441, -1.5990326404571533, -0.8432996273040771, -0.9130046367645264, 0.056073252111673355, -1.8967682833419983, 0.6069579826416316, 175.4946515271556, 9362.0, 30146.0, 35388.0, 9362.0, 8.17190170288086, 0.24184000492095947, -0.001324301934801042, 0.15058790147304535, -0.07857455313205719, -0.02736266516149044, 0.9971339106559753, -0.08227158337831497, -0.1291980743408203, 1.4853515625, 1.43115234375, 0.0766143798828125, 1.5
54239, -5.753802299499512, 4.79175329208374, 7.045604705810547, -0.38722938299179077, 0.3658992648124695, -40.06209945678711, -0.8584687113761902, 0.8107579946517944, -1.6035748720169067, -0.8433712124824524, -0.9128780961036682, 0.05596518516540527, -1.8433337481160708, 0.524550505631197, 175.4615196963734, 9362.0, 30146.0, 35388.0, 9362.0, 8.17190170288086, -0.024172505363821983, 0.10180531442165375, 0.14442481100559235, -0.08378560096025467, -0.02512284554541111, 0.9972116947174072, -0.08227158337831497, -0.1291980743408203, 1.4853515625, 1.453857421875, 0.1110687255859375, 1.496337890625
54249, -5.75409460067749, 4.792857646942139, 7.045346736907959, -0.38722938299179077, 0.3658992648124695, -40.06209945678711, -0.8584687113761902, 0.8107579946517944, -1.6035748720169067, -0.8433661460876465, -0.9128853678703308, 0.05593908578157425, -1.8353158625204653, 0.5241033667996362, 175.4640331807639, 9362.0, 30146.0, 35388.0, 9362.0, 8.17190170288086, 0.02750483714044094, -0.43456077575683594, -0.38565194606781006, -0.08185644447803497, -0.02514399215579033, 0.9968260526657104, -0.08227158337831497, -0.1291980743408203, 1.4853515625, 1.453857421875, 0.1110687255859375, 1.496337890625
54259, -5.753880977630615, 4.79657506942749, 7.042893886566162, -0.38722938299179077, 0.3658992648124695, -40.06209945678711, -0.8584687113761902, 0.8107579946517944, -1.6035748720169067, -0.8434364795684814, -0.9128857851028442, 0.05603361874818802, -1.8825228882994092, 0.568436364641201, 175.50092306669367, 9362.0, 30146.0, 35388.0, 9362.0, 8.17190170288086, 0.014956881292164326, -0.2973528206348419, -0.3928411304950714, -0.08027444034814835, -0.02443767711520195, 0.9937284588813782, -0.08227158337831497, -0.1291980743408203, 1.4853515625, 1.39453125, 0.035003662109375, 1.496337890625
54279, -5.7524824142456055, 4.796683311462402, 7.041749477386475, -0.38722938299179077, 0.3658992648124695, -40.06209945678711, -0.8584687113761902, 0.8107579946517944, -1.6035748720169067, -0.8432871103286743, -0.9130104780197144, 0.05609162524342537, -1.9005589018751876, 0.6069972025505876, 175.49038888877283, 9362.0, 30146.0, 35388.0, 9362.0, 8.191736221313477, 0.19335827231407166, -0.023228870704770088, -0.00899561122059822, -0.0808100700378418, -0.024644743651151657, 0.996471643447876, -0.08227158337831497, -0.1291980743408203, 1.4853515625, 1.420166015625, 0.0621337890625, 1.496337890625
54289, -5.751811504364014, 4.797914981842041, 7.041770935058594, -0.44040536880493164, 0.41611629724502563, -40.15852355957031, -0.9140502214431763, 0.863114595413208, -1.6108721494674683, -0.8433571457862854, -0.9128907322883606, 0.055933546274900436, -1.837393546342663, 0.5252629678930418, 175.45261455350698, 9362.0, 30146.0, 35388.0, 9362.0, 8.191736221313477, 0.05945031717419624, -0.20602631568908691, 0.1013525202870369, -0.0790172591805458, -0.026360446587204933, 0.9958511590957642, -0.08227158337831497, -0.1291980743408203, 1.4853515625, 1.420166015625, 0.0621337890625, 1.496337890625
54299, -5.751067638397217, 4.796882629394531, 7.043231964111328, -0.44040536880493164, 0.41611629724502563, -40.15852355957031, -0.9140502214431763, 0.863114595413208, -1.6108721494674683, -0.8434451222419739, -0.9128738641738892, 0.056032098829746246, -1.8781155326016419, 0.5669753507581845, 175.49809467525083, 9362.0, 30146.0, 35388.0, 9362.0, 8.191736221313477, 0.1052328422665596, 0.18493448197841644, 0.11754196137189865, -0.08249492198228836, -0.024734066799283028, 0.9984544515609741, -0.08227158337831497, -0.1291980743408203, 1.4853515625, 1.420166015625, 0.0621337890625, 1.496337890625
