timeTick, roll, pitch, yaw, stateX, stateY, stateZ, stateVX, stateVY, stateVZ, otX0, otY0, otZ0, otRoll0, otPitch0, otYaw0, left wing, pitch motor, yaw motor, right wing, voltage, roll rate, pitch rate, yaw rate, A_x, A_y, A_z, current, i_raw, v_raw, airflow_voltage, airflow_speed, pot_Pitch
49693, 0.10021905601024628, 3.1017112731933594, -4.379714012145996, 0, 0, 0, 0, 0, 0, -0.8640621900558472, -0.8957980871200562, 0.05665057897567749, -2.2457910789965743, 0.47779813159914397, -175.57038477414602, 0, 0, 0, 0, 0, 0, 0, 0, 0, 0, 0, 0, 0, 0, 0, 0, 0
49703, 0.09985439479351044, 3.101566791534424, -4.380166530609131, 0.0012594966683536768, -5.588592466665432e-05, -57.15851593017578, 0.12330444157123566, -0.00547106983140111, -2.3750452995300293, -0.8640574812889099, -0.8958027958869934, 0.056624144315719604, -2.245736955025304, 0.488390264789615, -175.56775438367728, 9362.0, 30146.0, 35388.0, 9362.0, 0, -0.09694565832614899, -0.33335766196250916, -0.1313350647687912, -0.08361248672008514, -0.02095363475382328, 0.9975407719612122, 0, 0, 0, 0, 0, 0
49713, 0.09860337525606155, 3.103060007095337, -4.38168478012085, 0.0024660686030983925, -0.00010942775406874716, -57.18226623535156, 0.11800990998744965, -0.0052372547797858715, -2.375394344329834, -0.8640549182891846, -0.8957979083061218, 0.05662235617637634, -2.240009375058451, 0.4849032847776016, -175.57863948224227, 9362.0, 30146.0, 35388.0, 9362.0, 0, -0.1788536161184311, -0.08565571904182434, -0.3439103662967682, -0.08188813179731369, -0.01960352621972561, 0.9960739612579346, 0, 0, 0, 1.50146484375, 0.1985626220703125, 0
49723, 0.09862600266933441, 3.103806495666504, -4.381562232971191, 0.003619707189500332, -0.00016062868235167116, -57.20602035522461, 0.11271783709526062, -0.0050027924589812756, -2.3757829666137695, -0.8640636205673218, -0.8958022594451904, 0.056625306606292725, -2.2491220320361234, 0.47565124759321975, -175.57000871706148, 9362.0, 30146.0, 35388.0, 9362.0, 0, 0.0003049427177757025, 0.02712598815560341, 0.19510358572006226, -0.08382479101419449, -0.020198041573166847, 0.9949066638946533, 0, 0, 0, 1.427490234375, 0.0716400146484375, 1.493408203125
49733, 0.09836471825838089, 3.102884292602539, -4.380427360534668, 0.004720471799373627, -0.00020947528537362814, -57.22978210449219, 0.10743509232997894, -0.004766540136188269, -2.37638783454895, -0.864065408706665, -0.8957968354225159, 0.0566306971013546, -2.2479206838092103, 0.48067039633806985, -175.56401239551235, 9362.0, 30146.0, 35388.0, 9362.0, 0, 0.0644487515091896, -0.05343850702047348, 0.1291382610797882, -0.08614011108875275, -0.021666958928108215, 0.9960712194442749, 0, 0, 0, 1.411376953125, 0.05181884765625, 1.493408203125
49743, 0.09752073138952255, 3.1039605140686035, -4.37864351272583, 0.005768417846411467, -0.0002559598069638014, -57.25354766845703, 0.10215409845113754, -0.004530470818281174, -2.377048969268799, -0.8640631437301636, -0.895803689956665, 0.05663740262389183, -2.247647879387182, 0.47133075557223947, -175.57437825957464, 9362.0, 30146.0, 35388.0, 9362.0, 0, -0.09167317301034927, 0.03822457790374756, -0.08834712207317352, -0.08502530306577682, -0.02281508781015873, 0.994365930557251, 0, 0, 0, 1.490478515625, 0.1768646240234375, 1.496337890625
49753, 0.09825753420591354, 3.103644609451294, -4.3792924880981445, 0.00676354905590415, -0.00030008197063580155, -57.277320861816406, 0.09687213599681854, -0.004294130951166153, -2.377662420272827, -0.8640586137771606, -0.8958072662353516, 0.056638672947883606, -2.250904229709922, 0.48664472508465906, -175.58170669679612, 9362.0, 30146.0, 35388.0, 9362.0, 0, 0.15569579601287842, 0.1153622567653656, -0.09292202442884445, -0.08472508937120438, -0.020387161523103714, 0.996167004108429, 0, 0, 0, 1.440673828125, 0.090423583984375, 1.496337890625
49763, 0.09847285598516464, 3.104736089706421, -4.378199100494385, 0.007705844007432461, -0.0003418333362787962, -57.30110168457031, 0.09158684313297272, -0.004056076053529978, -2.378246307373047, -0.8640637993812561, -0.8958098292350769, 0.05662060156464577, -2.25441119286536, 0.48534109797236624, -175.57256181298854, 9362.0, 30146.0, 35388.0, 9362.0, 0, 0.18961217999458313, -0.2538730800151825, 0.15536290407180786, -0.08569058775901794, -0.02148425206542015, 0.9968578815460205, 0, 0, 0, 1.400390625, 0.04034423828125, 1.496337890625
49773, 0.09956397861242294, 3.104264974594116, -4.378956317901611, 0.008595254272222519, -0.0003812087816186249, -57.324886322021484, 0.0862952172756195, -0.0038191163912415504, -2.3787050247192383, -0.8640686273574829, -0.8958058953285217, 0.05662079155445099, -2.2508366297639486, 0.4837121321604343, -175.57165244276305, 9362.0, 30146.0, 35388.0, 9362.0, 0, -0.0888267308473587, 0.38640937209129333, -0.040779996663331985, -0.0813516154885292, -0.021647486835718155, 0.9957714676856995, 0, 0, 0, 1.435546875, 0.0829315185546875, 1.496337890625
49783, 0.10040371865034103, 3.1022112369537354, -4.377450466156006, 0.009431750513613224, -0.0004182168049737811, -57.34867477416992, 0.0810040831565857, -0.0035824140068143606, -2.3792080879211426, -0.8640746474266052, -0.8957961201667786, 0.05663624405860901, -2.2534979503648724, 0.4876140465827632, -175.57247806598133, 9362.0, 30146.0, 35388.0, 9362.0, 0, 0.11765400320291519, -0.1413981318473816, 0.07362890988588333, -0.08300218731164932, -0.023898258805274963, 0.9959573149681091, 0, 0, 0, 1.424560546875, 0.0678253173828125, 1.49560546875
49793, 0.10071088373661041, 3.102415084838867, -4.377385139465332, 0.010215346701443195, -0.00045286735985428095, -57.37247085571289, 0.07571514695882797, -0.0033478345721960068, -2.3797390460968018, -0.8640583157539368, -0.8958001732826233, 0.056618332862854004, -2.242113932908624, 0.48668536412395724, -175.57921568757874, 9362.0, 30146.0, 35388.0, 9362.0, 8.370248794555664, 0.029459740966558456, 0.16122384369373322, 0.13812489807605743, -0.08446021378040314, -0.020400656387209892, 0.9958459734916687, -0.10054659843444824, -0.32631683349609375, 1.46923828125, 1.439208984375, 0.0882415771484375, 1.49560546875
49803, 0.09949859231710434, 3.1021640300750732, -4.376959323883057, 0.010946075432002544, -0.0004851815465372056, -57.396270751953125, 0.07043066620826721, -0.0031150064896792173, -2.3802897930145264, -0.86407470703125, -0.8958008885383606, 0.056615009903907776, -2.2480393677551835, 0.4785136395025802, -175.5793569193845, 9362.0, 30146.0, 35388.0, 9362.0, 8.370248794555664, -0.1332365721464157, -0.402402400970459, -0.009458369575440884, -0.08295261859893799, -0.02092559076845646, 0.9964233040809631, -0.10054659843444824, -0.32631683349609375, 1.46923828125, 1.509521484375, 0.2148895263671875, 1.4912109375
49813, 0.09888000041246414, 3.1039068698883057, -4.375675201416016, 0.011623946949839592, -0.0005151694640517235, -57.420074462890625, 0.06514366716146469, -0.002882624277845025, -2.38080096244812, -0.8640661239624023, -0.8957906365394592, 0.05664028972387314, -2.2513124432294784, 0.4793226230580956, -175.57899276906997, 9362.0, 30146.0, 35388.0, 9362.0, 8.370248794555664, 0.09026981890201569, 0.3619532585144043, 0.25921696424484253, -0.082272008061409, -0.02149774506688118, 0.9957808256149292, -0.10054659843444824, -0.32631683349609375, 1.46923828125, 1.462646484375, 0.125823974609375, 1.4912109375
49823, 0.09939516335725784, 3.1025707721710205, -4.37379789352417, 0.012248935177922249, -0.0005428228760138154, -57.443885803222656, 0.059853967279195786, -0.0026481859385967255, -2.3812520503997803, -0.8640578389167786, -0.8957911729812622, 0.05662668123841286, -2.2511048590928553, 0.4842918651942796, -175.5722410494677, 9362.0, 30146.0, 35388.0, 9362.0, 8.370248794555664, -0.1133003830909729, 0.0004528244608081877, 0.4062042832374573, -0.08364540338516235, -0.020683273673057556, 0.9950948357582092, -0.10054659843444824, -0.32631683349609375, 1.46923828125, 1.3974609375, 0.03759765625, 1.4912109375
49833, 0.09770430624485016, 3.1023333072662354, -4.373006820678711, 0.012821057811379433, -0.000568128190934658, -57.46770095825195, 0.054570604115724564, -0.0024130449164658785, -2.381873369216919, -0.8640795946121216, -0.8957987427711487, 0.05661565065383911, -2.2388742515436633, 0.4934034215069687, -175.56748872045176, 9362.0, 30146.0, 35388.0, 9362.0, 8.370248794555664, -0.12018381804227829, -0.03843896463513374, -0.0670919418334961, -0.08244647830724716, -0.020091649144887924, 0.9972348213195801, -0.10054659843444824, -0.32631683349609375, 1.46923828125, 1.5, 0.19561767578125, 1.4912109375
49843, 0.09876153618097305, 3.105259418487549, -4.37341833114624, 0.013340327888727188, -0.0005910868640057743, -57.49152374267578, 0.04928337782621384, -0.002178765134885907, -2.382382869720459, -0.8640767335891724, -0.8958011269569397, 0.05662068724632263, -2.248102660992419, 0.4758217724534006, -175.57917722319525, 9362.0, 30146.0, 35388.0, 9362.0, 8.370248794555664, 0.02189582958817482, -0.667314350605011, -0.2997310757637024, -0.08358254283666611, -0.020980626344680786, 0.9974802732467651, -0.10054659843444824, -0.32631683349609375, 1.46923828125, 1.447265625, 0.1004791259765625, 1.48974609375
49853, 0.09760281443595886, 3.105342388153076, -4.373524188995361, 0.013806703500449657, -0.0006116877193562686, -57.515350341796875, 0.04399178549647331, -0.001941373571753502, -2.3827996253967285, -0.8640674352645874, -0.8958089351654053, 0.056620530784130096, -2.2507706293673078, 0.4744484327131602, -175.56713788377874, 9362.0, 30146.0, 35388.0, 9362.0, 8.370248794555664, -0.1762322187423706, 0.04160311818122864, 0.07886980473995209, -0.08527321368455887, -0.01932339556515217, 0.9970505833625793, -0.10054659843444824, -0.32631683349609375, 1.46923828125, 1.51025390625, 0.2164154052734375, 1.48974609375
49863, 0.09695837646722794, 3.1055169105529785, -4.374203205108643, 0.014220123179256916, -0.0006299209198914468, -57.539180755615234, 0.03869209438562393, -0.0017052600160241127, -2.383162260055542, -0.8640676140785217, -0.8957874774932861, 0.05659642815589905, -2.2448193138385526, 0.4830402331322148, -175.56904024138916, 9362.0, 30146.0, 35388.0, 9362.0, 8.370248794555664, -0.05463958531618118, 0.3344748616218567, 0.02545296400785446, -0.08566261827945709, -0.01997147686779499, 0.9964990019798279, -0.10054659843444824, -0.32631683349609375, 1.46923828125, 1.474365234375, 0.14654541015625, 1.491943359375
49873, 0.0954909399151802, 3.1041407585144043, -4.373377799987793, 0.014580576680600643, -0.0006457844283431768, -57.56301498413086, 0.033398520201444626, -0.0014673745026811957, -2.3836374282836914, -0.8640688061714172, -0.8958020806312561, 0.05661037564277649, -2.2427167725395747, 0.48116948026964224, -175.5724465268634, 9362.0, 30146.0, 35388.0, 9362.0, 8.370248794555664, -0.011514565907418728, -0.2962733209133148, 0.09475305676460266, -0.08601062744855881, -0.017940111458301544, 0.9960452318191528, -0.10054659843444824, -0.32631683349609375, 1.46923828125, 1.469970703125, 0.1386566162109375, 1.491943359375
49883, 0.09586501121520996, 3.106628179550171, -4.373866558074951, 0.014888099394738674, -0.0006592634599655867, -57.58685302734375, 0.028106091544032097, -0.0012285095872357488, -2.3841373920440674, -0.864051342010498, -0.8957946300506592, 0.056622087955474854, -2.2497909642647027, 0.48252012048465076, -175.57227498445107, 9362.0, 30146.0, 35388.0, 9362.0, 8.370248794555664, -0.12549230456352234, -0.130044624209404, 0.06594441086053848, -0.08482350409030914, -0.020073579624295235, 0.9955533146858215, -0.10054659843444824, -0.32631683349609375, 1.46923828125, 1.49560546875, 0.1868743896484375, 1.493408203125
49893, 0.09522680938243866, 3.106372594833374, -4.375244617462158, 0.015142710879445076, -0.0006703426479361951, -57.61069869995117, 0.022816311568021774, -0.000987282139249146, -2.384639024734497, -0.864064633846283, -0.8957986831665039, 0.05661425739526749, -2.2459904484143203, 0.47576854713454964, -175.57768681684558, 9362.0, 30146.0, 35388.0, 9362.0, 8.370248794555664, -0.07662729918956757, 0.4874607026576996, -0.12396568804979324, -0.08311159908771515, -0.020606214180588722, 0.9969316124916077, -0.08390525728464127, -0.07543754577636719, 1.48974609375, 1.405517578125, 0.0454254150390625, 1.493408203125
49903, 0.09620373696088791, 3.1057097911834717, -4.375613689422607, 0.015344413928687572, -0.000679011398460716, -57.63454818725586, 0.017524421215057373, -0.000746343401260674, -2.385181427001953, -0.8640559911727905, -0.895804762840271, 0.05663546174764633, -2.242448535481738, 0.4932717941695728, -175.57652712021618, 9362.0, 30146.0, 35388.0, 9362.0, 8.370248794555664, 0.21363498270511627, -0.25737470388412476, -0.17840898036956787, -0.08429429680109024, -0.020990844815969467, 0.9950057864189148, -0.08390525728464127, -0.07543754577636719, 1.48974609375, 1.5146484375, 0.225494384765625, 1.493408203125
49913, 0.09759378433227539, 3.103597640991211, -4.375273704528809, 0.015493202954530716, -0.0006852649385109544, -57.65840148925781, 0.012233307585120201, -0.0005043243290856481, -2.385728359222412, -0.8640604615211487, -0.895785927772522, 0.056616030633449554, -2.245636245805461, 0.4855729321472211, -175.5731582143935, 9362.0, 30146.0, 35388.0, 9362.0, 8.370248794555664, 0.06539090722799301, 0.24086976051330566, 0.06830503046512604, -0.084572434425354, -0.01976722665131092, 0.9957930445671082, -0.08390525728464127, -0.07543754577636719, 1.48974609375, 1.493408203125, 0.1825714111328125, 1.493408203125
49923, 0.09626519680023193, 3.1010913848876953, -4.372375011444092, 0.015589098446071148, -0.000689107459038496, -57.6822624206543, 0.00694585544988513, -0.0002642004983499646, -2.386324882507324, -0.8640784621238708, -0.8958027362823486, 0.0566144734621048, -2.254016884240531, 0.47149078754083007, -175.57077928622704, 9362.0, 30146.0, 35388.0, 9362.0, 8.370248794555664, -0.0835525244474411, 0.0759517252445221, 0.3923172056674957, -0.08317378163337708, -0.02209498919546604, 0.9977182745933533, -0.08390525728464127, -0.07543754577636719, 1.48974609375, 1.390869140625, 0.0319671630859375, 1.493408203125
49933, 0.09571205079555511, 3.1020827293395996, -4.3726372718811035, 0.01563209295272827, -0.0006905600894242525, -57.70612716674805, 0.0016530578723177314, -2.6594590963213705e-05, -2.3867595195770264, -0.8640568256378174, -0.8957921862602234, 0.05663637816905975, -2.2501520272869717, 0.48144099218845327, -175.56950626095647, 9362.0, 30146.0, 35388.0, 9362.0, 8.370248794555664, -0.18826450407505035, -0.07722935080528259, -0.30654460191726685, -0.08472676575183868, -0.02153417281806469, 0.9970183968544006, -0.08390525728464127, -0.07543754577636719, 1.48974609375, 1.524169921875, 0.2455596923828125, 1.493408203125
49943, 0.09520494192838669, 3.1028330326080322, -4.374716758728027, 0.015622167848050594, -0.0006896277191117406, -57.72999572753906, -0.00363804935477674, 0.00021309545263648033, -2.3871428966522217, -0.8640643358230591, -0.8957984447479248, 0.05665218085050583, -2.2513433782598393, 0.4774882177948996, -175.58155929873664, 9362.0, 30146.0, 35388.0, 9362.0, 8.370248794555664, -0.20101508498191833, 0.09919741004705429, -0.07784001529216766, -0.08532469719648361, -0.021366262808442116, 0.9951326847076416, -0.08390525728464127, -0.07543754577636719, 1.48974609375, 1.4794921875, 0.155975341796875, 1.494873046875
49953, 0.09537893533706665, 3.099693775177002, -4.3738112449646, 0.0155593641102314, -0.0006862948066554964, -57.753868103027344, -0.008922586217522621, 0.0004536736523732543, -2.3876776695251465, -0.864066481590271, -0.8958098292350769, 0.056610990315675735, -2.249507634773051, 0.47981226710169267, -175.5718486873244, 9362.0, 30146.0, 35388.0, 9362.0, 8.370248794555664, -0.03036545403301716, -0.03341325372457504, 0.21452689170837402, -0.08530551195144653, -0.020569726824760437, 0.9974908232688904, -0.08390525728464127, -0.07543754577636719, 1.48974609375, 1.524169921875, 0.2455596923828125, 1.494873046875
49963, 0.09515517204999924, 3.0987417697906494, -4.371663570404053, 0.01544372271746397, -0.0006805509328842163, -57.777748107910156, -0.01420575100928545, 0.0006950140232220292, -2.3882601261138916, -0.8640616536140442, -0.8957915306091309, 0.05665132403373718, -2.2444385892282335, 0.47622211493950317, -175.577429201115, 9362.0, 30146.0, 35388.0, 9362.0, 8.370248794555664, 0.03073752485215664, 0.051302745938301086, 0.32753047347068787, -0.08362563699483871, -0.01973768137395382, 0.9970618486404419, -0.08390525728464127, -0.07543754577636719, 1.48974609375, 1.500732421875, 0.1970977783203125, 1.493408203125
49973, 0.09398869425058365, 3.098768949508667, -4.371902942657471, 0.015275225043296814, -0.0006723952828906476, -57.801631927490234, -0.0194938313215971, 0.000935916556045413, -2.3886537551879883, -0.8640410304069519, -0.8958008885383606, 0.05662396922707558, -2.2501240699554366, 0.4778504891125124, -175.57041152972417, 9362.0, 30146.0, 35388.0, 9362.0, 8.370248794555664, -0.250995010137558, 0.021751858294010162, -0.025022609159350395, -0.08552434295415878, -0.02101278118789196, 0.9980467557907104, -0.08390525728464127, -0.07543754577636719, 1.48974609375, 1.49267578125, 0.1811065673828125, 1.493408203125
49983, 0.09381584823131561, 3.0969135761260986, -4.3721699714660645, 0.015053844079375267, -0.0006618298357352614, -57.82551956176758, -0.024782318621873856, 0.0011771901044994593, -2.389009475708008, -0.8640738725662231, -0.8958016633987427, 0.056616928428411484, -2.244305913964611, 0.4730494273289594, -175.57235387710983, 9362.0, 30146.0, 35388.0, 9362.0, 8.370248794555664, 0.07188837975263596, 0.1526041030883789, -0.3296450972557068, -0.08556021749973297, -0.02191172167658806, 0.998901903629303, -0.08390525728464127, -0.07543754577636719, 1.48974609375, 1.503662109375, 0.2029876708984375, 1.497802734375
49993, 0.09477383643388748, 3.0960726737976074, -4.373296737670898, 0.014779562130570412, -0.0006488407962024212, -57.84941101074219, -0.03007412888109684, 0.001420642132870853, -2.389301061630249, -0.864057719707489, -0.8958004713058472, 0.0566607303917408, -2.2463466216441903, 0.4805011323188353, -175.5718269112201, 9362.0, 30146.0, 35388.0, 9362.0, 8.390083312988281, -0.014955343678593636, -0.12891678512096405, -0.08476979285478592, -0.08284927159547806, -0.02233036234974861, 0.9961424469947815, -0.0828784927725792, 0.08584022521972656, 1.5029296875, 1.493408203125, 0.1825714111328125, 1.497802734375
50003, 0.09538454562425613, 3.0941150188446045, -4.374274253845215, 0.014452398754656315, -0.0006334178615361452, -57.87330627441406, -0.03535846620798111, 0.0016640502726659179, -2.389672040939331, -0.8640754222869873, -0.8958057761192322, 0.05660397559404373, -2.253661537615004, 0.4792803243380206, -175.57484751955747, 9362.0, 30146.0, 35388.0, 9362.0, 8.390083312988281, -0.21002374589443207, 0.2923036515712738, -0.13758760690689087, -0.08269350975751877, -0.020473739132285118, 0.9969311356544495, -0.0828784927725792, 0.08584022521972656, 1.5029296875, 1.5263671875, 0.2502899169921875, 1.494873046875
50013, 0.09571383893489838, 3.094774007797241, -4.373744010925293, 0.014072427526116371, -0.0006155703449621797, -57.8972053527832, -0.04063577204942703, 0.00190554594155401, -2.390148878097534, -0.8640627861022949, -0.8957829475402832, 0.0566500723361969, -2.245710109176309, 0.4891102103256344, -175.57391887473133, 9362.0, 30146.0, 35388.0, 9362.0, 8.390083312988281, 0.20176255702972412, -0.14764413237571716, 0.12392383813858032, -0.08246388286352158, -0.022061679512262344, 0.9969186782836914, -0.0828784927725792, 0.08584022521972656, 1.5029296875, 1.487548828125, 0.1712188720703125, 1.494873046875
50023, 0.09453349560499191, 3.0944206714630127, -4.3730573654174805, 0.013639690354466438, -0.000595313438680023, -57.92110824584961, -0.045911744236946106, 0.002145786304026842, -2.3905906677246094, -0.8640763163566589, -0.8958065509796143, 0.05662194639444351, -2.243859105114837, 0.47011931195666534, -175.57857264521704, 9362.0, 30146.0, 35388.0, 9362.0, 8.390083312988281, -0.07399260252714157, -0.1437670886516571, 0.003333674045279622, -0.08314080536365509, -0.022218769416213036, 0.9941755533218384, -0.0828784927725792, 0.08584022521972656, 1.5029296875, 1.393798828125, 0.0344085693359375, 1.493408203125
50033, 0.09508723020553589, 3.095425844192505, -4.373493671417236, 0.013154212385416031, -0.0005726578528992832, -57.94501495361328, -0.05118393525481224, 0.0023852598387748003, -2.3911237716674805, -0.8640609383583069, -0.8957964181900024, 0.05662922561168671, -2.2427421207822564, 0.47411388921852904, -175.58234261178458, 9362.0, 30146.0, 35388.0, 9362.0, 8.390083312988281, 0.07789389789104462, 0.05418119207024574, -0.010333827696740627, -0.08506692200899124, -0.022248808294534683, 0.9952379465103149, -0.0828784927725792, 0.08584022521972656, 1.5029296875, 1.4970703125, 0.18975830078125, 1.493408203125
50043, 0.0949389636516571, 3.097097158432007, -4.374530792236328, 0.012616069987416267, -0.0005476005026139319, -57.968929290771484, -0.05644461512565613, 0.00262625003233552, -2.3918559551239014, -0.8640771508216858, -0.8957971334457397, 0.056614503264427185, -2.2471030997132058, 0.47728700572065463, -175.57364808098612, 9362.0, 30146.0, 35388.0, 9362.0, 8.390083312988281, 0.09334664046764374, 0.17680507898330688, -0.007212482858449221, -0.083857960999012, -0.022008249536156654, 0.997332751750946, -0.0828784927725792, 0.08584022521972656, 1.5029296875, 1.51171875, 0.21942138671875, 1.494873046875
50053, 0.09514769911766052, 3.09424090385437, -4.37497615814209, 0.012025240808725357, -0.0005201338790357113, -57.99285125732422, -0.06172122061252594, 0.0028671687468886375, -2.3923258781433105, -0.8640750646591187, -0.8957991003990173, 0.0566071942448616, -2.245080855212285, 0.47981288894544605, -175.56726297995706, 9362.0, 30146.0, 35388.0, 9362.0, 8.390083312988281, 0.03972152993083, 0.09251752495765686, -0.013674737885594368, -0.08481547981500626, -0.020286880433559418, 0.9956079125404358, -0.0828784927725792, 0.08584022521972656, 1.5029296875, 1.491943359375, 0.179656982421875, 1.494873046875
50063, 0.0954589694738388, 3.0950868129730225, -4.375704288482666, 0.011381628923118114, -0.0004902551299892366, -58.01677703857422, -0.06700120121240616, 0.003108623903244734, -2.3927857875823975, -0.8640727400779724, -0.8957872986793518, 0.05664624273777008, -2.2511073940294675, 0.4768905120793079, -175.57571643008015, 9362.0, 30146.0, 35388.0, 9362.0, 8.390083312988281, -0.027588089928030968, 0.13119612634181976, -0.07806394249200821, -0.0853208377957344, -0.020843490958213806, 0.9934223294258118, -0.0828784927725792, 0.08584022521972656, 1.5029296875, 1.521240234375, 0.2393646240234375, 1.4970703125
50073, 0.09675385057926178, 3.097060441970825, -4.3798041343688965, 0.010685311630368233, -0.00045796847552992404, -58.040706634521484, -0.0722622498869896, 0.003348775440827012, -2.3935070037841797, -0.8640671372413635, -0.8958024382591248, 0.05660318583250046, -2.2501716896701627, 0.4807091563618542, -175.58271927066028, 9362.0, 30146.0, 35388.0, 9362.0, 8.390083312988281, 0.022207723930478096, -0.21147288382053375, -0.13215197622776031, -0.0853504091501236, -0.02084987983107567, 0.9982641935348511, -0.0828784927725792, 0.08584022521972656, 1.5029296875, 1.445068359375, 0.0970306396484375, 1.4970703125
50083, 0.09741173684597015, 3.0961544513702393, -4.3786940574646, 0.009936337359249592, -0.00042328028939664364, -58.06464385986328, -0.07753252983093262, 0.0035892468877136707, -2.3940837383270264, -0.8640809059143066, -0.8957948684692383, 0.056628018617630005, -2.2475107365650646, 0.49003641871578907, -175.570121609507, 9362.0, 30146.0, 35388.0, 9362.0, 8.390083312988281, 0.03874689340591431, 0.4786301255226135, -0.03435327485203743, -0.0856005847454071, -0.02050367370247841, 0.998775839805603, -0.0828784927725792, 0.08584022521972656, 1.5029296875, 1.528564453125, 0.2548828125, 1.4912109375
50093, 0.09758928418159485, 3.0970640182495117, -4.378533840179443, 0.009134557098150253, -0.00038619135739281774, -58.088584899902344, -0.08282354474067688, 0.003828441258519888, -2.3943426609039307, -0.8640751838684082, -0.8958142399787903, 0.056642528623342514, -2.2496586484458496, 0.47866985551434027, -175.57513804569433, 9362.0, 30146.0, 35388.0, 9362.0, 8.370248794555664, -0.1300104856491089, -0.36704590916633606, -0.12323322147130966, -0.08506514132022858, -0.018955105915665627, 0.9969483017921448, -0.08594594150781631, -0.030637741088867188, 1.493408203125, 1.45166015625, 0.107452392578125, 1.4912109375
50103, 0.09716590493917465, 3.097304582595825, -4.378171443939209, 0.008279897272586823, -0.0003467182395979762, -58.11252975463867, -0.08810834586620331, 0.004066168796271086, -2.3946890830993652, -0.8640881180763245, -0.8957890868186951, 0.056629478931427, -2.2441504918137025, 0.47382727773054967, -175.57332021217448, 9362.0, 30146.0, 35388.0, 9362.0, 8.370248794555664, -0.20480243861675262, 0.1839544028043747, 0.08874084800481796, -0.085128054022789, -0.020818490535020828, 0.9983325600624084, -0.08594594150781631, -0.030637741088867188, 1.493408203125, 1.52490234375, 0.247039794921875, 1.49267578125
50113, 0.09513559937477112, 3.094238519668579, -4.376954078674316, 0.007372391875833273, -0.0003048692597076297, -58.136478424072266, -0.0933927670121193, 0.004303589463233948, -2.395073413848877, -0.8640666007995605, -0.8957985043525696, 0.056632474064826965, -2.2483352816509337, 0.48632036017974656, -175.57977583425912, 9362.0, 30146.0, 35388.0, 9362.0, 8.370248794555664, -0.32272905111312866, 0.2176804393529892, 0.2030959576368332, -0.08446871489286423, -0.018943853676319122, 0.9971966743469238, -0.08594594150781631, -0.030637741088867188, 1.493408203125, 1.53515625, 0.2692413330078125, 1.49267578125
50123, 0.09495967626571655, 3.0948569774627686, -4.374817371368408, 0.006412009708583355, -0.00026064112898893654, -58.160430908203125, -0.09868359565734863, 0.004541930742561817, -2.395343065261841, -0.8640729188919067, -0.8958020806312561, 0.05662135034799576, -2.2452414711555475, 0.48913396673796683, -175.57778718779184, 9362.0, 30146.0, 35388.0, 9362.0, 8.370248794555664, 0.17596307396888733, 0.1750117391347885, 0.04440079256892204, -0.08433347195386887, -0.021305017173290253, 0.9946547746658325, -0.08594594150781631, -0.030637741088867188, 1.493408203125, 1.468505859375, 0.13604736328125, 1.490478515625
50133, 0.09485456347465515, 3.091580629348755, -4.373598575592041, 0.005398830398917198, -0.00021401865524239838, -58.18438720703125, -0.10395222157239914, 0.004782361444085836, -2.3959243297576904, -0.8640743494033813, -0.895789384841919, 0.05664024502038956, -2.248375211595922, 0.47673924224980624, -175.58176184729913, 9362.0, 30146.0, 35388.0, 9362.0, 8.370248794555664, 0.03341300040483475, -0.09555566310882568, 0.057827021926641464, -0.08558142930269241, -0.020742706954479218, 0.9952058792114258, -0.08594594150781631, -0.030637741088867188, 1.493408203125, 1.45751953125, 0.117095947265625, 1.490478515625
50143, 0.09462758153676987, 3.09350848197937, -4.374624729156494, 0.004332974553108215, -0.00016499162302352488, -58.208351135253906, -0.1092190220952034, 0.0050229355692863464, -2.396557331085205, -0.8640786409378052, -0.8957942128181458, 0.0566246435046196, -2.2436611346583284, 0.4760063956996703, -175.58392475114857, 9362.0, 30146.0, 35388.0, 9362.0, 8.370248794555664, 0.044038645923137665, -0.18259616196155548, -0.1390398144721985, -0.0864991843700409, -0.019826125353574753, 0.9959951639175415, -0.08594594150781631, -0.030637741088867188, 1.493408203125, 1.44580078125, 0.098236083984375, 1.491943359375
50153, 0.0943235456943512, 3.0921857357025146, -4.378210067749023, 0.003214462660253048, -0.00011355993046890944, -58.23231887817383, -0.1144833043217659, 0.0052634961903095245, -2.3971335887908936, -0.8640844821929932, -0.8957902193069458, 0.05662788823246956, -2.2487311016686498, 0.4747968567513965, -175.5730184481088, 9362.0, 30146.0, 35388.0, 9362.0, 8.370248794555664, -0.31985560059547424, -0.10760938376188278, -2.476574182510376, -0.089223712682724, -0.019631223753094673, 0.9950154423713684, -0.08594594150781631, -0.030637741088867188, 1.493408203125, 1.47509765625, 0.147857666015625, 1.491943359375
50163, 0.09392918646335602, 3.092447280883789, -4.407227516174316, 0.002043264452368021, -5.9717727708630264e-05, -58.25629425048828, -0.11975637078285217, 0.0055052731186151505, -2.3976078033447266, -0.8640761375427246, -0.8958084583282471, 0.05664397031068802, -2.2475346722611933, 0.4827060847910616, -175.57059697388289, 9362.0, 30146.0, 35388.0, 9362.0, 8.370248794555664, -0.5295337438583374, 0.2003379464149475, 8.16392993927002, -0.0754164606332779, -0.022180259227752686, 0.997319221496582, -0.08594594150781631, -0.030637741088867188, 1.493408203125, 1.5322265625, 0.2628021240234375, 1.487548828125
50173, 0.09669672697782516, 3.0886731147766113, -4.369318962097168, 0.0008193620014935732, -3.455068508628756e-06, -58.2802734375, -0.1250239908695221, 0.0057499282993376255, -2.3981385231018066, -0.8640727400779724, -0.8958006501197815, 0.056630104780197144, -2.243724658878496, 0.48368776141037984, -175.58531224783056, 9362.0, 30146.0, 35388.0, 9362.0, 8.370248794555664, 0.15383076667785645, 0.18097428977489471, -4.525639533996582, -0.08494593948125839, -0.02331848256289959, 0.9971752166748047, -0.08594594150781631, -0.030637741088867188, 1.493408203125, 1.439208984375, 0.0882415771484375, 1.487548828125
50183, 0.09372340887784958, 3.0893990993499756, -4.371020793914795, -0.0004572380566969514, 5.527194298338145e-05, -58.304256439208984, -0.13029620051383972, 0.0059920442290604115, -2.3985939025878906, -0.864068329334259, -0.8958064317703247, 0.05663007125258446, -2.249460258627222, 0.47770722264394294, -175.58089112280044, 9362.0, 30146.0, 35388.0, 9362.0, 8.370248794555664, 0.32945236563682556, -0.09325826913118362, 2.1353321075439453, -0.0795266255736351, -0.0194387249648571, 0.9983379244804382, -0.08594594150781631, -0.030637741088867188, 1.493408203125, 1.53076171875, 0.2596435546875, 1.487548828125
50193, 0.09359027445316315, 3.091175079345703, -4.368058204650879, -0.0017865325789898634, 0.00011637675197562203, -58.328243255615234, -0.1355626881122589, 0.0062290700152516365, -2.3990421295166016, -0.8640770316123962, -0.8957996368408203, 0.05664791539311409, -2.2499454309186246, 0.4714397724353603, -175.5770504435663, 9362.0, 30146.0, 35388.0, 9362.0, 8.370248794555664, -0.1067381277680397, -0.11125592887401581, -5.276515483856201, -0.09002294391393661, -0.024626396596431732, 0.9976212978363037, -0.10986904799938202, 0.04104042053222656, 1.499267578125, 1.46484375, 0.1295928955078125, 1.487548828125
50203, 0.09285792708396912, 3.0895044803619385, -4.361226558685303, -0.0017865325789898634, 0.00011637675197562203, -58.328243255615234, -0.1355626881122589, 0.0062290700152516365, -2.3990421295166016, -0.8640785813331604, -0.8958014845848083, 0.05663183331489563, -2.248148866173383, 0.470459441557864, -175.56861730122174, 9362.0, 30146.0, 35388.0, 9362.0, 8.370248794555664, 0.3430732488632202, -0.11937082558870316, 2.1438896656036377, -0.08374547958374023, -0.01965634897351265, 0.9980292320251465, -0.10986904799938202, 0.04104042053222656, 1.499267578125, 1.530029296875, 0.2581329345703125, 1.494873046875
50213, 0.09249384701251984, 3.09335994720459, -4.373544692993164, -0.004603261593729258, 0.0002458052185829729, -58.37622833251953, -0.14611417055130005, 0.006713354028761387, -2.3996849060058594, -0.8640860915184021, -0.8958110809326172, 0.0566532127559185, -2.2580451829189117, 0.46551253984455343, -175.57135936981098, 9362.0, 30146.0, 35388.0, 9362.0, 8.370248794555664, -0.014486800879240036, -0.15501806139945984, 0.9179685711860657, -0.08374547958374023, -0.01965634897351265, 0.9980292320251465, -0.10986904799938202, 0.04104042053222656, 1.499267578125, 1.530029296875, 0.2581329345703125, 1.494873046875
50223, 0.09282468259334564, 3.0952823162078857, -4.368134021759033, -0.004603261593729258, 0.0002458052185829729, -58.37622833251953, -0.14611417055130005, 0.006713354028761387, -2.3996849060058594, -0.8640889525413513, -0.8958020210266113, 0.05665365979075432, -2.240039635264908, 0.4728297505774606, -175.57821784620538, 9362.0, 30146.0, 35388.0, 9362.0, 8.370248794555664, -0.014136929996311665, -0.3964359760284424, -0.47244662046432495, -0.08058200031518936, -0.023667022585868835, 0.9954001903533936, -0.10986904799938202, 0.04104042053222656, 1.499267578125, 1.530029296875, 0.2581329345703125, 1.4912109375
50233, 0.09426946192979813, 3.095649480819702, -4.374633312225342, -0.007630942855030298, 0.0003849512431770563, -58.42422866821289, -0.15665268898010254, 0.007201672066003084, -2.400634288787842, -0.8640838861465454, -0.8958073854446411, 0.05664221569895744, -2.246626392050448, 0.4716932416021109, -175.57084329486491, 9362.0, 30146.0, 35388.0, 9362.0, 8.370248794555664, 0.017435234040021896, 0.2173311710357666, 0.4146116077899933, -0.08433514088392258, -0.021761175245046616, 0.9961436986923218, -0.10986904799938202, 0.04104042053222656, 1.499267578125, 1.530029296875, 0.2581329345703125, 1.4912109375
50243, 0.09484890103340149, 3.0938408374786377, -4.370429515838623, -0.007630942855030298, 0.0003849512431770563, -58.42422866821289, -0.15665268898010254, 0.007201672066003084, -2.400634288787842, -0.864084005355835, -0.8957970142364502, 0.05662524700164795, -2.248942497998271, 0.4727728568483087, -175.57068178252095, 9362.0, 30146.0, 35388.0, 9362.0, 8.370248794555664, 0.0788085088133812, -0.03159892186522484, -0.8831031918525696, -0.08433514088392258, -0.021761175245046616, 0.9961436986923218, -0.10986904799938202, 0.04104042053222656, 1.499267578125, 1.530029296875, 0.2581329345703125, 1.4912109375
50253, 0.09398288279771805, 3.0939996242523193, -4.370314598083496, -0.01086941547691822, 0.000533859885763377, -58.472251892089844, -0.16719841957092285, 0.007688065525144339, -2.4017093181610107, -0.8640784621238708, -0.8957895636558533, 0.056629352271556854, -2.2405908708444606, 0.4834547431091494, -175.57502589167177, 9362.0, 30146.0, 35388.0, 9362.0, 8.370248794555664, 0.10384193807840347, -0.06508142501115799, 0.6034465432167053, -0.08566997945308685, -0.020193301141262054, 0.9969759583473206, -0.10986904799938202, 0.04104042053222656, 1.499267578125, 1.530029296875, 0.2581329345703125, 1.4912109375
50263, 0.09401599317789078, 3.0946993827819824, -4.375273704528809, -0.01256779208779335, 0.0006119453464634717, -58.49626922607422, -0.17247703671455383, 0.007929010316729546, -2.4020919799804688, -0.8640798926353455, -0.8958108425140381, 0.05664026737213135, -2.2414015052750673, 0.4762384343331121, -175.5719483817355, 9362.0, 30146.0, 35388.0, 9362.0, 8.370248794555664, -0.3155832588672638, -0.3149527907371521, -0.4294116199016571, -0.08566997945308685, -0.020193301141262054, 0.9969759583473206, -0.10986904799938202, 0.04104042053222656, 1.499267578125, 1.530029296875, 0.2581329345703125, 1.4912109375
50273, 0.09429246932268143, 3.095470428466797, -4.376188278198242, -0.014318931847810745, 0.0006924465415067971, -58.520294189453125, -0.1777508556842804, 0.008171682246029377, -2.4025657176971436, -0.8640750050544739, -0.8958079814910889, 0.05667222663760185, -2.2475125965790665, 0.47606028484094054, -175.5790123040247, 9362.0, 30146.0, 35388.0, 9362.0, 8.370248794555664, 0.12797342240810394, -0.0011742876376956701, -0.2865387797355652, -0.08566997945308685, -0.020193301141262054, 0.9969759583473206, -0.10986904799938202, 0.04104042053222656, 1.499267578125, 1.530029296875, 0.2581329345703125, 1.4912109375
50283, 0.09395093470811844, 3.09806489944458, -4.380626678466797, -0.014318931847810745, 0.0006924465415067971, -58.520294189453125, -0.1777508556842804, 0.008171682246029377, -2.4025657176971436, -0.864078938961029, -0.8957974314689636, 0.05663236975669861, -2.2431079536020087, 0.4736690247826232, -175.57754694747342, 9362.0, 30146.0, 35388.0, 9362.0, 8.370248794555664, -0.09159203618764877, 0.01391864288598299, 0.15678495168685913, -0.08566997945308685, -0.020193301141262054, 0.9969759583473206, -0.10986904799938202, 0.04104042053222656, 1.499267578125, 1.530029296875, 0.2581329345703125, 1.5
50303, 0.09367894381284714, 3.095099925994873, -4.382658958435059, -0.014318931847810745, 0.0006924465415067971, -58.520294189453125, -0.1777508556842804, 0.008171682246029377, -2.4025657176971436, -0.8640814423561096, -0.8958021998405457, 0.05665110796689987, -2.253295720513778, 0.4703423842399843, -175.57750910445992, 9362.0, 30146.0, 35388.0, 9362.0, 8.370248794555664, 0.21700316667556763, -0.006152128800749779, 0.05860402062535286, -0.0849529579281807, -0.021595662459731102, 0.9956480264663696, -0.10414302349090576, -0.07543754577636719, 1.48974609375, 1.468505859375, 0.13604736328125, 1.49267578125
50313, 0.09365791827440262, 3.093561887741089, -4.3832926750183105, -0.021851617842912674, 0.001038784976117313, -58.616424560546875, -0.19888216257095337, 0.00914708524942398, -2.4040563106536865, -0.8640733957290649, -0.8957971930503845, 0.056673020124435425, -2.2548212890529093, 0.47396368079142803, -175.5781440687058, 9362.0, 30146.0, 35388.0, 9362.0, 8.370248794555664, -0.029646698385477066, 0.21341875195503235, -0.3748895227909088, -0.0849529579281807, -0.021595662459731102, 0.9956480264663696, -0.10414302349090576, -0.07543754577636719, 1.48974609375, 1.468505859375, 0.13604736328125, 1.49267578125
50323, 0.0943286120891571, 3.091921091079712, -4.384300231933594, -0.021851617842912674, 0.001038784976117313, -58.616424560546875, -0.19888216257095337, 0.00914708524942398, -2.4040563106536865, -0.8640813231468201, -0.8958033323287964, 0.05663061887025833, -2.2485636332858294, 0.47574455818261185, -175.58449754467227, 9362.0, 30146.0, 35388.0, 9362.0, 8.370248794555664, 0.12087441980838776, 0.057271599769592285, -0.0030564931221306324, -0.0870995819568634, -0.01908848248422146, 0.9945624470710754, -0.10414302349090576, -0.07543754577636719, 1.48974609375, 1.468505859375, 0.13604736328125, 1.490478515625
50333, 0.09488338977098465, 3.0895490646362305, -4.387479782104492, -0.021851617842912674, 0.001038784976117313, -58.616424560546875, -0.19888216257095337, 0.00914708524942398, -2.4040563106536865, -0.8640781044960022, -0.8958100080490112, 0.05662957951426506, -2.2508241216011124, 0.4802979589282472, -175.57775511796427, 9362.0, 30146.0, 35388.0, 9362.0, 8.370248794555664, -0.09735234081745148, 0.2893350124359131, -0.0018683135276660323, -0.08523424714803696, -0.02111830748617649, 0.9976544976234436, -0.10414302349090576, -0.07543754577636719, 1.48974609375, 1.447998046875, 0.1016693115234375, 1.490478515625
50343, 0.0947960764169693, 3.0900216102600098, -4.386489391326904, -0.021851617842912674, 0.001038784976117313, -58.616424560546875, -0.19888216257095337, 0.00914708524942398, -2.4040563106536865, -0.8640713095664978, -0.8957997560501099, 0.05664332956075668, -2.2437249033604156, 0.4710013497611385, -175.57506915481983, 9362.0, 30146.0, 35388.0, 9362.0, 8.370248794555664, -0.009343433193862438, 0.11006781458854675, -0.07295835018157959, -0.08523424714803696, -0.02111830748617649, 0.9976544976234436, -0.10414302349090576, -0.07543754577636719, 1.48974609375, 1.447998046875, 0.1016693115234375, 1.48681640625
50353, 0.09560536593198776, 3.0877084732055664, -4.3892107009887695, -0.030228378251194954, 0.0014241432072594762, -58.71263122558594, -0.21995534002780914, 0.010119123384356499, -2.406175136566162, -0.8640801906585693, -0.8957850933074951, 0.05667324364185333, -2.242224061309313, 0.47761567152144835, -175.58011331959239, 9362.0, 30146.0, 35388.0, 9362.0, 8.370248794555664, -0.009343433193862438, 0.11006781458854675, -0.07295835018157959, -0.08531521260738373, -0.02121710777282715, 0.9959939122200012, -0.10414302349090576, -0.07543754577636719, 1.48974609375, 1.447998046875, 0.1016693115234375, 1.48681640625
50363, 0.09657803922891617, 3.087388753890991, -4.389952182769775, -0.030228378251194954, 0.0014241432072594762, -58.71263122558594, -0.21995534002780914, 0.010119123384356499, -2.406175136566162, -0.864095151424408, -0.8957988023757935, 0.05662074685096741, -2.2512012585993517, 0.4706151799349243, -175.57742740080792, 9362.0, 30146.0, 35388.0, 9362.0, 8.370248794555664, 0.30363720655441284, -0.13539548218250275, -0.3816235363483429, -0.08531521260738373, -0.02121710777282715, 0.9959939122200012, -0.10414302349090576, -0.07543754577636719, 1.48974609375, 1.447998046875, 0.1016693115234375, 1.48974609375
50373, 0.09714433550834656, 3.0865085124969482, -4.392467498779297, -0.03473278507590294, 0.0016313559608533978, -58.760765075683594, -0.23048514127731323, 0.0106015894562006, -2.407132863998413, -0.8640758395195007, -0.8958038091659546, 0.056630685925483704, -2.2502938395935557, 0.47416651332599713, -175.57036899811317, 9362.0, 30146.0, 35388.0, 9362.0, 8.370248794555664, 0.02231195569038391, -0.029252270236611366, -0.04044170305132866, -0.08282393962144852, -0.022609025239944458, 0.9992858171463013, -0.10414302349090576, -0.07543754577636719, 1.48974609375, 1.447998046875, 0.1016693115234375, 1.48974609375
50383, 0.09727754443883896, 3.086815357208252, -4.393482208251953, -0.03473278507590294, 0.0016313559608533978, -58.760765075683594, -0.23048514127731323, 0.0106015894562006, -2.407132863998413, -0.8640651702880859, -0.8959172368049622, 0.056840524077415466, -2.3188024103745914, 0.4859098595479452, -175.5754603541734, 9362.0, 30146.0, 35388.0, 9362.0, 8.370248794555664, 0.17000712454319, -0.6060514450073242, -0.495773583650589, -0.08282393962144852, -0.022609025239944458, 0.9992858171463013, -0.10414302349090576, -0.07543754577636719, 1.48974609375, 1.447998046875, 0.1016693115234375, 1.49560546875
50403, 0.09759004414081573, 3.0896739959716797, -4.393739700317383, -0.03473278507590294, 0.0016313559608533978, -58.760765075683594, -0.23048514127731323, 0.0106015894562006, -2.407132863998413, -0.8640915751457214, -0.895794689655304, 0.056624993681907654, -2.2445074309132775, 0.4735110432002898, -175.57592193755644, 9362.0, 30146.0, 35388.0, 9362.0, 8.370248794555664, -0.1714434176683426, -0.06653791666030884, -0.30009689927101135, -0.08375491201877594, -0.020067526027560234, 0.9952582716941833, -0.09973792731761932, -0.1650371551513672, 1.482421875, 1.455322265625, 0.1134796142578125, 1.496337890625
50413, 0.09768372774124146, 3.0871124267578125, -4.393858909606934, -0.04437372088432312, 0.0020745061337947845, -58.857078552246094, -0.2515520751476288, 0.011553705669939518, -2.408720016479492, -0.8640978336334229, -0.8957909941673279, 0.05662410706281662, -2.241730934756017, 0.4755450532618397, -175.57137733058647, 9362.0, 30146.0, 35388.0, 9362.0, 8.370248794555664, 0.011995063163340092, 0.40715691447257996, 0.1235608384013176, -0.08375491201877594, -0.020067526027560234, 0.9952582716941833, -0.09973792731761932, -0.1650371551513672, 1.482421875, 1.455322265625, 0.1134796142578125, 1.496337890625
50423, 0.09844686836004257, 3.087087392807007, -4.393762588500977, -0.04437372088432312, 0.0020745061337947845, -58.857078552246094, -0.2515520751476288, 0.011553705669939518, -2.408720016479492, -0.8640812039375305, -0.8957893252372742, 0.05664525181055069, -2.2446500088018513, 0.4734109879075561, -175.57920142779136, 9362.0, 30146.0, 35388.0, 9362.0, 8.370248794555664, -0.11031224578619003, -0.06064728647470474, 0.10762295126914978, -0.08460083603858948, -0.02113369107246399, 0.9987380504608154, -0.09973792731761932, -0.1650371551513672, 1.482421875, 1.455322265625, 0.1134796142578125, 1.493408203125
50433, 0.09830041229724884, 3.0875539779663086, -4.391804218292236, -0.04951003938913345, 0.002310329582542181, -58.9052619934082, -0.2620851993560791, 0.012028727680444717, -2.409597873687744, -0.864093005657196, -0.8957901000976562, 0.056630633771419525, -2.2461635911771203, 0.4729755997539371, -175.5814487076897, 9362.0, 30146.0, 35388.0, 9362.0, 8.370248794555664, 0.07045811414718628, 0.08287330716848373, 0.30427631735801697, -0.08408026397228241, -0.02228226512670517, 0.9953417181968689, -0.09973792731761932, -0.1650371551513672, 1.482421875, 1.455322265625, 0.1134796142578125, 1.493408203125
50443, 0.09754160791635513, 3.085202217102051, -4.390421390533447, -0.04951003938913345, 0.002310329582542181, -58.9052619934082, -0.2620851993560791, 0.012028727680444717, -2.409597873687744, -0.864091157913208, -0.8958023190498352, 0.056656625121831894, -2.24392768109364, 0.4631241790729348, -175.57352094720787, 9362.0, 30146.0, 35388.0, 9362.0, 8.370248794555664, -0.052878353744745255, 0.4941158592700958, 0.3653647303581238, -0.08408026397228241, -0.02228226512670517, 0.9953417181968689, -0.09973792731761932, -0.1650371551513672, 1.482421875, 1.455322265625, 0.1134796142578125, 1.493408203125
50453, 0.096735380589962, 3.0827553272247314, -4.385873317718506, -0.054857004433870316, 0.002555620623752475, -58.95346450805664, -0.27260804176330566, 0.012500162236392498, -2.410602569580078, -0.8640880584716797, -0.8958103060722351, 0.05664713680744171, -2.259730367261304, 0.46546498784127266, -175.5769438218975, 9362.0, 30146.0, 35388.0, 9362.0, 8.370248794555664, 0.010643238201737404, 0.07871917635202408, 0.5077320337295532, -0.08466148376464844, -0.02230355702340603, 0.9936900734901428, -0.09973792731761932, -0.1650371551513672, 1.482421875, 1.455322265625, 0.1134796142578125, 1.493408203125
50463, 0.09742651879787445, 3.083836317062378, -4.384364128112793, -0.05760931968688965, 0.0026818038895726204, -58.97757339477539, -0.2778552770614624, 0.01273606438189745, -2.4113004207611084, -0.8640978336334229, -0.8957895040512085, 0.0566602386534214, -2.246523796446369, 0.4639250978793257, -175.58612754118136, 9362.0, 30146.0, 35388.0, 9362.0, 8.370248794555664, 0.08953743427991867, -0.16343075037002563, 0.06599483639001846, -0.08466148376464844, -0.02230355702340603, 0.9936900734901428, -0.09973792731761932, -0.1650371551513672, 1.482421875, 1.455322265625, 0.1134796142578125, 1.493408203125
50473, 0.09749294072389603, 3.0862975120544434, -4.3829026222229, -0.060414090752601624, 0.002810349455103278, -59.00168991088867, -0.28309860825538635, 0.012972899712622166, -2.4119913578033447, -0.8640924692153931, -0.8957827091217041, 0.056653086096048355, -2.2398085449806717, 0.46883659920482046, -175.58103271462466, 9362.0, 30146.0, 35388.0, 9362.0, 8.370248794555664, -0.14388307929039001, -0.052101388573646545, 0.20074805617332458, -0.08164620399475098, -0.019520536065101624, 0.9974024295806885, -0.09973792731761932, -0.1650371551513672, 1.482421875, 1.455322265625, 0.1134796142578125, 1.493408203125
50483, 0.09799905866384506, 3.0858616828918457, -4.380444526672363, -0.060414090752601624, 0.002810349455103278, -59.00168991088867, -0.28309860825538635, 0.012972899712622166, -2.4119913578033447, -0.8640850186347961, -0.8957940936088562, 0.05663289874792099, -2.25090431999443, 0.4634362076993739, -175.57507254054215, 9362.0, 30146.0, 35388.0, 9362.0, 8.370248794555664, 0.011566449888050556, 0.34659266471862793, 0.3095974624156952, -0.08164620399475098, -0.019520536065101624, 0.9974024295806885, -0.09973792731761932, -0.1650371551513672, 1.482421875, 1.4794921875, 0.155975341796875, 1.493408203125
50503, 0.09662213176488876, 3.088531732559204, -4.378212928771973, -0.060414090752601624, 0.002810349455103278, -59.00168991088867, -0.28309860825538635, 0.012972899712622166, -2.4119913578033447, -0.8640969395637512, -0.8957809209823608, 0.056670233607292175, -2.239876346778263, 0.47695175345504026, -175.5801775672327, 9362.0, 30146.0, 35388.0, 9362.0, 8.370248794555664, 0.12451520562171936, -0.22592271864414215, -0.05593254417181015, -0.0848766416311264, -0.019949883222579956, 0.9948428869247437, -0.09087300300598145, -0.0037593841552734375, 1.49560546875, 1.4150390625, 0.05596923828125, 1.494140625
50513, 0.09543122351169586, 3.0861711502075195, -4.377777576446533, -0.060414090752601624, 0.002810349455103278, -59.00168991088867, -0.28309860825538635, 0.012972899712622166, -2.4119913578033447, -0.8640724420547485, -0.8957931995391846, 0.056658148765563965, -2.247134563236769, 0.48115687704938637, -175.5825203025852, 9362.0, 30146.0, 35388.0, 9362.0, 8.370248794555664, 0.19187629222869873, 0.2517642676830292, 0.1295405775308609, -0.0848766416311264, -0.019949883222579956, 0.9948428869247437, -0.09087300300598145, -0.0037593841552734375, 1.49560546875, 1.4150390625, 0.05596923828125, 1.494140625
50523, 0.095205157995224, 3.0884504318237305, -4.377602577209473, -0.060414090752601624, 0.002810349455103278, -59.00168991088867, -0.28309860825538635, 0.012972899712622166, -2.4119913578033447, -0.8640942573547363, -0.8957916498184204, 0.05664907395839691, -2.2434844295864993, 0.47077136267981246, -175.5774252074755, 9362.0, 30146.0, 35388.0, 9362.0, 8.370248794555664, -0.2356058657169342, -0.3277268707752228, -0.005442168563604355, -0.08391326665878296, -0.021257849410176277, 0.9979518055915833, -0.09087300300598145, -0.0037593841552734375, 1.49560546875, 1.4150390625, 0.05596923828125, 1.48828125
50533, 0.09541051834821701, 3.0893893241882324, -4.379605770111084, -0.07834651321172714, 0.003631279105320573, -59.14649963378906, -0.31465527415275574, 0.014395393431186676, -2.4149587154388428, -0.8640926480293274, -0.8957869410514832, 0.05663689970970154, -2.245571555755725, 0.4739551835666589, -175.57862852288247, 9362.0, 30146.0, 35388.0, 9362.0, 8.370248794555664, 0.21236968040466309, 0.1800491362810135, -0.1872970312833786, -0.08391326665878296, -0.021257849410176277, 0.9979518055915833, -0.09087300300598145, -0.0037593841552734375, 1.49560546875, 1.4150390625, 0.05596923828125, 1.48828125
50543, 0.09506164491176605, 3.0891807079315186, -4.380423545837402, -0.07834651321172714, 0.003631279105320573, -59.14649963378906, -0.31465527415275574, 0.014395393431186676, -2.4149587154388428, -0.8640936613082886, -0.8957809805870056, 0.05664443597197533, -2.2373387419544883, 0.461753439581571, -175.57582311424497, 9362.0, 30146.0, 35388.0, 9362.0, 8.370248794555664, -0.06520093232393265, -0.25044551491737366, -0.1708371490240097, -0.08391326665878296, -0.021257849410176277, 0.9979518055915833, -0.09087300300598145, -0.0037593841552734375, 1.49560546875, 1.398193359375, 0.03826904296875, 1.48828125
50553, 0.09468427300453186, 3.087770700454712, -4.381232261657715, -0.08474495261907578, 0.003923991695046425, -59.19480514526367, -0.3251911997795105, 0.014876018278300762, -2.415809392929077, -0.8640925884246826, -0.8957865834236145, 0.05664503574371338, -2.236945545705871, 0.47910551064643414, -175.58409062211118, 9362.0, 30146.0, 35388.0, 9362.0, 8.370248794555664, 0.07258430123329163, 0.40063074231147766, 0.03455832973122597, -0.08293616026639938, -0.018105193972587585, 0.9947659373283386, -0.09087300300598145, -0.0037593841552734375, 1.49560546875, 1.398193359375, 0.03826904296875, 1.48828125
50563, 0.09527309238910675, 3.0838043689727783, -4.382680416107178, -0.08474495261907578, 0.003923991695046425, -59.19480514526367, -0.3251911997795105, 0.014876018278300762, -2.415809392929077, -0.8640960454940796, -0.8957890868186951, 0.056632984429597855, -2.2444794763423257, 0.4765581836085744, -175.5778921483564, 9362.0, 30146.0, 35388.0, 9362.0, 8.370248794555664, 0.03659326583147049, 0.09427741169929504, -0.08544262498617172, -0.08293616026639938, -0.018105193972587585, 0.9947659373283386, -0.09087300300598145, -0.0037593841552734375, 1.49560546875, 1.398193359375, 0.03826904296875, 1.48828125
50573, 0.09561696648597717, 3.0818517208099365, -4.382526397705078, -0.09135397523641586, 0.004226324148476124, -59.243133544921875, -0.3357127010822296, 0.015357781201601028, -2.4168968200683594, -0.8640913963317871, -0.8957911133766174, 0.05663439631462097, -2.2435599960893198, 0.4706154400421383, -175.58133897720006, 9362.0, 30146.0, 35388.0, 9362.0, 8.370248794555664, 0.03201564773917198, -0.1251271814107895, -0.2559851109981537, -0.08317188173532486, -0.021215571090579033, 0.9973726868629456, -0.09087300300598145, -0.0037593841552734375, 1.49560546875, 1.398193359375, 0.03826904296875, 1.48828125
50583, 0.09609836339950562, 3.0818328857421875, -4.383556365966797, -0.09135397523641586, 0.004226324148476124, -59.243133544921875, -0.3357127010822296, 0.015357781201601028, -2.4168968200683594, -0.8640788197517395, -0.8957985639572144, 0.05663116276264191, -2.248234856849945, 0.4769808839646146, -175.578206536257, 9362.0, 30146.0, 35388.0, 9362.0, 8.370248794555664, -0.06658479571342468, 0.20154382288455963, 0.10504882037639618, -0.08317188173532486, -0.021215571090579033, 0.9973726868629456, -0.09087300300598145, -0.0037593841552734375, 1.49560546875, 1.398193359375, 0.03826904296875, 1.493408203125
50603, 0.09745722264051437, 3.0815086364746094, -4.386148929595947, -0.09817345440387726, 0.004538276698440313, -59.29147720336914, -0.3462276756763458, 0.015836892649531364, -2.417750358581543, -0.8640933632850647, -0.8957892656326294, 0.05662824958562851, -2.2504356822955187, 0.48085929568932784, -175.57921239459114, 9362.0, 30146.0, 35388.0, 9362.0, 8.370248794555664, -0.06774654984474182, 0.1119762733578682, -0.019302958622574806, -0.08591534197330475, -0.020114924758672714, 0.9970503449440002, -0.09659699350595474, 0.014162063598632812, 1.4970703125, 1.398193359375, 0.03826904296875, 1.49267578125
50613, 0.09772145003080368, 3.078951835632324, -4.384632110595703, -0.09817345440387726, 0.004538276698440313, -59.29147720336914, -0.3462276756763458, 0.015836892649531364, -2.417750358581543, -0.8640836477279663, -0.8957992792129517, 0.05665811896324158, -2.2415751766115406, 0.46325863634299935, -175.58052230716396, 9362.0, 30146.0, 35388.0, 9362.0, 8.370248794555664, 0.09620779752731323, -0.2544708251953125, -0.05795544385910034, -0.08591534197330475, -0.020114924758672714, 0.9970503449440002, -0.09659699350595474, 0.014162063598632812, 1.4970703125, 1.398193359375, 0.03826904296875, 1.49267578125
50623, 0.09747684746980667, 3.080754518508911, -4.386223793029785, -0.09817345440387726, 0.004538276698440313, -59.29147720336914, -0.3462276756763458, 0.015836892649531364, -2.417750358581543, -0.8640918731689453, -0.8957884907722473, 0.05663848668336868, -2.2493664865405116, 0.47324420372345344, -175.57549550209367, 9362.0, 30146.0, 35388.0, 9362.0, 8.370248794555664, 0.022957956418395042, 0.013006736524403095, -0.16779498755931854, -0.08477628976106644, -0.020574254915118217, 0.9971141219139099, -0.09659699350595474, 0.014162063598632812, 1.4970703125, 1.398193359375, 0.03826904296875, 1.4912109375
50633, 0.09767983108758926, 3.08172345161438, -4.387577533721924, -0.11244253814220428, 0.005190686788409948, -59.38822937011719, -0.3672199249267578, 0.01678141951560974, -2.4199204444885254, -0.8640748262405396, -0.8958023190498352, 0.056653957813978195, -2.244434048764469, 0.475216168084728, -175.5824972949333, 9362.0, 30146.0, 35388.0, 9362.0, 8.370248794555664, -0.15225666761398315, -0.2644917070865631, -0.07018466293811798, -0.08477628976106644, -0.020574254915118217, 0.9971141219139099, -0.09659699350595474, 0.014162063598632812, 1.4970703125, 1.398193359375, 0.03826904296875, 1.4912109375
50643, 0.09826875478029251, 3.080453872680664, -4.386580944061279, -0.11244253814220428, 0.005190686788409948, -59.38822937011719, -0.3672199249267578, 0.01678141951560974, -2.4199204444885254, -0.8640859127044678, -0.8957934975624084, 0.0566462017595768, -2.2479336540220376, 0.4725184468129271, -175.5785455413899, 9362.0, 30146.0, 35388.0, 9362.0, 8.370248794555664, -0.1788107007741928, 0.04999518394470215, -0.1330028772354126, -0.08477628976106644, -0.020574254915118217, 0.9971141219139099, -0.09659699350595474, 0.014162063598632812, 1.4970703125, 1.480224609375, 0.157379150390625, 1.4912109375
50653, 0.09814247488975525, 3.0824227333068848, -4.386756420135498, -0.11989211291074753, 0.005531041882932186, -59.4366340637207, -0.3777402639389038, 0.0172540545463562, -2.4205846786499023, -0.8640856742858887, -0.8957890868186951, 0.056643255054950714, -2.247493378786263, 0.47161803695055937, -175.57480020093286, 9362.0, 30146.0, 35388.0, 9362.0, 8.370248794555664, -0.1788107007741928, 0.04999518394470215, -0.1330028772354126, -0.08582019805908203, -0.01887936145067215, 0.9975824952125549, -0.09659699350595474, 0.014162063598632812, 1.4970703125, 1.480224609375, 0.157379150390625, 1.4912109375
50663, 0.09894052147865295, 3.0808324813842773, -4.388891696929932, -0.11989211291074753, 0.005531041882932186, -59.4366340637207, -0.3777402639389038, 0.0172540545463562, -2.4205846786499023, -0.864082396030426, -0.8958014845848083, 0.056664831936359406, -2.2479440038546428, 0.46619267478686766, -175.57750662697742, 9362.0, 30146.0, 35388.0, 9362.0, 8.370248794555664, 0.04933309555053711, -0.024175450205802917, -0.1925172507762909, -0.08582019805908203, -0.01887936145067215, 0.9975824952125549, -0.09659699350595474, 0.014162063598632812, 1.4970703125, 1.480224609375, 0.157379150390625, 1.4912109375
50673, 0.09831640869379044, 3.083160877227783, -4.39035701751709, -0.1275520622730255, 0.005880822893232107, -59.48505401611328, -0.3882543742656708, 0.017724424600601196, -2.4213788509368896, -0.8640907406806946, -0.8957834839820862, 0.056620240211486816, -2.246754009605468, 0.47649566081443595, -175.58126942285313, 9362.0, 30146.0, 35388.0, 9362.0, 8.370248794555664, 0.014944162219762802, -0.09860600531101227, 0.2619285583496094, -0.08456802368164062, -0.02059650793671608, 0.9984697699546814, -0.09659699350595474, 0.014162063598632812, 1.4970703125, 1.480224609375, 0.157379150390625, 1.4912109375
50683, 0.09912575781345367, 3.083869218826294, -4.3909759521484375, -0.1275520622730255, 0.005880822893232107, -59.48505401611328, -0.3882543742656708, 0.017724424600601196, -2.4213788509368896, -0.8641065359115601, -0.8957882523536682, 0.05662425979971886, -2.2555590077451826, 0.46813095352743517, -175.5735482250843, 9362.0, 30146.0, 35388.0, 9362.0, 8.370248794555664, 0.12099620699882507, 0.13230380415916443, -0.043209273368120193, -0.08456802368164062, -0.02059650793671608, 0.9984697699546814, -0.09659699350595474, 0.014162063598632812, 1.4970703125, 1.480224609375, 0.157379150390625, 1.494873046875
50703, 0.1002558171749115, 3.0816256999969482, -4.393701553344727, -0.1354222595691681, 0.0062399981543421745, -59.53348922729492, -0.39877063035964966, 0.018194032832980156, -2.4221713542938232, -0.8640850186347961, -0.8957921862602234, 0.05665352940559387, -2.2552632959298924, 0.46989577339670063, -175.56984853371029, 9362.0, 30146.0, 35388.0, 9362.0, 8.370248794555664, 0.11562245339155197, 0.16639819741249084, 0.18764054775238037, -0.08592978864908218, -0.022350305691361427, 0.9955593943595886, -0.08577969670295715, -0.03959846496582031, 1.49267578125, 1.480224609375, 0.157379150390625, 1.49560546875
50713, 0.10145962983369827, 3.0812129974365234, -4.393843173980713, -0.1354222595691681, 0.0062399981543421745, -59.53348922729492, -0.39877063035964966, 0.018194032832980156, -2.4221713542938232, -0.8640947937965393, -0.8957769274711609, 0.05666225403547287, -2.235244924567445, 0.4661220104459005, -175.57961581891243, 9362.0, 30146.0, 35388.0, 9362.0, 8.370248794555664, 0.03616843372583389, 0.11430145800113678, 0.09828249365091324, -0.08592978864908218, -0.022350305691361427, 0.9955593943595886, -0.08577969670295715, -0.03959846496582031, 1.49267578125, 1.480224609375, 0.157379150390625, 1.49560546875
50723, 0.10042216628789902, 3.0821824073791504, -4.393525123596191, -0.1354222595691681, 0.0062399981543421745, -59.53348922729492, -0.39877063035964966, 0.018194032832980156, -2.4221713542938232, -0.8641015291213989, -0.8957739472389221, 0.05665213242173195, -2.2408390126588507, 0.47004464478715136, -175.57970063444435, 9362.0, 30146.0, 35388.0, 9362.0, 8.370248794555664, -0.17441003024578094, -0.2190919667482376, 0.233038991689682, -0.08393888175487518, -0.020273463800549507, 0.9964084029197693, -0.08577969670295715, -0.03959846496582031, 1.49267578125, 1.480224609375, 0.157379150390625, 1.489013671875
