timeTick, roll, pitch, yaw, stateX, stateY, stateZ, stateVX, stateVY, stateVZ, otX0, otY0, otZ0, otRoll0, otPitch0, otYaw0, left wing, pitch motor, yaw motor, right wing, voltage, roll rate, pitch rate, yaw rate, A_x, A_y, A_z, current, i_raw, v_raw, airflow_voltage, airflow_speed, pot_Pitch
48448, -2.3984622955322266, -1.563516616821289, -9.59664249420166, 0, 0, 0, 0, 0, 0, -0.8002598285675049, -0.9661746621131897, 0.05403555929660797, 0.08763424976567032, 0.7035815061103108, 10.195041760852419, 0, 0, 0, 0, 0, 0, 0, 0, 0, 0, 0, 0, 0, 0, 0, 0, 0
48458, -2.398468494415283, -1.563316822052002, -9.596808433532715, -0.0021664921659976244, -0.0023492369800806046, -77.19574737548828, -0.10501623153686523, -0.11387535184621811, -3.2938549518585205, -0.8002527952194214, -0.9661707878112793, 0.05405411496758461, 0.09018704091614799, 0.7030796801156214, 10.19420906210698, 9362.0, 30146.0, 35388.0, 9362.0, 0, 0, 0, 0, 0, 0, 0, 0, 0, 0, 0, 0, 0
48468, -2.398071765899658, -1.5649664402008057, -9.597884178161621, -0.0032001235522329807, -0.0034700618125498295, -77.22869110107422, -0.10171002149581909, -0.11028968542814255, -3.2944231033325195, -0.8002551198005676, -0.9661771655082703, 0.05404505878686905, 0.09043842398374949, 0.7081546993155996, 10.198909219738624, 9362.0, 30146.0, 35388.0, 9362.0, 0, 0.24143190681934357, -0.08167053014039993, -0.4706929326057434, -0.0967777743935585, -0.029581287875771523, 0.9942224025726318, 0, 0, 0, 1.386474609375, 0.028656005859375, 0
48478, -2.396341323852539, -1.5631612539291382, -9.598471641540527, -0.0042007192969322205, -0.004555057268589735, -77.26164245605469, -0.09840912371873856, -0.10670945793390274, -3.295139789581299, -0.8002468347549438, -0.9661750197410583, 0.054066844284534454, 0.08686111937497604, 0.6989312654918649, 10.198908430067863, 9362.0, 30146.0, 35388.0, 9362.0, 0, 0.03796844929456711, 0.015860527753829956, -0.010414261370897293, -0.09636528789997101, -0.028684699907898903, 0.9946684837341309, 0, 0, 0, 1.405517578125, 0.0454254150390625, 1.49267578125
48488, -2.3955256938934326, -1.5630642175674438, -9.599308013916016, -0.005168288014829159, -0.00560425128787756, -77.29459381103516, -0.09510453045368195, -0.10312934964895248, -3.2958271503448486, -0.8002423048019409, -0.9661630392074585, 0.05407030135393143, 0.09011428564008551, 0.6979370239408524, 10.193399482038023, 9362.0, 30146.0, 35388.0, 9362.0, 0, -0.014443042688071728, -0.13605540990829468, -0.07728877663612366, -0.09697157889604568, -0.029095137491822243, 0.9929765462875366, 0, 0, 0, 1.4208984375, 0.063079833984375, 1.49267578125
48498, -2.3965516090393066, -1.5609790086746216, -9.600741386413574, -0.006102828308939934, -0.006617656443268061, -77.32755279541016, -0.0918034240603447, -0.09955168515443802, -3.2965149879455566, -0.800265908241272, -0.9661660194396973, 0.05404089391231537, 0.09113004910478636, 0.7013177017466319, 10.189832030147217, 9362.0, 30146.0, 35388.0, 9362.0, 0, -0.1580010950565338, -0.13273903727531433, -0.06834365427494049, -0.09479191899299622, -0.027899539098143578, 0.9936021566390991, 0, 0, 0, 1.392333984375, 0.03314208984375, 1.49267578125
48508, -2.3959572315216064, -1.5619142055511475, -9.600455284118652, -0.0070043811574578285, -0.00759531557559967, -77.36051940917969, -0.08850701153278351, -0.09598022699356079, -3.297332763671875, -0.8002603650093079, -0.9661696553230286, 0.05404730141162872, 0.09790951869353513, 0.7069004564519616, 10.197518952465497, 9362.0, 30146.0, 35388.0, 9362.0, 0, -0.10100768506526947, 0.05270376056432724, 0.0029258914291858673, -0.09478922933340073, -0.028947416692972183, 0.9938232898712158, 0, 0, 0, 1.3974609375, 0.03759765625, 1.49267578125
48518, -2.396064281463623, -1.561938762664795, -9.601778030395508, -0.00787296425551176, -0.008537225425243378, -77.39349365234375, -0.08520955592393875, -0.09240178763866425, -3.2980241775512695, -0.8002839088439941, -0.9661821722984314, 0.054038092494010925, 0.08548430221534252, 0.7032737260568922, 10.191705182985045, 9362.0, 30146.0, 35388.0, 9362.0, 0, 0.027977021411061287, -0.18359798192977905, -0.2755778133869171, -0.09712747484445572, -0.026129979640245438, 0.9919023513793945, 0, 0, 0, 1.39453125, 0.035003662109375, 1.4912109375
48528, -2.3957431316375732, -1.562540054321289, -9.602821350097656, -0.00870857760310173, -0.009443370625376701, -77.42647552490234, -0.08191296458244324, -0.08882725238800049, -3.298785448074341, -0.8002945184707642, -0.9661872982978821, 0.05402730777859688, 0.096208213831823, 0.697827232083938, 10.189725087899365, 9362.0, 30146.0, 35388.0, 9362.0, 0, 0.07999969273805618, 0.03796691447496414, -0.16096879541873932, -0.09492622315883636, -0.027640575543045998, 0.9947994351387024, 0, 0, 0, 1.409912109375, 0.0501251220703125, 1.4912109375
48538, -2.3964145183563232, -1.5625475645065308, -9.60092830657959, -0.009511236101388931, -0.010313782840967178, -77.45946502685547, -0.07861863821744919, -0.08525517582893372, -3.299616575241089, -0.8002840280532837, -0.9661824107170105, 0.0540347658097744, 0.09114965398101689, 0.7040744871403319, 10.197008253464215, 9362.0, 30146.0, 35388.0, 9362.0, 0, 0.039893437176942825, 0.17012207210063934, 0.23414765298366547, -0.09398758411407471, -0.02692742459475994, 0.9949146509170532, 0, 0, 0, 1.39013671875, 0.0314483642578125, 1.49560546875
48548, -2.395935535430908, -1.5606924295425415, -9.600420951843262, -0.010280908085405827, -0.011148436926305294, -77.49246215820312, -0.07531597465276718, -0.08167554438114166, -3.3002259731292725, -0.8002709746360779, -0.9661824703216553, 0.05404385179281235, 0.08863111859645335, 0.6977860987420854, 10.187144703224947, 9362.0, 30146.0, 35388.0, 9362.0, 8.390083312988281, -0.15103019773960114, -0.20070697367191315, -0.0027820938266813755, -0.0948796346783638, -0.029328197240829468, 0.994937539100647, 0, 0, 0, 1.412109375, 0.0526123046875, 1.49560546875
48558, -2.3960928916931152, -1.5616580247879028, -9.60106086730957, -0.011017548851668835, -0.011947283521294594, -77.52546691894531, -0.07201214134693146, -0.07809367030858994, -3.3008055686950684, -0.8002957701683044, -0.9661882519721985, 0.054010678082704544, 0.09513101645327987, 0.7052300133821632, 10.195059758322177, 9362.0, 30146.0, 35388.0, 9362.0, 8.390083312988281, 0.07755319029092789, 0.13765288889408112, 0.12819866836071014, -0.09746283292770386, -0.029908256605267525, 0.9931023716926575, -0.10296790301799774, -0.04855918884277344, 1.491943359375, 1.36669921875, 0.01806640625, 1.494873046875
48568, -2.396069049835205, -1.5612547397613525, -9.599360466003418, -0.01172118354588747, -0.012710330076515675, -77.55847930908203, -0.06871482729911804, -0.07451570779085159, -3.301482915878296, -0.8003038763999939, -0.9662020206451416, 0.05401727184653282, 0.09485143787353593, 0.7090543766280177, 10.187441066718343, 9362.0, 30146.0, 35388.0, 9362.0, 8.390083312988281, 0.25198468565940857, 0.0940609872341156, -0.1085067167878151, -0.09669454395771027, -0.029556579887866974, 0.9926377534866333, -0.10296790301799774, -0.04855918884277344, 1.491943359375, 1.35791015625, 0.015869140625, 1.494873046875
48578, -2.394651174545288, -1.5627970695495605, -9.599183082580566, -0.012391863390803337, -0.013437625952064991, -77.59149932861328, -0.06542123854160309, -0.07094338536262512, -3.302316427230835, -0.8002821207046509, -0.9661863446235657, 0.05402079597115517, 0.09373348304318493, 0.7073464937246001, 10.182610337273669, 9362.0, 30146.0, 35388.0, 9362.0, 8.390083312988281, 0.17521081864833832, -0.2267463207244873, 0.0040946220979094505, -0.0970671996474266, -0.029335109516978264, 0.9919830560684204, -0.10296790301799774, -0.04855918884277344, 1.491943359375, 1.373291015625, 0.0207366943359375, 1.494140625
48588, -2.3938658237457275, -1.5604897737503052, -9.600247383117676, -0.01302962563931942, -0.0141292130574584, -77.62452697753906, -0.06213121861219406, -0.06737406551837921, -3.303234577178955, -0.8002803325653076, -0.9661830067634583, 0.05404398962855339, 0.09177176231867074, 0.7006757878330063, 10.192605826244304, 9362.0, 30146.0, 35388.0, 9362.0, 8.390083312988281, 0.3426203429698944, -0.19310033321380615, 0.012464202009141445, -0.0917021855711937, -0.028444072231650352, 0.9947329163551331, -0.10296790301799774, -0.04855918884277344, 1.491943359375, 1.380615234375, 0.024749755859375, 1.494140625
48598, -2.393449306488037, -1.5573606491088867, -9.600704193115234, -0.013634447939693928, -0.01478509046137333, -77.65756225585938, -0.058833248913288116, -0.06380148977041245, -3.3039846420288086, -0.8002923727035522, -0.9661927223205566, 0.05401865392923355, 0.09204892139778936, 0.7084029903288638, 10.19239188917837, 9362.0, 30146.0, 35388.0, 9362.0, 8.390083312988281, -0.046563681215047836, -0.24343803524971008, -0.1079789325594902, -0.09437674283981323, -0.027476411312818527, 0.9939848184585571, -0.10296790301799774, -0.04855918884277344, 1.491943359375, 1.3857421875, 0.0280914306640625, 1.5
48608, -2.393505096435547, -1.5522445440292358, -9.601269721984863, -0.014206298626959324, -0.015405232086777687, -77.69060516357422, -0.05553686246275902, -0.0602269321680069, -3.304661750793457, -0.800293505191803, -0.9661939740180969, 0.05402100458741188, 0.08940710259257852, 0.702084006059664, 10.195680779520679, 9362.0, 30146.0, 35388.0, 9362.0, 8.390083312988281, 0.08373178541660309, -0.039938196539878845, 0.0081653892993927, -0.09385031461715698, -0.03211164474487305, 0.9936652779579163, -0.10296790301799774, -0.04855918884277344, 1.491943359375, 1.43994140625, 0.089324951171875, 1.5
48618, -2.392927646636963, -1.5520031452178955, -9.602437973022461, -0.014745214022696018, -0.015989629551768303, -77.7236557006836, -0.052246131002902985, -0.05665260925889015, -3.305349349975586, -0.8002892136573792, -0.9661872386932373, 0.054034192115068436, 0.09202573597097588, 0.7040631404866815, 10.19284529645789, 9362.0, 30146.0, 35388.0, 9362.0, 8.390083312988281, 0.038194697350263596, 0.07663200050592422, -0.1323399692773819, -0.09360956400632858, -0.029521621763706207, 0.9937613010406494, -0.10296790301799774, -0.04855918884277344, 1.491943359375, 1.34765625, 0.0154571533203125, 1.49267578125
48628, -2.391901969909668, -1.5530779361724854, -9.602957725524902, -0.01525127049535513, -0.016538282856345177, -77.7567138671875, -0.048965033143758774, -0.053077954798936844, -3.3060688972473145, -0.8002868890762329, -0.9661871194839478, 0.05403606966137886, 0.08614451654413895, 0.698193254024261, 10.18801392536671, 9362.0, 30146.0, 35388.0, 9362.0, 8.390083312988281, 0.05499476566910744, -0.021347874775528908, 0.2463088482618332, -0.09365393966436386, -0.028593363240361214, 0.9944471716880798, -0.10296790301799774, -0.04855918884277344, 1.491943359375, 1.418701171875, 0.0603485107421875, 1.49267578125
48638, -2.3908770084381104, -1.5535643100738525, -9.603418350219727, -0.01572451926767826, -0.017051193863153458, -77.78977966308594, -0.045684538781642914, -0.04950433224439621, -3.306790590286255, -0.8003074526786804, -0.9661938548088074, 0.05400429666042328, 0.08913778041386597, 0.7126096820138912, 10.2029988716811, 9362.0, 30146.0, 35388.0, 9362.0, 8.390083312988281, 0.07846646010875702, -0.3563348054885864, -0.41817930340766907, -0.09352007508277893, -0.027025021612644196, 0.9952217936515808, -0.10296790301799774, -0.04855918884277344, 1.491943359375, 1.426025390625, 0.069732666015625, 1.494873046875
48648, -2.3917741775512695, -1.5531996488571167, -9.606034278869629, -0.016164949163794518, -0.01752837374806404, -77.8228530883789, -0.04240138828754425, -0.04593155160546303, -3.3074798583984375, -0.8003100156784058, -0.9661940336227417, 0.05398702621459961, 0.09059166241378597, 0.7122318872346511, 10.194475477020163, 9362.0, 30146.0, 35388.0, 9362.0, 8.390083312988281, -0.2916649281978607, 0.15353642404079437, 0.23051850497722626, -0.09307380765676498, -0.02774708904325962, 0.995107889175415, -0.10296790301799774, -0.04855918884277344, 1.491943359375, 1.387939453125, 0.0297393798828125, 1.494873046875
48658, -2.3927001953125, -1.5528651475906372, -9.605512619018555, -0.016572527587413788, -0.01796981506049633, -77.8559341430664, -0.03911403566598892, -0.0423569492995739, -3.3080642223358154, -0.8003204464912415, -0.9661898016929626, 0.05397217720746994, 0.09126131356085103, 0.704479364733487, 10.205359043843169, 9362.0, 30146.0, 35388.0, 9362.0, 8.390083312988281, 0.10182905197143555, -0.22088633477687836, -0.24868537485599518, -0.09341616183519363, -0.029477132484316826, 0.9962639212608337, -0.07932630181312561, -0.05751800537109375, 1.4912109375, 1.420166015625, 0.0621337890625, 1.4912109375
48668, -2.392066717147827, -1.5523537397384644, -9.606386184692383, -0.01694723404943943, -0.01837550476193428, -77.8890151977539, -0.03582722321152687, -0.038780905306339264, -3.308652639389038, -0.800304651260376, -0.9661833047866821, 0.05401010438799858, 0.08798820417665851, 0.6964473663353203, 10.203819880166085, 9362.0, 30146.0, 35388.0, 9362.0, 8.390083312988281, 0.07773197442293167, 0.21554948389530182, -0.10555087774991989, -0.09552720189094543, -0.02732994593679905, 0.9947576522827148, -0.07932630181312561, -0.05751800537109375, 1.4912109375, 1.329345703125, 0.02105712890625, 1.4912109375
48678, -2.3911733627319336, -1.553194284439087, -9.606629371643066, -0.017289062961935997, -0.018745413050055504, -77.92210388183594, -0.03253835812211037, -0.03520073741674423, -3.309174060821533, -0.800297737121582, -0.9661744832992554, 0.054004132747650146, 0.08791374931558628, 0.6979115665067184, 10.205548698851253, 9362.0, 30146.0, 35388.0, 9362.0, 8.390083312988281, 0.16807131469249725, 0.21900878846645355, -0.05829017981886864, -0.09686777740716934, -0.02717728726565838, 0.9947167038917542, -0.07932630181312561, -0.05751800537109375, 1.4912109375, 1.396728515625, 0.0370025634765625, 1.489013671875
48688, -2.3911540508270264, -1.557451844215393, -9.608513832092285, -0.01759803108870983, -0.019079549238085747, -77.9552001953125, -0.029255257919430733, -0.031626660376787186, -3.309835195541382, -0.8003129959106445, -0.9661843776702881, 0.054012566804885864, 0.08725936053677857, 0.7060717124209361, 10.20606457350655, 9362.0, 30146.0, 35388.0, 9362.0, 8.390083312988281, 0.021837370470166206, 0.382802277803421, 0.03519689664244652, -0.09688905626535416, -0.028757069259881973, 0.9922270178794861, -0.07932630181312561, -0.05751800537109375, 1.4912109375, 1.408447265625, 0.0485382080078125, 1.489013671875
48698, -2.392306327819824, -1.5591175556182861, -9.608040809631348, -0.01787417195737362, -0.01937796361744404, -77.9883041381836, -0.025972839444875717, -0.028056494891643524, -3.310553550720215, -0.8003035187721252, -0.9661847352981567, 0.05400056019425392, 0.09149203117558244, 0.706755453602284, 10.203886094350924, 9362.0, 30146.0, 35388.0, 9362.0, 8.390083312988281, -0.073625847697258, 0.5243848562240601, 0.19354261457920074, -0.09671375155448914, -0.029125649482011795, 0.9952656030654907, -0.07932630181312561, -0.05751800537109375, 1.4912109375, 1.389404296875, 0.03082275390625, 1.490478515625
48708, -2.3914265632629395, -1.5624938011169434, -9.606117248535156, -0.018117452040314674, -0.019640682265162468, -78.02141571044922, -0.022683141753077507, -0.024487389251589775, -3.311267614364624, -0.8003023266792297, -0.9661765098571777, 0.05398966372013092, 0.08372032642188679, 0.7005591276481198, 10.207177798071138, 9362.0, 30146.0, 35388.0, 9362.0, 8.390083312988281, -0.06513017416000366, -0.08648255467414856, 0.03397948667407036, -0.09624431282281876, -0.028501279652118683, 0.9938564896583557, -0.07932630181312561, -0.05751800537109375, 1.4912109375, 1.412109375, 0.0526123046875, 1.490478515625
48718, -2.3912181854248047, -1.562848687171936, -9.605978012084961, -0.018327809870243073, -0.01986769400537014, -78.05453491210938, -0.01938863843679428, -0.020914742723107338, -3.3119280338287354, -0.8003131747245789, -0.9661905765533447, 0.0539991594851017, 0.07851885447662048, 0.7089081035915967, 10.209977137324037, 9362.0, 30146.0, 35388.0, 9362.0, 8.390083312988281, -0.06987056136131287, -0.18432800471782684, 0.010455334559082985, -0.0974760502576828, -0.02901422791182995, 0.9952600598335266, -0.07932630181312561, -0.05751800537109375, 1.4912109375, 1.411376953125, 0.05181884765625, 1.48828125
48728, -2.3913817405700684, -1.5627095699310303, -9.605766296386719, -0.018505198881030083, -0.020058991387486458, -78.08765411376953, -0.016089029610157013, -0.017344871535897255, -3.3125977516174316, -0.8003038167953491, -0.9661809206008911, 0.05400415509939194, 0.08538722467458269, 0.7011804313819425, 10.204843880296194, 9362.0, 30146.0, 35388.0, 9362.0, 8.390083312988281, -0.33702054619789124, -0.07526657730340958, -0.028224296867847443, -0.095452681183815, -0.0308602936565876, 0.9949473142623901, -0.07932630181312561, -0.05751800537109375, 1.4912109375, 1.415771484375, 0.0568695068359375, 1.48828125
48738, -2.39167857170105, -1.5607372522354126, -9.606620788574219, -0.018649574369192123, -0.02021457813680172, -78.12078094482422, -0.012786018662154675, -0.013772325590252876, -3.3131823539733887, -0.8003146648406982, -0.966188371181488, 0.05400890111923218, 0.08798511019996241, 0.703605700476885, 10.20722795737562, 9362.0, 30146.0, 35388.0, 9362.0, 8.390083312988281, 0.1659528762102127, 0.059312816709280014, -0.019643787294626236, -0.09809707850217819, -0.02923453040421009, 0.9937962293624878, -0.07932630181312561, -0.05751800537109375, 1.4912109375, 1.402587890625, 0.0425262451171875, 1.493408203125
48748, -2.3918089866638184, -1.5590317249298096, -9.607746124267578, -0.018760928884148598, -0.02033444494009018, -78.15391540527344, -0.009484775364398956, -0.01020129770040512, -3.3138158321380615, -0.800311267375946, -0.9661865830421448, 0.05401390418410301, 0.08247045570143813, 0.7065939257120135, 10.208954767748834, 9362.0, 30146.0, 35388.0, 9362.0, 8.390083312988281, -0.23878584802150726, -0.2747802138328552, -0.24404239654541016, -0.0965467020869255, -0.02770156040787697, 0.9954776763916016, -0.07932630181312561, -0.05751800537109375, 1.4912109375, 1.40625, 0.04620361328125, 1.493408203125
48758, -2.3926188945770264, -1.5586602687835693, -9.607726097106934, -0.01883929967880249, -0.02041861228644848, -78.18705749511719, -0.006189292762428522, -0.0066321431659162045, -3.3145272731781006, -0.80030757188797, -0.96619713306427, 0.053995028138160706, 0.08881868207240626, 0.6975617840782036, 10.211101506594316, 9362.0, 30146.0, 35388.0, 9362.0, 8.390083312988281, 0.052259691059589386, -0.22412291169166565, -0.02597959339618683, -0.09608327597379684, -0.02801704593002796, 0.9954546093940735, -0.0990743562579155, -0.08439826965332031, 1.489013671875, 1.406982421875, 0.046966552734375, 1.493408203125
48768, -2.393169403076172, -1.556329369544983, -9.605889320373535, -0.018884709104895592, -0.020467061549425125, -78.22020721435547, -0.002892554271966219, -0.0030577864963561296, -3.3151164054870605, -0.8003140091896057, -0.9661938548088074, 0.05398872122168541, 0.08369054621419156, 0.7087591215455973, 10.201083270963366, 9362.0, 30146.0, 35388.0, 9362.0, 8.390083312988281, 0.08308397233486176, -0.36180123686790466, 0.17657683789730072, -0.09628560394048691, -0.031205052509903908, 0.9928305149078369, -0.0990743562579155, -0.08439826965332031, 1.489013671875, 1.346923828125, 0.015472412109375, 1.493408203125
48778, -2.3924617767333984, -1.5531954765319824, -9.605924606323242, -0.018897153437137604, -0.020479761064052582, -78.25336456298828, 0.0004036078171338886, 0.0005180071457289159, -3.3157079219818115, -0.8003183007240295, -0.9661960601806641, 0.05398711934685707, 0.08480005407235981, 0.7083766358163643, 10.206205778468403, 9362.0, 30146.0, 35388.0, 9362.0, 8.390083312988281, 0.03781719133257866, 0.17954882979393005, -0.11663103103637695, -0.0979202464222908, -0.030603503808379173, 0.9937840104103088, -0.0990743562579155, -0.08439826965332031, 1.489013671875, 1.329345703125, 0.02105712890625, 1.490478515625
48788, -2.3930823802948, -1.5560358762741089, -9.605794906616211, -0.0188766960054636, -0.020456738770008087, -78.28652954101562, 0.003687900258228183, 0.004086567088961601, -3.3165411949157715, -0.8003087639808655, -0.9661849141120911, 0.054007142782211304, 0.08101767831118312, 0.700773111629104, 10.204984992491116, 9362.0, 30146.0, 35388.0, 9362.0, 8.390083312988281, -0.08218614012002945, 0.04840905964374542, 0.028571614995598793, -0.09667627513408661, -0.02966567501425743, 0.9953405857086182, -0.0990743562579155, -0.08439826965332031, 1.489013671875, 1.40478515625, 0.0446624755859375, 1.490478515625
48798, -2.3933534622192383, -1.55519700050354, -9.604637145996094, -0.018823396414518356, -0.020398003980517387, -78.3197021484375, 0.006971913855522871, 0.007660538423806429, -3.317218780517578, -0.8003197312355042, -0.9661948680877686, 0.053984493017196655, 0.08821825319584374, 0.7054172520619204, 10.205625215118426, 9362.0, 30146.0, 35388.0, 9362.0, 8.390083312988281, -0.3565559685230255, -0.18803024291992188, -0.0611475445330143, -0.09593137353658676, -0.02813873440027237, 0.9972102642059326, -0.0990743562579155, -0.08439826965332031, 1.489013671875, 1.3271484375, 0.022308349609375, 1.4912109375
48808, -2.392813205718994, -1.5545748472213745, -9.605220794677734, -0.018737204372882843, -0.020303497090935707, -78.35287475585938, 0.010266530327498913, 0.011240986175835133, -3.3177273273468018, -0.800309956073761, -0.9661881327629089, 0.05402101203799248, 0.0816906657984407, 0.7003770559964551, 10.203848065789327, 9362.0, 30146.0, 35388.0, 9362.0, 8.390083312988281, 0.13961531221866608, 0.03240767493844032, -0.20845408737659454, -0.0929032489657402, -0.029613735154271126, 0.9956741333007812, -0.0990743562579155, -0.08439826965332031, 1.489013671875, 1.4208984375, 0.063079833984375, 1.4912109375
48818, -2.3906922340393066, -1.552796721458435, -9.60634994506836, -0.01861805096268654, -0.02017315849661827, -78.38605499267578, 0.013564079999923706, 0.01482673455029726, -3.3181099891662598, -0.8003050088882446, -0.9661877751350403, 0.05399229750037193, 0.08458928926348132, 0.6964802888776092, 10.20447653492917, 9362.0, 30146.0, 35388.0, 9362.0, 8.390083312988281, 0.22334595024585724, -0.2544536888599396, -0.11254267394542694, -0.09339684247970581, -0.029185721650719643, 0.992889404296875, -0.0990743562579155, -0.08439826965332031, 1.489013671875, 1.3798828125, 0.0243377685546875, 1.486083984375
48828, -2.389235734939575, -1.5518882274627686, -9.605765342712402, -0.018465977162122726, -0.020007019862532616, -78.41924285888672, 0.016850724816322327, 0.018401028588414192, -3.318783760070801, -0.8003101944923401, -0.9661895632743835, 0.053990621119737625, 0.08514444932458422, 0.6978255477406208, 10.20795615663263, 9362.0, 30146.0, 35388.0, 9362.0, 8.390083312988281, 0.15728338062763214, 0.06641331315040588, 0.02550039440393448, -0.09474783390760422, -0.028543435037136078, 0.9945279359817505, -0.0990743562579155, -0.08439826965332031, 1.489013671875, 1.361572265625, 0.016571044921875, 1.486083984375
48838, -2.3890891075134277, -1.5512970685958862, -9.605439186096191, -0.018281077966094017, -0.01980517990887165, -78.45243835449219, 0.02012890763580799, 0.021967032924294472, -3.3196005821228027, -0.8003049492835999, -0.9661866426467896, 0.054001424461603165, 0.08308373023509116, 0.704806670735195, 10.207239309347996, 9362.0, 30146.0, 35388.0, 9362.0, 8.390083312988281, 0.07460303604602814, -0.03957070782780647, -0.07882881164550781, -0.09563685208559036, -0.029066452756524086, 0.9940405488014221, -0.0990743562579155, -0.08439826965332031, 1.489013671875, 1.40771484375, 0.0478363037109375, 1.490478515625
48848, -2.3876569271087646, -1.5515927076339722, -9.605621337890625, -0.018063386902213097, -0.019567668437957764, -78.48564147949219, 0.02340933121740818, 0.025535443797707558, -3.3202919960021973, -0.8003091812133789, -0.9661915302276611, 0.054017845541238785, 0.08338253981443859, 0.7038112827167424, 10.211321889983864, 9362.0, 30146.0, 35388.0, 9362.0, 8.390083312988281, 0.1637939065694809, 0.1452588438987732, 0.07312390953302383, -0.09767851233482361, -0.030079811811447144, 0.9946076273918152, -0.0990743562579155, -0.08439826965332031, 1.489013671875, 1.406982421875, 0.046966552734375, 1.490478515625
48858, -2.386610984802246, -1.5510610342025757, -9.603514671325684, -0.01781289651989937, -0.01929447054862976, -78.51884460449219, 0.026688948273658752, 0.029103988781571388, -3.3209781646728516, -0.8003061413764954, -0.9661747217178345, 0.05401220917701721, 0.08003701776699251, 0.706015930268876, 10.207589519278525, 9362.0, 30146.0, 35388.0, 9362.0, 8.390083312988281, 0.07898811250925064, -0.12911586463451385, -0.03914269059896469, -0.09446168690919876, -0.03159883990883827, 0.9928056597709656, -0.09142203629016876, 0.08584022521972656, 1.5029296875, 1.411376953125, 0.05181884765625, 1.491943359375
48868, -2.3860888481140137, -1.5493667125701904, -9.603697776794434, -0.017529606819152832, -0.018985597416758537, -78.55205535888672, 0.029968900606036186, 0.03267060965299606, -3.3216519355773926, -0.8003023862838745, -0.966183066368103, 0.053994063287973404, 0.08211664114480052, 0.7003927745767555, 10.213866407752748, 9362.0, 30146.0, 35388.0, 9362.0, 8.390083312988281, -0.047216061502695084, 0.31941622495651245, -0.11473069339990616, -0.09535061568021774, -0.03162185475230217, 0.9949458241462708, -0.09142203629016876, 0.08584022521972656, 1.5029296875, 1.3388671875, 0.017120361328125, 1.491943359375
48878, -2.3859732151031494, -1.5529048442840576, -9.60273265838623, -0.017213543877005577, -0.018641088157892227, -78.58527374267578, 0.033243585377931595, 0.036231089383363724, -3.3224477767944336, -0.8003081679344177, -0.9661815166473389, 0.054016221314668655, 0.08275699101600566, 0.7053120177157268, 10.204679397265856, 9362.0, 30146.0, 35388.0, 9362.0, 8.390083312988281, -0.007431822828948498, 0.31681710481643677, -0.04470251500606537, -0.0969306156039238, -0.026731248944997787, 0.9946815967559814, -0.09142203629016876, 0.08584022521972656, 1.5029296875, 1.333740234375, 0.0189361572265625, 1.49267578125
48888, -2.3859639167785645, -1.5520238876342773, -9.601635932922363, -0.01686471328139305, -0.018260935321450233, -78.61849975585938, 0.03652258962392807, 0.03979934751987457, -3.323023557662964, -0.8003093600273132, -0.966177225112915, 0.054003775119781494, 0.08558610073309546, 0.7003946565862407, 10.205521434158861, 9362.0, 30146.0, 35388.0, 9362.0, 8.390083312988281, -0.05656856298446655, -0.44077080488204956, -0.0975986048579216, -0.09706754982471466, -0.02744750864803791, 0.9947270750999451, -0.09142203629016876, 0.08584022521972656, 1.5029296875, 1.318359375, 0.028656005859375, 1.49267578125
48898, -2.3866567611694336, -1.5508922338485718, -9.60329532623291, -0.01648307405412197, -0.017845118418335915, -78.6517333984375, 0.039805181324481964, 0.04336398094892502, -3.3236677646636963, -0.8003072738647461, -0.9661845564842224, 0.05400140956044197, 0.08367734655790209, 0.6981391643945472, 10.219002009149268, 9362.0, 30146.0, 35388.0, 9362.0, 8.390083312988281, -0.13426265120506287, -0.25405654311180115, -0.1434837281703949, -0.09674347937107086, -0.026502259075641632, 0.9948803782463074, -0.09142203629016876, 0.08584022521972656, 1.5029296875, 1.412841796875, 0.0534515380859375, 1.49267578125
48908, -2.3874049186706543, -1.5516786575317383, -9.603377342224121, -0.016068624332547188, -0.01739366352558136, -78.68497467041016, 0.043084774166345596, 0.04692695662379265, -3.3243587017059326, -0.8003048300743103, -0.9661738872528076, 0.054024334996938705, 0.08029184651786418, 0.706774501792097, 10.207726714490152, 9362.0, 30146.0, 35388.0, 9362.0, 8.390083312988281, -0.12003583461046219, 0.14802886545658112, 0.1538117378950119, -0.09635020792484283, -0.027880338951945305, 0.9962297081947327, -0.09142203629016876, 0.08584022521972656, 1.5029296875, 1.32861328125, 0.0214385986328125, 1.49267578125
48918, -2.387993574142456, -1.5511906147003174, -9.602314949035645, -0.01562136597931385, -0.01690654829144478, -78.71822357177734, 0.04636693000793457, 0.050496045500040054, -3.3249242305755615, -0.8003027439117432, -0.9661803245544434, 0.053999435156583786, 0.0851955171776175, 0.706213796617476, 10.210615125460041, 9362.0, 30146.0, 35388.0, 9362.0, 8.390083312988281, 0.09601518511772156, -0.24938195943832397, -0.2850891649723053, -0.09715752303600311, -0.029575243592262268, 0.9950069189071655, -0.09142203629016876, 0.08584022521972656, 1.5029296875, 1.396728515625, 0.0370025634765625, 1.496337890625
48928, -2.3858144283294678, -1.5502954721450806, -9.602765083312988, -0.015141280367970467, -0.016383739188313484, -78.75147247314453, 0.049650099128484726, 0.05406578630208969, -3.325502395629883, -0.800305962562561, -0.9661723971366882, 0.05399259179830551, 0.08041133493939702, 0.6987797459318301, 10.208519642911531, 9362.0, 30146.0, 35388.0, 9362.0, 8.390083312988281, 0.07128682732582092, -0.06482714414596558, -0.05631520599126816, -0.09611228108406067, -0.029285838827490807, 0.9933735728263855, -0.09142203629016876, 0.08584022521972656, 1.5029296875, 1.336669921875, 0.0177764892578125, 1.496337890625
48938, -2.3845996856689453, -1.5501245260238647, -9.604192733764648, -0.014628377743065357, -0.015825239941477776, -78.78472900390625, 0.05293043330311775, 0.057634204626083374, -3.326146125793457, -0.8003016710281372, -0.966178834438324, 0.05401185527443886, 0.08807339754908433, 0.708496637155406, 10.212030135631013, 9362.0, 30146.0, 35388.0, 9362.0, 8.390083312988281, 0.09905525296926498, -0.1499452143907547, -0.22463612258434296, -0.09712803363800049, -0.028232937678694725, 0.9916936755180359, -0.09142203629016876, 0.08584022521972656, 1.5029296875, 1.38427734375, 0.027099609375, 1.49267578125
48948, -2.384168863296509, -1.549726128578186, -9.604615211486816, -0.014082723297178745, -0.015231117606163025, -78.8179931640625, 0.05620048940181732, 0.061190165579319, -3.327035903930664, -0.8002932071685791, -0.9661741852760315, 0.05401993542909622, 0.08459098141585988, 0.7010627153714779, 10.2056225103328, 9362.0, 30146.0, 35388.0, 9362.0, 8.390083312988281, 0.0014056980144232512, 0.05523063614964485, 0.19591329991817474, -0.0965651348233223, -0.02710963413119316, 0.9945094585418701, -0.09142203629016876, 0.08584022521972656, 1.5029296875, 1.3828125, 0.0261077880859375, 1.49267578125
48958, -2.3839573860168457, -1.5503588914871216, -9.604095458984375, -0.013504363596439362, -0.014601437374949455, -78.85126495361328, 0.059471528977155685, 0.06474580615758896, -3.32787823677063, -0.8003090620040894, -0.9661763310432434, 0.0539928562939167, 0.08423078129077383, 0.6990435120231098, 10.205512399942293, 9362.0, 30146.0, 35388.0, 9362.0, 8.390083312988281, 0.05859256163239479, 0.21009579300880432, -0.05978969484567642, -0.09700797498226166, -0.02835325337946415, 0.9950198531150818, -0.10180472582578659, -0.06647872924804688, 1.490478515625, 1.4296875, 0.07464599609375, 1.48974609375
48968, -2.383201837539673, -1.5498484373092651, -9.601770401000977, -0.0128932511433959, -0.01393615361303091, -78.8845443725586, 0.06275094300508499, 0.06831089407205582, -3.3284475803375244, -0.8003131747245789, -0.9661956429481506, 0.05400791019201279, 0.09210298416360682, 0.7028209572303865, 10.20735611781284, 9362.0, 30146.0, 35388.0, 9362.0, 8.390083312988281, -0.05849019065499306, 0.15502357482910156, 0.17510896921157837, -0.09719673544168472, -0.02627525106072426, 0.9944756627082825, -0.10180472582578659, -0.06647872924804688, 1.490478515625, 1.3857421875, 0.0280914306640625, 1.48974609375
48978, -2.383686065673828, -1.5495519638061523, -9.601125717163086, -0.012249354273080826, -0.013235237449407578, -78.91783142089844, 0.06602833420038223, 0.07187248021364212, -3.3291006088256836, -0.8003042340278625, -0.9661927819252014, 0.0539981834590435, 0.08645953428523392, 0.7016821597661931, 10.206427960593418, 9362.0, 30146.0, 35388.0, 9362.0, 8.390083312988281, -0.06145858392119408, -0.06689512729644775, -0.19537919759750366, -0.09389019757509232, -0.026160970330238342, 0.993568480014801, -0.10180472582578659, -0.06647872924804688, 1.490478515625, 1.348388671875, 0.0154571533203125, 1.491943359375
48988, -2.3835644721984863, -1.5503900051116943, -9.598438262939453, -0.011572691611945629, -0.012498713098466396, -78.95112609863281, 0.06930414587259293, 0.07543239742517471, -3.32977032661438, -0.8003071546554565, -0.966180682182312, 0.053991060703992844, 0.08804634548619235, 0.6961510205208299, 10.20848837385752, 9362.0, 30146.0, 35388.0, 9362.0, 8.390083312988281, 0.13852503895759583, 0.19532689452171326, 0.45949670672416687, -0.09578944742679596, -0.029703469946980476, 0.990912675857544, -0.10180472582578659, -0.06647872924804688, 1.490478515625, 1.4033203125, 0.043182373046875, 1.491943359375
48998, -2.3836450576782227, -1.5514994859695435, -9.596916198730469, -0.01086331158876419, -0.011726627126336098, -78.98442840576172, 0.07257169485092163, 0.07898504287004471, -3.330667018890381, -0.800312876701355, -0.966184675693512, 0.054006319493055344, 0.08993433397020686, 0.7013644776518788, 10.211750182964487, 9362.0, 30146.0, 35388.0, 9362.0, 8.390083312988281, -0.1942002773284912, 0.06108483299612999, 0.34134775400161743, -0.09909766912460327, -0.030562860891222954, 0.993858277797699, -0.10180472582578659, -0.06647872924804688, 1.490478515625, 1.398193359375, 0.03826904296875, 1.4970703125
49008, -2.3837716579437256, -1.552860140800476, -9.596835136413574, -0.010121261700987816, -0.010919027961790562, -79.01773834228516, 0.07583826035261154, 0.08253487199544907, -3.331631660461426, -0.8003412485122681, -0.9662004709243774, 0.05397692695260048, 0.09073116698134485, 0.7260366687192459, 10.198546629226417, 9362.0, 30146.0, 35388.0, 9362.0, 8.390083312988281, 0.19361631572246552, 0.4581882655620575, -0.2025740146636963, -0.09831780195236206, -0.02899288199841976, 0.9953277707099915, -0.10180472582578659, -0.06647872924804688, 1.490478515625, 1.3740234375, 0.0210723876953125, 1.4970703125
49018, -2.381455659866333, -1.55374014377594, -9.595351219177246, -0.00934648234397173, -0.010075872763991356, -79.05105590820312, 0.0791175588965416, 0.08609628677368164, -3.332274913787842, -0.8003110289573669, -0.9661916494369507, 0.054001905024051666, 0.09201139349878301, 0.7073021506360249, 10.211271513734845, 9362.0, 30146.0, 35388.0, 9362.0, 8.390083312988281, 0.12348911911249161, -0.19705896079540253, -0.014771770685911179, -0.0969848707318306, -0.02724025584757328, 0.9950897693634033, -0.10180472582578659, -0.06647872924804688, 1.490478515625, 1.3798828125, 0.0243377685546875, 1.493408203125
49028, -2.3806073665618896, -1.5545440912246704, -9.594780921936035, -0.00853889063000679, -0.009197094477713108, -79.08438110351562, 0.08240075409412384, 0.0896594300866127, -3.3328680992126465, -0.8003115653991699, -0.9661860466003418, 0.05400719866156578, 0.09040401150543144, 0.7020985608829449, 10.208572264361951, 9362.0, 30146.0, 35388.0, 9362.0, 8.390083312988281, 0.027164340019226074, 0.19346126914024353, 0.008777225390076637, -0.09374157339334488, -0.028161555528640747, 0.9930694699287415, -0.10180472582578659, -0.06647872924804688, 1.490478515625, 1.365234375, 0.0175933837890625, 1.493408203125
49038, -2.382049560546875, -1.5534954071044922, -9.596135139465332, -0.007698486093431711, -0.008282730355858803, -79.11771392822266, 0.08568017184734344, 0.0932135358452797, -3.3335959911346436, -0.8003025054931641, -0.9661828875541687, 0.05401267483830452, 0.08888316540635954, 0.6976421805181019, 10.209127681520796, 9362.0, 30146.0, 35388.0, 9362.0, 8.390083312988281, -0.03957698866724968, -0.10115280002355576, -0.26829299330711365, -0.09374157339334488, -0.028161555528640747, 0.9930694699287415, -0.10180472582578659, -0.06647872924804688, 1.490478515625, 1.3974609375, 0.03759765625, 1.493408203125
49068, -2.3831140995025635, -1.5476995706558228, -9.596750259399414, -0.007698486093431711, -0.008282730355858803, -79.11771392822266, 0.08568017184734344, 0.0932135358452797, -3.3335959911346436, -0.8003066778182983, -0.9661791324615479, 0.053999535739421844, 0.09111471938742978, 0.7025528277880255, 10.205563866991318, 9362.0, 30146.0, 35388.0, 9362.0, 8.390083312988281, 0.1018030121922493, -0.15004315972328186, -0.16293466091156006, -0.09659774601459503, -0.02979210950434208, 0.996289849281311, -0.10180472582578659, -0.06647872924804688, 1.490478515625, 1.361572265625, 0.016571044921875, 1.493408203125
49078, -2.3808066844940186, -1.5461831092834473, -9.59677791595459, -0.007698486093431711, -0.008282730355858803, -79.11771392822266, 0.08568017184734344, 0.0932135358452797, -3.3335959911346436, -0.8003208041191101, -0.9661825895309448, 0.053981512784957886, 0.09588645250163316, 0.7005883098872516, 10.213422147036834, 9362.0, 30146.0, 35388.0, 9362.0, 8.390083312988281, -0.03672102093696594, 0.03642260283231735, 0.04586315155029297, -0.09557180851697922, -0.028468456119298935, 0.9928048253059387, -0.10180472582578659, -0.06647872924804688, 1.490478515625, 1.49267578125, 0.1811065673828125, 1.493408203125
49098, -2.382341146469116, -1.5492525100708008, -9.591672897338867, -0.007698486093431711, -0.008282730355858803, -79.11771392822266, 0.08568017184734344, 0.0932135358452797, -3.3335959911346436, -0.8003100752830505, -0.966190755367279, 0.053991708904504776, 0.08582506313501942, 0.7075850273242565, 10.211248847997537, 9362.0, 30146.0, 35388.0, 9362.0, 8.390083312988281, -0.056046679615974426, 0.1416230946779251, 0.048967741429805756, -0.097199447453022, -0.02859019674360752, 0.9951919913291931, -0.10180472582578659, -0.06647872924804688, 1.490478515625, 1.3857421875, 0.0280914306640625, 1.493408203125
49128, -2.3788843154907227, -1.5489438772201538, -9.591057777404785, 0.0013399305753409863, 0.001547358464449644, -79.41800689697266, 0.11515844613313675, 0.1252376139163971, -3.3394954204559326, -0.8003054261207581, -0.9661786556243896, 0.05400998145341873, 0.09375181226927186, 0.7029240431715778, 10.208322901099821, 9362.0, 30146.0, 35388.0, 9362.0, 8.390083312988281, 0.12926624715328217, 0.030890122056007385, -0.20269924402236938, -0.099082350730896, -0.030205978080630302, 0.9928885102272034, -0.10180472582578659, -0.06647872924804688, 1.490478515625, 1.395263671875, 0.035675048828125, 1.49267578125
49138, -2.3789377212524414, -1.5486823320388794, -9.590902328491211, 0.0013399305753409863, 0.001547358464449644, -79.41800689697266, 0.11515844613313675, 0.1252376139163971, -3.3394954204559326, -0.8003136515617371, -0.9661902189254761, 0.053991157561540604, 0.09033251054766273, 0.699869872496464, 10.204325688461108, 9362.0, 30146.0, 35388.0, 9362.0, 8.390083312988281, 0.018649974837899208, 0.08700155466794968, -0.2558993697166443, -0.099082350730896, -0.030205978080630302, 0.9928885102272034, -0.10180472582578659, -0.06647872924804688, 1.490478515625, 1.4208984375, 0.063079833984375, 1.48974609375
49148, -2.3778369426727295, -1.5484319925308228, -9.594036102294922, 0.0013399305753409863, 0.001547358464449644, -79.41800689697266, 0.11515844613313675, 0.1252376139163971, -3.3394954204559326, -0.8003086447715759, -0.966188371181488, 0.05398118868470192, 0.09525058031121338, 0.7037260397159741, 10.209959955056162, 9362.0, 30146.0, 35388.0, 9362.0, 8.390083312988281, -0.11199679970741272, -0.14990906417369843, -0.017938390374183655, -0.09444282203912735, -0.027609113603830338, 0.9938022494316101, -0.10180472582578659, -0.06647872924804688, 1.490478515625, 1.358642578125, 0.0159912109375, 1.48974609375
49168, -2.3784749507904053, -1.5457377433776855, -9.60625171661377, 0.0013399305753409863, 0.001547358464449644, -79.41800689697266, 0.11515844613313675, 0.1252376139163971, -3.3394954204559326, -0.8002980947494507, -0.9661777019500732, 0.05401642248034477, 0.0858031304360819, 0.7064118274966518, 10.213045108651349, 9362.0, 30146.0, 35388.0, 9362.0, 8.390083312988281, 0.04337479919195175, 0.2687471807003021, -3.764359712600708, -0.09074285626411438, -0.03309791535139084, 0.9960727691650391, -0.10180472582578659, -0.06647872924804688, 1.490478515625, 1.42236328125, 0.0649566650390625, 1.491943359375
49178, -2.3785507678985596, -1.552056908607483, -9.580446243286133, 0.0013399305753409863, 0.001547358464449644, -79.41800689697266, 0.11515844613313675, 0.1252376139163971, -3.3394954204559326, -0.8003096580505371, -0.9661714434623718, 0.054018065333366394, 0.0848144452651023, 0.6985313430527071, 10.21526100013519, 9362.0, 30146.0, 35388.0, 9362.0, 8.390083312988281, 0.3496556878089905, 0.2818407416343689, 0.6702737212181091, -0.10019613802433014, -0.028905212879180908, 0.9940201044082642, -0.10180472582578659, -0.06647872924804688, 1.490478515625, 1.42236328125, 0.0649566650390625, 1.491943359375
49188, -2.37935471534729, -1.5503568649291992, -9.614535331726074, 0.0013399305753409863, 0.001547358464449644, -79.41800689697266, 0.11515844613313675, 0.1252376139163971, -3.3394954204559326, -0.8002992868423462, -0.9661903977394104, 0.05399956554174423, 0.08745935314549566, 0.6996385128996963, 10.208327350858726, 9362.0, 30146.0, 35388.0, 9362.0, 8.390083312988281, -0.3377797603607178, 0.1404569447040558, 3.6145431995391846, -0.09727831184864044, -0.025618918240070343, 0.9946925640106201, -0.10180472582578659, -0.06647872924804688, 1.490478515625, 1.3359375, 0.01806640625, 1.491943359375
49198, -2.3776047229766846, -1.5517215728759766, -9.599987030029297, 0.0013399305753409863, 0.001547358464449644, -79.41800689697266, 0.11515844613313675, 0.1252376139163971, -3.3394954204559326, -0.8002960085868835, -0.9661921858787537, 0.05401167273521423, 0.08898847792024389, 0.7079588679614517, 10.209660552226127, 9362.0, 30146.0, 35388.0, 9362.0, 8.390083312988281, -0.6507353782653809, 0.3129348158836365, -0.13612544536590576, -0.09338753670454025, -0.031324602663517, 0.996344804763794, -0.10180472582578659, -0.06647872924804688, 1.490478515625, 1.3359375, 0.01806640625, 1.49267578125
49208, -2.380232334136963, -1.5503761768341064, -9.608031272888184, 0.0013399305753409863, 0.001547358464449644, -79.41800689697266, 0.11515844613313675, 0.1252376139163971, -3.3394954204559326, -0.8003020286560059, -0.9661697745323181, 0.05400969088077545, 0.08621491231484124, 0.6956877795760761, 10.205907820516735, 9362.0, 30146.0, 35388.0, 9362.0, 8.390083312988281, -0.10260620713233948, -0.06260471045970917, 1.565200924873352, -0.09949839860200882, -0.027239451184868813, 0.997641384601593, -0.10180472582578659, -0.06647872924804688, 1.490478515625, 1.405517578125, 0.0454254150390625, 1.49267578125
49228, -2.380742073059082, -1.5488938093185425, -9.601652145385742, 0.0013399305753409863, 0.001547358464449644, -79.41800689697266, 0.11515844613313675, 0.1252376139163971, -3.3394954204559326, -0.8003087043762207, -0.9661810994148254, 0.05400603264570236, 0.08377128641933575, 0.699996536019512, 10.208974121829591, 9362.0, 30146.0, 35388.0, 9362.0, 8.390083312988281, 0.1906852424144745, 0.12183872610330582, 0.2290276437997818, -0.0971929281949997, -0.03139390051364899, 0.9934482574462891, -0.10180472582578659, -0.06647872924804688, 1.490478515625, 1.396728515625, 0.0370025634765625, 1.48681640625
49258, -2.378114938735962, -1.5462795495986938, -9.609698295593262, 0.01907680556178093, 0.020832136273384094, -79.85266876220703, 0.1577383428812027, 0.17146198451519012, -3.3474972248077393, -0.8003057837486267, -0.9661940336227417, 0.05400099232792854, 0.09468290636512842, 0.7057442485853755, 10.202510392899189, 9362.0, 30146.0, 35388.0, 9362.0, 8.390083312988281, 0.2463209331035614, -0.12292248010635376, 0.42327913641929626, -0.09707680344581604, -0.029747573658823967, 0.9942362308502197, -0.10956551134586334, -0.1291980743408203, 1.4853515625, 1.3681640625, 0.0185394287109375, 1.494873046875
49268, -2.3773765563964844, -1.5473190546035767, -9.60920524597168, 0.01907680556178093, 0.020832136273384094, -79.85266876220703, 0.1577383428812027, 0.17146198451519012, -3.3474972248077393, -0.8003135919570923, -0.9661930203437805, 0.05400197207927704, 0.0871775946694577, 0.7051455126294854, 10.208347558109434, 9362.0, 30146.0, 35388.0, 9362.0, 8.390083312988281, 0.05283467844128609, 0.5943179130554199, 0.12598177790641785, -0.09423741698265076, -0.03032468631863594, 0.9943885803222656, -0.10956551134586334, -0.1291980743408203, 1.4853515625, 1.3681640625, 0.0185394287109375, 1.494873046875
49288, -2.376044988632202, -1.550512671470642, -9.605897903442383, 0.023956218734383583, 0.026135915890336037, -79.953125, 0.16755233705043793, 0.18211998045444489, -3.349442958831787, -0.8003088235855103, -0.9661865830421448, 0.05399887263774872, 0.09297509348852957, 0.6998755961240306, 10.210308895094032, 9362.0, 30146.0, 35388.0, 9362.0, 8.390083312988281, 0.0003668649005703628, -0.13304737210273743, 0.2180035412311554, -0.09582037478685379, -0.027604147791862488, 0.9957547187805176, -0.10956551134586334, -0.1291980743408203, 1.4853515625, 1.3828125, 0.0261077880859375, 1.494140625
49308, -2.3731281757354736, -1.548405647277832, -9.605277061462402, 0.027372824028134346, 0.02984936721622944, -80.02012634277344, 0.1741092950105667, 0.1892249882221222, -3.3505709171295166, -0.8003129363059998, -0.966193437576294, 0.05401406064629555, 0.08705514541232638, 0.7033436311310766, 10.21016287700651, 9362.0, 30146.0, 35388.0, 9362.0, 8.390083312988281, 0.21001946926116943, 0.07065078616142273, 0.2830885052680969, -0.09366881847381592, -0.029112568125128746, 0.9941565990447998, -0.10956551134586334, -0.1291980743408203, 1.4853515625, 1.380615234375, 0.024749755859375, 1.49267578125
49318, -2.3724918365478516, -1.5489542484283447, -9.60420036315918, 0.027372824028134346, 0.02984936721622944, -80.02012634277344, 0.1741092950105667, 0.1892249882221222, -3.3505709171295166, -0.8003111481666565, -0.9661874771118164, 0.05401430279016495, 0.0891108859611526, 0.7069750640893915, 10.202448726152138, 9362.0, 30146.0, 35388.0, 9362.0, 8.390083312988281, 0.19777977466583252, 0.10163633525371552, 0.31147852540016174, -0.09633152186870575, -0.029484128579497337, 0.9925994277000427, -0.10956551134586334, -0.1291980743408203, 1.4853515625, 1.376220703125, 0.0222930908203125, 1.493408203125
49328, -2.3721559047698975, -1.5514893531799316, -9.602128028869629, 0.027372824028134346, 0.02984936721622944, -80.02012634277344, 0.1741092950105667, 0.1892249882221222, -3.3505709171295166, -0.8003119826316833, -0.9661874771118164, 0.05400465056300163, 0.08937782409262433, 0.7013873430188653, 10.199562528537296, 9362.0, 30146.0, 35388.0, 9362.0, 8.390083312988281, 0.17619960010051727, -0.10494948923587799, -0.42416155338287354, -0.09425458312034607, -0.02829790860414505, 0.9941604733467102, -0.10956551134586334, -0.1291980743408203, 1.4853515625, 1.310302734375, 0.036285400390625, 1.493408203125
49338, -2.371060371398926, -1.5501058101654053, -9.60540771484375, 0.027372824028134346, 0.02984936721622944, -80.02012634277344, 0.1741092950105667, 0.1892249882221222, -3.3505709171295166, -0.8003016114234924, -0.9661834836006165, 0.05398949608206749, 0.08276454601628859, 0.7061851644913588, 10.211890311966634, 9362.0, 30146.0, 35388.0, 9362.0, 8.390083312988281, 0.0028273635543882847, 0.12694424390792847, 0.35218513011932373, -0.09438944607973099, -0.029244257137179375, 0.9938973188400269, -0.10956551134586334, -0.1291980743408203, 1.4853515625, 1.408447265625, 0.0485382080078125, 1.493408203125
49368, -2.3701164722442627, -1.5580843687057495, -9.604460716247559, 0.03840832784771919, 0.04184048995375633, -80.2212905883789, 0.1937471628189087, 0.21047428250312805, -3.3546204566955566, -0.8003041744232178, -0.9661811590194702, 0.054003048688173294, 0.08579224379235045, 0.7013181455160407, 10.209637897168628, 9362.0, 30146.0, 35388.0, 9362.0, 8.390083312988281, 0.04862161725759506, 0.4292530119419098, -0.07904510200023651, -0.09699010103940964, -0.027186542749404907, 0.9948986768722534, -0.09537284821271896, -0.14711761474609375, 1.48388671875, 1.37109375, 0.0197906494140625, 1.487548828125
49378, -2.3695144653320312, -1.559544324874878, -9.603087425231934, 0.04234900325536728, 0.04612084478139877, -80.28839111328125, 0.2003212571144104, 0.21755751967430115, -3.3557045459747314, -0.8003127574920654, -0.9661876559257507, 0.054010115563869476, 0.08666157139447458, 0.7045507560143562, 10.217126207868887, 9362.0, 30146.0, 35388.0, 9362.0, 8.390083312988281, 0.09241126477718353, 0.11179366707801819, -0.006102913524955511, -0.09488748759031296, -0.027302784845232964, 0.9944530725479126, -0.09537284821271896, -0.14711761474609375, 1.48388671875, 1.37109375, 0.0197906494140625, 1.489013671875
49388, -2.3688056468963623, -1.562375783920288, -9.602972030639648, 0.04234900325536728, 0.04612084478139877, -80.28839111328125, 0.2003212571144104, 0.21755751967430115, -3.3557045459747314, -0.8003074526786804, -0.9661953449249268, 0.054005563259124756, 0.09189830964154228, 0.7041339376804672, 10.204330045791837, 9362.0, 30146.0, 35388.0, 9362.0, 8.390083312988281, -0.31366512179374695, -0.18191663920879364, -0.09511716663837433, -0.09277896583080292, -0.028127195313572884, 0.9929999709129333, -0.09537284821271896, -0.14711761474609375, 1.48388671875, 1.37109375, 0.0197906494140625, 1.489013671875
49408, -2.3713932037353516, -1.5601952075958252, -9.603706359863281, 0.04850660637021065, 0.05280647426843643, -80.38909912109375, 0.21019136905670166, 0.22815454006195068, -3.357776403427124, -0.8003069758415222, -0.9661740064620972, 0.05402477830648422, 0.08988456213275069, 0.6982535789746009, 10.21287240322402, 9362.0, 30146.0, 35388.0, 9362.0, 8.390083312988281, -0.014937021769583225, 0.30656304955482483, -0.09890034794807434, -0.09485463798046112, -0.027557283639907837, 0.9952666163444519, -0.09537284821271896, -0.14711761474609375, 1.48388671875, 1.332275390625, 0.019561767578125, 1.489013671875
49418, -2.371217966079712, -1.562636375427246, -9.605305671691895, 0.04850660637021065, 0.05280647426843643, -80.38909912109375, 0.21019136905670166, 0.22815454006195068, -3.357776403427124, -0.8003084063529968, -0.9661874175071716, 0.053992077708244324, 0.08118097317032662, 0.6999147021817294, 10.20540086744432, 9362.0, 30146.0, 35388.0, 9362.0, 8.390083312988281, -0.16612456738948822, -0.08362849801778793, -0.37917008996009827, -0.09679179638624191, -0.029854318127036095, 0.995466411113739, -0.09537284821271896, -0.14711761474609375, 1.48388671875, 1.3857421875, 0.0280914306640625, 1.494873046875
49428, -2.3715100288391113, -1.561208963394165, -9.605565071105957, 0.04850660637021065, 0.05280647426843643, -80.38909912109375, 0.21019136905670166, 0.22815454006195068, -3.357776403427124, -0.8002991080284119, -0.966185986995697, 0.05402586981654167, 0.08261423853837513, 0.7024421985980496, 10.211383123236484, 9362.0, 30146.0, 35388.0, 9362.0, 8.390083312988281, 0.02156199887394905, -0.1632198691368103, 0.09262845665216446, -0.09617090970277786, -0.028503194451332092, 0.9955564141273499, -0.09537284821271896, -0.14711761474609375, 1.48388671875, 1.3857421875, 0.0280914306640625, 1.494873046875
49468, -2.3731470108032227, -1.560563087463379, -9.60335922241211, 0.061711303889751434, 0.06713312119245529, -80.59066009521484, 0.22996513545513153, 0.24940507113933563, -3.3610951900482178, -0.8002989888191223, -0.9661806225776672, 0.054025571793317795, 0.08333743703687112, 0.7020062904143742, 10.201527499895302, 9362.0, 30146.0, 35388.0, 9362.0, 8.390083312988281, -0.1588364839553833, -0.12845706939697266, -0.0011547593167051673, -0.09506663680076599, -0.027685098350048065, 0.9966552257537842, -0.08840006589889526, -0.01271820068359375, 1.494873046875, 1.354248046875, 0.0154266357421875, 1.4912109375
49488, -2.3732879161834717, -1.563170075416565, -9.603604316711426, 0.06637650728225708, 0.07219211012125015, -80.65789794921875, 0.23655226826667786, 0.2564912736415863, -3.3623080253601074, -0.8003028035163879, -0.9661747217178345, 0.0540202334523201, 0.0809407312958553, 0.7069616116899056, 10.209781058477875, 9362.0, 30146.0, 35388.0, 9362.0, 8.390083312988281, 0.038153961300849915, -0.11522632837295532, -0.05910097062587738, -0.09481583535671234, -0.029943780973553658, 0.9932790994644165, -0.08840006589889526, -0.01271820068359375, 1.494873046875, 1.354248046875, 0.0154266357421875, 1.487548828125
49508, -2.372993230819702, -1.56497323513031, -9.603275299072266, 0.06875848770141602, 0.07477469742298126, -80.6915283203125, 0.23984427750110626, 0.2600269317626953, -3.3630788326263428, -0.8003116250038147, -0.9661868214607239, 0.05401068553328514, 0.08315976646410002, 0.6990769856549548, 10.213259413167533, 9362.0, 30146.0, 35388.0, 9362.0, 8.390083312988281, 0.034819766879081726, -0.06256530433893204, -0.13304053246974945, -0.09414907544851303, -0.029533108696341515, 0.9944776296615601, -0.08840006589889526, -0.01271820068359375, 1.494873046875, 1.36669921875, 0.01806640625, 1.491943359375
49518, -2.3725392818450928, -1.5652910470962524, -9.603719711303711, 0.06875848770141602, 0.07477469742298126, -80.6915283203125, 0.23984427750110626, 0.2600269317626953, -3.3630788326263428, -0.8003050088882446, -0.9661858081817627, 0.054021142423152924, 0.08352888526788783, 0.6979262122699481, 10.208943311295323, 9362.0, 30146.0, 35388.0, 9362.0, 8.390083312988281, 0.07513777911663055, -0.03136022761464119, -0.08569462597370148, -0.09266522526741028, -0.028672389686107635, 0.99479740858078, -0.08840006589889526, -0.01271820068359375, 1.494873046875, 1.36669921875, 0.01806640625, 1.48974609375
49568, -2.371190071105957, -1.566873550415039, -9.600408554077148, 0.08635561168193817, 0.09384321421384811, -80.92710876464844, 0.26294320821762085, 0.2847868800163269, -3.3675460815429688, -0.8003082871437073, -0.9661859273910522, 0.053999729454517365, 0.09335218197386032, 0.7008781249357696, 10.205443435532061, 9362.0, 30146.0, 35388.0, 9362.0, 8.390083312988281, 0.11940575391054153, -0.15409652888774872, 0.05586161091923714, -0.09494252502918243, -0.028383027762174606, 0.9939767718315125, -0.08840006589889526, -0.01271820068359375, 1.494873046875, 1.386474609375, 0.028656005859375, 1.49267578125
49578, -2.3707728385925293, -1.5638720989227295, -9.600051879882812, 0.08900153636932373, 0.096708744764328, -80.96078491210938, 0.2662411630153656, 0.2883186638355255, -3.368302822113037, -0.8003116250038147, -0.9661927223205566, 0.05399652197957039, 0.0878537551389667, 0.7003224526565077, 10.213405390074644, 9362.0, 30146.0, 35388.0, 9362.0, 8.390083312988281, 0.10132380574941635, 0.03433000296354294, -0.1943628042936325, -0.09494252502918243, -0.028383027762174606, 0.9939767718315125, -0.08840006589889526, -0.01271820068359375, 1.494873046875, 1.386474609375, 0.028656005859375, 1.489013671875
49588, -2.3686184883117676, -1.5648810863494873, -9.600339889526367, 0.08900153636932373, 0.096708744764328, -80.96078491210938, 0.2662411630153656, 0.2883186638355255, -3.368302822113037, -0.8003077507019043, -0.9661847949028015, 0.05398152768611908, 0.08824328415156492, 0.7057476744137432, 10.207192073490443, 9362.0, 30146.0, 35388.0, 9362.0, 8.390083312988281, -0.07884807884693146, 0.18230223655700684, -0.02622040919959545, -0.09604929387569427, -0.027972979471087456, 0.9910928606987, -0.08840006589889526, -0.01271820068359375, 1.494873046875, 1.351318359375, 0.0153350830078125, 1.489013671875
49608, -2.3690783977508545, -1.5663007497787476, -9.601163864135742, 0.08900153636932373, 0.096708744764328, -80.96078491210938, 0.2662411630153656, 0.2883186638355255, -3.368302822113037, -0.8003092408180237, -0.966189980506897, 0.054017119109630585, 0.09137445384102437, 0.7042236076576103, 10.214545632161451, 9362.0, 30146.0, 35388.0, 9362.0, 8.390083312988281, -0.005642837379127741, 0.13581359386444092, -0.11470826715230942, -0.09657355397939682, -0.02738865278661251, 0.9973211884498596, -0.08840006589889526, -0.01271820068359375, 1.494873046875, 1.329345703125, 0.02105712890625, 1.48974609375
49628, -2.368485689163208, -1.564589262008667, -9.602144241333008, 0.08900153636932373, 0.096708744764328, -80.96078491210938, 0.2662411630153656, 0.2883186638355255, -3.368302822113037, -0.8003174662590027, -0.96620112657547, 0.05400712788105011, 0.08810379250031597, 0.7031202303713258, 10.209285325486508, 9362.0, 30146.0, 35388.0, 9362.0, 8.390083312988281, 0.21397121250629425, -0.29552900791168213, -0.15231262147426605, -0.0978214368224144, -0.028288017958402634, 0.9945746660232544, -0.08840006589889526, -0.01271820068359375, 1.494873046875, 1.373291015625, 0.0207366943359375, 1.493408203125
49688, -2.365443706512451, -1.5673739910125732, -9.60255241394043, 0.11727321892976761, 0.12730519473552704, -81.29798126220703, 0.299200177192688, 0.32361048460006714, -3.375439405441284, -0.8003132343292236, -0.9661930203437805, 0.05402754619717598, 0.08727664970967267, 0.7007289414940203, 10.208713151029894, 9362.0, 30146.0, 35388.0, 9362.0, 8.390083312988281, -0.08481074124574661, -0.27902138233184814, -0.1373613029718399, -0.09603744745254517, -0.027543026953935623, 0.9939361810684204, -0.08840006589889526, -0.01271820068359375, 1.494873046875, 1.3916015625, 0.0325927734375, 1.494140625
49708, -2.3639719486236572, -1.563156247138977, -9.607159614562988, 0.12639755010604858, 0.13717205822467804, -81.39928436279297, 0.3090881109237671, 0.33418235182762146, -3.3776040077209473, -0.8003096580505371, -0.9661973118782043, 0.05400639399886131, 0.0904167487955188, 0.7054339366775082, 10.210161713409965, 9362.0, 30146.0, 35388.0, 9362.0, 8.390083312988281, -0.061940960586071014, 0.039711929857730865, -0.11407668143510818, -0.09603744745254517, -0.027543026953935623, 0.9939361810684204, -0.08840006589889526, -0.01271820068359375, 1.494873046875, 1.3271484375, 0.022308349609375, 1.489013671875
49718, -2.364001989364624, -1.5633069276809692, -9.607300758361816, 0.12639755010604858, 0.13717205822467804, -81.39928436279297, 0.3090881109237671, 0.33418235182762146, -3.3776040077209473, -0.8003182411193848, -0.9661977291107178, 0.05402345582842827, 0.09148164062989048, 0.7057541481738099, 10.198971214414872, 9362.0, 30146.0, 35388.0, 9362.0, 8.390083312988281, 0.06985834240913391, 0.022546999156475067, 0.043028876185417175, -0.09680256247520447, -0.028216131031513214, 0.9954419732093811, -0.08840006589889526, -0.01271820068359375, 1.494873046875, 1.3271484375, 0.022308349609375, 1.48681640625
49728, -2.364086389541626, -1.562180757522583, -9.608925819396973, 0.12639755010604858, 0.13717205822467804, -81.39928436279297, 0.3090881109237671, 0.33418235182762146, -3.3776040077209473, -0.8003027439117432, -0.9661927819252014, 0.054020196199417114, 0.09296529376825514, 0.7049838885570239, 10.20877787440113, 9362.0, 30146.0, 35388.0, 9362.0, 8.390083312988281, -0.025814082473516464, -0.034428127110004425, -0.08799759298563004, -0.09663281589746475, -0.02912900596857071, 0.9947323203086853, -0.08840006589889526, -0.01271820068359375, 1.494873046875, 1.3271484375, 0.022308349609375, 1.48681640625
49748, -2.3640966415405273, -1.5649704933166504, -9.607610702514648, 0.1390247493982315, 0.1508214920759201, -81.53443145751953, 0.32226818799972534, 0.3482854962348938, -3.380023956298828, -0.8003105521202087, -0.9662001729011536, 0.05402255803346634, 0.09489989178053601, 0.6997652538950092, 10.213176832868802, 9362.0, 30146.0, 35388.0, 9362.0, 8.390083312988281, -0.1210179477930069, -0.036530349403619766, 0.002920139115303755, -0.09663281589746475, -0.02912900596857071, 0.9947323203086853, -0.08840006589889526, -0.01271820068359375, 1.494873046875, 1.365234375, 0.0175933837890625, 1.48681640625
49768, -2.364781141281128, -1.5664142370224, -9.607439041137695, 0.1390247493982315, 0.1508214920759201, -81.53443145751953, 0.32226818799972534, 0.3482854962348938, -3.380023956298828, -0.8002949953079224, -0.9661955237388611, 0.05401572585105896, 0.09466094520251202, 0.7006205187768444, 10.20700370604123, 9362.0, 30146.0, 35388.0, 9362.0, 8.390083312988281, 0.27299946546554565, 0.03798569738864899, 0.14992119371891022, -0.09189808368682861, -0.02966480143368244, 0.9916573166847229, -0.08840006589889526, -0.01271820068359375, 1.494873046875, 1.387939453125, 0.0297393798828125, 1.48974609375
