timeTick, roll, pitch, yaw, stateX, stateY, stateZ, stateVX, stateVY, stateVZ, otX0, otY0, otZ0, otRoll0, otPitch0, otYaw0, left wing, pitch motor, yaw motor, right wing, voltage, roll rate, pitch rate, yaw rate, A_x, A_y, A_z, current, i_raw, v_raw, airflow_voltage, airflow_speed, pot_Pitch
51535, -2.2734055519104004, 2.6401307582855225, -3.181642532348633, 0, 0, 0, 0, 0, 0, -0.8119499683380127, -0.9880515933036804, 0.053027037531137466, -0.07331220588320535, 0.03773554883656516, -0.05539566739525352, 0, 0, 0, 0, 0, 0, 0, 0, 0, 0, 0, 0, 0, 0, 0, 0, 0
51545, -2.274135112762451, 2.638855457305908, -3.18202805519104, 0.0019320524297654629, -0.0018636099994182587, -57.59392547607422, 0.09233523160219193, -0.08906484395265579, -2.3045029640197754, -0.8119307160377502, -0.9880409240722656, 0.05300559476017952, -0.06682763648559899, 0.012565127804123222, -0.047075897979130844, 9362.0, 30146.0, 35388.0, 9362.0, 0, 0, 0, 0, 0, 0, 0, 0, 0, 0, 0, 0, 0
51555, -2.2749152183532715, 2.6382319927215576, -3.180941343307495, 0.00283407187089324, -0.0027337020728737116, -57.616973876953125, 0.08806866407394409, -0.08495353162288666, -2.305269718170166, -0.8119342923164368, -0.9880532026290894, 0.0530121773481369, -0.0647831212456991, 0.020332976248909063, -0.04969772526191361, 9362.0, 30146.0, 35388.0, 9362.0, 0, -0.05157020315527916, -0.026117607951164246, -0.04068143665790558, -0.10557735711336136, -0.034187447279691696, 0.9933356046676636, 0, 0, 0, 1.286865234375, 0.070281982421875, 0
51565, -2.2748312950134277, 2.639674186706543, -3.1833128929138184, 0.0036934558302164078, -0.0035626934841275215, -57.64002990722656, 0.08380807191133499, -0.08084484934806824, -2.3061234951019287, -0.811928927898407, -0.988044023513794, 0.05299528315663338, -0.06719711912875102, 0.017448949265059355, -0.042125196733121206, 9362.0, 30146.0, 35388.0, 9362.0, 0, -0.07604184001684189, 0.009932302869856358, -0.2295161783695221, -0.10419977456331253, -0.03497489541769028, 0.9938220977783203, 0, 0, 0, 1.324951171875, 0.0236663818359375, 1.49267578125
51575, -2.2752227783203125, 2.639347553253174, -3.183828592300415, 0.004510227590799332, -0.004350581206381321, -57.66309356689453, 0.07954651117324829, -0.07673250883817673, -2.306925058364868, -0.811954915523529, -0.9880601167678833, 0.05301300808787346, -0.07062191997221198, 0.03224201386703385, -0.05279505335122764, 9362.0, 30146.0, 35388.0, 9362.0, 0, -0.08397377282381058, 0.09986681491136551, 0.10420811921358109, -0.10481642186641693, -0.03627832233905792, 0.9932025671005249, 0, 0, 0, 1.41796875, 0.05950927734375, 1.49267578125
51585, -2.2761266231536865, 2.6397674083709717, -3.183823347091675, 0.00528437364846468, -0.005097345914691687, -57.6861686706543, 0.07528278976678848, -0.07262041419744492, -2.307732582092285, -0.8119286298751831, -0.988053023815155, 0.0530233196914196, -0.06723855884420595, 0.012559950568004297, -0.04669515694894497, 9362.0, 30146.0, 35388.0, 9362.0, 0, -0.09497006982564926, -0.22900448739528656, 0.014086722396314144, -0.10257282853126526, -0.03657315671443939, 0.9903340339660645, 0, 0, 0, 1.398193359375, 0.03826904296875, 1.494873046875
51595, -2.2765681743621826, 2.6388344764709473, -3.1858952045440674, 0.006015940103679895, -0.005803038831800222, -57.709251403808594, 0.07103055715560913, -0.06851817667484283, -2.308788776397705, -0.8119328022003174, -0.98805832862854, 0.053001247346401215, -0.06743264025716762, 0.022619033686027024, -0.04932644450343004, 9362.0, 30146.0, 35388.0, 9362.0, 0, -0.040713388472795486, 0.07837241142988205, -0.25918614864349365, -0.1036226823925972, -0.03429211676120758, 0.9933375716209412, 0, 0, 0, 1.409912109375, 0.0501251220703125, 1.494873046875
51605, -2.2759711742401123, 2.6367013454437256, -3.1869654655456543, 0.0067049493081867695, -0.006467670667916536, -57.73234558105469, 0.06677143275737762, -0.0644080638885498, -2.3096988201141357, -0.8119300603866577, -0.988056480884552, 0.053002770990133286, -0.06920536520952643, 0.019014390606173492, -0.046632665651939756, 9362.0, 30146.0, 35388.0, 9362.0, 0, 0.14094094932079315, 0.3579258322715759, 0.17779119312763214, -0.10360205173492432, -0.03336473926901817, 0.9944534301757812, 0, 0, 0, 1.411376953125, 0.05181884765625, 1.494873046875
51615, -2.277052879333496, 2.6354947090148926, -3.1883318424224854, 0.007351330481469631, -0.00709115294739604, -57.75544738769531, 0.0625048279762268, -0.06028834730386734, -2.3103997707366943, -0.8119255900382996, -0.988048791885376, 0.0529971644282341, -0.061916874242517086, 0.01714855037434404, -0.049117494220847685, 9362.0, 30146.0, 35388.0, 9362.0, 0, -0.18982943892478943, 0.30427172780036926, -0.05932660400867462, -0.10430797934532166, -0.0352044403553009, 0.9967806935310364, 0, 0, 0, 1.412841796875, 0.0534515380859375, 1.494873046875
51625, -2.2771143913269043, 2.6339306831359863, -3.1885039806365967, 0.007955026812851429, -0.00767340837046504, -57.7785530090332, 0.05823459103703499, -0.05616267770528793, -2.3109333515167236, -0.8119532465934753, -0.9880501627922058, 0.052998460829257965, -0.06561789922259098, 0.028358397533054358, -0.05641485049531518, 9362.0, 30146.0, 35388.0, 9362.0, 0, 0.04441243037581444, 0.18699105083942413, 0.02249247021973133, -0.10366945713758469, -0.037466488778591156, 0.9962483048439026, 0, 0, 0, 1.333740234375, 0.0189361572265625, 1.49560546875
51635, -2.27785587310791, 2.6323416233062744, -3.191521644592285, 0.008516037836670876, -0.008214402943849564, -57.801666259765625, 0.05396758019924164, -0.05203628912568092, -2.3114912509918213, -0.8119389414787292, -0.9880591034889221, 0.052989017218351364, -0.06906798843362362, 0.033430493926175586, -0.05331699169959251, 9362.0, 30146.0, 35388.0, 9362.0, 8.350414276123047, -0.08430960029363632, 0.08743475377559662, -0.5674644112586975, -0.10564235597848892, -0.03678673133254051, 0.9960144758224487, 0, 0, 0, 1.404052734375, 0.04400634765625, 1.49560546875
51645, -2.278778314590454, 2.6308770179748535, -3.189300537109375, 0.00903439149260521, -0.008714133873581886, -57.82478332519531, 0.049703408032655716, -0.0479096844792366, -2.3120479583740234, -0.8119395971298218, -0.9880551695823669, 0.05300121754407883, -0.06742520568790583, 0.03043378667754837, -0.05467311301119174, 9362.0, 30146.0, 35388.0, 9362.0, 8.350414276123047, -0.19935958087444305, -0.04533253237605095, 0.2560831606388092, -0.10456282645463943, -0.035509031265974045, 0.9956915974617004, -0.10135073214769363, -0.04855918884277344, 1.491943359375, 1.38427734375, 0.027099609375, 1.49560546875
51655, -2.2788426876068115, 2.6292834281921387, -3.1889705657958984, 0.009510130621492863, -0.00917260441929102, -57.84790802001953, 0.0454443097114563, -0.04378451779484749, -2.3126609325408936, -0.811918318271637, -0.9880629181861877, 0.05300159379839897, -0.06794166027531665, 0.01869739685997729, -0.052844338530558345, 9362.0, 30146.0, 35388.0, 9362.0, 8.350414276123047, -0.08571905642747879, 0.05686310678720474, -0.04596582055091858, -0.10427062958478928, -0.03734506666660309, 0.9946393370628357, -0.10135073214769363, -0.04855918884277344, 1.491943359375, 1.404052734375, 0.04400634765625, 1.49560546875
51665, -2.2797558307647705, 2.627460479736328, -3.1886677742004395, 0.009943312034010887, -0.009589836932718754, -57.871036529541016, 0.04119186848402023, -0.03966193646192551, -2.313368082046509, -0.8119258284568787, -0.9880545735359192, 0.05299593135714531, -0.06816771624364613, 0.019390828262743298, -0.045060920000444475, 9362.0, 30146.0, 35388.0, 9362.0, 8.350414276123047, -0.09060411155223846, 0.2169671356678009, -0.17853200435638428, -0.10747797042131424, -0.03639712557196617, 0.9957495927810669, -0.10135073214769363, -0.04855918884277344, 1.491943359375, 1.389404296875, 0.03082275390625, 1.49560546875
51675, -2.2801015377044678, 2.6250486373901367, -3.188997983932495, 0.010333962738513947, -0.009965824894607067, -57.89417266845703, 0.03693822771310806, -0.035535648465156555, -2.313985824584961, -0.811937153339386, -0.9880582690238953, 0.052989017218351364, -0.06465591689535652, 0.019606818116159275, -0.048997198585832395, 9362.0, 30146.0, 35388.0, 9362.0, 8.350414276123047, -0.09206924587488174, 0.3689512312412262, -0.07083451002836227, -0.10667464882135391, -0.03557270020246506, 0.9962091445922852, -0.10135073214769363, -0.04855918884277344, 1.491943359375, 1.41357421875, 0.0542449951171875, 1.49560546875
51685, -2.2801856994628906, 2.6248207092285156, -3.190804958343506, 0.010682073421776295, -0.010300524532794952, -57.91731643676758, 0.03268391266465187, -0.03140418604016304, -2.314514636993408, -0.8119274377822876, -0.9880573749542236, 0.05299648642539978, -0.06054416987613768, 0.01836736461535793, -0.045480850728286774, 9362.0, 30146.0, 35388.0, 9362.0, 8.350414276123047, -0.07359247654676437, -0.16506189107894897, -0.23929156363010406, -0.10592658072710037, -0.03577600046992302, 0.9951325058937073, -0.10135073214769363, -0.04855918884277344, 1.491943359375, 1.37255859375, 0.02044677734375, 1.491943359375
51695, -2.2814955711364746, 2.6237165927886963, -3.1945226192474365, 0.010987682268023491, -0.010593927465379238, -57.94046401977539, 0.028438031673431396, -0.027276232838630676, -2.315138101577759, -0.8119184374809265, -0.9880484938621521, 0.05301627144217491, -0.06566489469893512, 0.01521550812623218, -0.04763393632348366, 9362.0, 30146.0, 35388.0, 9362.0, 8.350414276123047, -0.12086563557386398, -0.06652795523405075, -0.40665319561958313, -0.10652659833431244, -0.03748651221394539, 0.9930314421653748, -0.10135073214769363, -0.04855918884277344, 1.491943359375, 1.4091796875, 0.04937744140625, 1.491943359375
51705, -2.281662702560425, 2.622457265853882, -3.1966233253479004, 0.01125088520348072, -0.010846097953617573, -57.963619232177734, 0.024202842265367508, -0.023157667368650436, -2.315992593765259, -0.8119247555732727, -0.9880561232566833, 0.052993446588516235, -0.06504197825897064, 0.01844931132515626, -0.043812490651173264, 9362.0, 30146.0, 35388.0, 9362.0, 8.350414276123047, 0.028400305658578873, 0.2432989627122879, -0.011342908255755901, -0.10931067913770676, -0.03597065806388855, 0.9935307502746582, -0.10135073214769363, -0.04855918884277344, 1.491943359375, 1.404052734375, 0.04400634765625, 1.49560546875
51715, -2.2812070846557617, 2.6213653087615967, -3.198521614074707, 0.011471737176179886, -0.011057061143219471, -57.98678207397461, 0.019967690110206604, -0.019034773111343384, -2.316798210144043, -0.8119485974311829, -0.988058865070343, 0.052989616990089417, -0.07018890452807944, 0.035419519785705234, -0.05549993868900762, 9362.0, 30146.0, 35388.0, 9362.0, 8.350414276123047, -0.04477071389555931, 0.16865253448486328, -0.035456642508506775, -0.11006622761487961, -0.03572889789938927, 0.9973441958427429, -0.10135073214769363, -0.04855918884277344, 1.491943359375, 1.4091796875, 0.04937744140625, 1.49560546875
51725, -2.280940532684326, 2.6214754581451416, -3.198639154434204, 0.011650188826024532, -0.011226735077798367, -58.009952545166016, 0.015722787007689476, -0.014899852685630322, -2.3173272609710693, -0.8119344711303711, -0.9880546927452087, 0.052996471524238586, -0.06354562497093286, 0.038590041106971285, -0.06059837017189371, 9362.0, 30146.0, 35388.0, 9362.0, 8.350414276123047, 0.17833325266838074, 0.05071988329291344, 0.0657598227262497, -0.10700840502977371, -0.03455392271280289, 0.9968386888504028, -0.10135073214769363, -0.04855918884277344, 1.491943359375, 1.412841796875, 0.0534515380859375, 1.49267578125
51735, -2.281362771987915, 2.6226844787597656, -3.1992692947387695, 0.011786188930273056, -0.011355050839483738, -58.03312683105469, 0.011477193795144558, -0.010763315483927727, -2.317797899246216, -0.8119300007820129, -0.9880610704421997, 0.05298512801527977, -0.06232804103055931, 0.018530999733286535, -0.048349918484392206, 9362.0, 30146.0, 35388.0, 9362.0, 8.350414276123047, 0.11852347105741501, 0.15388327836990356, 0.13283811509609222, -0.10362087935209274, -0.03427216410636902, 0.9945787191390991, -0.10135073214769363, -0.04855918884277344, 1.491943359375, 1.342529296875, 0.0161895751953125, 1.49267578125
51745, -2.2802276611328125, 2.6239242553710938, -3.2001380920410156, 0.011879782192409039, -0.011442053131759167, -58.05630874633789, 0.007241528481245041, -0.006637026555836201, -2.3185007572174072, -0.8119226694107056, -0.988051176071167, 0.052991755306720734, -0.06572825988392715, 0.012692700439629334, -0.04775032129613242, 9362.0, 30146.0, 35388.0, 9362.0, 8.350414276123047, 0.14747382700443268, -0.1025385782122612, -0.11316197365522385, -0.10503590106964111, -0.034762926399707794, 0.9923720359802246, -0.07814714312553406, -0.18295860290527344, 1.48095703125, 1.370361328125, 0.0194549560546875, 1.497802734375
51755, -2.2795748710632324, 2.6248409748077393, -3.201432943344116, 0.011931052431464195, -0.011487829498946667, -58.079498291015625, 0.0030125249177217484, -0.0025182124227285385, -2.319401741027832, -0.8119314312934875, -0.9880505204200745, 0.052978988736867905, -0.06410884739460977, 0.01852071949627998, -0.050000538137514476, 9362.0, 30146.0, 35388.0, 9362.0, 8.350414276123047, 0.008124773390591145, 0.06311989575624466, -0.05705108866095543, -0.10383842140436172, -0.03637503460049629, 0.9947048425674438, -0.07814714312553406, -0.18295860290527344, 1.48095703125, 1.370361328125, 0.0194549560546875, 1.497802734375
51765, -2.2813892364501953, 2.626351833343506, -3.202197313308716, 0.01193999219685793, -0.011492397636175156, -58.10269546508789, -0.0012244634563103318, 0.0016045975498855114, -2.320167303085327, -0.8119182586669922, -0.9880539774894714, 0.05298750475049019, -0.06248015530158161, 0.01943759056325689, -0.04645590308742011, 9362.0, 30146.0, 35388.0, 9362.0, 8.350414276123047, -0.19961124658584595, -0.25982367992401123, -0.09776166081428528, -0.10682138055562973, -0.037030890583992004, 0.9927240610122681, -0.07814714312553406, -0.18295860290527344, 1.48095703125, 1.376953125, 0.0225982666015625, 1.49560546875
51775, -2.2812201976776123, 2.6275055408477783, -3.2047789096832275, 0.011906574480235577, -0.011455762200057507, -58.12590026855469, -0.005458904430270195, 0.005722436588257551, -2.3210275173187256, -0.8119442462921143, -0.9880468249320984, 0.052986063063144684, -0.06981391965734254, 0.031989818417230254, -0.052149232767001084, 9362.0, 30146.0, 35388.0, 9362.0, 8.350414276123047, 0.06347504258155823, -0.20106543600559235, -0.275795578956604, -0.106346495449543, -0.0373687706887722, 0.9941378235816956, -0.07814714312553406, -0.18295860290527344, 1.48095703125, 1.373291015625, 0.0207366943359375, 1.49560546875
51785, -2.280751943588257, 2.6280272006988525, -3.206573963165283, 0.011830787174403667, -0.011377918533980846, -58.149112701416016, -0.009698429144918919, 0.00984649546444416, -2.321822166442871, -0.8119224905967712, -0.9880542755126953, 0.05299684777855873, -0.06830452055415323, 0.018333662025241892, -0.05251803936448759, 9362.0, 30146.0, 35388.0, 9362.0, 8.350414276123047, -0.04004223644733429, -0.3425068259239197, -0.20553505420684814, -0.10655257850885391, -0.03454306721687317, 0.9967237710952759, -0.07814714312553406, -0.18295860290527344, 1.48095703125, 1.4208984375, 0.063079833984375, 1.494873046875
51795, -2.2804417610168457, 2.6263980865478516, -3.2054991722106934, 0.011712539941072464, -0.011258780024945736, -58.172332763671875, -0.013950875028967857, 0.013981277123093605, -2.3223626613616943, -0.8119197487831116, -0.9880461096763611, 0.05297866836190224, -0.06233352330116444, 0.01540356246397323, -0.047452596262974066, 9362.0, 30146.0, 35388.0, 9362.0, 8.350414276123047, 0.16915538907051086, 0.314115047454834, 0.16653338074684143, -0.1052364706993103, -0.03563356772065163, 0.995737612247467, -0.07814714312553406, -0.18295860290527344, 1.48095703125, 1.376220703125, 0.0222930908203125, 1.494873046875
51805, -2.2800917625427246, 2.6283743381500244, -3.2065324783325195, 0.011551766656339169, -0.01109829917550087, -58.195560455322266, -0.01820388436317444, 0.018114792183041573, -2.322913646697998, -0.8119306564331055, -0.9880506992340088, 0.05299731716513634, -0.06409582353029254, 0.019087366097323866, -0.04725767476104304, 9362.0, 30146.0, 35388.0, 9362.0, 8.350414276123047, 0.054722193628549576, -0.1357404887676239, -0.2493961602449417, -0.10422330349683762, -0.03611745312809944, 0.9940919876098633, -0.07814714312553406, -0.18295860290527344, 1.48095703125, 1.352783203125, 0.015350341796875, 1.49560546875
51815, -2.2810702323913574, 2.62789249420166, -3.2063820362091064, 0.01134851761162281, -0.010896527208387852, -58.21879196166992, -0.022445758804678917, 0.022239653393626213, -2.323654890060425, -0.8119418621063232, -0.9880521893501282, 0.05297751724720001, -0.06503838650781689, 0.02898862428321536, -0.045893998361790776, 9362.0, 30146.0, 35388.0, 9362.0, 8.350414276123047, -0.09797828644514084, -0.00670800544321537, 0.09121877700090408, -0.10412480682134628, -0.0339120551943779, 0.9960764050483704, -0.07814714312553406, -0.18295860290527344, 1.48095703125, 1.39013671875, 0.0314483642578125, 1.49560546875
51825, -2.280010223388672, 2.625582218170166, -3.2076163291931152, 0.011102803982794285, -0.01065347995609045, -58.24203109741211, -0.02669690176844597, 0.026369720697402954, -2.3242623805999756, -0.8119240999221802, -0.9880454540252686, 0.05299089476466179, -0.07520394277720437, 0.01895004329043104, -0.05414256166799536, 9362.0, 30146.0, 35388.0, 9362.0, 8.350414276123047, 0.13689106702804565, 0.04601316526532173, -0.31932294368743896, -0.1041165217757225, -0.03523322567343712, 0.9926901459693909, -0.07814714312553406, -0.18295860290527344, 1.48095703125, 1.360107421875, 0.0162506103515625, 1.493408203125
51835, -2.279409408569336, 2.624880790710449, -3.2095253467559814, 0.010814636945724487, -0.010369175113737583, -58.26527786254883, -0.03093649446964264, 0.03049127198755741, -2.3251121044158936, -0.8119176030158997, -0.9880573153495789, 0.053000740706920624, -0.0651346049969672, 0.021241563571976485, -0.05423611411574914, 9362.0, 30146.0, 35388.0, 9362.0, 8.350414276123047, 0.02409975975751877, -0.14043931663036346, -0.2445666491985321, -0.10696587711572647, -0.03506724536418915, 0.993826150894165, -0.07814714312553406, -0.18295860290527344, 1.48095703125, 1.40185546875, 0.0417938232421875, 1.493408203125
51845, -2.278775215148926, 2.62430477142334, -3.2106761932373047, 0.010484087280929089, -0.010043658316135406, -58.28853225708008, -0.03517340496182442, 0.03461218625307083, -2.3259313106536865, -0.811949610710144, -0.9880560040473938, 0.05297451466321945, -0.07252348977989066, 0.031379339972545495, -0.05892940994044874, 9362.0, 30146.0, 35388.0, 9362.0, 8.350414276123047, 0.08246918022632599, 0.15248723328113556, -0.21020059287548065, -0.10622575879096985, -0.03657948225736618, 0.9957551956176758, -0.11401674151420593, -0.09335899353027344, 1.48828125, 1.42529296875, 0.0688018798828125, 1.48974609375
51855, -2.278179407119751, 2.623832941055298, -3.212128162384033, 0.010111122392117977, -0.009676886722445488, -58.31179428100586, -0.039419446140527725, 0.03874215483665466, -2.3265140056610107, -0.8119173049926758, -0.9880577921867371, 0.05298544839024544, -0.06981959318806738, 0.015658888393147663, -0.043137945580642816, 9362.0, 30146.0, 35388.0, 9362.0, 8.350414276123047, -0.006616661790758371, -0.22755295038223267, -0.20990803837776184, -0.10651490837335587, -0.03681594505906105, 0.9959225058555603, -0.11401674151420593, -0.09335899353027344, 1.48828125, 1.3974609375, 0.03759765625, 1.48974609375
51865, -2.2787230014801025, 2.622109889984131, -3.211380958557129, 0.009695703163743019, -0.009268821217119694, -58.33506393432617, -0.043664298951625824, 0.04287096485495567, -2.327099561691284, -0.8119125366210938, -0.9880558252334595, 0.052995119243860245, -0.0685542790315221, 0.01591744210776369, -0.05797139400567337, 9362.0, 30146.0, 35388.0, 9362.0, 8.350414276123047, 0.03019121289253235, 0.15142951905727386, 0.0250856876373291, -0.10505568236112595, -0.03878491744399071, 0.9931829571723938, -0.11401674151420593, -0.09335899353027344, 1.48828125, 1.41357421875, 0.0542449951171875, 1.494873046875
51875, -2.279853343963623, 2.62288761138916, -3.2112858295440674, 0.009237881749868393, -0.008819513954222202, -58.35833740234375, -0.047900136560201645, 0.04699048772454262, -2.3278775215148926, -0.8119319677352905, -0.9880562424659729, 0.05299771949648857, -0.06685769443106768, 0.030086798720503793, -0.056731198178778613, 9362.0, 30146.0, 35388.0, 9362.0, 8.350414276123047, -0.08875632286071777, 0.2592393457889557, -0.08536047488451004, -0.10364232957363129, -0.03436286002397537, 0.9928255677223206, -0.11401674151420593, -0.09335899353027344, 1.48828125, 1.406982421875, 0.046966552734375, 1.494873046875
51885, -2.2796733379364014, 2.6218180656433105, -3.2111268043518066, 0.008737742900848389, -0.008329033851623535, -58.381622314453125, -0.052127592265605927, 0.0511055588722229, -2.3287789821624756, -0.8119146227836609, -0.9880598783493042, 0.05301661044359207, -0.06805178069224166, 0.01616350507057973, -0.05582507327932374, 9362.0, 30146.0, 35388.0, 9362.0, 8.350414276123047, 0.05475930869579315, 0.10467998683452606, 0.056805454194545746, -0.10518399626016617, -0.03640299662947655, 0.9961519241333008, -0.11401674151420593, -0.09335899353027344, 1.48828125, 1.423095703125, 0.06591796875, 1.49267578125
51895, -2.279604196548462, 2.622986316680908, -3.21343731880188, 0.008195267990231514, -0.007797338534146547, -58.40491485595703, -0.05636743828654289, 0.055233485996723175, -2.329423666000366, -0.8119238615036011, -0.9880636930465698, 0.05298318713903427, -0.06409439686238719, 0.01760633835900194, -0.050794033888692434, 9362.0, 30146.0, 35388.0, 9362.0, 8.350414276123047, -0.15130820870399475, -0.1525115668773651, -0.23913468420505524, -0.10553988814353943, -0.0355183370411396, 0.9948195219039917, -0.11401674151420593, -0.09335899353027344, 1.48828125, 1.40185546875, 0.0417938232421875, 1.49267578125
51905, -2.280635118484497, 2.625241756439209, -3.212860345840454, 0.007610398810356855, -0.007224361877888441, -58.4282112121582, -0.06060618907213211, 0.0593620203435421, -2.330048084259033, -0.8119206428527832, -0.9880529046058655, 0.052989814430475235, -0.06546892871717182, 0.018286437396085375, -0.04984694484419867, 9362.0, 30146.0, 35388.0, 9362.0, 8.350414276123047, -0.0884227380156517, -0.11909123510122299, 0.13036605715751648, -0.10425635427236557, -0.03392542526125908, 0.9928338527679443, -0.11401674151420593, -0.09335899353027344, 1.48828125, 1.36962890625, 0.01910400390625, 1.496337890625
51915, -2.281287431716919, 2.6233651638031006, -3.212681770324707, 0.00698319124057889, -0.006610155571252108, -58.451515197753906, -0.06483534723520279, 0.06347917020320892, -2.330940008163452, -0.8119453191757202, -0.9880601167678833, 0.0529927983880043, -0.07096243020691002, 0.03592051814186448, -0.056704295602723144, 9362.0, 30146.0, 35388.0, 9362.0, 8.350414276123047, -0.034164100885391235, 0.2258169800043106, 0.13578443229198456, -0.10698717832565308, -0.036547642201185226, 0.9935774803161621, -0.11401674151420593, -0.09335899353027344, 1.48828125, 1.41943359375, 0.0612945556640625, 1.496337890625
51925, -2.2819039821624756, 2.6232099533081055, -3.2108705043792725, 0.006313658319413662, -0.00595475360751152, -58.47482681274414, -0.06907127797603607, 0.06760122627019882, -2.3317625522613525, -0.8119319081306458, -0.9880720376968384, 0.05300834774971008, -0.06563432460137567, 0.033150211800261786, -0.05640991519305683, 9362.0, 30146.0, 35388.0, 9362.0, 8.350414276123047, -0.027375169098377228, 0.19819651544094086, 0.36060118675231934, -0.10788550227880478, -0.03710044175386429, 0.9936709403991699, -0.11401674151420593, -0.09335899353027344, 1.48828125, 1.35791015625, 0.015869140625, 1.493408203125
51935, -2.2815372943878174, 2.6243910789489746, -3.2124955654144287, 0.005601778160780668, -0.005258122459053993, -58.49814987182617, -0.0733049139380455, 0.07172484695911407, -2.332566261291504, -0.8119252920150757, -0.9880591034889221, 0.053000595420598984, -0.0690741860426939, 0.0166011139105251, -0.05365775983510599, 9362.0, 30146.0, 35388.0, 9362.0, 8.350414276123047, 0.15773743391036987, -0.17341849207878113, -0.059215884655714035, -0.10631448030471802, -0.033108972012996674, 0.9954012632369995, -0.11401674151420593, -0.09335899353027344, 1.48828125, 1.41064453125, 0.0509490966796875, 1.493408203125
51945, -2.281569719314575, 2.6248433589935303, -3.213813304901123, 0.0048475367948412895, -0.004520225804299116, -58.521480560302734, -0.07754319161176682, 0.07585463672876358, -2.3332526683807373, -0.8119148015975952, -0.9880492091178894, 0.05300300940871239, -0.06724354994724123, 0.0210459260717073, -0.04941513030032027, 9362.0, 30146.0, 35388.0, 9362.0, 8.350414276123047, -0.048779912292957306, -0.01007646881043911, -0.09015261381864548, -0.10274651646614075, -0.03792092949151993, 0.994024395942688, -0.10953126847743988, -0.23671722412109375, 1.4765625, 1.40625, 0.04620361328125, 1.4912109375
51955, -2.2815651893615723, 2.6246821880340576, -3.2139973640441895, 0.0040509081445634365, -0.0037410377990454435, -58.54481506347656, -0.08178246766328812, 0.07998307049274445, -2.333961248397827, -0.8119550943374634, -0.9880623817443848, 0.052988097071647644, -0.07359029054431059, 0.019547935354466972, -0.05572044914426645, 9362.0, 30146.0, 35388.0, 9362.0, 8.350414276123047, 0.0803043395280838, 0.17555716633796692, 0.04671414569020271, -0.10542680323123932, -0.03675311058759689, 0.9939482808113098, -0.10953126847743988, -0.23671722412109375, 1.4765625, 1.42529296875, 0.0688018798828125, 1.4912109375
51965, -2.2825915813446045, 2.625807285308838, -3.212465286254883, 0.0032118975650519133, -0.002920578233897686, -58.56815719604492, -0.08601968735456467, 0.0841088593006134, -2.3347349166870117, -0.8119499683380127, -0.9880517721176147, 0.05295038968324661, -0.06274561718605826, 0.03171128111023336, -0.05453680974708209, 9362.0, 30146.0, 35388.0, 9362.0, 8.350414276123047, 0.02163670025765896, 0.06260214745998383, 0.21639347076416016, -0.10718908160924911, -0.033822983503341675, 0.9944165349006653, -0.10953126847743988, -0.23671722412109375, 1.4765625, 1.382080078125, 0.0256195068359375, 1.494873046875
51975, -2.2829504013061523, 2.6241798400878906, -3.2123472690582275, 0.0023305148351937532, -0.002058859448879957, -58.59150695800781, -0.0902569442987442, 0.08823477476835251, -2.3355023860931396, -0.8119639158248901, -0.9880353808403015, 0.05297691747546196, -0.06476441700551626, 0.02777784708413833, -0.060228094594954894, 9362.0, 30146.0, 35388.0, 9362.0, 8.350414276123047, -0.0467427633702755, 0.0714201033115387, 0.08643728494644165, -0.10597947984933853, -0.03621790185570717, 0.9959357380867004, -0.10953126847743988, -0.23671722412109375, 1.4765625, 1.382080078125, 0.0256195068359375, 1.494873046875
52005, -2.2830758094787598, 2.6258790493011475, -3.2120296955108643, -0.0005681964685209095, 0.0007742270245216787, -58.661598205566406, -0.10298594832420349, 0.10063479095697403, -2.3374242782592773, -0.8119769096374512, -0.9880485534667969, 0.052981022745370865, -0.064988782588632, 0.038240153681272204, -0.0693080230289334, 9362.0, 30146.0, 35388.0, 9362.0, 8.350414276123047, 0.007980789989233017, 0.0780368372797966, -0.055224571377038956, -0.10597947984933853, -0.03621790185570717, 0.9959357380867004, -0.10953126847743988, -0.23671722412109375, 1.4765625, 1.443603515625, 0.0948486328125, 1.491943359375
52015, -2.282656669616699, 2.6273536682128906, -3.212346315383911, -0.0005681964685209095, 0.0007742270245216787, -58.661598205566406, -0.10298594832420349, 0.10063479095697403, -2.3374242782592773, -0.8119770288467407, -0.9880502820014954, 0.052976127713918686, -0.05807267336267864, 0.04538753073759949, -0.05652065101847862, 9362.0, 30146.0, 35388.0, 9362.0, 8.350414276123047, 0.007980789989233017, 0.0780368372797966, -0.055224571377038956, -0.10597947984933853, -0.03621790185570717, 0.9959357380867004, -0.10953126847743988, -0.23671722412109375, 1.4765625, 1.387939453125, 0.0297393798828125, 1.491943359375
52025, -2.282212018966675, 2.62616229057312, -3.212980031967163, -0.0027126253116875887, 0.0028694323264062405, -58.7083625793457, -0.11145447194576263, 0.1088830903172493, -2.3391706943511963, -0.811957836151123, -0.9880441427230835, 0.0529937818646431, -0.07265550373487527, 0.02354906354426589, -0.058318311908037, 9362.0, 30146.0, 35388.0, 9362.0, 8.350414276123047, 0.007980789989233017, 0.0780368372797966, -0.055224571377038956, -0.10597947984933853, -0.03621790185570717, 0.9959357380867004, -0.10953126847743988, -0.23671722412109375, 1.4765625, 1.382080078125, 0.0256195068359375, 1.491943359375
52035, -2.283959150314331, 2.6270782947540283, -3.215503215789795, -0.003848385065793991, 0.003978909458965063, -58.73175811767578, -0.11569750308990479, 0.1130124181509018, -2.3399078845977783, -0.8119719624519348, -0.988068163394928, 0.053028546273708344, -0.0803229191246999, 0.02104337256972144, -0.05477922919951303, 9362.0, 30146.0, 35388.0, 9362.0, 8.350414276123047, 0.007980789989233017, 0.0780368372797966, -0.055224571377038956, -0.10597947984933853, -0.03621790185570717, 0.9959357380867004, -0.10953126847743988, -0.23671722412109375, 1.4765625, 1.382080078125, 0.0256195068359375, 1.491943359375
52045, -2.283066511154175, 2.6273245811462402, -3.213765859603882, -0.005026590544730425, 0.005129700526595116, -58.75516128540039, -0.11994338780641556, 0.11714594066143036, -2.340529203414917, -0.8119257688522339, -0.988050103187561, 0.052996449172496796, -0.069584162787052, 0.02156699383883165, -0.03975456983755611, 9362.0, 30146.0, 35388.0, 9362.0, 8.350414276123047, 0.007980789989233017, 0.0780368372797966, -0.055224571377038956, -0.10597947984933853, -0.03621790185570717, 0.9959357380867004, -0.11566205322742462, -0.19191741943359375, 1.480224609375, 1.382080078125, 0.0256195068359375, 1.493408203125
52055, -2.2816827297210693, 2.6260533332824707, -3.2146100997924805, -0.006247243843972683, 0.006321826949715614, -58.778568267822266, -0.12418749183416367, 0.12127923220396042, -2.3412270545959473, -0.8119269013404846, -0.9880437850952148, 0.053013600409030914, -0.06990406902724357, 0.020796412623695915, -0.040889679049812805, 9362.0, 30146.0, 35388.0, 9362.0, 8.350414276123047, 0.007980789989233017, 0.0780368372797966, -0.055224571377038956, -0.10538984835147858, -0.034462083131074905, 0.9961666464805603, -0.11566205322742462, -0.19191741943359375, 1.480224609375, 1.382080078125, 0.0256195068359375, 1.493408203125
52065, -2.2828621864318848, 2.6261074542999268, -3.216097831726074, -0.0075103649869561195, 0.007555300369858742, -58.80198287963867, -0.1284366101026535, 0.12541554868221283, -2.341818332672119, -0.8119224905967712, -0.9880475401878357, 0.053011056035757065, -0.0701240022399644, 0.02193097030593094, -0.04337574859456005, 9362.0, 30146.0, 35388.0, 9362.0, 8.350414276123047, -0.15960760414600372, -0.05307197570800781, -0.3841139078140259, -0.10725167393684387, -0.03689806908369064, 0.9946135878562927, -0.11566205322742462, -0.19191741943359375, 1.480224609375, 1.357177734375, 0.0157928466796875, 1.4912109375
52075, -2.2823822498321533, 2.6248795986175537, -3.2175097465515137, -0.008815950714051723, 0.008830109611153603, -58.82540512084961, -0.13268038630485535, 0.1295463591814041, -2.342485189437866, -0.8119235634803772, -0.9880530834197998, 0.053009554743766785, -0.06608944832482859, 0.02078428592520254, -0.04591769701540747, 9362.0, 30146.0, 35388.0, 9362.0, 8.350414276123047, -0.15960760414600372, -0.05307197570800781, -0.3841139078140259, -0.10725167393684387, -0.03689806908369064, 0.9946135878562927, -0.11566205322742462, -0.19191741943359375, 1.480224609375, 1.379150390625, 0.0238189697265625, 1.4912109375
52085, -2.281862258911133, 2.624206781387329, -3.2188613414764404, -0.010163959115743637, 0.01014622300863266, -58.84883499145508, -0.13692116737365723, 0.1336764544248581, -2.3432164192199707, -0.8119398355484009, -0.9880505204200745, 0.05301598459482193, -0.06652927052382558, 0.04042039584135182, -0.05323663942448069, 9362.0, 30146.0, 35388.0, 9362.0, 8.350414276123047, 0.005567244719713926, 0.1717378944158554, -0.11258900165557861, -0.10725167393684387, -0.03689806908369064, 0.9946135878562927, -0.11566205322742462, -0.19191741943359375, 1.480224609375, 1.379150390625, 0.0238189697265625, 1.4970703125
52095, -2.280881643295288, 2.6267263889312744, -3.222003221511841, -0.011554346419870853, 0.011503616347908974, -58.87227249145508, -0.14115625619888306, 0.13780231773853302, -2.3440299034118652, -0.8119179606437683, -0.9880467057228088, 0.053016893565654755, -0.06574471461971074, 0.01588033206198247, -0.045628806744424655, 9362.0, 30146.0, 35388.0, 9362.0, 8.350414276123047, 0.005567244719713926, 0.1717378944158554, -0.11258900165557861, -0.10725167393684387, -0.03689806908369064, 0.9946135878562927, -0.11566205322742462, -0.19191741943359375, 1.480224609375, 1.379150390625, 0.0238189697265625, 1.4970703125
52105, -2.2802507877349854, 2.6280465126037598, -3.223487615585327, -0.012987128458917141, 0.012902311980724335, -58.89571762084961, -0.14539986848831177, 0.1419370472431183, -2.3446171283721924, -0.8119134306907654, -0.9880468249320984, 0.053021349012851715, -0.06855185341534557, 0.01726650161577936, -0.05171744479891219, 9362.0, 30146.0, 35388.0, 9362.0, 8.350414276123047, 0.2103561908006668, -0.054721806198358536, -0.2756917476654053, -0.10598758608102798, -0.03498152270913124, 0.9950624108314514, -0.11566205322742462, -0.19191741943359375, 1.480224609375, 1.461181640625, 0.1233062744140625, 1.493408203125
52115, -2.281496524810791, 2.6270196437835693, -3.222170829772949, -0.014462358318269253, 0.014342340640723705, -58.919166564941406, -0.1496460735797882, 0.14606882631778717, -2.345242977142334, -0.8119194507598877, -0.9880486130714417, 0.053007304668426514, -0.06724899617602718, 0.01741686865398151, -0.046347950637375235, 9362.0, 30146.0, 35388.0, 9362.0, 8.350414276123047, 0.2103561908006668, -0.054721806198358536, -0.2756917476654053, -0.10598758608102798, -0.03498152270913124, 0.9950624108314514, -0.11566205322742462, -0.19191741943359375, 1.480224609375, 1.461181640625, 0.1233062744140625, 1.493408203125
52145, -2.2832400798797607, 2.6296937465667725, -3.2185122966766357, -0.019142508506774902, 0.01890995353460312, -58.989559173583984, -0.16236065328121185, 0.15843796730041504, -2.3477797508239746, -0.8119329810142517, -0.988048791885376, 0.05302736908197403, -0.06845653107256867, 0.03604086140759932, -0.054416335579286636, 9362.0, 30146.0, 35388.0, 9362.0, 8.350414276123047, 0.2103561908006668, -0.054721806198358536, -0.2756917476654053, -0.10595695674419403, -0.03468034416437149, 0.9929043650627136, -0.10826218873262405, -0.12023735046386719, 1.486083984375, 1.41943359375, 0.0612945556640625, 1.494873046875
52155, -2.284043788909912, 2.631410837173462, -3.217794418334961, -0.019142508506774902, 0.01890995353460312, -58.989559173583984, -0.16236065328121185, 0.15843796730041504, -2.3477797508239746, -0.8119491934776306, -0.9880393147468567, 0.05301741138100624, -0.06951941992123989, 0.031237253875588067, -0.05243129309615914, 9362.0, 30146.0, 35388.0, 9362.0, 8.350414276123047, 0.2103561908006668, -0.054721806198358536, -0.2756917476654053, -0.10595695674419403, -0.03468034416437149, 0.9929043650627136, -0.10826218873262405, -0.12023735046386719, 1.486083984375, 1.446533203125, 0.09930419921875, 1.494873046875
52165, -2.285006284713745, 2.6289284229278564, -3.2174179553985596, -0.02247464843094349, 0.022161293774843216, -59.03653335571289, -0.17085634171962738, 0.16669997572898865, -2.3492417335510254, -0.811935544013977, -0.9880510568618774, 0.05301833152770996, -0.06820027208595833, 0.04172141571345378, -0.05170889400578974, 9362.0, 30146.0, 35388.0, 9362.0, 8.350414276123047, 0.0673213005065918, 0.3460167348384857, 0.11833295226097107, -0.10494641959667206, -0.035418055951595306, 0.996722936630249, -0.10826218873262405, -0.12023735046386719, 1.486083984375, 1.376953125, 0.0225982666015625, 1.493408203125
52175, -2.284188985824585, 2.628657579421997, -3.213993787765503, -0.02420451119542122, 0.023849006742239, -59.060028076171875, -0.1751163899898529, 0.17084269225597382, -2.349736452102661, -0.811931312084198, -0.9880521297454834, 0.05299863591790199, -0.06462397038819369, 0.014474890215353753, -0.05148219840591056, 9362.0, 30146.0, 35388.0, 9362.0, 8.350414276123047, 0.0673213005065918, 0.3460167348384857, 0.11833295226097107, -0.10446890443563461, -0.03653307631611824, 0.9946115612983704, -0.10826218873262405, -0.12023735046386719, 1.486083984375, 1.41357421875, 0.0542449951171875, 1.493408203125
52185, -2.284419298171997, 2.629725217819214, -3.2125020027160645, -0.02597692236304283, 0.025578124448657036, -59.08353042602539, -0.1793660819530487, 0.17498049139976501, -2.3503739833831787, -0.81197190284729, -0.9880489706993103, 0.05299162492156029, -0.06128293868182635, 0.052754807157384676, -0.0640237238137662, 9362.0, 30146.0, 35388.0, 9362.0, 8.350414276123047, -0.012932288460433483, -0.06874541938304901, 0.1967036873102188, -0.10451442748308182, -0.035822831094264984, 0.9938379526138306, -0.10826218873262405, -0.12023735046386719, 1.486083984375, 1.333740234375, 0.0189361572265625, 1.491943359375
52195, -2.2848422527313232, 2.629638433456421, -3.211533308029175, -0.02779179811477661, 0.027348579838871956, -59.10703659057617, -0.18360917270183563, 0.17911052703857422, -2.3511598110198975, -0.8119552731513977, -0.988048255443573, 0.05297766625881195, -0.06546319545065055, 0.03807294332935385, -0.051849257435771734, 9362.0, 30146.0, 35388.0, 9362.0, 8.350414276123047, -0.012932288460433483, -0.06874541938304901, 0.1967036873102188, -0.10495228320360184, -0.03615114465355873, 0.9931288957595825, -0.10826218873262405, -0.12023735046386719, 1.486083984375, 1.333740234375, 0.0189361572265625, 1.491943359375
52215, -2.28519868850708, 2.629852771759033, -3.208395004272461, -0.03154885023832321, 0.031013378873467445, -59.15407943725586, -0.19209705293178558, 0.1873701810836792, -2.352771282196045, -0.8119502067565918, -0.9880481362342834, 0.05297980457544327, -0.06722202582851192, 0.03226300930012371, -0.053403716831747404, 9362.0, 30146.0, 35388.0, 9362.0, 8.350414276123047, -0.012932288460433483, -0.06874541938304901, 0.1967036873102188, -0.10495228320360184, -0.03615114465355873, 0.9931288957595825, -0.10826218873262405, -0.12023735046386719, 1.486083984375, 1.333740234375, 0.0189361572265625, 1.48828125
52225, -2.286057949066162, 2.6318106651306152, -3.2064783573150635, -0.03349102661013603, 0.03290773183107376, -59.1776123046875, -0.1963382065296173, 0.19150014221668243, -2.3535897731781006, -0.8119544982910156, -0.9880539178848267, 0.05297912284731865, -0.05735186785821629, 0.03201669731501511, -0.05409234810632753, 9362.0, 30146.0, 35388.0, 9362.0, 8.350414276123047, -0.11182954162359238, -0.23149272799491882, 0.2751314342021942, -0.10495228320360184, -0.03615114465355873, 0.9931288957595825, -0.10826218873262405, -0.12023735046386719, 1.486083984375, 1.333740234375, 0.0189361572265625, 1.491943359375
52255, -2.284804344177246, 2.632035970687866, -3.202430009841919, -0.03957241028547287, 0.03883880004286766, -59.24825668334961, -0.20908793807029724, 0.20390285551548004, -2.3558177947998047, -0.8119572997093201, -0.9880563020706177, 0.05297871679067612, -0.0633903306749765, 0.03300027063403377, -0.05204554565283143, 9362.0, 30146.0, 35388.0, 9362.0, 8.350414276123047, -0.11182954162359238, -0.23149272799491882, 0.2751314342021942, -0.10495228320360184, -0.03615114465355873, 0.9931288957595825, -0.1176733523607254, -0.13815879821777344, 1.484619140625, 1.333740234375, 0.0189361572265625, 1.493408203125
52275, -2.2853522300720215, 2.6308600902557373, -3.2021992206573486, -0.04383936896920204, 0.04299969971179962, -59.29538345336914, -0.21760743856430054, 0.212185338139534, -2.356926679611206, -0.8119535446166992, -0.9880626797676086, 0.05298140272498131, -0.06349285874410904, 0.03695456643765738, -0.0528204180528443, 9362.0, 30146.0, 35388.0, 9362.0, 8.350414276123047, -0.11182954162359238, -0.23149272799491882, 0.2751314342021942, -0.10495228320360184, -0.03615114465355873, 0.9931288957595825, -0.1176733523607254, -0.13815879821777344, 1.484619140625, 1.333740234375, 0.0189361572265625, 1.491943359375
52295, -2.286809206008911, 2.6296920776367188, -3.1986231803894043, -0.04827661067247391, 0.047326140105724335, -59.342533111572266, -0.2261153757572174, 0.22045797109603882, -2.3582677841186523, -0.8119587898254395, -0.9880543351173401, 0.05297551676630974, -0.06739909959487721, 0.04046306388187304, -0.05612956984260285, 9362.0, 30146.0, 35388.0, 9362.0, 8.350414276123047, -0.11182954162359238, -0.23149272799491882, 0.2751314342021942, -0.10590602457523346, -0.03676622360944748, 0.992790162563324, -0.1176733523607254, -0.13815879821777344, 1.484619140625, 1.4033203125, 0.043182373046875, 1.49267578125
52305, -2.2871577739715576, 2.629744052886963, -3.1984236240386963, -0.050558995455503464, 0.049551378935575485, -59.366119384765625, -0.23036181926727295, 0.2245899736881256, -2.3590800762176514, -0.8119800090789795, -0.9880483746528625, 0.05299340561032295, -0.06393883998127901, 0.05280123804880077, -0.06273319567678519, 9362.0, 30146.0, 35388.0, 9362.0, 8.350414276123047, 0.031297728419303894, 0.14827680587768555, 0.05902726203203201, -0.10590602457523346, -0.03676622360944748, 0.992790162563324, -0.1176733523607254, -0.13815879821777344, 1.484619140625, 1.4033203125, 0.043182373046875, 1.493408203125
52315, -2.28716778755188, 2.628260612487793, -3.1980695724487305, -0.0528838187456131, 0.05181792378425598, -59.389713287353516, -0.2346028834581375, 0.2287190705537796, -2.359969139099121, -0.8119629621505737, -0.9880513548851013, 0.05298934131860733, -0.06315563322626633, 0.030538166825948565, -0.05025716302484068, 9362.0, 30146.0, 35388.0, 9362.0, 8.350414276123047, 0.031297728419303894, 0.14827680587768555, 0.05902726203203201, -0.10590602457523346, -0.03676622360944748, 0.992790162563324, -0.1176733523607254, -0.13815879821777344, 1.484619140625, 1.4033203125, 0.043182373046875, 1.493408203125
52345, -2.287954092025757, 2.6258280277252197, -3.203648567199707, -0.06011292710900307, 0.05886555463075638, -59.46055221557617, -0.2473406046628952, 0.24112871289253235, -2.362192153930664, -0.8119576573371887, -0.9880508780479431, 0.052976615726947784, -0.06025628876159728, 0.04055252360319628, -0.05513755769009723, 9362.0, 30146.0, 35388.0, 9362.0, 8.350414276123047, -0.1491410732269287, -0.08701217919588089, -0.34817713499069214, -0.10640523582696915, -0.03634160757064819, 0.9933069348335266, -0.08837846666574478, -0.18295860290527344, 1.48095703125, 1.4033203125, 0.043182373046875, 1.493408203125
52355, -2.2878143787384033, 2.6276156902313232, -3.2038416862487793, -0.06260760873556137, 0.06129758432507515, -59.48417663574219, -0.25159555673599243, 0.2452775239944458, -2.3627095222473145, -0.8119586110115051, -0.9880475401878357, 0.05296144634485245, -0.06318102787870106, 0.03335094436471309, -0.05336987191431102, 9362.0, 30146.0, 35388.0, 9362.0, 8.350414276123047, -0.1491410732269287, -0.08701217919588089, -0.34817713499069214, -0.10640523582696915, -0.03634160757064819, 0.9933069348335266, -0.08837846666574478, -0.18295860290527344, 1.48095703125, 1.43701171875, 0.085052490234375, 1.493408203125
52365, -2.2867658138275146, 2.626102924346924, -3.203720808029175, -0.06514478474855423, 0.0637710690498352, -59.507808685302734, -0.255840003490448, 0.24941883981227875, -2.3633577823638916, -0.8119521737098694, -0.9880433678627014, 0.052973370999097824, -0.06855577202621099, 0.03683420827795203, -0.05464566611534554, 9362.0, 30146.0, 35388.0, 9362.0, 8.350414276123047, 0.03406040742993355, 0.06986795365810394, -0.02289065718650818, -0.10640523582696915, -0.03634160757064819, 0.9933069348335266, -0.08837846666574478, -0.18295860290527344, 1.48095703125, 1.39892578125, 0.0390167236328125, 1.49267578125
52375, -2.2873377799987793, 2.624478816986084, -3.205890417098999, -0.06772445142269135, 0.06628599017858505, -59.53144454956055, -0.2600927948951721, 0.2535652220249176, -2.3638858795166016, -0.8119622468948364, -0.9880490899085999, 0.0529719740152359, -0.06059259107388897, 0.04118983831352807, -0.05155045675658385, 9362.0, 30146.0, 35388.0, 9362.0, 8.350414276123047, 0.03406040742993355, 0.06986795365810394, -0.02289065718650818, -0.10640523582696915, -0.03634160757064819, 0.9933069348335266, -0.08837846666574478, -0.18295860290527344, 1.48095703125, 1.39892578125, 0.0390167236328125, 1.49267578125
52385, -2.2862000465393066, 2.6212544441223145, -3.20703387260437, -0.07034657895565033, 0.068842314183712, -59.55508804321289, -0.2643330991268158, 0.2577001452445984, -2.364640474319458, -0.8119670152664185, -0.9880530834197998, 0.05298008397221565, -0.06469916549755458, 0.03783110330476802, -0.057360830094090376, 9362.0, 30146.0, 35388.0, 9362.0, 8.350414276123047, 0.13291960954666138, 0.37782469391822815, 0.0007921301294118166, -0.1052444577217102, -0.03741336986422539, 0.9947441220283508, -0.08837846666574478, -0.18295860290527344, 1.48095703125, 1.39892578125, 0.0390167236328125, 1.49267578125
52395, -2.2866554260253906, 2.623446226119995, -3.210808038711548, -0.07301110774278641, 0.07144000381231308, -59.578739166259766, -0.2685721516609192, 0.26183760166168213, -2.365356922149658, -0.8119584321975708, -0.9880548715591431, 0.052976589649915695, -0.06003611440658266, 0.03755187097505086, -0.04950186151330826, 9362.0, 30146.0, 35388.0, 9362.0, 8.350414276123047, 0.13291960954666138, 0.37782469391822815, 0.0007921301294118166, -0.10347592085599899, -0.0374184288084507, 0.9953577518463135, -0.08837846666574478, -0.18295860290527344, 1.48095703125, 1.39892578125, 0.0390167236328125, 1.49267578125
52405, -2.286515951156616, 2.6218981742858887, -3.212308168411255, -0.07571801543235779, 0.07407907396554947, -59.602394104003906, -0.272809773683548, 0.26597729325294495, -2.3659749031066895, -0.811954915523529, -0.988050103187561, 0.05299317464232445, -0.05900157020770928, 0.034958103814062724, -0.058675683054763554, 9362.0, 30146.0, 35388.0, 9362.0, 8.350414276123047, -0.011619309894740582, 0.27280300855636597, -0.01440028753131628, -0.1045815572142601, -0.034977756440639496, 0.9947635531425476, -0.08837846666574478, -0.18295860290527344, 1.48095703125, 1.39892578125, 0.0390167236328125, 1.494140625
52415, -2.2865562438964844, 2.622659206390381, -3.2117931842803955, -0.07846730947494507, 0.07675953954458237, -59.62605667114258, -0.2770483195781708, 0.2701154053211212, -2.3666553497314453, -0.8119531273841858, -0.9880532622337341, 0.05297490954399109, -0.06759986298753874, 0.03194217605880567, -0.06138811577699292, 9362.0, 30146.0, 35388.0, 9362.0, 8.350414276123047, 0.053854264318943024, 0.11865425854921341, 0.03195687755942345, -0.1045815572142601, -0.034977756440639496, 0.9947635531425476, -0.08837846666574478, -0.18295860290527344, 1.48095703125, 1.439208984375, 0.0882415771484375, 1.494140625
52425, -2.285867214202881, 2.6228106021881104, -3.2123661041259766, -0.08125895261764526, 0.07948136329650879, -59.64972686767578, -0.28127965331077576, 0.2742486298084259, -2.3674404621124268, -0.8119857907295227, -0.9880562424659729, 0.0529668815433979, -0.06522388024940072, 0.05375183068088063, -0.059831508487567395, 9362.0, 30146.0, 35388.0, 9362.0, 8.350414276123047, 0.014031732454895973, 0.11333312839269638, -0.013857734389603138, -0.1045815572142601, -0.034977756440639496, 0.9947635531425476, -0.08837846666574478, -0.18295860290527344, 1.48095703125, 1.38134765625, 0.025177001953125, 1.496337890625
52435, -2.286233901977539, 2.6239540576934814, -3.214682102203369, -0.08409290015697479, 0.08224450796842575, -59.673404693603516, -0.2855103313922882, 0.2783801555633545, -2.3682711124420166, -0.8119848370552063, -0.9880590438842773, 0.05296732857823372, -0.06536428776946474, 0.05542211680875653, -0.0647272186801199, 9362.0, 30146.0, 35388.0, 9362.0, 8.350414276123047, 0.014031732454895973, 0.11333312839269638, -0.013857734389603138, -0.1045815572142601, -0.034977756440639496, 0.9947635531425476, -0.08837846666574478, -0.18295860290527344, 1.48095703125, 1.430419921875, 0.0756378173828125, 1.496337890625
52445, -2.2855050563812256, 2.621006488800049, -3.217726707458496, -0.08696916699409485, 0.08504897356033325, -59.69709014892578, -0.2897433638572693, 0.282512903213501, -2.369049310684204, -0.811954915523529, -0.988059401512146, 0.05297735333442688, -0.062145859308972484, 0.03720038917469992, -0.050698489264792826, 9362.0, 30146.0, 35388.0, 9362.0, 8.350414276123047, 0.014031732454895973, 0.11333312839269638, -0.013857734389603138, -0.1045815572142601, -0.034977756440639496, 0.9947635531425476, -0.07819118350744247, 0.023120880126953125, 1.497802734375, 1.430419921875, 0.0756378173828125, 1.493408203125
52455, -2.2850899696350098, 2.618008613586426, -3.219463348388672, -0.0898878425359726, 0.08789483457803726, -59.72078323364258, -0.2939917743206024, 0.2866598665714264, -2.3695151805877686, -0.8119504451751709, -0.9880485534667969, 0.053001951426267624, -0.06367121391997135, 0.03175881343034348, -0.0532538571483429, 9362.0, 30146.0, 35388.0, 9362.0, 8.350414276123047, 0.0835811048746109, 0.5556184649467468, -0.24931757152080536, -0.1045815572142601, -0.034977756440639496, 0.9947635531425476, -0.07819118350744247, 0.023120880126953125, 1.497802734375, 1.427490234375, 0.0716400146484375, 1.493408203125
52465, -2.2845966815948486, 2.6206610202789307, -3.2217960357666016, -0.09284897893667221, 0.09078215807676315, -59.74448013305664, -0.29823511838912964, 0.29080548882484436, -2.3699803352355957, -0.8119816780090332, -0.9880536794662476, 0.05298672989010811, -0.06248179543974661, 0.05107506126458361, -0.06290064070269696, 9362.0, 30146.0, 35388.0, 9362.0, 8.350414276123047, 0.07360672205686569, -0.28713366389274597, -0.295898973941803, -0.1045815572142601, -0.034977756440639496, 0.9947635531425476, -0.07819118350744247, 0.023120880126953125, 1.497802734375, 1.414306640625, 0.05517578125, 1.4912109375
52475, -2.2847840785980225, 2.618682384490967, -3.223384141921997, -0.09585247933864594, 0.09371089935302734, -59.768184661865234, -0.3024653196334839, 0.29494255781173706, -2.3706276416778564, -0.8119577765464783, -0.9880563616752625, 0.05296698212623596, -0.06754029299718098, 0.03211672259158149, -0.05121804976539906, 9362.0, 30146.0, 35388.0, 9362.0, 8.350414276123047, 0.07360672205686569, -0.28713366389274597, -0.295898973941803, -0.1045815572142601, -0.034977756440639496, 0.9947635531425476, -0.07819118350744247, 0.023120880126953125, 1.497802734375, 1.414306640625, 0.05517578125, 1.4912109375
52485, -2.284487724304199, 2.619056224822998, -3.225722551345825, -0.0988982692360878, 0.09668096899986267, -59.79189682006836, -0.30669277906417847, 0.29907211661338806, -2.371438980102539, -0.8119752407073975, -0.9880473613739014, 0.05298749357461929, -0.06207655848886323, 0.04778781465392967, -0.06135163095102466, 9362.0, 30146.0, 35388.0, 9362.0, 8.350414276123047, 0.15345916152000427, 0.08564680814743042, -0.14241783320903778, -0.1045815572142601, -0.034977756440639496, 0.9947635531425476, -0.07819118350744247, 0.023120880126953125, 1.497802734375, 1.4736328125, 0.1452178955078125, 1.4912109375
52495, -2.2835381031036377, 2.620009422302246, -3.2272109985351562, -0.10198631137609482, 0.09969233721494675, -59.815616607666016, -0.310916006565094, 0.3032013177871704, -2.372267246246338, -0.8119921088218689, -0.9880161285400391, 0.05293423682451248, -0.07477226287986544, 0.061673809553667525, -0.07021537197433615, 9362.0, 30146.0, 35388.0, 9362.0, 8.350414276123047, 0.15345916152000427, 0.08564680814743042, -0.14241783320903778, -0.1045815572142601, -0.034977756440639496, 0.9947635531425476, -0.07819118350744247, 0.023120880126953125, 1.497802734375, 1.433349609375, 0.0797576904296875, 1.4912109375
52515, -2.2841217517852783, 2.6207995414733887, -3.228081703186035, -0.10828910768032074, 0.10583891719579697, -59.86307907104492, -0.31936728954315186, 0.311459481716156, -2.3738749027252197, -0.8119699358940125, -0.9880284070968628, 0.05292845889925957, -0.07314209619841307, 0.04486738782526345, -0.06595880028967627, 9362.0, 30146.0, 35388.0, 9362.0, 8.350414276123047, -0.027162225916981697, 0.09812049567699432, 0.024977387860417366, -0.1045815572142601, -0.034977756440639496, 0.9947635531425476, -0.07819118350744247, 0.023120880126953125, 1.497802734375, 1.433349609375, 0.0797576904296875, 1.493408203125
52535, -2.2831532955169678, 2.619699716567993, -3.228290557861328, -0.11476102471351624, 0.11215070635080338, -59.91057205200195, -0.32782575488090515, 0.3197210431098938, -2.3753933906555176, -0.8119937777519226, -0.9880163669586182, 0.0529426708817482, -0.06481387304485155, 0.05744587542716317, -0.07639363833148419, 9362.0, 30146.0, 35388.0, 9362.0, 8.350414276123047, -0.027162225916981697, 0.09812049567699432, 0.024977387860417366, -0.1045815572142601, -0.034977756440639496, 0.9947635531425476, -0.07819118350744247, 0.023120880126953125, 1.497802734375, 1.46484375, 0.1295928955078125, 1.49560546875
52545, -2.2831647396087646, 2.6211097240448, -3.228102207183838, -0.1180603876709938, 0.11536853760480881, -59.934329986572266, -0.332046240568161, 0.32384538650512695, -2.3762600421905518, -0.8119502067565918, -0.9880545735359192, 0.05298224091529846, -0.06142700267126295, 0.03047846414142441, -0.05417804938442719, 9362.0, 30146.0, 35388.0, 9362.0, 8.350414276123047, 0.11017561703920364, -0.0950104147195816, 0.06644503772258759, -0.10691273212432861, -0.03738603740930557, 0.9938802719116211, -0.08142972737550735, -0.06647872924804688, 1.490478515625, 1.39892578125, 0.0390167236328125, 1.5
52555, -2.2830612659454346, 2.6215343475341797, -3.2280936241149902, -0.12140198051929474, 0.11862763017416, -59.95809555053711, -0.33627259731292725, 0.32797348499298096, -2.3770530223846436, -0.8119469285011292, -0.9880496859550476, 0.05299699306488037, -0.05458155630406242, 0.03507224773872508, -0.059283132789915004, 9362.0, 30146.0, 35388.0, 9362.0, 8.350414276123047, 0.001316032838076353, -0.25607454776763916, -0.061606619507074356, -0.10597995668649673, -0.03905966877937317, 0.9947322010993958, -0.08142972737550735, -0.06647872924804688, 1.490478515625, 1.409912109375, 0.0501251220703125, 1.5
52565, -2.282579183578491, 2.6201462745666504, -3.22552227973938, -0.12478586286306381, 0.12192802131175995, -59.981868743896484, -0.3405044674873352, 0.3321048319339752, -2.3777759075164795, -0.8119842410087585, -0.988053560256958, 0.05299205332994461, -0.0640633383383306, 0.04518257846137885, -0.06260092771389096, 9362.0, 30146.0, 35388.0, 9362.0, 8.350414276123047, 0.13500337302684784, 0.3631478548049927, 0.3952414393424988, -0.10339459776878357, -0.03808053210377693, 0.9967669248580933, -0.08142972737550735, -0.06647872924804688, 1.490478515625, 1.3740234375, 0.0210723876953125, 1.497802734375
52575, -2.282228708267212, 2.6186859607696533, -3.225674629211426, -0.128212109208107, 0.12526977062225342, -60.00564956665039, -0.3447456955909729, 0.33624398708343506, -2.3783071041107178, -0.8119531869888306, -0.9880495667457581, 0.05300528556108475, -0.05950095691307149, 0.03873715742963668, -0.055371132152879005, 9362.0, 30146.0, 35388.0, 9362.0, 8.350414276123047, 0.13500337302684784, 0.3631478548049927, 0.3952414393424988, -0.10327693074941635, -0.0348070003092289, 0.9955322742462158, -0.08142972737550735, -0.06647872924804688, 1.490478515625, 1.409912109375, 0.0501251220703125, 1.497802734375
52585, -2.281811237335205, 2.6201834678649902, -3.2243573665618896, -0.13168074190616608, 0.128652885556221, -60.02943420410156, -0.34898054599761963, 0.3403782844543457, -2.3789291381835938, -0.8119627237319946, -0.9880510568618774, 0.05299394205212593, -0.06250514274599252, 0.03763830645567623, -0.05809509974114927, 9362.0, 30146.0, 35388.0, 9362.0, 8.350414276123047, 0.10149411112070084, -0.026352176442742348, 0.18193919956684113, -0.10512596368789673, -0.03502225503325462, 0.9940856695175171, -0.08142972737550735, -0.06647872924804688, 1.490478515625, 1.411376953125, 0.05181884765625, 1.49560546875
52595, -2.2801883220672607, 2.6197597980499268, -3.2256405353546143, -0.13519169390201569, 0.13207732141017914, -60.053226470947266, -0.3532090485095978, 0.3445079028606415, -2.3796422481536865, -0.8119445443153381, -0.9880418181419373, 0.053029268980026245, -0.055593674430594445, 0.03506518087718291, -0.04892118198390768, 9362.0, 30146.0, 35388.0, 9362.0, 8.350414276123047, 0.0732368677854538, -0.13110055029392242, -0.07880756258964539, -0.1051311269402504, -0.03540979325771332, 0.9946510195732117, -0.08142972737550735, -0.06647872924804688, 1.490478515625, 1.37841796875, 0.023406982421875, 1.49560546875
52605, -2.2806081771850586, 2.618515729904175, -3.225147247314453, -0.13874493539333344, 0.13554304838180542, -60.0770263671875, -0.35743990540504456, 0.3486368656158447, -2.380359649658203, -0.8119795918464661, -0.9880602955818176, 0.05299736186861992, -0.06507604625719438, 0.053632531198417155, -0.07164589881414052, 9362.0, 30146.0, 35388.0, 9362.0, 8.350414276123047, -0.14425122737884521, 0.10327806323766708, 0.08790793269872665, -0.10466482490301132, -0.035111743956804276, 0.9959275126457214, -0.08142972737550735, -0.06647872924804688, 1.490478515625, 1.465576171875, 0.130889892578125, 1.49560546875
52615, -2.2802655696868896, 2.6193723678588867, -3.2246594429016113, -0.1423405110836029, 0.13905006647109985, -60.100833892822266, -0.36167505383491516, 0.3527677059173584, -2.3809680938720703, -0.8119618892669678, -0.9880532622337341, 0.053011562675237656, -0.06505973920552155, 0.04084737133356953, -0.0538331611550183, 9362.0, 30146.0, 35388.0, 9362.0, 8.350414276123047, -0.14290401339530945, -0.02778015471994877, 0.016696300357580185, -0.10479571670293808, -0.03352054953575134, 0.9943206310272217, -0.08142972737550735, -0.06647872924804688, 1.490478515625, 1.43994140625, 0.089324951171875, 1.49560546875
52625, -2.2795095443725586, 2.621961832046509, -3.2244982719421387, -0.1459784060716629, 0.14259837567806244, -60.1246452331543, -0.3659038841724396, 0.35689496994018555, -2.38167142868042, -0.8119528889656067, -0.9880476593971252, 0.053012385964393616, -0.06379578741313247, 0.037325771043981604, -0.060664344917916675, 9362.0, 30146.0, 35388.0, 9362.0, 8.350414276123047, -0.06818341463804245, -0.269470751285553, -0.13594990968704224, -0.1068912073969841, -0.03680536523461342, 0.9916368126869202, -0.08142972737550735, -0.06647872924804688, 1.490478515625, 1.39892578125, 0.0390167236328125, 1.49267578125
52635, -2.279456377029419, 2.6231319904327393, -3.2226972579956055, -0.14965853095054626, 0.1461879014968872, -60.148468017578125, -0.37012162804603577, 0.3610096275806427, -2.382662057876587, -0.8119578957557678, -0.9880469441413879, 0.053004033863544464, -0.0596061799918157, 0.03919263333867207, -0.054428838474229774, 9362.0, 30146.0, 35388.0, 9362.0, 8.350414276123047, -0.11373184621334076, -0.11362628638744354, 0.16042383015155792, -0.1068912073969841, -0.03680536523461342, 0.9916368126869202, -0.08142972737550735, -0.06647872924804688, 1.490478515625, 1.4560546875, 0.1147003173828125, 1.49267578125
52645, -2.2792837619781494, 2.623297929763794, -3.2215869426727295, -0.1533808559179306, 0.1498185694217682, -60.172298431396484, -0.37434449791908264, 0.365123450756073, -2.383643627166748, -0.8119516968727112, -0.9880459308624268, 0.053008515387773514, -0.06299766885160009, 0.03560210094539684, -0.056944112215666504, 9362.0, 30146.0, 35388.0, 9362.0, 8.350414276123047, -0.11373184621334076, -0.11362628638744354, 0.16042383015155792, -0.10414942353963852, -0.0370955765247345, 0.9957301020622253, -0.08453822135925293, -0.04855918884277344, 1.491943359375, 1.4560546875, 0.1147003173828125, 1.494873046875
