timeTick, roll, pitch, yaw, stateX, stateY, stateZ, stateVX, stateVY, stateVZ, otX0, otY0, otZ0, otRoll0, otPitch0, otYaw0, left wing, pitch motor, yaw motor, right wing, voltage, roll rate, pitch rate, yaw rate, A_x, A_y, A_z, current, i_raw, v_raw, airflow_voltage, airflow_speed, pot_Pitch
15362, -0.6865568161010742, 0.16341006755828857, -0.21469011902809143, 0, 0, 0, 0, 0, 0, -0.7888281345367432, -1.0203900337219238, 0.07387083023786545, 0.5549625199347534, -1.8277873218051468, -5.689349778414548, 0, 0, 0, 0, 0, 0, 0, 0, 0, 0, 0, 0, 0, 0, 0, 0, 0
15372, -0.68785560131073, 0.16226492822170258, -0.2162366658449173, 3.962049231631681e-05, -0.00017107833991758525, -5.575561046600342, 0.001710072043351829, -0.007385317236185074, -0.8123542666435242, -0.7888340353965759, -1.0203787088394165, 0.07385179400444031, 0.5538104962682084, -1.842136292023099, -5.6900136938054935, 9362.0, 30146.0, 35388.0, 9362.0, 0, 0.010725853964686394, 0.2447616159915924, -0.2665218710899353, -0.10263843834400177, -0.01799820177257061, 0.9944941401481628, 0, 0, 0, 1.163818359375, 0.6264495849609375, 0
15382, -0.687654972076416, 0.15935596823692322, -0.2176426649093628, 5.535237869480625e-05, -0.00023908296134322882, -5.5836873054504395, 0.0014363257214426994, -0.0062156133353710175, -0.8129285573959351, -0.7888295650482178, -1.0203825235366821, 0.07388579845428467, 0.5468311194786327, -1.8377239703877706, -5.689048274467272, 9362.0, 30146.0, 35388.0, 9362.0, 0, 0.03639727085828781, 0.10080958902835846, -0.07788170129060745, -0.10196062177419662, -0.01819087192416191, 0.9946479797363281, 0, 0, 0, 1.49853515625, 0.1927032470703125, 1.4912109375
15392, -0.6884669065475464, 0.16048802435398102, -0.21891683340072632, 6.83567050145939e-05, -0.0002953793155029416, -5.5918192863464355, 0.0011645411141216755, -0.0050436523742973804, -0.8135001063346863, -0.788822591304779, -1.0203847885131836, 0.07388149201869965, 0.5505555217856962, -1.8395017590403882, -5.687594916039116, 9362.0, 30146.0, 35388.0, 9362.0, 0, 0.10184745490550995, 0.053450439125299454, 0.10774146765470505, -0.10240856558084488, -0.015260431915521622, 0.9948914051055908, 0, 0, 0, 1.1455078125, 0.7802734375, 1.4912109375
15402, -0.6884962916374207, 0.16045935451984406, -0.2190805971622467, 7.866753730922937e-05, -0.00033995541161857545, -5.59995698928833, 0.0008976605022326112, -0.0038715710397809744, -0.8140314221382141, -0.7888278961181641, -1.0203783512115479, 0.07387561351060867, 0.5535662779527275, -1.8331978233051984, -5.69190101447577, 9362.0, 30146.0, 35388.0, 9362.0, 0, 0.0006715417839586735, -0.06761527061462402, -0.0610666424036026, -0.10064993053674698, -0.014436247758567333, 0.9940822720527649, 0, 0, 0, 1.562255859375, 0.329437255859375, 1.4912109375
15412, -0.6881921887397766, 0.16027671098709106, -0.21796394884586334, 8.630029333289713e-05, -0.0003728046431206167, -5.608099937438965, 0.0006288930308073759, -0.0026982752606272697, -0.8145779967308044, -0.7888230681419373, -1.0203828811645508, 0.0738816037774086, 0.5496721270705464, -1.8282081533177745, -5.688891828054482, 9362.0, 30146.0, 35388.0, 9362.0, 0, -0.06928489357233047, -0.13189128041267395, -0.10618437081575394, -0.10144400596618652, -0.014950772747397423, 0.992850124835968, 0, 0, 0, 1.2333984375, 0.2232666015625, 1.4912109375
15422, -0.6881583333015442, 0.15906944870948792, -0.21691705286502838, 9.124625648837537e-05, -0.0003939233720302582, -5.616248607635498, 0.00036027454189024866, -0.0015254756435751915, -0.8151698112487793, -0.7888174057006836, -1.0203815698623657, 0.0738736018538475, 0.5517071846763325, -1.837462591271418, -5.687984041955479, 9362.0, 30146.0, 35388.0, 9362.0, 0, 0.11374535411596298, 0.11587252467870712, -0.0051605599001049995, -0.10413169115781784, -0.015216878615319729, 0.993652880191803, 0, 0, 0, 1.146240234375, 0.7736968994140625, 1.494140625
15432, -0.6875905990600586, 0.1581074595451355, -0.2161586731672287, 9.35085117816925e-05, -0.0004033213190268725, -5.624403476715088, 9.214110468747094e-05, -0.0003541168407537043, -0.8158375024795532, -0.7888264656066895, -1.0203831195831299, 0.07386531680822372, 0.5501143876203152, -1.8380236352178656, -5.683259981262207, 9362.0, 30146.0, 35388.0, 9362.0, 0, -0.023191573098301888, -0.23422789573669434, -0.10469038784503937, -0.10524655133485794, -0.016523782163858414, 0.9966813921928406, 0, 0, 0, 1.23486328125, 0.2174835205078125, 1.494140625
15442, -0.6876227855682373, 0.15850946307182312, -0.21504750847816467, 9.309843881055713e-05, -0.0004010009579360485, -5.632564544677734, -0.00017418111383449286, 0.000818189640995115, -0.8164212107658386, -0.7888213396072388, -1.0203838348388672, 0.07386960834264755, 0.5533815466687444, -1.8315473474598605, -5.691726867227408, 9362.0, 30146.0, 35388.0, 9362.0, 0, -0.15482942759990692, 0.2061537802219391, 0.36381012201309204, -0.10275490581989288, -0.015778088942170143, 0.9960149526596069, 0, 0, 0, 1.196044921875, 0.4066162109375, 1.489013671875
15452, -0.6877930760383606, 0.15667815506458282, -0.2138824462890625, 9.003000013763085e-05, -0.0003869481151923537, -5.640730381011963, -0.0004395260475575924, 0.0019923741929233074, -0.8167668581008911, -0.7888263463973999, -1.020380973815918, 0.07385753840208054, 0.5504274372766008, -1.8359071434419718, -5.686469328156278, 9362.0, 30146.0, 35388.0, 9362.0, 0, 0.01340832281857729, 0.3223719596862793, 0.11500681936740875, -0.10220436006784439, -0.015729915350675583, 0.9938972592353821, 0, 0, 0, 1.281005859375, 0.0816650390625, 1.489013671875
15462, -0.6882408857345581, 0.15525999665260315, -0.21297691762447357, 8.430558227701113e-05, -0.00036115761031396687, -5.648900032043457, -0.0007053944864310324, 0.0031657193321734667, -0.8171866536140442, -0.7888191938400269, -1.0203893184661865, 0.07387226819992065, 0.5496191194325756, -1.8305468082655523, -5.691636264107769, 9362.0, 30146.0, 35388.0, 9362.0, 8.152067184448242, -0.016738582402467728, -0.0005337937036529183, 0.003399462439119816, -0.10552777349948883, -0.015520889312028885, 0.9927525520324707, -0.07567639648914337, -0.07543754577636719, 1.48974609375, 1.6083984375, 0.437225341796875, 1.493408203125
15472, -0.6885986328125, 0.15569569170475006, -0.21161772310733795, 7.594069029437378e-05, -0.00032364443177357316, -5.657074928283691, -0.0009676170884631574, 0.004336906131356955, -0.8178083300590515, -0.788820207118988, -1.0203856229782104, 0.07386818528175354, 0.5495723827822034, -1.8384273028343614, -5.687696713310429, 9362.0, 30146.0, 35388.0, 9362.0, 8.152067184448242, 0.15007264912128448, -0.06817054748535156, -0.2511554956436157, -0.1041601300239563, -0.015408601611852646, 0.9935961365699768, -0.07567639648914337, -0.07543754577636719, 1.48974609375, 0.999755859375, 2.9892425537109375, 1.493408203125
15482, -0.6880267858505249, 0.1560293585062027, -0.2130378633737564, 6.496671994682401e-05, -0.0002744208904914558, -5.665256500244141, -0.0012271989835426211, 0.005507790483534336, -0.8185174465179443, -0.7888210415840149, -1.020378828048706, 0.07386580109596252, 0.5536517359807801, -1.8314781288675874, -5.685368756813529, 9362.0, 30146.0, 35388.0, 9362.0, 8.152067184448242, -0.03861507773399353, 0.21511191129684448, 0.04300234839320183, -0.10070570558309555, -0.014190916903316975, 0.9956209063529968, -0.07567639648914337, -0.07543754577636719, 1.48974609375, 1.64794921875, 0.533660888671875, 1.4912109375
15492, -0.6886277198791504, 0.1538732647895813, -0.2130403220653534, 5.1391878514550626e-05, -0.0002134799724444747, -5.673444747924805, -0.0014877361245453358, 0.006680403836071491, -0.8191350102424622, -0.7888269424438477, -1.0203659534454346, 0.07388173043727875, 0.5505651079890569, -1.8315190826710648, -5.688977396320189, 9362.0, 30146.0, 35388.0, 9362.0, 8.152067184448242, 0.04326401650905609, -0.5480374097824097, -0.006029166746884584, -0.10200563818216324, -0.014457974582910538, 0.9966865181922913, -0.07567639648914337, -0.07543754577636719, 1.48974609375, 1.130859375, 0.91998291015625, 1.4912109375
15502, -0.6883881688117981, 0.1569388508796692, -0.2123241275548935, 3.5206372558604926e-05, -0.00014080616529099643, -5.681638240814209, -0.0017493796767666936, 0.007854352705180645, -0.8195599317550659, -0.788828432559967, -1.0203866958618164, 0.07388775795698166, 0.5529123080258529, -1.8335042230471288, -5.6906898851642165, 9362.0, 30146.0, 35388.0, 9362.0, 8.152067184448242, 0.2869393229484558, 0.11637964844703674, 0.29266229271888733, -0.10232974588871002, -0.014820393174886703, 0.9959003329277039, -0.07567639648914337, -0.07543754577636719, 1.48974609375, 1.042236328125, 2.1361236572265625, 1.487548828125
15512, -0.687278687953949, 0.1553034484386444, -0.2104209065437317, 1.642165989323985e-05, -5.638249422190711e-05, -5.689835548400879, -0.0020075601059943438, 0.009030377492308617, -0.8198962211608887, -0.7888181209564209, -1.0203771591186523, 0.07386088371276855, 0.5547018809393923, -1.833360173163726, -5.694696174671722, 9362.0, 30146.0, 35388.0, 9362.0, 8.152067184448242, 0.14909829199314117, 0.32236507534980774, 0.14629006385803223, -0.10197305679321289, -0.015863416716456413, 0.9940800666809082, -0.07567639648914337, -0.07543754577636719, 1.48974609375, 1.53662109375, 0.27239990234375, 1.487548828125
15522, -0.6879156231880188, 0.15402965247631073, -0.20891349017620087, -4.969899237039499e-06, 3.97941330447793e-05, -5.6980366706848145, -0.002270802389830351, 0.010204947553575039, -0.8203210234642029, -0.7888199687004089, -1.0203790664672852, 0.07386122643947601, 0.5475428785333322, -1.8340670971891768, -5.694948062882907, 9362.0, 30146.0, 35388.0, 9362.0, 8.152067184448242, -0.06007206439971924, -0.07628507912158966, 0.25087860226631165, -0.10068260133266449, -0.014806844294071198, 0.9939287304878235, -0.07567639648914337, -0.07543754577636719, 1.48974609375, 1.306640625, 0.040557861328125, 1.4912109375
15532, -0.688606858253479, 0.15614067018032074, -0.20535129308700562, -2.8977816327824257e-05, 0.00014769633708056062, -5.70624303817749, -0.002530825324356556, 0.011375479400157928, -0.8209221959114075, -0.788830578327179, -1.0203748941421509, 0.07386300712823868, 0.5546204705839677, -1.8271817085908708, -5.679817448108559, 9362.0, 30146.0, 35388.0, 9362.0, 8.152067184448242, -0.1038956344127655, -0.21444736421108246, 0.23675228655338287, -0.10222712904214859, -0.013937070965766907, 0.997059166431427, -0.07567639648914337, -0.07543754577636719, 1.48974609375, 1.707275390625, 0.687713623046875, 1.4912109375
15542, -0.6900835633277893, 0.1573273092508316, -0.20317895710468292, -5.557601252803579e-05, 0.0002673126000445336, -5.7144551277160645, -0.002788867801427841, 0.012547754682600498, -0.8214665651321411, -0.7888256907463074, -1.0203807353973389, 0.07386255264282227, 0.5513207708299985, -1.8300370981538094, -5.684789005113307, 9362.0, 30146.0, 35388.0, 9362.0, 8.152067184448242, 0.05087371543049812, 0.19346041977405548, -0.06484922766685486, -0.10223875939846039, -0.0141241904348135, 0.9974915385246277, -0.07567639648914337, -0.07543754577636719, 1.48974609375, 1.30224609375, 0.0460052490234375, 1.4912109375
15552, -0.6901292204856873, 0.1548597812652588, -0.20336660742759705, -8.477632945869118e-05, 0.0003986726514995098, -5.722671031951904, -0.0030512346420437098, 0.013724234886467457, -0.8217591047286987, -0.7888098359107971, -1.0203827619552612, 0.07386603206396103, 0.553346270164854, -1.8378813631493074, -5.69198098220933, 9362.0, 30146.0, 35388.0, 9362.0, 8.152067184448242, -0.0011626884806901217, -0.08644532412290573, 0.12999965250492096, -0.10112780332565308, -0.01325368881225586, 0.9954904913902283, -0.07567639648914337, -0.07543754577636719, 1.48974609375, 1.41943359375, 0.0612945556640625, 1.4912109375
15562, -0.6894901394844055, 0.15387263894081116, -0.20279304683208466, -0.00011661041207844391, 0.0005418091895990074, -5.730890274047852, -0.003315591486170888, 0.01490307692438364, -0.8220663070678711, -0.7888178825378418, -1.0203857421875, 0.07386895269155502, 0.5475506817479956, -1.8409943565675917, -5.686311579408713, 9362.0, 30146.0, 35388.0, 9362.0, 8.152067184448242, -0.012872036546468735, -0.35230886936187744, -0.24172063171863556, -0.1010664626955986, -0.012192710302770138, 0.9965820908546448, -0.07571838796138763, -0.05751800537109375, 1.4912109375, 1.00634765625, 2.84368896484375, 1.489013671875
15572, -0.6888784170150757, 0.1575525403022766, -0.20289085805416107, -0.0001510653819423169, 0.0006967271910980344, -5.739112854003906, -0.0035754218697547913, 0.016080526635050774, -0.8224940896034241, -0.7888361811637878, -1.0203763246536255, 0.07384636998176575, 0.5542709917493043, -1.830062041266899, -5.684137942342862, 9362.0, 30146.0, 35388.0, 9362.0, 8.152067184448242, -0.019195301458239555, -0.1577087938785553, 0.2276252657175064, -0.10135793685913086, -0.014651283621788025, 0.994945764541626, -0.07571838796138763, -0.05751800537109375, 1.4912109375, 1.497802734375, 0.19122314453125, 1.489013671875
15582, -0.6890845894813538, 0.15859684348106384, -0.20162248611450195, -0.00018811126938089728, 0.000863418506924063, -5.747339725494385, -0.003833731869235635, 0.01725774072110653, -0.8228508830070496, -0.788823664188385, -1.020385503768921, 0.07386548817157745, 0.5529177292499015, -1.8347529803431541, -5.689551922105633, 9362.0, 30146.0, 35388.0, 9362.0, 8.152067184448242, 0.14044255018234253, -0.14624367654323578, 0.05268707126379013, -0.10082274675369263, -0.014740033075213432, 0.9969112277030945, -0.07571838796138763, -0.05751800537109375, 1.4912109375, 1.48828125, 0.172576904296875, 1.491943359375
15592, -0.6885682344436646, 0.15914349257946014, -0.20238642394542694, -0.0002277706953464076, 0.0010418725432828069, -5.755570411682129, -0.004098171833902597, 0.01843307353556156, -0.8232781887054443, -0.7888327836990356, -1.020385503768921, 0.07385648787021637, 0.5575939102050775, -1.835887682691606, -5.691530364669423, 9362.0, 30146.0, 35388.0, 9362.0, 8.152067184448242, 0.1465342938899994, 0.3162720799446106, 0.04129432141780853, -0.1010042205452919, -0.015620743855834007, 0.9952479004859924, -0.07571838796138763, -0.05751800537109375, 1.4912109375, 1.651611328125, 0.5428314208984375, 1.491943359375
15602, -0.6883835196495056, 0.15805406868457794, -0.20129556953907013, -0.0002700848563108593, 0.0012320876121520996, -5.763804912567139, -0.00436464324593544, 0.019609935581684113, -0.8236085772514343, -0.7888214588165283, -1.0203777551651, 0.07386600971221924, 0.5491649989080281, -1.8337610388028622, -5.6908891366054295, 9362.0, 30146.0, 35388.0, 9362.0, 8.152067184448242, -0.09117124229669571, 0.04869253188371658, 0.01244746521115303, -0.10168204456567764, -0.015625573694705963, 0.9935157299041748, -0.07571838796138763, -0.05751800537109375, 1.4912109375, 1.6259765625, 0.4795989990234375, 1.493408203125
15612, -0.68897545337677, 0.15640810132026672, -0.20111896097660065, -0.00031506584491580725, 0.0014340558554977179, -5.772043704986572, -0.004631588235497475, 0.020783724263310432, -0.8241211175918579, -0.7888280749320984, -1.0203802585601807, 0.07386785745620728, 0.551805972758382, -1.8288106432552809, -5.685127294555073, 9362.0, 30146.0, 35388.0, 9362.0, 8.152067184448242, 0.03302900493144989, 0.056995607912540436, -0.0489766001701355, -0.10316064953804016, -0.015114939771592617, 0.9930589199066162, -0.07571838796138763, -0.05751800537109375, 1.4912109375, 1.1337890625, 0.890838623046875, 1.493408203125
15622, -0.6891021728515625, 0.1561012864112854, -0.20174723863601685, -0.00036270497366786003, 0.001647750847041607, -5.780288219451904, -0.004896259400993586, 0.021955277770757675, -0.8247919678688049, -0.788826048374176, -1.0203832387924194, 0.0738644078373909, 0.5536985099840226, -1.837814052790975, -5.684673047303511, 9362.0, 30146.0, 35388.0, 9362.0, 8.152067184448242, 0.0017021404346451163, 0.20350022614002228, -0.05898222327232361, -0.10266105085611343, -0.014762143604457378, 0.9926536083221436, -0.07571838796138763, -0.05751800537109375, 1.4912109375, 1.1220703125, 1.01129150390625, 1.48974609375
15632, -0.689138650894165, 0.15440236032009125, -0.20237089693546295, -0.0004129766603000462, 0.0018731656018644571, -5.788539409637451, -0.005158065818250179, 0.02312767319381237, -0.8254761099815369, -0.7888184189796448, -1.020377516746521, 0.07386329770088196, 0.5499790852280755, -1.8409187234628064, -5.691435641296762, 9362.0, 30146.0, 35388.0, 9362.0, 8.152067184448242, 0.06677534431219101, 0.11165943741798401, -0.1743130087852478, -0.10178165882825851, -0.014071722514927387, 0.9930270314216614, -0.07571838796138763, -0.05751800537109375, 1.4912109375, 1.63330078125, 0.49737548828125, 1.48974609375
15642, -0.6886310577392578, 0.1548003852367401, -0.20399966835975647, -0.00046586344251409173, 0.0021103043109178543, -5.796797752380371, -0.005419300869107246, 0.02430005371570587, -0.8261799216270447, -0.7888199687004089, -1.020390510559082, 0.07385275512933731, 0.5544314480670284, -1.8403282176112157, -5.686479023513664, 9362.0, 30146.0, 35388.0, 9362.0, 8.152067184448242, -0.07787317037582397, -0.06987304985523224, 0.073542520403862, -0.10281597822904587, -0.01456368062645197, 0.992270827293396, -0.07571838796138763, -0.05751800537109375, 1.4912109375, 0.986572265625, 3.295867919921875, 1.4912109375
15652, -0.6887239813804626, 0.15382064878940582, -0.20227955281734467, -0.0005213477998040617, 0.0023591655772179365, -5.805063247680664, -0.005677528213709593, 0.025472214445471764, -0.8269070982933044, -0.7888405919075012, -1.0203773975372314, 0.07386749982833862, 0.5515513746770214, -1.832368748728186, -5.6849064908128, 9362.0, 30146.0, 35388.0, 9362.0, 8.152067184448242, 0.0683014914393425, 0.2248554825782776, -0.027702905237674713, -0.10122661292552948, -0.016422174870967865, 0.9966023564338684, -0.07571838796138763, -0.05751800537109375, 1.4912109375, 1.58056640625, 0.3715972900390625, 1.4912109375
15662, -0.6880068182945251, 0.15172481536865234, -0.2021861970424652, -0.0005794183234684169, 0.002619747305288911, -5.81333589553833, -0.005936621688306332, 0.02664412371814251, -0.8275827765464783, -0.7888215184211731, -1.0203746557235718, 0.0738566592335701, 0.5518430586719522, -1.835431015823218, -5.683630610182841, 9362.0, 30146.0, 35388.0, 9362.0, 8.152067184448242, -0.1812557429075241, 0.3005804717540741, -0.10236015170812607, -0.10238592326641083, -0.01634312979876995, 0.9945775866508484, -0.07379867881536484, -0.021678924560546875, 1.494140625, 1.6728515625, 0.59674072265625, 1.494140625
15672, -0.6880859136581421, 0.15046001970767975, -0.2042844593524933, -0.0006400755373761058, 0.0028920667245984077, -5.821613788604736, -0.0061948345974087715, 0.027819743379950523, -0.8279631733894348, -0.7888228297233582, -1.020376205444336, 0.07386638969182968, 0.5536814084438916, -1.8318497408281473, -5.687491921758278, 9362.0, 30146.0, 35388.0, 9362.0, 8.152067184448242, 0.05069584399461746, -0.0473475344479084, -0.2975694239139557, -0.10125584900379181, -0.018054354935884476, 0.9955023527145386, -0.07379867881536484, -0.021678924560546875, 1.494140625, 1.43408203125, 0.080810546875, 1.494140625
15682, -0.6879683136940002, 0.15097881853580475, -0.20679298043251038, -0.0007032951107248664, 0.003176127327606082, -5.829895973205566, -0.006449052132666111, 0.02899238094687462, -0.8284892439842224, -0.7888236045837402, -1.0203807353973389, 0.07387717813253403, 0.5452291371973151, -1.8339404173941602, -5.688584838311488, 9362.0, 30146.0, 35388.0, 9362.0, 8.152067184448242, 0.12039768695831299, 0.44245684146881104, -0.08552023023366928, -0.10199229419231415, -0.01696884073317051, 0.9974514842033386, -0.07379867881536484, -0.021678924560546875, 1.494140625, 1.360107421875, 0.0162506103515625, 1.489013671875
15692, -0.6876102685928345, 0.15080833435058594, -0.20820723474025726, -0.0007690477068535984, 0.003471923526376486, -5.8381829261779785, -0.006701414939016104, 0.0301668643951416, -0.8288732767105103, -0.7888140082359314, -1.0203670263290405, 0.07387784123420715, 0.5494488397316535, -1.8247469696297856, -5.685012217841212, 9362.0, 30146.0, 35388.0, 9362.0, 8.152067184448242, -0.07592125236988068, -0.22046315670013428, -0.14657211303710938, -0.101293183863163, -0.014927230775356293, 0.9935715794563293, -0.07379867881536484, -0.021678924560546875, 1.494140625, 1.261962890625, 0.127288818359375, 1.489013671875
15702, -0.6882038712501526, 0.1515161544084549, -0.20758390426635742, -0.0008373287273570895, 0.0037794664967805147, -5.846473217010498, -0.006954764947295189, 0.031341735273599625, -0.8292084336280823, -0.7888311147689819, -1.0203741788864136, 0.07386039942502975, 0.5539325234905121, -1.832149157112383, -5.689202267121033, 9362.0, 30146.0, 35388.0, 9362.0, 8.152067184448242, 0.23810046911239624, -0.11750268936157227, -0.2597193121910095, -0.10070734471082687, -0.01432785578072071, 0.9949304461479187, -0.07379867881536484, -0.021678924560546875, 1.494140625, 0.986572265625, 3.295867919921875, 1.493408203125
15712, -0.687481164932251, 0.15247610211372375, -0.21005533635616302, -0.0009081377065740526, 0.004098736681044102, -5.854768753051758, -0.007207032758742571, 0.03251228109002113, -0.8298523426055908, -0.7888285517692566, -1.0203685760498047, 0.07389242947101593, 0.5534392413343197, -1.8298673620514307, -5.68628393027599, 9362.0, 30146.0, 35388.0, 9362.0, 8.152067184448242, 0.17640453577041626, -0.05157170072197914, 0.11090576648712158, -0.10172116756439209, -0.012359200976788998, 0.99583899974823, -0.07379867881536484, -0.021678924560546875, 1.494140625, 1.3623046875, 0.0167999267578125, 1.493408203125
15722, -0.6876958012580872, 0.15286660194396973, -0.21018590033054352, -0.0009814772056415677, 0.004429725464433432, -5.863070011138916, -0.007460798602551222, 0.03368547931313515, -0.8303623199462891, -0.7888303399085999, -1.020370364189148, 0.07388385385274887, 0.54687836800395, -1.8278036782677418, -5.690464930840614, 9362.0, 30146.0, 35388.0, 9362.0, 8.152067184448242, 0.012465079315006733, 0.3151889741420746, -0.1988038718700409, -0.10368075966835022, -0.013943434692919254, 0.9948315620422363, -0.07379867881536484, -0.021678924560546875, 1.494140625, 1.661865234375, 0.568572998046875, 1.494140625
15732, -0.6879132986068726, 0.15124614536762238, -0.211407870054245, -0.001057363348081708, 0.004772445186972618, -5.871375560760498, -0.007716432213783264, 0.034858476370573044, -0.8307861089706421, -0.7888320684432983, -1.0203874111175537, 0.07385937124490738, 0.5502292411860652, -1.8283106035600554, -5.686270917942384, 9362.0, 30146.0, 35388.0, 9362.0, 8.152067184448242, -0.05163059011101723, -0.14715230464935303, 0.020392535254359245, -0.10231803357601166, -0.015101559460163116, 0.9927546977996826, -0.07379867881536484, -0.021678924560546875, 1.494140625, 1.670654296875, 0.59100341796875, 1.494140625
15742, -0.6883612275123596, 0.15380994975566864, -0.21155981719493866, -0.0011358072515577078, 0.005126888398081064, -5.87968635559082, -0.007972349412739277, 0.03603014722466469, -0.8313511610031128, -0.788823127746582, -1.020373821258545, 0.07388994097709656, 0.5453579489677592, -1.834293191176073, -5.686951233862305, 9362.0, 30146.0, 35388.0, 9362.0, 8.152067184448242, 0.019697843119502068, -0.09818603098392487, -0.17906096577644348, -0.10239936411380768, -0.012569722719490528, 0.9931060075759888, -0.07379867881536484, -0.021678924560546875, 1.494140625, 0.80126953125, 10.299713134765625, 1.490478515625
15752, -0.6886695623397827, 0.15319253504276276, -0.21136847138404846, -0.001216794946230948, 0.0054930429905653, -5.888003349304199, -0.008225156925618649, 0.037200767546892166, -0.8320339322090149, -0.7888283133506775, -1.0203877687454224, 0.07385829836130142, 0.5518243626654424, -1.8247507035220565, -5.688395365177954, 9362.0, 30146.0, 35388.0, 9362.0, 8.152067184448242, -0.15954263508319855, 0.007801618427038193, -0.06269008666276932, -0.10108160972595215, -0.015025564469397068, 0.9929560422897339, -0.07379867881536484, -0.021678924560546875, 1.494140625, 1.1220703125, 1.01129150390625, 1.490478515625
15762, -0.688458263874054, 0.15280544757843018, -0.2123328596353531, -0.001300332136452198, 0.0058709061704576015, -5.896327018737793, -0.008482302539050579, 0.03837189823389053, -0.8327391147613525, -0.7888311743736267, -1.0203849077224731, 0.07388186454772949, 0.5494990411438025, -1.8451186647843656, -5.686565351940526, 9362.0, 30146.0, 35388.0, 9362.0, 8.152067184448242, -0.175362229347229, 0.43274766206741333, 0.18874351680278778, -0.09972215443849564, -0.017237747088074684, 0.9933137893676758, -0.10367818921804428, -0.1650371551513672, 1.482421875, 1.66552734375, 0.5779266357421875, 1.49267578125
15772, -0.68893963098526, 0.150557279586792, -0.21157662570476532, -0.0013864360516890883, 0.006260485388338566, -5.90465784072876, -0.008738469332456589, 0.0395440049469471, -0.8334074020385742, -0.7888193726539612, -1.0203781127929688, 0.0738731175661087, 0.5491369439359133, -1.8372305138267677, -5.687028768526376, 9362.0, 30146.0, 35388.0, 9362.0, 8.152067184448242, -0.06839966028928757, 0.09789902716875076, 0.17484772205352783, -0.10294849425554276, -0.015754707157611847, 0.99712735414505, -0.10367818921804428, -0.1650371551513672, 1.482421875, 1.575439453125, 0.3596649169921875, 1.49267578125
15782, -0.6887171268463135, 0.14877451956272125, -0.2092188000679016, -0.0014750990085303783, 0.0066617876291275024, -5.912994861602783, -0.008994166739284992, 0.04071643203496933, -0.834017276763916, -0.7888280153274536, -1.0203877687454224, 0.07387597113847733, 0.5485376710299288, -1.8280249266809676, -5.694556090034434, 9362.0, 30146.0, 35388.0, 9362.0, 8.152067184448242, 0.11575523018836975, -0.48221534490585327, -0.22881071269512177, -0.10239353030920029, -0.01441171020269394, 0.9946752190589905, -0.10367818921804428, -0.1650371551513672, 1.482421875, 1.68896484375, 0.6385955810546875, 1.486083984375
15792, -0.6886210441589355, 0.14980024099349976, -0.21048352122306824, -0.0015663031954318285, 0.007074833381921053, -5.921336650848389, -0.00924673117697239, 0.04189274460077286, -0.8343715667724609, -0.7888212203979492, -1.0203851461410522, 0.07390064001083374, 0.5511599838750622, -1.8334483206654113, -5.690688866372631, 9362.0, 30146.0, 35388.0, 9362.0, 8.152067184448242, -0.21606919169425964, 0.22971059381961823, -0.18057465553283691, -0.10476844757795334, -0.01542094349861145, 0.9938558340072632, -0.10367818921804428, -0.1650371551513672, 1.482421875, 1.628173828125, 0.484893798828125, 1.486083984375
15802, -0.6899306774139404, 0.14873209595680237, -0.20985113084316254, -0.0016600160161033273, 0.0074996305629611015, -5.929682731628418, -0.00949578732252121, 0.04306667298078537, -0.8348918557167053, -0.7888156175613403, -1.020376443862915, 0.07387854158878326, 0.5493770727139983, -1.8326565352702744, -5.69285530701855, 9362.0, 30146.0, 35388.0, 9362.0, 8.152067184448242, -0.010339985601603985, 0.08747311681509018, 0.3334464132785797, -0.10234533250331879, -0.014932799153029919, 0.9950947761535645, -0.10367818921804428, -0.1650371551513672, 1.482421875, 1.632568359375, 0.4957427978515625, 1.48974609375
15812, -0.6898590326309204, 0.14774195849895477, -0.20746789872646332, -0.0017562267603352666, 0.007936161011457443, -5.938034534454346, -0.009746392257511616, 0.044239334762096405, -0.835502028465271, -0.7888116836547852, -1.020382285118103, 0.07388333976268768, 0.5550245979702094, -1.836465117533777, -5.686258445220305, 9362.0, 30146.0, 35388.0, 9362.0, 8.152067184448242, -0.14630217850208282, -0.21678592264652252, -0.16888552904129028, -0.10050693899393082, -0.015534203499555588, 0.9967023134231567, -0.10367818921804428, -0.1650371551513672, 1.482421875, 1.00927734375, 2.780548095703125, 1.48974609375
15822, -0.6913744211196899, 0.1487310230731964, -0.20741048455238342, -0.0018549369415268302, 0.00838444009423256, -5.946391582489014, -0.009995701722800732, 0.04541651904582977, -0.8359231352806091, -0.7888148427009583, -1.0203697681427002, 0.07389027625322342, 0.5507664841867893, -1.8263918330125648, -5.689311201267669, 9362.0, 30146.0, 35388.0, 9362.0, 8.152067184448242, 0.10329632461071014, 0.10516410320997238, 0.06674488633871078, -0.10089150071144104, -0.016954755410552025, 0.9954315423965454, -0.10367818921804428, -0.1650371551513672, 1.482421875, 1.538818359375, 0.2772674560546875, 1.493408203125
15832, -0.6911935210227966, 0.14506012201309204, -0.2065560519695282, -0.0019561327062547207, 0.008844493888318539, -5.954752445220947, -0.010243439115583897, 0.04659416899085045, -0.8362928032875061, -0.788813054561615, -1.0203737020492554, 0.07389399409294128, 0.558786558601459, -1.8396618126264173, -5.688314571589425, 9362.0, 30146.0, 35388.0, 9362.0, 8.152067184448242, -0.11958921700716019, -0.1551843136548996, 0.08732069283723831, -0.1008969098329544, -0.015132761560380459, 0.9952219724655151, -0.10367818921804428, -0.1650371551513672, 1.482421875, 1.62451171875, 0.475982666015625, 1.493408203125
15842, -0.6916906833648682, 0.1451455056667328, -0.20631690323352814, -0.00205981289036572, 0.009316329844295979, -5.963117599487305, -0.010492621921002865, 0.04777306690812111, -0.8367747068405151, -0.7888173460960388, -1.0203765630722046, 0.07386571168899536, 0.5538587904705917, -1.8311419530301976, -5.686630240927007, 9362.0, 30146.0, 35388.0, 9362.0, 8.152067184448242, -0.10078134387731552, -0.020858271047472954, -0.25946253538131714, -0.102137990295887, -0.016636565327644348, 0.9936550855636597, -0.10367818921804428, -0.1650371551513672, 1.482421875, 1.53369140625, 0.265960693359375, 1.48974609375
15852, -0.6921129822731018, 0.14580605924129486, -0.20813098549842834, -0.002165953628718853, 0.009799953550100327, -5.971487522125244, -0.01073555275797844, 0.04895175248384476, -0.8372461795806885, -0.7888382077217102, -1.020378589630127, 0.07388345897197723, 0.5545928394045234, -1.8392028130119513, -5.686249663063251, 9362.0, 30146.0, 35388.0, 9362.0, 8.152067184448242, 0.003134609665721655, 0.027506832033395767, -0.0038703433237969875, -0.1021064966917038, -0.016976533457636833, 0.9919918179512024, -0.10367818921804428, -0.1650371551513672, 1.482421875, 1.63330078125, 0.49737548828125, 1.48974609375
15862, -0.6928943991661072, 0.14621049165725708, -0.20814698934555054, -0.002274522092193365, 0.010295357555150986, -5.979863166809082, -0.010978101752698421, 0.05012897402048111, -0.8379099369049072, -0.7888242602348328, -1.0203800201416016, 0.07387283444404602, 0.5512785799758507, -1.8328442234554814, -5.6863238601145, 9362.0, 30146.0, 35388.0, 9362.0, 8.152067184448242, 0.12463396042585373, 0.09059001505374908, 0.16483405232429504, -0.10323946923017502, -0.016264088451862335, 0.9931166172027588, -0.06993800401687622, -0.1291980743408203, 1.4853515625, 1.68896484375, 0.6385955810546875, 1.48828125
15872, -0.691026508808136, 0.14337846636772156, -0.20740969479084015, -0.0023855199106037617, 0.010802529752254486, -5.988246440887451, -0.011221460066735744, 0.051305390894412994, -0.8386991620063782, -0.7888126373291016, -1.0203830003738403, 0.07387901842594147, 0.5456760703753805, -1.8313824762790603, -5.690455698683271, 9362.0, 30146.0, 35388.0, 9362.0, 8.152067184448242, -0.16054067015647888, 0.4369370639324188, 0.2677980363368988, -0.10362380743026733, -0.016143132001161575, 0.9942570924758911, -0.06993800401687622, -0.1291980743408203, 1.4853515625, 1.65234375, 0.5445709228515625, 1.48828125
15882, -0.6916022300720215, 0.14330168068408966, -0.2058546543121338, -0.0024989561643451452, 0.011321479454636574, -5.996636867523193, -0.011465840972959995, 0.05248454958200455, -0.8393737077713013, -0.7888199090957642, -1.0203688144683838, 0.07389606535434723, 0.5515616183431539, -1.8332497339978602, -5.6844193189582235, 9362.0, 30146.0, 35388.0, 9362.0, 8.152067184448242, 0.08371056616306305, -0.060025040060281754, -0.09990968555212021, -0.09885824471712112, -0.014603901654481888, 0.9936210513114929, -0.06993800401687622, -0.1291980743408203, 1.4853515625, 1.6845703125, 0.62701416015625, 1.484619140625
15892, -0.6912133693695068, 0.14333797991275787, -0.20599143207073212, -0.0026148133911192417, 0.011852210387587547, -6.005033493041992, -0.011705640703439713, 0.05366158112883568, -0.839957594871521, -0.7888306379318237, -1.0203769207000732, 0.07388418912887573, 0.5450356397182866, -1.8416207785145673, -5.6904304079631505, 9362.0, 30146.0, 35388.0, 9362.0, 8.152067184448242, -0.05536282807588577, 0.009689072147011757, -0.044287703931331635, -0.100151427090168, -0.01616145670413971, 0.993750810623169, -0.06993800401687622, -0.1291980743408203, 1.4853515625, 1.62451171875, 0.475982666015625, 1.484619140625
15902, -0.6911885738372803, 0.14490361511707306, -0.20663869380950928, -0.002733067609369755, 0.012394714169204235, -6.013436317443848, -0.011945201084017754, 0.05483910068869591, -0.8405823707580566, -0.7888152003288269, -1.0203707218170166, 0.07386423647403717, 0.5514205721371499, -1.8307886178417903, -5.68480205385689, 9362.0, 30146.0, 35388.0, 9362.0, 8.152067184448242, -0.0022730729542672634, -0.12045429646968842, -0.24933184683322906, -0.09957041591405869, -0.015340259298682213, 0.9958052635192871, -0.06993800401687622, -0.1291980743408203, 1.4853515625, 1.58349609375, 0.3784332275390625, 1.497802734375
15912, -0.6904066205024719, 0.14493459463119507, -0.20861467719078064, -0.0028537181206047535, 0.012948991730809212, -6.021844863891602, -0.01218489371240139, 0.05601642653346062, -0.8411692976951599, -0.7888250946998596, -1.0203622579574585, 0.07389093935489655, 0.5560521371814126, -1.8386835974391147, -5.691642279425426, 9362.0, 30146.0, 35388.0, 9362.0, 8.152067184448242, 0.042250677943229675, -0.5383158922195435, -0.14684784412384033, -0.1015491932630539, -0.014684065245091915, 0.9945237040519714, -0.06993800401687622, -0.1291980743408203, 1.4853515625, 1.10888671875, 1.15936279296875, 1.497802734375
15922, -0.6895462870597839, 0.14752520620822906, -0.20894767343997955, -0.002976780291646719, 0.013515048660337925, -6.030259132385254, -0.012427476234734058, 0.05719495937228203, -0.8416550159454346, -0.7888216972351074, -1.0203779935836792, 0.07387824356555939, 0.5497241749620649, -1.8321904830918356, -5.686185767423363, 9362.0, 30146.0, 35388.0, 9362.0, 8.152067184448242, -0.17043820023536682, -0.19451124966144562, 0.06495393067598343, -0.10367537289857864, -0.014982922933995724, 0.9962049126625061, -0.06993800401687622, -0.1291980743408203, 1.4853515625, 1.305908203125, 0.0413360595703125, 1.487548828125
15932, -0.6904290914535522, 0.14812898635864258, -0.20820319652557373, -0.0031022680923342705, 0.014092883095145226, -6.038678169250488, -0.01267003733664751, 0.05837190896272659, -0.8421609997749329, -0.7888214588165283, -1.0203806161880493, 0.07386191189289093, 0.5534547685135339, -1.8324360608604877, -5.687869441669503, 9362.0, 30146.0, 35388.0, 9362.0, 8.152067184448242, 0.0684409886598587, 0.07522622495889664, -0.2933776378631592, -0.10244227200746536, -0.014976318925619125, 0.9927595853805542, -0.06993800401687622, -0.1291980743408203, 1.4853515625, 1.727783203125, 0.7447052001953125, 1.487548828125
15942, -0.6898674368858337, 0.14839401841163635, -0.21068783104419708, -0.0032302041072398424, 0.014682482928037643, -6.047101974487305, -0.012917171232402325, 0.05954798683524132, -0.8426171541213989, -0.7888237833976746, -1.0203766822814941, 0.0738636776804924, 0.551504455521044, -1.83762842932245, -5.685585061870382, 9362.0, 30146.0, 35388.0, 9362.0, 8.152067184448242, 0.0022384049370884895, -0.4588985741138458, -0.14782944321632385, -0.10162647068500519, -0.016913337633013725, 0.992913007736206, -0.06993800401687622, -0.1291980743408203, 1.4853515625, 1.675048828125, 0.6022186279296875, 1.490478515625
15952, -0.6901525855064392, 0.15072378516197205, -0.2123865783214569, -0.003360613016411662, 0.01528383418917656, -6.055531978607178, -0.013164564035832882, 0.060722190886735916, -0.8433558940887451, -0.7888317108154297, -1.0203800201416016, 0.0738731324672699, 0.5454833816067965, -1.8387023607997435, -5.68766704302349, 9362.0, 30146.0, 35388.0, 9362.0, 8.152067184448242, 0.07409916818141937, -0.1674491912126541, -0.18031564354896545, -0.09988439828157425, -0.014489502646028996, 0.9936527013778687, -0.06993800401687622, -0.1291980743408203, 1.4853515625, 1.383544921875, 0.026611328125, 1.490478515625
15962, -0.6886862516403198, 0.14953862130641937, -0.2139328271150589, -0.003493498545140028, 0.015896925702691078, -6.063969135284424, -0.01341246161609888, 0.06189598888158798, -0.8440507054328918, -0.7888217568397522, -1.0203728675842285, 0.07386075705289841, 0.552915243131477, -1.8378676912565766, -5.691905774945768, 9362.0, 30146.0, 35388.0, 9362.0, 8.152067184448242, 0.15320338308811188, 0.05516588315367699, 0.08109729737043381, -0.10237524658441544, -0.013664431869983673, 0.9938834309577942, -0.056666821241378784, -0.03959846496582031, 1.49267578125, 1.6904296875, 0.642578125, 1.49560546875
15972, -0.6878418326377869, 0.15029621124267578, -0.21317178010940552, -0.003628883743658662, 0.016521761193871498, -6.072412490844727, -0.013664541766047478, 0.06307128816843033, -0.8446636199951172, -0.7888277173042297, -1.0203884840011597, 0.0738874226808548, 0.5465832050465498, -1.839120041947865, -5.676449304733961, 9362.0, 30146.0, 35388.0, 9362.0, 8.152067184448242, -0.06584342569112778, 0.42147722840309143, 0.14094781875610352, -0.10339727252721786, -0.012582788243889809, 0.9958867430686951, -0.056666821241378784, -0.03959846496582031, 1.49267578125, 1.402587890625, 0.0425262451171875, 1.49560546875
15992, -0.6883891820907593, 0.15055209398269653, -0.2131233960390091, -0.0039071873761713505, 0.017806658521294594, -6.089316368103027, -0.014166737906634808, 0.06541874259710312, -0.8456099033355713, -0.7888131737709045, -1.0203763246536255, 0.07387514412403107, 0.5485379134156448, -1.8441985742368558, -5.689054499711169, 9362.0, 30146.0, 35388.0, 9362.0, 8.152067184448242, 0.1348201334476471, -0.06400810182094574, -0.3112684190273285, -0.10249214619398117, -0.013516277074813843, 0.9946240186691284, -0.056666821241378784, -0.03959846496582031, 1.49267578125, 1.654541015625, 0.5500640869140625, 1.4912109375
16012, -0.6874027252197266, 0.148221954703331, -0.21389393508434296, -0.004050096496939659, 0.01846672222018242, -6.097774505615234, -0.014415029436349869, 0.06659391522407532, -0.8460422158241272, -0.7888214588165283, -1.0203807353973389, 0.07386374473571777, 0.5478537793331236, -1.8333972862017163, -5.6902081175824994, 9362.0, 30146.0, 35388.0, 9362.0, 8.152067184448242, 5.502144631464034e-06, -0.06552322208881378, 0.15765663981437683, -0.10155753791332245, -0.01367954257875681, 0.9946668744087219, -0.056666821241378784, -0.03959846496582031, 1.49267578125, 1.6611328125, 0.566650390625, 1.49560546875
16052, -0.6864772439002991, 0.14565925300121307, -0.21664081513881683, -0.0048020328395068645, 0.021942997351288795, -6.140141487121582, -0.015657514333724976, 0.07245567440986633, -0.8485884070396423, -0.7888084053993225, -1.0203803777694702, 0.07387223094701767, 0.5545932060718912, -1.8381175936605416, -5.6839098952442475, 9362.0, 30146.0, 35388.0, 9362.0, 8.152067184448242, -0.09562095999717712, -0.19593742489814758, 0.19312378764152527, -0.1017344519495964, -0.014133302494883537, 0.9938756823539734, -0.056666821241378784, -0.03959846496582031, 1.49267578125, 1.603271484375, 0.4249420166015625, 1.49560546875
16092, -0.686530351638794, 0.14531181752681732, -0.21661630272865295, -0.0048020328395068645, 0.021942997351288795, -6.140141487121582, -0.015657514333724976, 0.07245567440986633, -0.8485884070396423, -0.7888109087944031, -1.0203819274902344, 0.07385709881782532, 0.5476714905673945, -1.8404264028405635, -5.688781280526949, 9362.0, 30146.0, 35388.0, 9362.0, 8.152067184448242, -0.11204691976308823, 0.1404084861278534, 0.11885771155357361, -0.10176783800125122, -0.014708652161061764, 0.9958386421203613, -0.09422363340854645, -0.021678924560546875, 1.494140625, 1.663330078125, 0.5723114013671875, 1.493408203125
16112, -0.6870372295379639, 0.14521747827529907, -0.2129824459552765, -0.005785324145108461, 0.026501132175326347, -6.191145896911621, -0.017118027433753014, 0.07948717474937439, -0.8512499332427979, -0.7888267636299133, -1.020380973815918, 0.07388553023338318, 0.5535190513137459, -1.8348883600004626, -5.689340980068943, 9362.0, 30146.0, 35388.0, 9362.0, 8.152067184448242, -0.26790651679039, -0.026276109740138054, 0.2740441560745239, -0.0995711088180542, -0.013787108473479748, 0.9931943416595459, -0.09422363340854645, -0.021678924560546875, 1.494140625, 1.63623046875, 0.504730224609375, 1.493408203125
16132, -0.6898797750473022, 0.14672963321208954, -0.2140396237373352, -0.005785324145108461, 0.026501132175326347, -6.191145896911621, -0.017118027433753014, 0.07948717474937439, -0.8512499332427979, -0.7888171076774597, -1.020370602607727, 0.07384643703699112, 0.5477705375473557, -1.8358891904095458, -5.687939677662495, 9362.0, 30146.0, 35388.0, 9362.0, 8.152067184448242, 0.07174475491046906, -0.37757155299186707, -0.15946559607982635, -0.10133465379476547, -0.01418002787977457, 0.9948263764381409, -0.09422363340854645, -0.021678924560546875, 1.494140625, 1.554931640625, 0.3128814697265625, 1.48974609375
16152, -0.6906484961509705, 0.14891403913497925, -0.21638834476470947, -0.005785324145108461, 0.026501132175326347, -6.191145896911621, -0.017118027433753014, 0.07948717474937439, -0.8512499332427979, -0.7888163328170776, -1.0203770399093628, 0.07386581599712372, 0.5439221640808682, -1.8390438003425515, -5.6901915178368485, 9362.0, 30146.0, 35388.0, 9362.0, 8.152067184448242, 0.09092050045728683, -0.08766282349824905, 0.05061914771795273, -0.10227195918560028, -0.014618612825870514, 0.995684802532196, -0.09422363340854645, -0.021678924560546875, 1.494140625, 1.603271484375, 0.4249420166015625, 1.490478515625
16172, -0.6909927725791931, 0.15112225711345673, -0.21532706916332245, -0.006856444291770458, 0.03148128092288971, -6.2423224449157715, -0.01859368570148945, 0.08652959764003754, -0.8544479012489319, -0.7888221740722656, -1.0203850269317627, 0.07385969161987305, 0.5491410661591448, -1.8301664642177684, -5.691248492530477, 9362.0, 30146.0, 35388.0, 9362.0, 8.152067184448242, 0.029285533353686333, 0.5849839448928833, 0.22320447862148285, -0.10406768321990967, -0.015712428838014603, 0.9953209161758423, -0.09422363340854645, -0.021678924560546875, 1.494140625, 1.6669921875, 0.5816650390625, 1.490478515625
16192, -0.6917999386787415, 0.15429459512233734, -0.2139110118150711, -0.006856444291770458, 0.03148128092288971, -6.2423224449157715, -0.01859368570148945, 0.08652959764003754, -0.8544479012489319, -0.7888152599334717, -1.0203702449798584, 0.07387781143188477, 0.5469140117336518, -1.8402530622175277, -5.686215261000546, 9362.0, 30146.0, 35388.0, 9362.0, 8.152067184448242, -0.10837450623512268, -0.5193562507629395, 0.3208053410053253, -0.10336606949567795, -0.017262134701013565, 0.9923325181007385, -0.09422363340854645, -0.021678924560546875, 1.494140625, 1.6171875, 0.4583282470703125, 1.489013671875
16232, -0.6913341283798218, 0.1593337208032608, -0.21158283948898315, -0.007817646488547325, 0.03595489263534546, -6.285115718841553, -0.01986665092408657, 0.0924169048666954, -0.8573251366615295, -0.7888221144676208, -1.020374059677124, 0.073860764503479, 0.552510881604577, -1.832910691900139, -5.691098404359537, 9362.0, 30146.0, 35388.0, 9362.0, 8.152067184448242, 0.039037302136421204, 0.06679844111204147, 0.08145376294851303, -0.10016729682683945, -0.013690774329006672, 0.9940263032913208, -0.09422363340854645, -0.021678924560546875, 1.494140625, 1.708740234375, 0.6916351318359375, 1.48974609375
16252, -0.6908321380615234, 0.15800373256206512, -0.21096298098564148, -0.007817646488547325, 0.03595489263534546, -6.285115718841553, -0.01986665092408657, 0.0924169048666954, -0.8573251366615295, -0.7888243198394775, -1.020370602607727, 0.0738632082939148, 0.5472857729161702, -1.8372081342253637, -5.686698276819151, 9362.0, 30146.0, 35388.0, 9362.0, 8.152067184448242, 0.14495262503623962, 0.4171043634414673, 0.2668485641479492, -0.10091327130794525, -0.015077012591063976, 0.9949837327003479, -0.09422363340854645, -0.021678924560546875, 1.494140625, 1.392333984375, 0.03314208984375, 1.48828125
16292, -0.6918574571609497, 0.15661801397800446, -0.20977120101451874, -0.009057414717972279, 0.04171232134103775, -6.336640357971191, -0.0214554350823164, 0.09948956221342087, -0.8603943586349487, -0.7888247966766357, -1.0203936100006104, 0.07386557012796402, 0.5504819898309263, -1.8259644543728655, -5.6867440048630495, 9362.0, 30146.0, 35388.0, 9362.0, 8.152067184448242, 0.3078930377960205, 0.3843221664428711, -0.0387444794178009, -0.10226801782846451, -0.014759254641830921, 0.9946442246437073, -0.07040121406316757, 0.014162063598632812, 1.4970703125, 1.428955078125, 0.073577880859375, 1.49267578125
16312, -0.6905748844146729, 0.15505191683769226, -0.2098846733570099, -0.009712852537631989, 0.04475001245737076, -6.362479209899902, -0.022241687402129173, 0.10302474349737167, -0.862099826335907, -0.7888106107711792, -1.0203745365142822, 0.07386375963687897, 0.5564417536118937, -1.8390301404037928, -5.683979787385531, 9362.0, 30146.0, 35388.0, 9362.0, 8.152067184448242, -0.17503173649311066, -0.24816681444644928, 0.26342734694480896, -0.10159162431955338, -0.01708054542541504, 0.9956288933753967, -0.07040121406316757, 0.014162063598632812, 1.4970703125, 1.58935546875, 0.3920440673828125, 1.493408203125
16332, -0.6902644038200378, 0.16016408801078796, -0.21176347136497498, -0.009712852537631989, 0.04475001245737076, -6.362479209899902, -0.022241687402129173, 0.10302474349737167, -0.862099826335907, -0.7888189554214478, -1.0203777551651, 0.07385638356208801, 0.5526306752686265, -1.8439487571229165, -5.687540917982599, 9362.0, 30146.0, 35388.0, 9362.0, 8.152067184448242, 0.1785414218902588, 0.15779884159564972, -0.06405613571405411, -0.10320095717906952, -0.016494255512952805, 0.9929430484771729, -0.07040121406316757, 0.014162063598632812, 1.4970703125, 1.41064453125, 0.0509490966796875, 1.48974609375
16352, -0.6886715888977051, 0.15795576572418213, -0.21291379630565643, -0.009712852537631989, 0.04475001245737076, -6.362479209899902, -0.022241687402129173, 0.10302474349737167, -0.862099826335907, -0.788809597492218, -1.0203733444213867, 0.07383015006780624, 0.5475006428699886, -1.840565108902723, -5.692536590078907, 9362.0, 30146.0, 35388.0, 9362.0, 8.152067184448242, -0.06269063800573349, -0.06614352017641068, 0.013843146152794361, -0.10060717910528183, -0.016222994774580002, 0.9927484393119812, -0.07040121406316757, 0.014162063598632812, 1.4970703125, 1.3271484375, 0.022308349609375, 1.491943359375
16392, -0.6891377568244934, 0.15608389675617218, -0.2116590291261673, -0.011334064416587353, 0.052250009030103683, -6.422964096069336, -0.024088876321911812, 0.11125333607196808, -0.8662392497062683, -0.7888166904449463, -1.0203832387924194, 0.07385610044002533, 0.5460737406509288, -1.8398994923905718, -5.687136828693742, 9362.0, 30146.0, 35388.0, 9362.0, 8.17190170288086, -0.015075140632689, 0.27469274401664734, -0.05571906268596649, -0.10042095184326172, -0.014094159007072449, 0.9942157864570618, -0.07040121406316757, 0.014162063598632812, 1.4970703125, 1.6904296875, 0.642578125, 1.487548828125
16432, -0.689838171005249, 0.15588806569576263, -0.21208976209163666, -0.012318688444793224, 0.05679401755332947, -6.457658767700195, -0.025139950215816498, 0.1159493550658226, -0.868465781211853, -0.7888139486312866, -1.0203770399093628, 0.0738614946603775, 0.5531843566426109, -1.8357587515629348, -5.687119909481197, 9362.0, 30146.0, 35388.0, 9362.0, 8.17190170288086, -0.1490889936685562, 0.3918140232563019, 0.2695878744125366, -0.10247161984443665, -0.0167625043541193, 0.9943808317184448, -0.07040121406316757, 0.014162063598632812, 1.4970703125, 1.07080078125, 1.667816162109375, 1.49560546875
16492, -0.6912024617195129, 0.1574554294347763, -0.21129602193832397, -0.013874153606593609, 0.06396278738975525, -6.509856700897217, -0.02671123296022415, 0.12301239371299744, -0.8712403774261475, -0.7888247966766357, -1.0203790664672852, 0.07386642694473267, 0.5496553194210663, -1.8331206081211633, -5.691880462271549, 9362.0, 30146.0, 35388.0, 9362.0, 8.152067184448242, -0.04155811294913292, -0.5762457251548767, -0.084669329226017, -0.10360890626907349, -0.015867019072175026, 0.9942649006843567, -0.07040121406316757, 0.014162063598632812, 1.4970703125, 1.472900390625, 0.1439361572265625, 1.48388671875
16512, -0.6907160878181458, 0.15764236450195312, -0.2108287811279297, -0.013874153606593609, 0.06396278738975525, -6.509856700897217, -0.02671123296022415, 0.12301239371299744, -0.8712403774261475, -0.7888162732124329, -1.0203745365142822, 0.07389361411333084, 0.5550670136812381, -1.832360761445841, -5.695946401345155, 9362.0, 30146.0, 35388.0, 9362.0, 8.152067184448242, 0.23829160630702972, -0.014700612053275108, -0.13913574814796448, -0.10430320352315903, -0.015803895890712738, 0.9951451420783997, -0.07040121406316757, 0.014162063598632812, 1.4970703125, 1.6435546875, 0.5228118896484375, 1.494873046875
16532, -0.6881331205368042, 0.15555459260940552, -0.21026435494422913, -0.013874153606593609, 0.06396278738975525, -6.509856700897217, -0.02671123296022415, 0.12301239371299744, -0.8712403774261475, -0.7888270020484924, -1.020375370979309, 0.07386290282011032, 0.5489536575862626, -1.8310067851313079, -5.687921959374604, 9362.0, 30146.0, 35388.0, 9362.0, 8.152067184448242, 0.2489853799343109, -0.2838394045829773, 0.059248507022857666, -0.10236912220716476, -0.014040334150195122, 0.9959989786148071, -0.07040121406316757, 0.014162063598632812, 1.4970703125, 1.27001953125, 0.10626220703125, 1.494140625
16552, -0.6868848204612732, 0.15645655989646912, -0.2104857861995697, -0.013874153606593609, 0.06396278738975525, -6.509856700897217, -0.02671123296022415, 0.12301239371299744, -0.8712403774261475, -0.7888123989105225, -1.0203782320022583, 0.07388228178024292, 0.5506784766399742, -1.8387806982655945, -5.692463587952654, 9362.0, 30146.0, 35388.0, 9362.0, 8.152067184448242, 0.060697391629219055, -0.0003604267258197069, -0.23495163023471832, -0.10125810652971268, -0.01632138341665268, 0.9944140315055847, -0.07040121406316757, 0.014162063598632812, 1.4970703125, 1.304443359375, 0.043182373046875, 1.489013671875
16592, -0.6848392486572266, 0.1558719128370285, -0.2101001739501953, -0.016676848754286766, 0.07685258984565735, -6.597212791442871, -0.029344867914915085, 0.13476350903511047, -0.8760122060775757, -0.7888166904449463, -1.0203675031661987, 0.0738668367266655, 0.5460750562076437, -1.8392636263380382, -5.686844718231544, 9362.0, 30146.0, 35388.0, 9362.0, 8.152067184448242, 0.15783818066120148, 0.29334893822669983, -0.10626928508281708, -0.10371724516153336, -0.013946413062512875, 0.9959532022476196, -0.07040121406316757, 0.014162063598632812, 1.4970703125, 1.685302734375, 0.6289520263671875, 1.489013671875
16632, -0.6845971941947937, 0.14830708503723145, -0.2105899304151535, -0.018176700919866562, 0.08373675495386124, -6.6410722732543945, -0.030646834522485733, 0.14060251414775848, -0.878169059753418, -0.7888090014457703, -1.0203663110733032, 0.07388869673013687, 0.5513040709000198, -1.8379409355433154, -5.689346197469577, 9362.0, 30146.0, 35388.0, 9362.0, 8.152067184448242, -0.19368761777877808, 0.22068093717098236, 0.33268147706985474, -0.10320927202701569, -0.011457513086497784, 0.9924876093864441, -0.07040121406316757, 0.014162063598632812, 1.4970703125, 1.761474609375, 0.844970703125, 1.49267578125
16692, -0.6859632134437561, 0.1558806300163269, -0.21099558472633362, -0.019740402698516846, 0.09091287106275558, -6.6850457191467285, -0.03190275654196739, 0.14645008742809296, -0.8805761933326721, -0.7888217568397522, -1.0203883647918701, 0.0738707035779953, 0.5488485720354804, -1.843088380739033, -5.687599856420537, 9362.0, 30146.0, 35388.0, 9362.0, 8.17190170288086, -0.0009080596501007676, -0.08645372837781906, -0.3523756265640259, -0.10208455473184586, -0.014658813364803791, 0.9935922622680664, -0.07040121406316757, 0.014162063598632812, 1.4970703125, 1.50732421875, 0.2104644775390625, 1.489013671875
16702, -0.685494065284729, 0.15665946900844574, -0.2133799046278, -0.019740402698516846, 0.09091287106275558, -6.6850457191467285, -0.03190275654196739, 0.14645008742809296, -0.8805761933326721, -0.7888161540031433, -1.0203864574432373, 0.0738617479801178, 0.5527446701446762, -1.830873472779814, -5.686476567009001, 9362.0, 30146.0, 35388.0, 9362.0, 8.17190170288086, 0.06374896317720413, -0.16737692058086395, 0.14257335662841797, -0.1030656099319458, -0.014038844965398312, 0.9970765113830566, -0.07040121406316757, 0.014162063598632812, 1.4970703125, 1.29931640625, 0.0500640869140625, 1.490478515625
16772, -0.6875528693199158, 0.16121098399162292, -0.21264244616031647, -0.02271735854446888, 0.10456759482622147, -6.76451301574707, -0.03426896408200264, 0.156990647315979, -0.885306715965271, -0.7888065576553345, -1.0203795433044434, 0.07388851791620255, 0.5434709754504412, -1.8379029589776508, -5.689720649164819, 9362.0, 30146.0, 35388.0, 9362.0, 8.17190170288086, -0.13911613821983337, 0.11226264387369156, 0.13693709671497345, -0.09892334789037704, -0.015415508300065994, 0.9930980205535889, -0.07040121406316757, 0.014162063598632812, 1.4970703125, 1.201171875, 0.3771514892578125, 1.490478515625
16782, -0.6890056729316711, 0.16124600172042847, -0.21138212084770203, -0.02306138165295124, 0.10614334791898727, -6.773369789123535, -0.034535638988018036, 0.15815971791744232, -0.88602614402771, -0.788798451423645, -1.020369052886963, 0.07389520853757858, 0.5439738173834743, -1.8384753957459736, -5.686470047463818, 9362.0, 30146.0, 35388.0, 9362.0, 8.17190170288086, -0.1025080680847168, -0.09520413726568222, 0.1656222641468048, -0.10015303641557693, -0.015333626419305801, 0.9948152303695679, -0.07040121406316757, 0.014162063598632812, 1.4970703125, 1.4033203125, 0.043182373046875, 1.494140625
16792, -0.6894885897636414, 0.16154484450817108, -0.209756001830101, -0.02306138165295124, 0.10614334791898727, -6.773369789123535, -0.034535638988018036, 0.15815971791744232, -0.88602614402771, -0.7888144254684448, -1.0203784704208374, 0.07388794422149658, 0.5547977840342591, -1.8365974029123038, -5.686468912057534, 9362.0, 30146.0, 35388.0, 9362.0, 8.17190170288086, -0.0776597261428833, -0.015568569302558899, 0.24145573377609253, -0.10180749744176865, -0.01464772317558527, 0.9943425059318542, -0.07040121406316757, 0.014162063598632812, 1.4970703125, 1.584228515625, 0.3801727294921875, 1.494140625
16812, -0.6894461512565613, 0.16029125452041626, -0.20815926790237427, -0.02306138165295124, 0.10614334791898727, -6.773369789123535, -0.034535638988018036, 0.15815971791744232, -0.88602614402771, -0.7888209223747253, -1.0203793048858643, 0.07387983053922653, 0.5513773060819037, -1.8401103221449944, -5.689073125918699, 9362.0, 30146.0, 35388.0, 9362.0, 8.17190170288086, 0.01871366985142231, 0.38691702485084534, 0.09286140650510788, -0.10207384824752808, -0.015014659613370895, 0.9965491890907288, -0.07040121406316757, 0.014162063598632812, 1.4970703125, 1.69775390625, 0.6619415283203125, 1.48828125
16832, -0.6899477243423462, 0.1617215871810913, -0.20642173290252686, -0.02482195571064949, 0.11419801414012909, -6.8177409172058105, -0.035886652767658234, 0.1640302985906601, -0.8887925148010254, -0.7888039946556091, -1.020371437072754, 0.07387722283601761, 0.5491009645166537, -1.844540331515958, -5.693954631393133, 9362.0, 30146.0, 35388.0, 9362.0, 8.17190170288086, -0.2062721997499466, 0.315807580947876, 0.10834904760122299, -0.10305608808994293, -0.01545480452477932, 0.9950135946273804, -0.07040121406316757, 0.014162063598632812, 1.4970703125, 1.308837890625, 0.0379486083984375, 1.48828125
16852, -0.6905617713928223, 0.16152875125408173, -0.20856907963752747, -0.025545045733451843, 0.1175021156668663, -6.835528373718262, -0.0364246629178524, 0.1663808822631836, -0.889889121055603, -0.7888128757476807, -1.0203838348388672, 0.07386486232280731, 0.5519550040335717, -1.8434925521545438, -5.683528082369202, 9362.0, 30146.0, 35388.0, 9362.0, 8.17190170288086, -0.05064120143651962, -0.3481946289539337, 0.031311605125665665, -0.10265249758958817, -0.01545754075050354, 0.9957724809646606, -0.07040121406316757, 0.014162063598632812, 1.4970703125, 1.540283203125, 0.280364990234375, 1.48828125
16872, -0.6890159249305725, 0.16206033527851105, -0.208888977766037, -0.026278872042894363, 0.12085331231355667, -6.853334903717041, -0.036960847675800323, 0.16873791813850403, -0.8907732367515564, -0.7888048887252808, -1.020378589630127, 0.07387197762727737, 0.5475131586012414, -1.8411767702962152, -5.692516512150913, 9362.0, 30146.0, 35388.0, 9362.0, 8.152067184448242, -0.10016845166683197, 0.09253218024969101, -0.10775620490312576, -0.10205662250518799, -0.015366435050964355, 0.9947212934494019, -0.07040121406316757, 0.014162063598632812, 1.4970703125, 1.657470703125, 0.5576019287109375, 1.48828125
16912, -0.6864772439002991, 0.15983346104621887, -0.20924626290798187, -0.02777901291847229, 0.12769684195518494, -6.889005661010742, -0.03804292157292366, 0.17343634366989136, -0.8926764726638794, -0.7888169884681702, -1.0203694105148315, 0.07386310398578644, 0.5436618058680202, -1.8382408334339289, -5.691192003274021, 9362.0, 30146.0, 35388.0, 9362.0, 8.152067184448242, 0.1442989557981491, 0.14363309741020203, 0.15633860230445862, -0.10459823161363602, -0.015988755971193314, 0.9932606816291809, -0.07040121406316757, 0.014162063598632812, 1.4970703125, 1.27001953125, 0.10626220703125, 1.493408203125
16952, -0.6848848462104797, 0.15907175838947296, -0.20909149944782257, -0.029322095215320587, 0.13472771644592285, -6.92476749420166, -0.03910908102989197, 0.17810291051864624, -0.8956214785575867, -0.7888292074203491, -1.0203807353973389, 0.07387243956327438, 0.5584016633397387, -1.838657560515287, -5.687059737222599, 9362.0, 30146.0, 35388.0, 9362.0, 8.152067184448242, 0.07693318277597427, 0.563106894493103, -0.039322447031736374, -0.10067465901374817, -0.017096873372793198, 0.9948567152023315, -0.07040121406316757, 0.014162063598632812, 1.4970703125, 1.081787109375, 1.5082244873046875, 1.493408203125
16972, -0.6830146908760071, 0.15886065363883972, -0.21070460975170135, -0.03010965883731842, 0.13831312954425812, -6.942690372467041, -0.03964560106396675, 0.1804380565881729, -0.8966492414474487, -0.7888165712356567, -1.0203795433044434, 0.07386741042137146, 0.5568114881248964, -1.834363570397386, -5.690717727565859, 9362.0, 30146.0, 35388.0, 9362.0, 8.152067184448242, 0.08218393474817276, -0.44432270526885986, 0.10719717293977737, -0.10002090781927109, -0.01679147221148014, 0.9934107661247253, -0.07040121406316757, 0.014162063598632812, 1.4970703125, 1.69921875, 0.665863037109375, 1.493408203125
17012, -0.6817391514778137, 0.155596524477005, -0.21035876870155334, -0.03171676769852638, 0.14562375843524933, -6.97860860824585, -0.04071250185370445, 0.18508949875831604, -0.8995078802108765, -0.7888106107711792, -1.0203970670700073, 0.07384351640939713, 0.555670405894864, -1.8359778425478055, -5.684416477074587, 9362.0, 30146.0, 35388.0, 9362.0, 8.152067184448242, -0.1275942176580429, 0.014266368933022022, 0.10693135857582092, -0.10259392112493515, -0.013498716056346893, 0.9955295324325562, -0.07040121406316757, 0.014162063598632812, 1.4970703125, 0.8818359375, 6.565155029296875, 1.4912109375
17032, -0.6814733147621155, 0.15341323614120483, -0.20867858827114105, -0.032536305487155914, 0.14934881031513214, -6.996607780456543, -0.04123888537287712, 0.18741607666015625, -0.900381863117218, -0.7888153791427612, -1.0203945636749268, 0.07386491447687149, 0.5610426080112008, -1.838729328046952, -5.690708392384669, 9362.0, 30146.0, 35388.0, 9362.0, 8.152067184448242, -0.09380583465099335, 0.07726601511240005, 0.07376595586538315, -0.10135386139154434, -0.017762010917067528, 0.9958071112632751, -0.07040121406316757, 0.014162063598632812, 1.4970703125, 1.477294921875, 0.1519775390625, 1.49267578125
