timeTick, roll, pitch, yaw, stateX, stateY, stateZ, stateVX, stateVY, stateVZ, otX0, otY0, otZ0, otRoll0, otPitch0, otYaw0, left wing, pitch motor, yaw motor, right wing, voltage, roll rate, pitch rate, yaw rate, A_x, A_y, A_z, current, i_raw, v_raw, airflow_voltage, airflow_speed, pot_Pitch
43301, 3.9857587814331055, -9.730020523071289, 3.3946826457977295, 0, 0, 0, 0, 0, 0, -0.7760910987854004, -1.01712167263031, 0.07421570271253586, 0.6297440012888883, -1.1542437037627735, -6.072680243613974, 0, 0, 0, 0, 0, 0, 0, 0, 0, 0, 0, 0, 0, 0, 0, 0, 0
43311, 3.9853148460388184, -9.731637954711914, 3.394524335861206, -0.00112608028575778, 0.0003879325231537223, -14.626051902770996, -0.10417675226926804, 0.03588836267590523, -0.692124605178833, -0.7761128544807434, -1.0171129703521729, 0.07418131083250046, 0.6156147461417939, -1.1300379175215483, -6.062393651881609, 9362.0, 30146.0, 35388.0, 9362.0, 0, -0.02022121474146843, -0.020740780979394913, -0.1297753006219864, -0.09293822199106216, -0.013013900257647038, 0.995597779750824, 0, 0, 0, 0, 0, 0
43321, 3.985401153564453, -9.73122501373291, 3.393474817276001, -0.0020836724434047937, 0.0007178150117397308, -14.632983207702637, -0.08734176307916641, 0.030088108032941818, -0.6942206621170044, -0.776107668876648, -1.017124891281128, 0.07416915893554688, 0.6215067068488634, -1.1430458895053448, -6.067374152810722, 9362.0, 30146.0, 35388.0, 9362.0, 0, -0.11383827775716782, 0.26210811734199524, 0.2165725827217102, -0.09137167036533356, -0.012752849608659744, 0.9974322319030762, 0, 0, 0, 1.37255859375, 0.02044677734375, 0
43331, 3.986111879348755, -9.732497215270996, 3.3952219486236572, -0.002872917801141739, 0.0009897049749270082, -14.639936447143555, -0.07050736993551254, 0.024289565160870552, -0.6963350772857666, -0.7760841250419617, -1.0171257257461548, 0.0742037445306778, 0.6227290424302426, -1.1587389984191248, -6.072462205675718, 9362.0, 30146.0, 35388.0, 9362.0, 0, 0.023769883438944817, -0.12037113308906555, -0.24042163789272308, -0.09059128910303116, -0.014344996772706509, 0.9963038563728333, 0, 0, 0, 1.335205078125, 0.018280029296875, 1.48974609375
43341, 3.986151933670044, -9.733603477478027, 3.394789218902588, -0.003493678290396929, 0.0012035571271553636, -14.646909713745117, -0.05364462733268738, 0.01848137006163597, -0.6982849836349487, -0.7760815620422363, -1.0171308517456055, 0.07421399652957916, 0.6305310199302991, -1.1591428731108522, -6.069429330332482, 9362.0, 30146.0, 35388.0, 9362.0, 0, 0.000812410784419626, 0.01010126993060112, -0.18945002555847168, -0.09136877954006195, -0.0139468340203166, 0.9941786527633667, 0, 0, 0, 1.382080078125, 0.0256195068359375, 1.48974609375
43351, 3.9874753952026367, -9.734442710876465, 3.3940799236297607, -0.003945808857679367, 0.0013593276962637901, -14.653902053833008, -0.03678154572844505, 0.012672601267695427, -0.7002455592155457, -0.7760833501815796, -1.0171281099319458, 0.07421395182609558, 0.6355776998905064, -1.166816818264067, -6.072324010939658, 9362.0, 30146.0, 35388.0, 9362.0, 0, 0.25665828585624695, -0.36071765422821045, -0.48232385516166687, -0.09051146358251572, -0.013684128411114216, 0.9947730302810669, 0, 0, 0, 1.424560546875, 0.0678253173828125, 1.49267578125
43361, 3.988532304763794, -9.732415199279785, 3.3910515308380127, -0.004229439422488213, 0.001457058358937502, -14.66091537475586, -0.019944705069065094, 0.006873299367725849, -0.7023659944534302, -0.7761422395706177, -1.0171178579330444, 0.07424130290746689, 0.6385439100841197, -1.1880360292960006, -6.038413409739212, 9362.0, 30146.0, 35388.0, 9362.0, 0, 0.1551932841539383, 0.20895981788635254, 0.06178690120577812, -0.08877485990524292, -0.013906066305935383, 0.9968161582946777, 0, 0, 0, 1.406982421875, 0.046966552734375, 1.49267578125
43371, 3.989511251449585, -9.732648849487305, 3.390017032623291, -0.004344766028225422, 0.001496808836236596, -14.667949676513672, -0.003120889887213707, 0.0010759057477116585, -0.7045681476593018, -0.776078999042511, -1.0171232223510742, 0.07421353459358215, 0.6281637151901287, -1.1630067459875306, -6.068498797344501, 9362.0, 30146.0, 35388.0, 9362.0, 0, -0.17714174091815948, 0.22131553292274475, 0.1386566311120987, -0.08831191807985306, -0.015039241872727871, 0.9953843951225281, 0, 0, 0, 1.322021484375, 0.0257415771484375, 1.491943359375
43381, 3.988680839538574, -9.735493659973145, 3.39070987701416, -0.004291698802262545, 0.001478511025197804, -14.675004959106445, 0.013734200969338417, -0.004735790193080902, -0.7065719962120056, -0.7760892510414124, -1.0171263217926025, 0.07420872896909714, 0.6253825885624106, -1.1592059843256095, -6.0681694672805495, 9362.0, 30146.0, 35388.0, 9362.0, 0, 0.08573956042528152, -0.1463349461555481, 0.09452978521585464, -0.08884292095899582, -0.012813480570912361, 0.9957553148269653, 0, 0, 0, 1.3037109375, 0.04412841796875, 1.491943359375
43391, 3.988986015319824, -9.735149383544922, 3.3908872604370117, -0.004070139955729246, 0.0014021075330674648, -14.68208122253418, 0.030577559024095535, -0.010544678196310997, -0.7086461782455444, -0.7760798931121826, -1.0171347856521606, 0.07421660423278809, 0.6315693772278548, -1.165933377930969, -6.0670703674708175, 9362.0, 30146.0, 35388.0, 9362.0, 0, 0.313732773065567, 0.2668681740760803, -0.09070950746536255, -0.08933816850185394, -0.014286726713180542, 0.9947729706764221, 0, 0, 0, 1.379150390625, 0.0238189697265625, 1.4912109375
43401, 3.9897656440734863, -9.735301971435547, 3.390115737915039, -0.0036801029928028584, 0.0012676175683736801, -14.689177513122559, 0.04742983728647232, -0.016353271901607513, -0.7106967568397522, -0.7761023640632629, -1.0171462297439575, 0.07422879338264465, 0.6327816396483884, -1.0939909619285686, -6.11048405249101, 9362.0, 30146.0, 35388.0, 9362.0, 8.390083312988281, 0.11274636536836624, -0.1523529589176178, -0.253345787525177, -0.09171024709939957, -0.013270667754113674, 0.9964982271194458, 0, 0, 0, 1.36669921875, 0.01806640625, 1.4912109375
43411, 3.989684820175171, -9.734027862548828, 3.3880138397216797, -0.003121594898402691, 0.0010750560322776437, -14.696294784545898, 0.06427168846130371, -0.02215927094221115, -0.7128034830093384, -0.7761220335960388, -1.0171115398406982, 0.07417779415845871, 0.61462364368991, -1.1337308838351134, -6.073309100855122, 9362.0, 30146.0, 35388.0, 9362.0, 8.390083312988281, 0.1287320852279663, -0.26240167021751404, -0.05599997937679291, -0.08998367935419083, -0.01431289128959179, 0.9955889582633972, -0.1124030351638794, 0.04104042053222656, 1.499267578125, 1.3916015625, 0.0325927734375, 1.493408203125
43421, 3.991173505783081, -9.732759475708008, 3.3883049488067627, -0.0023946294095367193, 0.000824413844384253, -14.7034330368042, 0.08112121373414993, -0.027969764545559883, -0.7148667573928833, -0.7761244773864746, -1.0171215534210205, 0.07418804615736008, 0.6237341644555755, -1.1353771802026529, -6.061960286353021, 9362.0, 30146.0, 35388.0, 9362.0, 8.390083312988281, 0.13801325857639313, 0.03474275767803192, -0.3143555819988251, -0.09083961695432663, -0.013965222053229809, 0.9944223165512085, -0.1124030351638794, 0.04104042053222656, 1.499267578125, 1.319091796875, 0.0279998779296875, 1.493408203125
43431, 3.992189884185791, -9.733054161071777, 3.3854870796203613, -0.0014991052448749542, 0.0005156378028914332, -14.710591316223145, 0.09798368066549301, -0.033785391598939896, -0.7168443202972412, -0.7760910987854004, -1.0171315670013428, 0.07419654726982117, 0.6230510899530782, -1.1644427643601887, -6.066678732667492, 9362.0, 30146.0, 35388.0, 9362.0, 8.390083312988281, 0.013594042509794235, 0.1354721188545227, 0.2691863179206848, -0.08972601592540741, -0.010818436741828918, 0.9962880611419678, -0.1124030351638794, 0.04104042053222656, 1.499267578125, 1.4033203125, 0.043182373046875, 1.496337890625
43441, 3.992229461669922, -9.734186172485352, 3.3871610164642334, -0.00043512333650141954, 0.00014874670887365937, -14.71777057647705, 0.11481238901615143, -0.0395936593413353, -0.7190007567405701, -0.7760892510414124, -1.0171279907226562, 0.0741986632347107, 0.6230644376483522, -1.1737713311761127, -6.068329643991883, 9362.0, 30146.0, 35388.0, 9362.0, 8.390083312988281, -0.08743975311517715, 0.1427423357963562, 0.20351827144622803, -0.08784359693527222, -0.01488975714892149, 0.9963054656982422, -0.1124030351638794, 0.04104042053222656, 1.499267578125, 1.34912109375, 0.015380859375, 1.496337890625
43451, 3.992196798324585, -9.73478889465332, 3.3887035846710205, 0.0007972560124471784, -0.0002762771910056472, -14.724970817565918, 0.13166363537311554, -0.0454106479883194, -0.7210333347320557, -0.7760813236236572, -1.0171217918395996, 0.07420538365840912, 0.6303075189147157, -1.1554223727614783, -6.0673506258040995, 9362.0, 30146.0, 35388.0, 9362.0, 8.390083312988281, 0.11402692645788193, 0.16473467648029327, 0.07972689718008041, -0.08772076666355133, -0.014052433893084526, 0.9960666298866272, -0.1124030351638794, 0.04104042053222656, 1.499267578125, 1.368896484375, 0.01885986328125, 1.48974609375
43461, 3.993107557296753, -9.73410701751709, 3.3881356716156006, 0.002198140835389495, -0.0007594622438773513, -14.73219108581543, 0.14851342141628265, -0.051225896924734116, -0.7230862975120544, -0.7761563658714294, -1.017129898071289, 0.07436925917863846, 0.6292617615223908, -1.0814715966203607, -6.09833556028411, 9362.0, 30146.0, 35388.0, 9362.0, 8.390083312988281, 0.05974232032895088, -0.06629886478185654, 0.0012945494381710887, -0.08820311725139618, -0.013422324322164059, 0.99437016248703, -0.1124030351638794, 0.04104042053222656, 1.499267578125, 1.398193359375, 0.03826904296875, 1.48974609375
43471, 3.9938294887542725, -9.733748435974121, 3.3891451358795166, 0.0037675718776881695, -0.0013008116511628032, -14.739432334899902, 0.16537277400493622, -0.057044174522161484, -0.7250903844833374, -0.7760807275772095, -1.0171173810958862, 0.07421170175075531, 0.624886576661149, -1.1558570808154798, -6.071550668974961, 9362.0, 30146.0, 35388.0, 9362.0, 8.390083312988281, 0.22313712537288666, 0.15476801991462708, 0.1307595819234848, -0.08701882511377335, -0.011235466226935387, 0.9950804710388184, -0.1124030351638794, 0.04104042053222656, 1.499267578125, 1.399658203125, 0.0396575927734375, 1.493408203125
43481, 3.9954051971435547, -9.735007286071777, 3.390223741531372, 0.005505481734871864, -0.001900315284729004, -14.74669361114502, 0.182209312915802, -0.06285624951124191, -0.7272184491157532, -0.7761194109916687, -1.0171135663986206, 0.07416853308677673, 0.6190810313757862, -1.1435676528621173, -6.058797905536333, 9362.0, 30146.0, 35388.0, 9362.0, 8.390083312988281, 0.12911559641361237, -0.08561379462480545, 0.08720455318689346, -0.08910740911960602, -0.013146555051207542, 0.995199978351593, -0.1124030351638794, 0.04104042053222656, 1.499267578125, 1.380615234375, 0.024749755859375, 1.493408203125
43491, 3.9953560829162598, -9.734976768493652, 3.390327215194702, 0.007411752827465534, -0.002557943807914853, -14.753976821899414, 0.19904497265815735, -0.06866912543773651, -0.7293496131896973, -0.7761193513870239, -1.0171056985855103, 0.07416988164186478, 0.6184846365964154, -1.1376681385688698, -6.061298113762839, 9362.0, 30146.0, 35388.0, 9362.0, 8.390083312988281, 0.11737870424985886, -0.17530931532382965, -0.06164669245481491, -0.09143074601888657, -0.014797240495681763, 0.9983559250831604, -0.1124030351638794, 0.04104042053222656, 1.499267578125, 1.370361328125, 0.0194549560546875, 1.49267578125
43501, 3.995181083679199, -9.73308277130127, 3.3905766010284424, 0.009486379101872444, -0.003273707814514637, -14.76128101348877, 0.21588043868541718, -0.07448364794254303, -0.7314951419830322, -0.7761132121086121, -1.0171175003051758, 0.07416369765996933, 0.6159243149589283, -1.1385205243819883, -6.069258281651032, 9362.0, 30146.0, 35388.0, 9362.0, 8.390083312988281, -0.0906314104795456, 0.0889146700501442, 0.08095899969339371, -0.09112294018268585, -0.013209670782089233, 0.9973053336143494, -0.1124030351638794, 0.04104042053222656, 1.499267578125, 1.3828125, 0.0261077880859375, 1.49267578125
43511, 3.9945313930511475, -9.733283042907715, 3.391359806060791, 0.011729594320058823, -0.004047696944326162, -14.76860523223877, 0.23276253044605255, -0.08031410723924637, -0.7333744168281555, -0.7761189937591553, -1.0171105861663818, 0.07417678833007812, 0.613441110064022, -1.1383901442934814, -6.07077729571693, 9362.0, 30146.0, 35388.0, 9362.0, 8.390083312988281, 0.05375165119767189, 0.3699975609779358, 0.08593922853469849, -0.09033187478780746, -0.013531362637877464, 0.9965927600860596, -0.14529575407505035, -0.22775840759277344, 1.477294921875, 1.417236328125, 0.058624267578125, 1.494873046875
43521, 3.994418144226074, -9.735672950744629, 3.3920247554779053, 0.014141609892249107, -0.0048799882642924786, -14.775948524475098, 0.2496405690908432, -0.08614391833543777, -0.7352585792541504, -0.7761027216911316, -1.0171127319335938, 0.07418038696050644, 0.6225431649942132, -1.1389091438787489, -6.069822593202284, 9362.0, 30146.0, 35388.0, 9362.0, 8.390083312988281, 0.31347694993019104, 0.17834988236427307, 0.327160507440567, -0.09013484418392181, -0.015541675500571728, 0.9977192282676697, -0.14529575407505035, -0.22775840759277344, 1.477294921875, 1.32568359375, 0.0232086181640625, 1.494873046875
43531, 3.99643611907959, -9.735555648803711, 3.394573211669922, 0.016722310334444046, -0.005770537070930004, -14.783310890197754, 0.26649928092956543, -0.09196563810110092, -0.7372550368309021, -0.7760946750640869, -1.0171430110931396, 0.07422907650470734, 0.6266677556720639, -1.1177687564243968, -6.099280166473236, 9362.0, 30146.0, 35388.0, 9362.0, 8.390083312988281, -0.1572047770023346, 0.29454100131988525, 0.061425525695085526, -0.08990427106618881, -0.013836300931870937, 0.9958221316337585, -0.14529575407505035, -0.22775840759277344, 1.477294921875, 1.43994140625, 0.089324951171875, 1.494140625
43541, 3.996448040008545, -9.73873233795166, 3.3955931663513184, 0.019471706822514534, -0.006719330791383982, -14.790693283081055, 0.2833801805973053, -0.09779239445924759, -0.7391499280929565, -0.7761168479919434, -1.0171082019805908, 0.07419600337743759, 0.6213957616567822, -1.144930376203206, -6.068955825567521, 9362.0, 30146.0, 35388.0, 9362.0, 8.390083312988281, -0.0638049766421318, 0.21912582218647003, 0.062190454453229904, -0.0917525365948677, -0.014958973042666912, 0.9934256076812744, -0.14529575407505035, -0.22775840759277344, 1.477294921875, 1.39453125, 0.035003662109375, 1.494140625
43551, 3.9967422485351562, -9.740711212158203, 3.3958325386047363, 0.02238982729613781, -0.007726375944912434, -14.798094749450684, 0.3002438247203827, -0.10361632704734802, -0.7411438226699829, -0.7761327624320984, -1.0171089172363281, 0.0741632878780365, 0.6184266347750359, -1.1411635351012137, -6.064419871098304, 9362.0, 30146.0, 35388.0, 9362.0, 8.390083312988281, -0.034712038934230804, -0.0648343563079834, -0.22699595987796783, -0.08975597470998764, -0.01383284293115139, 0.9932732582092285, -0.14529575407505035, -0.22775840759277344, 1.477294921875, 1.3359375, 0.01806640625, 1.491943359375
43561, 3.996609926223755, -9.740188598632812, 3.393688201904297, 0.02547641284763813, -0.008791589178144932, -14.805517196655273, 0.317073255777359, -0.10942622274160385, -0.7433643341064453, -0.7761146426200867, -1.0171183347702026, 0.07419312745332718, 0.6206266142718182, -1.1323096646254385, -6.0718172010504095, 9362.0, 30146.0, 35388.0, 9362.0, 8.390083312988281, 0.17042317986488342, 0.38896799087524414, 0.0325729139149189, -0.0878123790025711, -0.016380907967686653, 0.9938346147537231, -0.14529575407505035, -0.22775840759277344, 1.477294921875, 1.386474609375, 0.028656005859375, 1.491943359375
43571, 3.9984002113342285, -9.742460250854492, 3.3938026428222656, 0.028731264173984528, -0.009914886206388474, -14.812962532043457, 0.3338968753814697, -0.1152338981628418, -0.7456358671188354, -0.7761173844337463, -1.017114281654358, 0.07417027652263641, 0.6171331702571206, -1.140252118238493, -6.063827009048603, 9362.0, 30146.0, 35388.0, 9362.0, 8.390083312988281, 0.07413678616285324, -0.015980642288923264, -0.03838711604475975, -0.08867287635803223, -0.014868718571960926, 0.9962985515594482, -0.14529575407505035, -0.22775840759277344, 1.477294921875, 1.374755859375, 0.021392822265625, 1.49267578125
43581, 3.9980719089508057, -9.74267578125, 3.3919830322265625, 0.03215434029698372, -0.011096261441707611, -14.820429801940918, 0.35071852803230286, -0.12104108184576035, -0.7479134798049927, -0.7761956453323364, -1.017133355140686, 0.07419385761022568, 0.6397018864089948, -1.1840784680897798, -6.015861434269727, 9362.0, 30146.0, 35388.0, 9362.0, 8.390083312988281, 0.01466121431440115, -0.048450250178575516, -0.1404416561126709, -0.09141995757818222, -0.012912193313241005, 0.9943432211875916, -0.14529575407505035, -0.22775840759277344, 1.477294921875, 1.418701171875, 0.0603485107421875, 1.49267578125
43591, 3.998396396636963, -9.74050235748291, 3.3895883560180664, 0.03574584424495697, -0.012335787527263165, -14.827919006347656, 0.3675820827484131, -0.1268647313117981, -0.7499746084213257, -0.7761861085891724, -1.0171215534210205, 0.07420456409454346, 0.6394022686447857, -1.1820892404227834, -6.026524375268974, 9362.0, 30146.0, 35388.0, 9362.0, 8.390083312988281, 0.31128472089767456, 0.04736705124378204, -0.061571184545755386, -0.0887850672006607, -0.012858696281909943, 0.9954918622970581, -0.14529575407505035, -0.22775840759277344, 1.477294921875, 1.357177734375, 0.0157928466796875, 1.489013671875
43601, 3.9997358322143555, -9.74141788482666, 3.3882226943969727, 0.039505936205387115, -0.01363353431224823, -14.835429191589355, 0.38443654775619507, -0.13268528878688812, -0.7520879507064819, -0.7761856317520142, -1.0171301364898682, 0.07420387119054794, 0.6385544372902932, -1.1785014576738888, -6.026358403633859, 9362.0, 30146.0, 35388.0, 9362.0, 8.390083312988281, 0.21466569602489471, 0.24740582704544067, 0.08858094364404678, -0.08810341358184814, -0.014519763179123402, 0.9965130090713501, -0.14529575407505035, -0.22775840759277344, 1.477294921875, 1.385009765625, 0.0276336669921875, 1.489013671875
43611, 4.0000691413879395, -9.742514610290527, 3.3879122734069824, 0.043434564024209976, -0.014989497140049934, -14.842960357666016, 0.4012887477874756, -0.13850760459899902, -0.7541926503181458, -0.7761404514312744, -1.0171411037445068, 0.07423269748687744, 0.6452537122897273, -1.2014490919235925, -6.028089572870375, 9362.0, 30146.0, 35388.0, 9362.0, 8.390083312988281, 0.29175230860710144, -0.07676318287849426, -0.03984401002526283, -0.09158974140882492, -0.013825922273099422, 0.9986458420753479, -0.09759216755628586, 0.014162063598632812, 1.4970703125, 1.31396484375, 0.0325469970703125, 1.493408203125
43621, 4.001091480255127, -9.742307662963867, 3.3869411945343018, 0.047531794756650925, -0.016403721645474434, -14.850512504577637, 0.4181573987007141, -0.14433731138706207, -0.7562128901481628, -0.7761499881744385, -1.0171293020248413, 0.07421840727329254, 0.6488120852783223, -1.1878478341649839, -6.025864608820019, 9362.0, 30146.0, 35388.0, 9362.0, 8.390083312988281, 0.13770495355129242, 0.3173803389072418, 0.27164289355278015, -0.09191077202558517, -0.012545814737677574, 0.9965273141860962, -0.09759216755628586, 0.014162063598632812, 1.4970703125, 1.3154296875, 0.03118896484375, 1.493408203125
43631, 4.002144813537598, -9.744148254394531, 3.388061761856079, 0.05179788917303085, -0.01787630468606949, -14.858083724975586, 0.4350617229938507, -0.15017947554588318, -0.7580406665802002, -0.7761848568916321, -1.0171120166778564, 0.07421813905239105, 0.6342136879998957, -1.1758305376627902, -6.0226669060938995, 9362.0, 30146.0, 35388.0, 9362.0, 8.390083312988281, 0.1570601910352707, -0.2101636528968811, -0.33585911989212036, -0.09094496816396713, -0.013713844120502472, 0.9952808618545532, -0.09759216755628586, 0.014162063598632812, 1.4970703125, 1.354248046875, 0.0154266357421875, 1.49267578125
43641, 4.002859592437744, -9.743488311767578, 3.3854198455810547, 0.05623297765851021, -0.019407302141189575, -14.865674018859863, 0.4519558846950531, -0.1560196429491043, -0.759925365447998, -0.7761480212211609, -1.017138123512268, 0.07424522936344147, 0.644320015034108, -1.2074266839156564, -6.030882008492574, 9362.0, 30146.0, 35388.0, 9362.0, 8.390083312988281, 0.10528136789798737, -0.14062973856925964, 0.1161322072148323, -0.08853962272405624, -0.013838617131114006, 0.9952110648155212, -0.09759216755628586, 0.014162063598632812, 1.4970703125, 1.39892578125, 0.0390167236328125, 1.49267578125
43651, 4.00262451171875, -9.741854667663574, 3.386422872543335, 0.060836873948574066, -0.020996656268835068, -14.873283386230469, 0.4688233733177185, -0.1618519276380539, -0.7619789242744446, -0.7761836051940918, -1.0171113014221191, 0.07421895861625671, 0.6393827465719638, -1.1835010505313903, -6.022180921779783, 9362.0, 30146.0, 35388.0, 9362.0, 8.390083312988281, 0.16508512198925018, 0.002162770600989461, -0.08931850641965866, -0.08894370496273041, -0.013369335792958736, 0.9959093332290649, -0.09759216755628586, 0.014162063598632812, 1.4970703125, 1.33447265625, 0.0186309814453125, 1.493408203125
43661, 4.003540515899658, -9.741716384887695, 3.3859453201293945, 0.06560938060283661, -0.022644324228167534, -14.880913734436035, 0.4856787323951721, -0.16768130660057068, -0.7640959024429321, -0.776181161403656, -1.0171140432357788, 0.07421652972698212, 0.6342720195562827, -1.1759215408362707, -6.025409574817617, 9362.0, 30146.0, 35388.0, 9362.0, 8.390083312988281, 0.1393057256937027, 0.04613535478711128, 0.16669704020023346, -0.08982865512371063, -0.011649366468191147, 0.9947686791419983, -0.09759216755628586, 0.014162063598632812, 1.4970703125, 1.386474609375, 0.028656005859375, 1.493408203125
43671, 4.0052490234375, -9.74179458618164, 3.3866398334503174, 0.07055048644542694, -0.024350302293896675, -14.888565063476562, 0.5025424957275391, -0.17351451516151428, -0.766148567199707, -0.7761620879173279, -1.0171388387680054, 0.07427633553743362, 0.6348280701883132, -1.1499161615007267, -6.0594481015456925, 9362.0, 30146.0, 35388.0, 9362.0, 8.390083312988281, -0.11186305433511734, 0.09365490078926086, -0.06409287452697754, -0.08955647796392441, -0.013589837588369846, 0.99418044090271, -0.09759216755628586, 0.014162063598632812, 1.4970703125, 1.41796875, 0.05950927734375, 1.49267578125
43681, 4.005918979644775, -9.743118286132812, 3.386390209197998, 0.07566014677286148, -0.02611459232866764, -14.89623737335205, 0.5193898677825928, -0.17934340238571167, -0.7682952284812927, -0.7761875987052917, -1.01711905002594, 0.07419700920581818, 0.6384076737865866, -1.1787353022741058, -6.0198255596617996, 9362.0, 30146.0, 35388.0, 9362.0, 8.390083312988281, 0.08067164570093155, -0.11016606539487839, 0.17217041552066803, -0.09118246287107468, -0.01501824427396059, 0.9956430196762085, -0.09759216755628586, 0.014162063598632812, 1.4970703125, 1.37109375, 0.0197906494140625, 1.49267578125
43691, 4.007168292999268, -9.742070198059082, 3.3872268199920654, 0.08093827217817307, -0.027937179431319237, -14.903931617736816, 0.5362342596054077, -0.18517421185970306, -0.770458996295929, -0.7761806845664978, -1.017128825187683, 0.07421121746301651, 0.6377635455077479, -1.176485689709466, -6.027772671879741, 9362.0, 30146.0, 35388.0, 9362.0, 8.390083312988281, 0.10295970737934113, -0.24606011807918549, 0.01111444178968668, -0.091786228120327, -0.01437181793153286, 0.9951485991477966, -0.09759216755628586, 0.014162063598632812, 1.4970703125, 1.383544921875, 0.026611328125, 1.487548828125
43701, 4.007792949676514, -9.739986419677734, 3.3888309001922607, 0.08638489991426468, -0.02981809712946415, -14.911646842956543, 0.5530911684036255, -0.19100920855998993, -0.7725663781166077, -0.7761915326118469, -1.0171267986297607, 0.07421398162841797, 0.6335138147592768, -1.1864346636083667, -6.027519968544699, 9362.0, 30146.0, 35388.0, 9362.0, 8.370248794555664, 0.03631356358528137, 0.20203687250614166, 0.0708097368478775, -0.0908813402056694, -0.013682122342288494, 0.9953970909118652, -0.09759216755628586, 0.014162063598632812, 1.4970703125, 1.4033203125, 0.043182373046875, 1.487548828125
43711, 4.0072832107543945, -9.74066162109375, 3.389986038208008, 0.0920000895857811, -0.031757377088069916, -14.91938304901123, 0.5699473023414612, -0.19684626162052155, -0.7746684551239014, -0.7761797904968262, -1.0171228647232056, 0.07419952750205994, 0.6392350972651019, -1.174928612765001, -6.023210093389197, 9362.0, 30146.0, 35388.0, 9362.0, 8.370248794555664, 0.183363676071167, -0.13178545236587524, -0.3786335289478302, -0.0908239558339119, -0.01284121349453926, 0.9946855902671814, -0.09715445339679718, -0.24567794799804688, 1.475830078125, 1.4150390625, 0.05596923828125, 1.493408203125
43721, 4.007722854614258, -9.738509178161621, 3.3882954120635986, 0.09778386354446411, -0.033755041658878326, -14.927140235900879, 0.5868069529533386, -0.20268656313419342, -0.7767320871353149, -0.7761819362640381, -1.0171197652816772, 0.07422234863042831, 0.6393908626176849, -1.1844926895554977, -6.026851467086447, 9362.0, 30146.0, 35388.0, 9362.0, 8.370248794555664, -0.011482213623821735, -0.47298213839530945, 0.03831392899155617, -0.09047749638557434, -0.013147587887942791, 0.9951280355453491, -0.09715445339679718, -0.24567794799804688, 1.475830078125, 1.38720703125, 0.0291900634765625, 1.493408203125
43731, 4.007694244384766, -9.734465599060059, 3.3877909183502197, 0.10373614728450775, -0.03581107035279274, -14.934918403625488, 0.6036491394042969, -0.20852002501487732, -0.7789005041122437, -0.7761838436126709, -1.017109990119934, 0.07421699166297913, 0.640588511284642, -1.1888782294966802, -6.01958521328999, 9362.0, 30146.0, 35388.0, 9362.0, 8.370248794555664, -0.12208958715200424, 0.2888543903827667, 0.04958885908126831, -0.09025654196739197, -0.011453469283878803, 0.9959051012992859, -0.09715445339679718, -0.24567794799804688, 1.475830078125, 1.354248046875, 0.0154266357421875, 1.494140625
43741, 4.007421016693115, -9.736313819885254, 3.388597011566162, 0.10985687375068665, -0.03792545571923256, -14.942717552185059, 0.6204957962036133, -0.2143574208021164, -0.7810214757919312, -0.7761844396591187, -1.0171202421188354, 0.07421617954969406, 0.6337695582421418, -1.1809997647391413, -6.021676348992966, 9362.0, 30146.0, 35388.0, 9362.0, 8.370248794555664, 0.24221715331077576, -0.12203908711671829, -0.02983725443482399, -0.08970621228218079, -0.012377713806927204, 0.9971082806587219, -0.09715445339679718, -0.24567794799804688, 1.475830078125, 1.327880859375, 0.0218353271484375, 1.494140625
43751, 4.008053302764893, -9.735520362854004, 3.387244939804077, 0.1161460429430008, -0.040098223835229874, -14.950538635253906, 0.6373381018638611, -0.2201957404613495, -0.7831287384033203, -0.7761927843093872, -1.01713228225708, 0.0742139145731926, 0.6381618241619907, -1.1894067959955805, -6.025716462303387, 9362.0, 30146.0, 35388.0, 9362.0, 8.370248794555664, -0.03830687329173088, 0.008499706164002419, -0.1252390444278717, -0.08911462128162384, -0.014288886450231075, 0.9969699382781982, -0.09715445339679718, -0.24567794799804688, 1.475830078125, 1.382080078125, 0.0256195068359375, 1.49267578125
43761, 4.0068488121032715, -9.735371589660645, 3.3857951164245605, 0.12260376662015915, -0.04232941195368767, -14.958379745483398, 0.6542069315910339, -0.2260420322418213, -0.7851017713546753, -0.7761832475662231, -1.0171197652816772, 0.07421316206455231, 0.6404575598432953, -1.1864324405227364, -6.0172132983684685, 9362.0, 30146.0, 35388.0, 9362.0, 8.370248794555664, 0.18272066116333008, 0.5147032737731934, -0.0374215766787529, -0.08779692649841309, -0.014044149778783321, 0.9960900545120239, -0.09715445339679718, -0.24567794799804688, 1.475830078125, 1.3798828125, 0.0243377685546875, 1.49267578125
43771, 4.008800983428955, -9.73888874053955, 3.3858542442321777, 0.12923021614551544, -0.044619083404541016, -14.966239929199219, 0.671082615852356, -0.23189270496368408, -0.7870279550552368, -0.7761994004249573, -1.0171209573745728, 0.07421214878559113, 0.6343718937342596, -1.1765978418638383, -6.0233409200911545, 9362.0, 30146.0, 35388.0, 9362.0, 8.370248794555664, -0.04542021453380585, 0.2928905189037323, 0.08086394518613815, -0.08842776715755463, -0.01522834226489067, 0.9942219853401184, -0.09715445339679718, -0.24567794799804688, 1.475830078125, 1.371826171875, 0.02008056640625, 1.493408203125
43781, 4.0091328620910645, -9.740419387817383, 3.3878064155578613, 0.1360253542661667, -0.04696723073720932, -14.974120140075684, 0.6879438161849976, -0.23773659765720367, -0.7890348434448242, -0.7761818766593933, -1.0171276330947876, 0.07423411309719086, 0.6352411698680253, -1.182067290388403, -6.023628757413039, 9362.0, 30146.0, 35388.0, 9362.0, 8.370248794555664, -0.06259402632713318, -0.05643613263964653, 0.04673459008336067, -0.09125461429357529, -0.013850505463778973, 0.9955539107322693, -0.09715445339679718, -0.24567794799804688, 1.475830078125, 1.3154296875, 0.03118896484375, 1.493408203125
43791, 4.009033203125, -9.739178657531738, 3.388126850128174, 0.14298899471759796, -0.04937378689646721, -14.98202133178711, 0.7047857642173767, -0.24357396364212036, -0.7911872863769531, -0.776157796382904, -1.0171338319778442, 0.07425567507743835, 0.6409327417688153, -1.2102110746101573, -6.027933650971064, 9362.0, 30146.0, 35388.0, 9362.0, 8.370248794555664, -0.07422938942909241, 0.3111637532711029, 0.1728793978691101, -0.08958510309457779, -0.012929532676935196, 0.9980666637420654, -0.09715445339679718, -0.24567794799804688, 1.475830078125, 1.336669921875, 0.0177764892578125, 1.4912109375
43801, 4.009922027587891, -9.740388870239258, 3.3889970779418945, 0.15012109279632568, -0.051838722079992294, -14.989943504333496, 0.7216350436210632, -0.24941319227218628, -0.7933139204978943, -0.7761920690536499, -1.0171293020248413, 0.0742122232913971, 0.6391550763080829, -1.1860287307364388, -6.018130385363659, 9362.0, 30146.0, 35388.0, 9362.0, 8.390083312988281, 0.1435011923313141, -0.05324232205748558, -0.13106301426887512, -0.08921731263399124, -0.014571031555533409, 0.9960986971855164, -0.09715445339679718, -0.24567794799804688, 1.475830078125, 1.34912109375, 0.015380859375, 1.4912109375
43811, 4.010134696960449, -9.740041732788086, 3.3870904445648193, 0.15742190182209015, -0.05436212942004204, -14.997885704040527, 0.7385280728340149, -0.25526803731918335, -0.7951797842979431, -0.7761847376823425, -1.0171128511428833, 0.07422172278165817, 0.6348940875907941, -1.1786988359388033, -6.029067389919263, 9362.0, 30146.0, 35388.0, 9362.0, 8.390083312988281, -0.03941073641180992, 0.2943402826786041, -0.11867547780275345, -0.08798790723085403, -0.011012472212314606, 0.995851457118988, -0.07937280088663101, -0.15607833862304688, 1.483154296875, 1.3798828125, 0.0243377685546875, 1.49267578125
43821, 4.010051250457764, -9.743311882019043, 3.3865532875061035, 0.1648915410041809, -0.05694405362010002, -15.005847930908203, 0.755400538444519, -0.26111704111099243, -0.797173261642456, -0.7761855125427246, -1.0171269178390503, 0.07422183454036713, 0.6392877303322639, -1.18055816844398, -6.017274327332239, 9362.0, 30146.0, 35388.0, 9362.0, 8.390083312988281, 0.22594594955444336, 0.0882900133728981, 0.030386533588171005, -0.08977897465229034, -0.011368082836270332, 0.9964542388916016, -0.07937280088663101, -0.15607833862304688, 1.483154296875, 1.34619140625, 0.015594482421875, 1.49267578125
43831, 4.011218547821045, -9.74409008026123, 3.386474847793579, 0.17252986133098602, -0.05958445370197296, -15.013830184936523, 0.772262454032898, -0.2669631838798523, -0.7992245554924011, -0.7762451767921448, -1.0171126127243042, 0.07435675710439682, 0.641840546788346, -1.1495621506600173, -6.008488571273559, 9362.0, 30146.0, 35388.0, 9362.0, 8.390083312988281, 0.015018699690699577, 0.05079154670238495, -0.13038085401058197, -0.09165149927139282, -0.014038166031241417, 0.993314802646637, -0.07937280088663101, -0.15607833862304688, 1.483154296875, 1.333740234375, 0.0189361572265625, 1.493408203125
43841, 4.0117974281311035, -9.743922233581543, 3.385781764984131, 0.1803368479013443, -0.06228332221508026, -15.021832466125488, 0.7891355752944946, -0.2728109061717987, -0.8012427091598511, -0.776189923286438, -1.017115592956543, 0.07421393692493439, 0.6380128093246051, -1.1901431452670863, -6.02101600698884, 9362.0, 30146.0, 35388.0, 9362.0, 8.390083312988281, -0.09231053292751312, 0.10162678360939026, 0.2294258028268814, -0.09162170439958572, -0.014410899020731449, 0.9944537281990051, -0.07937280088663101, -0.15607833862304688, 1.483154296875, 1.392333984375, 0.03314208984375, 1.493408203125
43861, 4.0123066902160645, -9.744956970214844, 3.3843674659729004, 0.18831241130828857, -0.06504061818122864, -15.029855728149414, 0.8059756755828857, -0.2786487638950348, -0.8034573197364807, -0.7761916518211365, -1.0171232223510742, 0.074211485683918, 0.6332644725620548, -1.1880558814462177, -6.019558512480985, 9362.0, 30146.0, 35388.0, 9362.0, 8.390083312988281, 0.11262495815753937, 0.1827794313430786, -0.008347799070179462, -0.0907636433839798, -0.015157290734350681, 0.9963851571083069, -0.07937280088663101, -0.15607833862304688, 1.483154296875, 1.40478515625, 0.0446624755859375, 1.493408203125
43871, 4.014143943786621, -9.744575500488281, 3.3846981525421143, 0.2047688215970993, -0.07073040306568146, -15.045969009399414, 0.8396856188774109, -0.2903375029563904, -0.8077114224433899, -0.7761787176132202, -1.0171291828155518, 0.07422405481338501, 0.6367830394736762, -1.1787100096019003, -6.02694389959763, 9362.0, 30146.0, 35388.0, 9362.0, 8.390083312988281, 0.03182423114776611, 0.306735634803772, -0.10072658956050873, -0.09133122116327286, -0.014494708739221096, 0.9948245882987976, -0.07937280088663101, -0.15607833862304688, 1.483154296875, 1.3330078125, 0.0191650390625, 1.493408203125
43961, 4.018209934234619, -9.751235961914062, 3.391721725463867, 0.28717276453971863, -0.09923100471496582, -15.1195068359375, 0.9915323257446289, -0.34301841259002686, -0.8264772891998291, -0.7761809229850769, -1.0171289443969727, 0.07421436905860901, 0.6370227386600814, -1.1911933470094311, -6.021072459311423, 9362.0, 30146.0, 35388.0, 9362.0, 8.390083312988281, 0.32009652256965637, 0.3631129264831543, 0.1594509482383728, -0.09033305197954178, -0.013462797738611698, 0.9963014125823975, -0.0893343910574913, 0.03208160400390625, 1.49853515625, 1.318359375, 0.028656005859375, 1.497802734375
43971, 4.0204596519470215, -9.753623962402344, 3.3928425312042236, 0.29717254638671875, -0.10269049555063248, -15.127781867980957, 1.0084255933761597, -0.3488805294036865, -0.8284593224525452, -0.7761908769607544, -1.0171279907226562, 0.07419851422309875, 0.6365223384078135, -1.1873166281594365, -6.019580374579069, 9362.0, 30146.0, 35388.0, 9362.0, 8.390083312988281, 0.2806222140789032, 0.04340449720621109, 0.10439130663871765, -0.0887259691953659, -0.011283332481980324, 0.9943236112594604, -0.0893343910574913, 0.03208160400390625, 1.49853515625, 1.3447265625, 0.0158538818359375, 1.497802734375
44011, 4.021981239318848, -9.75240707397461, 3.392685890197754, 0.3281850218772888, -0.1134205311536789, -15.152728080749512, 1.0590450763702393, -0.3664487600326538, -0.834837019443512, -0.7761507034301758, -1.0171250104904175, 0.07424809783697128, 0.6532099986573139, -1.2011149455556165, -6.024593420407282, 9362.0, 30146.0, 35388.0, 9362.0, 8.390083312988281, 0.03221028670668602, 0.16568322479724884, -0.10798867791891098, -0.091148242354393, -0.014409610070288181, 0.9931566119194031, -0.07310603559017181, 0.10376167297363281, 1.50439453125, 1.398193359375, 0.03826904296875, 1.490478515625
44021, 4.021453857421875, -9.752226829528809, 3.3920929431915283, 0.3281850218772888, -0.1134205311536789, -15.152728080749512, 1.0590450763702393, -0.3664487600326538, -0.834837019443512, -0.776199460029602, -1.0171130895614624, 0.07420938462018967, 0.6324282539280665, -1.1819717706061112, -6.017737904652627, 9362.0, 30146.0, 35388.0, 9362.0, 8.390083312988281, 0.19015632569789886, 0.30618658661842346, -0.026310518383979797, -0.09025374054908752, -0.014646496623754501, 0.9936774373054504, -0.07310603559017181, 0.10376167297363281, 1.50439453125, 1.36962890625, 0.01910400390625, 1.490478515625
44071, 4.026034355163574, -9.761101722717285, 3.3945560455322266, 0.4064483046531677, -0.14050613343715668, -15.211708068847656, 1.1771548986434937, -0.40746209025382996, -0.8497472405433655, -0.7761819958686829, -1.0171196460723877, 0.07422834634780884, 0.6346068054060151, -1.1852383022625474, -6.01826075004865, 9362.0, 30146.0, 35388.0, 9362.0, 8.390083312988281, 0.013513212092220783, -0.19980545341968536, -0.025387568399310112, -0.08942913264036179, -0.012764494866132736, 0.9938519597053528, -0.07310603559017181, 0.10376167297363281, 1.50439453125, 1.30810546875, 0.0388031005859375, 1.493408203125
44111, 4.02996301651001, -9.764052391052246, 3.394719123840332, 0.4425225555896759, -0.1529937982559204, -15.237297058105469, 1.227778673171997, -0.42504557967185974, -0.8562901616096497, -0.7761857509613037, -1.017127513885498, 0.07421940565109253, 0.6324162286440581, -1.1861471577751956, -6.018162599513013, 9362.0, 30146.0, 35388.0, 9362.0, 8.390083312988281, 0.20944653451442719, -0.06346042454242706, 0.0653943419456482, -0.09194512665271759, -0.013386357575654984, 0.9956642389297485, -0.08289545029401779, -0.11127853393554688, 1.48681640625, 1.330810546875, 0.0203399658203125, 1.491943359375
44121, 4.03045654296875, -9.762975692749023, 3.3932316303253174, 0.46741577982902527, -0.16161206364631653, -15.25446605682373, 1.2615491151809692, -0.43678057193756104, -0.8605666756629944, -0.77618408203125, -1.0171194076538086, 0.07423397153615952, 0.6371990638230408, -1.1811230130754495, -6.026717245516106, 9362.0, 30146.0, 35388.0, 9362.0, 8.390083312988281, 0.05386557802557945, -0.16137456893920898, 0.17248056828975677, -0.09033331274986267, -0.013464403338730335, 0.99591463804245, -0.08289545029401779, -0.11127853393554688, 1.48681640625, 1.286865234375, 0.070281982421875, 1.491943359375
44141, 4.030209541320801, -9.762863159179688, 3.3968570232391357, 0.4929846525192261, -0.1704651117324829, -15.271719932556152, 1.2953463792800903, -0.4485287070274353, -0.8647406101226807, -0.7761921882629395, -1.0171194076538086, 0.07420982420444489, 0.6342659222719461, -1.1862669430665846, -6.023521380896129, 9362.0, 30146.0, 35388.0, 9362.0, 8.390083312988281, 0.012334906496107578, 0.24293556809425354, 0.19699452817440033, -0.09059493243694305, -0.014732708223164082, 0.9954572319984436, -0.08289545029401779, -0.11127853393554688, 1.48681640625, 1.286865234375, 0.070281982421875, 1.48974609375
44161, 4.031587600708008, -9.764164924621582, 3.399545431137085, 0.5192296504974365, -0.17955322563648224, -15.289055824279785, 1.3291535377502441, -0.4602804481983185, -0.8688334226608276, -0.7761917114257812, -1.0171186923980713, 0.07421938329935074, 0.6354287677404123, -1.1770106990582576, -6.023676094400072, 9362.0, 30146.0, 35388.0, 9362.0, 8.390083312988281, 0.08077286928892136, -0.0503685288131237, 0.10598476976156235, -0.0911906510591507, -0.01567828096449375, 0.9961900115013123, -0.08289545029401779, -0.11127853393554688, 1.48681640625, 1.286865234375, 0.070281982421875, 1.49267578125
44201, 4.032987594604492, -9.76197338104248, 3.4042818546295166, 0.5737493634223938, -0.1984349489212036, -15.323967933654785, 1.3967951536178589, -0.48379600048065186, -0.876960277557373, -0.7761899828910828, -1.0171223878860474, 0.07424047589302063, 0.6385972060964905, -1.1841032732136512, -6.02716418076917, 9362.0, 30146.0, 35388.0, 9362.0, 8.370248794555664, 0.2662005126476288, -0.0037881904281675816, -0.35656824707984924, -0.09075997024774551, -0.013090244494378567, 0.995144784450531, -0.08289545029401779, -0.11127853393554688, 1.48681640625, 1.32421875, 0.024139404296875, 1.49267578125
44211, 4.033705234527588, -9.762581825256348, 3.4017248153686523, 0.5737493634223938, -0.1984349489212036, -15.323967933654785, 1.3967951536178589, -0.48379600048065186, -0.876960277557373, -0.7761895656585693, -1.0171220302581787, 0.07423576712608337, 0.6309590751414675, -1.1812193943339082, -6.020552328832496, 9362.0, 30146.0, 35388.0, 9362.0, 8.370248794555664, -0.2491929680109024, 0.09190210700035095, -0.022892944514751434, -0.09269615262746811, -0.013616361655294895, 0.9966912269592285, -0.08289545029401779, -0.11127853393554688, 1.48681640625, 1.32421875, 0.024139404296875, 1.49267578125
44241, 4.033574104309082, -9.76215648651123, 3.401552438735962, 0.6309731602668762, -0.21825703978538513, -15.359211921691895, 1.4644372463226318, -0.5073220133781433, -0.8850002884864807, -0.7762394547462463, -1.0171080827713013, 0.07438908517360687, 0.6383427508658884, -1.1496178618747876, -6.00912547916153, 9362.0, 30146.0, 35388.0, 9362.0, 8.370248794555664, 0.09939582645893097, 0.11406364291906357, -0.007704222109168768, -0.08976081013679504, -0.012880152091383934, 0.9968971014022827, -0.08289545029401779, -0.11127853393554688, 1.48681640625, 1.281005859375, 0.0816650390625, 1.491943359375
44251, 4.034206390380859, -9.761812210083008, 3.401272773742676, 0.6457022428512573, -0.22335973381996155, -15.368070602416992, 1.4813847541809082, -0.5132163763046265, -0.8868016004562378, -0.7761921882629395, -1.0171229839324951, 0.07424478232860565, 0.6394048402095617, -1.1817246247522917, -6.021760237525723, 9362.0, 30146.0, 35388.0, 9362.0, 8.370248794555664, 0.029035357758402824, 0.35775795578956604, 0.07979357242584229, -0.08976081013679504, -0.012880152091383934, 0.9968971014022827, -0.08289545029401779, -0.11127853393554688, 1.48681640625, 1.281005859375, 0.0816650390625, 1.494873046875
44261, 4.034895896911621, -9.76363468170166, 3.401127815246582, 0.6457022428512573, -0.22335973381996155, -15.368070602416992, 1.4813847541809082, -0.5132163763046265, -0.8868016004562378, -0.7761957049369812, -1.017126441001892, 0.07422873377799988, 0.6417204083360657, -1.1862806854921075, -6.0195843868774785, 9362.0, 30146.0, 35388.0, 9362.0, 8.370248794555664, -0.09165554493665695, -0.2935921251773834, -0.0531897246837616, -0.08867581933736801, -0.013204081915318966, 0.9950149655342102, -0.08289545029401779, -0.11127853393554688, 1.48681640625, 1.37548828125, 0.021820068359375, 1.494873046875
44271, 4.034149646759033, -9.76182746887207, 3.4006145000457764, 0.6457022428512573, -0.22335973381996155, -15.368070602416992, 1.4813847541809082, -0.5132163763046265, -0.8868016004562378, -0.7761977314949036, -1.0171233415603638, 0.07421690970659256, 0.633055712421374, -1.185617944114, -6.022929345667381, 9362.0, 30146.0, 35388.0, 9362.0, 8.370248794555664, 0.1546037495136261, 0.33230629563331604, -0.003069704631343484, -0.08902502059936523, -0.012420246377587318, 0.9956601858139038, -0.08289545029401779, -0.11127853393554688, 1.48681640625, 1.2685546875, 0.1099395751953125, 1.494873046875
44311, 4.036032199859619, -9.766777992248535, 3.402143955230713, 0.7218844294548035, -0.2497556507587433, -15.412667274475098, 1.5658907890319824, -0.5426169037818909, -0.8971522450447083, -0.7761861085891724, -1.0171231031417847, 0.0742126852273941, 0.6325581849721591, -1.1819563943707578, -6.027986913422519, 9362.0, 30146.0, 35388.0, 9362.0, 8.370248794555664, 0.2735755443572998, 0.1063363179564476, -0.41323789954185486, -0.08969034254550934, -0.014257640577852726, 0.9965569376945496, -0.11988206207752228, -0.09335899353027344, 1.48828125, 1.306640625, 0.040557861328125, 1.494873046875
44321, 4.036793231964111, -9.767349243164062, 3.3992607593536377, 0.7535407543182373, -0.2607257068157196, -15.430649757385254, 1.599725365638733, -0.5543853044509888, -0.9011759757995605, -0.7762326002120972, -1.0171000957489014, 0.07439394295215607, 0.63747932211667, -1.1422605850833918, -6.016121001338544, 9362.0, 30146.0, 35388.0, 9362.0, 8.370248794555664, -0.055678702890872955, 0.302009642124176, 0.133997842669487, -0.09026671200990677, -0.014248411171138287, 0.9963463544845581, -0.11988206207752228, -0.09335899353027344, 1.48828125, 1.298583984375, 0.051055908203125, 1.494873046875
44351, 4.039392471313477, -9.768798828125, 3.3994648456573486, 0.8022935390472412, -0.2776220738887787, -15.45777702331543, 1.6504579782485962, -0.5720387101173401, -0.9073719382286072, -0.7761862874031067, -1.0171186923980713, 0.07422371953725815, 0.6342161631839732, -1.1829691755241072, -6.016461548106064, 9362.0, 30146.0, 35388.0, 9362.0, 8.370248794555664, 0.016489269211888313, -0.09260668605566025, -0.03341175243258476, -0.09051285684108734, -0.012607881799340248, 0.997403621673584, -0.11988206207752228, -0.09335899353027344, 1.48828125, 1.32421875, 0.024139404296875, 1.496337890625
44361, 4.038967132568359, -9.767144203186035, 3.3982248306274414, 0.8022935390472412, -0.2776220738887787, -15.45777702331543, 1.6504579782485962, -0.5720387101173401, -0.9073719382286072, -0.776142418384552, -1.017134189605713, 0.0742616131901741, 0.6411632025388954, -1.215070705418242, -6.031144935911601, 9362.0, 30146.0, 35388.0, 9362.0, 8.370248794555664, 0.20674030482769012, 0.06034746393561363, 0.17007935047149658, -0.08963744342327118, -0.012214332818984985, 0.9972472786903381, -0.11988206207752228, -0.09335899353027344, 1.48828125, 1.32421875, 0.024139404296875, 1.496337890625
44371, 4.03982400894165, -9.766868591308594, 3.399472713470459, 0.8022935390472412, -0.2776220738887787, -15.45777702331543, 1.6504579782485962, -0.5720387101173401, -0.9073719382286072, -0.7761789560317993, -1.0171250104904175, 0.07424568384885788, 0.6297775295204529, -1.1942484669229145, -6.011516951668281, 9362.0, 30146.0, 35388.0, 9362.0, 8.370248794555664, 0.07308854907751083, -0.25537243485450745, -0.4350162744522095, -0.08944260329008102, -0.012928888201713562, 0.99607914686203, -0.11988206207752228, -0.09335899353027344, 1.48828125, 1.32421875, 0.024139404296875, 1.494873046875
44381, 4.040422439575195, -9.76531982421875, 3.396130084991455, 0.8022935390472412, -0.2776220738887787, -15.45777702331543, 1.6504579782485962, -0.5720387101173401, -0.9073719382286072, -0.7761808037757874, -1.0171215534210205, 0.07423892617225647, 0.6312276545873347, -1.1864900381892483, -6.015849598568566, 9362.0, 30146.0, 35388.0, 9362.0, 8.370248794555664, -0.125948965549469, -0.3857523500919342, -0.14449764788150787, -0.09101276844739914, -0.011839093640446663, 0.9964962005615234, -0.11988206207752228, -0.09335899353027344, 1.48828125, 1.32421875, 0.024139404296875, 1.494873046875
44411, 4.041780471801758, -9.76771068572998, 3.3944454193115234, 0.8869321942329407, -0.30696073174476624, -15.503395080566406, 1.7350736856460571, -0.601509690284729, -0.9173517227172852, -0.7761775851249695, -1.0171077251434326, 0.07422807067632675, 0.6299552102832772, -1.187946860330328, -6.022138822467926, 9362.0, 30146.0, 35388.0, 9362.0, 8.370248794555664, -0.03487420454621315, 0.21024931967258453, -0.13106444478034973, -0.08945232629776001, -0.01442120410501957, 0.9945396780967712, -0.1034078523516655, 0.12168121337890625, 1.505859375, 1.364501953125, 0.0173492431640625, 1.4970703125
44421, 4.041356563568115, -9.769668579101562, 3.393521785736084, 0.8869321942329407, -0.30696073174476624, -15.503395080566406, 1.7350736856460571, -0.601509690284729, -0.9173517227172852, -0.7761886715888977, -1.0171167850494385, 0.07421824336051941, 0.6262529761224995, -1.1911759483772926, -6.0247499558376125, 9362.0, 30146.0, 35388.0, 9362.0, 8.370248794555664, 0.12848684191703796, 0.3222530484199524, 0.003872792236506939, -0.09238315373659134, -0.012622060254216194, 0.9961066246032715, -0.1034078523516655, 0.12168121337890625, 1.505859375, 1.31982421875, 0.0273590087890625, 1.4970703125
44471, 4.044027805328369, -9.774354934692383, 3.396493434906006, 1.0125268697738647, -0.3505091071128845, -15.568135261535645, 1.8534237146377563, -0.6427503228187561, -0.9321341514587402, -0.7761163711547852, -1.0171605348587036, 0.07430928945541382, 0.6417020171263226, -1.1781570419621232, -6.069893553691782, 9362.0, 30146.0, 35388.0, 9362.0, 8.370248794555664, 0.1581433117389679, -0.3514386713504791, 0.1811484843492508, -0.090065136551857, -0.011315746232867241, 0.9931604266166687, -0.1034078523516655, 0.12168121337890625, 1.505859375, 1.32568359375, 0.0232086181640625, 1.49267578125
44481, 4.045094013214111, -9.772496223449707, 3.3983664512634277, 1.0125268697738647, -0.3505091071128845, -15.568135261535645, 1.8534237146377563, -0.6427503228187561, -0.9321341514587402, -0.7761602997779846, -1.01714289188385, 0.07427598536014557, 0.6333145511963638, -1.161024185807264, -6.059643816056685, 9362.0, 30146.0, 35388.0, 9362.0, 8.370248794555664, -0.015291334129869938, 0.06668365001678467, 0.1821204125881195, -0.09305954724550247, -0.011212118901312351, 0.9945358037948608, -0.1034078523516655, 0.12168121337890625, 1.505859375, 1.32568359375, 0.0232086181640625, 1.49267578125
44511, 4.046802997589111, -9.769867897033691, 3.4019651412963867, 1.0688894987106323, -0.3700564205646515, -15.59620189666748, 1.9040803909301758, -0.6604036092758179, -0.9389634728431702, -0.7761685252189636, -1.0171210765838623, 0.07422976195812225, 0.6257351077229257, -1.188444582684241, -6.026283997732787, 9362.0, 30146.0, 35388.0, 9362.0, 8.370248794555664, 0.07590384781360626, -0.16443656384944916, -0.2659829556941986, -0.09001737087965012, -0.014592763036489487, 0.9936666488647461, -0.1027889996767044, 0.11272048950195312, 1.505126953125, 1.260498046875, 0.1313934326171875, 1.494873046875
44521, 4.046535968780518, -9.768640518188477, 3.399531602859497, 1.1073095798492432, -0.3833824694156647, -15.615021705627441, 1.9379178285598755, -0.672201931476593, -0.9430733919143677, -0.7761746644973755, -1.0170997381210327, 0.07423048466444016, 0.6309674163339387, -1.1954027510560365, -6.024312305963622, 9362.0, 30146.0, 35388.0, 9362.0, 8.370248794555664, 0.15177951753139496, 0.09190262109041214, -0.11239742487668991, -0.08907370269298553, -0.013930660672485828, 0.9943695068359375, -0.1027889996767044, 0.11272048950195312, 1.505126953125, 1.319091796875, 0.0279998779296875, 1.494873046875
44541, 4.04808235168457, -9.769509315490723, 3.40049409866333, 1.146405577659607, -0.3969443440437317, -15.633928298950195, 1.9716904163360596, -0.6839851140975952, -0.9475254416465759, -0.7761501669883728, -1.0171178579330444, 0.07424856722354889, 0.6347019033504236, -1.2057745736885295, -6.033261929063148, 9362.0, 30146.0, 35388.0, 9362.0, 8.370248794555664, -0.21965739130973816, -0.21614021062850952, 0.28500401973724365, -0.08984070271253586, -0.010631600394845009, 0.9957149624824524, -0.1027889996767044, 0.11272048950195312, 1.505126953125, 1.30078125, 0.048004150390625, 1.494873046875
44551, 4.047002792358398, -9.767352104187012, 3.4023077487945557, 1.1662070751190186, -0.4038136899471283, -15.643413543701172, 1.9886010885238647, -0.6898856163024902, -0.9496157765388489, -0.776222825050354, -1.0170916318893433, 0.07439432293176651, 0.6396324942262177, -1.1539952724426996, -6.013571271317859, 9362.0, 30146.0, 35388.0, 9362.0, 8.370248794555664, 0.12435422837734222, 0.2635706961154938, 0.27250099182128906, -0.08984070271253586, -0.010631600394845009, 0.9957149624824524, -0.1027889996767044, 0.11272048950195312, 1.505126953125, 1.30078125, 0.048004150390625, 1.493408203125
44561, 4.048063278198242, -9.76891040802002, 3.402628183364868, 1.1662070751190186, -0.4038136899471283, -15.643413543701172, 1.9886010885238647, -0.6898856163024902, -0.9496157765388489, -0.7761852145195007, -1.0171035528182983, 0.07422732561826706, 0.6338395161149661, -1.1854290451229872, -6.018176412953379, 9362.0, 30146.0, 35388.0, 9362.0, 8.370248794555664, 0.07458586245775223, 0.40781521797180176, 0.17485538125038147, -0.09045237302780151, -0.014792973175644875, 0.9941771030426025, -0.1027889996767044, 0.11272048950195312, 1.505126953125, 1.30078125, 0.048004150390625, 1.493408203125
44591, 4.0484395027160645, -9.771405220031738, 3.4051287174224854, 1.2063173055648804, -0.4177294075489044, -15.662447929382324, 2.0224263668060303, -0.7016887664794922, -0.9537610411643982, -0.7761607766151428, -1.0171360969543457, 0.07428090274333954, 0.6333392945997509, -1.1607600943135026, -6.063447737874859, 9362.0, 30146.0, 35388.0, 9362.0, 8.370248794555664, -0.12131950259208679, -0.12049154937267303, 0.019399311393499374, -0.08944873511791229, -0.013419336639344692, 0.9949394464492798, -0.1027889996767044, 0.11272048950195312, 1.505126953125, 1.4091796875, 0.04937744140625, 1.4912109375
44601, 4.047794342041016, -9.770844459533691, 3.40563702583313, 1.2677500247955322, -0.4390452802181244, -15.691160202026367, 2.0730972290039062, -0.7193670868873596, -0.9604284763336182, -0.776184618473053, -1.0171163082122803, 0.074227474629879, 0.6298675028833989, -1.1892266895590922, -6.028342495580434, 9362.0, 30146.0, 35388.0, 9362.0, 8.390083312988281, 0.03793901577591896, 0.18916401267051697, -0.22008495032787323, -0.08944873511791229, -0.013419336639344692, 0.9949394464492798, -0.1027889996767044, 0.11272048950195312, 1.505126953125, 1.4091796875, 0.04937744140625, 1.4912109375
44611, 4.048030853271484, -9.773667335510254, 3.405212879180908, 1.2677500247955322, -0.4390452802181244, -15.691160202026367, 2.0730972290039062, -0.7193670868873596, -0.9604284763336182, -0.7761885523796082, -1.0171066522598267, 0.07421251386404037, 0.6259670406931543, -1.1847023980609492, -6.020997895806824, 9362.0, 30146.0, 35388.0, 9362.0, 8.390083312988281, -0.11803622543811798, -0.10894836485385895, 0.18767888844013214, -0.09150674939155579, -0.013628460466861725, 0.9959793090820312, -0.08797229081392288, 0.03208160400390625, 1.49853515625, 1.4091796875, 0.04937744140625, 1.4912109375
44621, 4.04762077331543, -9.773056030273438, 3.405963897705078, 1.2677500247955322, -0.4390452802181244, -15.691160202026367, 2.0730972290039062, -0.7193670868873596, -0.9604284763336182, -0.7761790752410889, -1.0171122550964355, 0.07422763109207153, 0.6267533541283664, -1.190379397768936, -6.0332998068017165, 9362.0, 30146.0, 35388.0, 9362.0, 8.390083312988281, 0.26695823669433594, 0.3923738896846771, 0.0032841714564710855, -0.09101685136556625, -0.014108057133853436, 0.9962159991264343, -0.08797229081392288, 0.03208160400390625, 1.49853515625, 1.4091796875, 0.04937744140625, 1.4912109375
44631, 4.049538612365723, -9.776021957397461, 3.4066929817199707, 1.3307043313980103, -0.46089187264442444, -15.720065116882324, 2.1238551139831543, -0.7370712161064148, -0.9666397571563721, -0.7761691808700562, -1.0171157121658325, 0.07423075288534164, 0.6348112148410953, -1.1895703165970133, -6.018982311275529, 9362.0, 30146.0, 35388.0, 9362.0, 8.390083312988281, 0.26695823669433594, 0.3923738896846771, 0.0032841714564710855, -0.09141730517148972, -0.014700228348374367, 0.9944266080856323, -0.08797229081392288, 0.03208160400390625, 1.49853515625, 1.36962890625, 0.01910400390625, 1.4912109375
44641, 4.0495710372924805, -9.779640197753906, 3.405363082885742, 1.3307043313980103, -0.46089187264442444, -15.720065116882324, 2.1238551139831543, -0.7370712161064148, -0.9666397571563721, -0.776178240776062, -1.017118215560913, 0.07422676682472229, 0.6288302085299027, -1.18381025087308, -6.01506516782298, 9362.0, 30146.0, 35388.0, 9362.0, 8.390083312988281, -0.01965244859457016, -0.2395767718553543, -0.0402640774846077, -0.09130775928497314, -0.012962116859853268, 0.9959134459495544, -0.08797229081392288, 0.03208160400390625, 1.49853515625, 1.36962890625, 0.01910400390625, 1.4912109375
44651, 4.048791408538818, -9.779766082763672, 3.404494285583496, 1.3307043313980103, -0.46089187264442444, -15.720065116882324, 2.1238551139831543, -0.7370712161064148, -0.9666397571563721, -0.776179313659668, -1.0171213150024414, 0.07421663403511047, 0.6263241547898015, -1.1882896857432002, -6.018448047318308, 9362.0, 30146.0, 35388.0, 9362.0, 8.390083312988281, 0.06484164297580719, -0.31100577116012573, -0.25435879826545715, -0.09130775928497314, -0.012962116859853268, 0.9959134459495544, -0.08797229081392288, 0.03208160400390625, 1.49853515625, 1.3505859375, 0.0153045654296875, 1.4912109375
44671, 4.047119140625, -9.780108451843262, 3.4037668704986572, 1.4170124530792236, -0.49084681272506714, -15.75889778137207, 2.1915833950042725, -0.7606871724128723, -0.9748307466506958, -0.7761499285697937, -1.0171347856521606, 0.07426411658525467, 0.6415086736051072, -1.1531216582408206, -6.057984469985434, 9362.0, 30146.0, 35388.0, 9362.0, 8.390083312988281, -0.005097786895930767, 0.500777006149292, 0.8405055999755859, -0.09070746600627899, -0.014823389239609241, 0.9908486604690552, -0.08797229081392288, 0.03208160400390625, 1.49853515625, 1.3505859375, 0.0153045654296875, 1.496337890625
44681, 4.048546314239502, -9.783546447753906, 3.4087421894073486, 1.4170124530792236, -0.49084681272506714, -15.75889778137207, 2.1915833950042725, -0.7606871724128723, -0.9748307466506958, -0.7761837840080261, -1.0171259641647339, 0.07422871887683868, 0.6277390881008557, -1.1943354375195554, -6.023814592249453, 9362.0, 30146.0, 35388.0, 9362.0, 8.390083312988281, 0.02528933621942997, 0.07517610490322113, 0.07695207744836807, -0.08991793543100357, -0.012087089940905571, 0.9953585267066956, -0.08797229081392288, 0.03208160400390625, 1.49853515625, 1.3505859375, 0.0153045654296875, 1.496337890625
44691, 4.049064636230469, -9.78678035736084, 3.4095804691314697, 1.4611828327178955, -0.506178617477417, -15.778435707092285, 2.225407600402832, -0.7724735140800476, -0.9791937470436096, -0.7761776447296143, -1.0171171426773071, 0.0742097720503807, 0.630598763503184, -1.1814515901245102, -6.026379069060292, 9362.0, 30146.0, 35388.0, 9362.0, 8.390083312988281, -0.07776255160570145, -0.34490302205085754, 0.28224092721939087, -0.08991793543100357, -0.012087089940905571, 0.9953585267066956, -0.08797229081392288, 0.03208160400390625, 1.49853515625, 1.3505859375, 0.0153045654296875, 1.48974609375
44711, 4.048070430755615, -9.784235000610352, 3.412055015563965, 1.4835214614868164, -0.5139328241348267, -15.788238525390625, 2.2423195838928223, -0.7783640623092651, -0.9814209938049316, -0.7761703133583069, -1.0171070098876953, 0.07423530519008636, 0.6254645742436452, -1.1892059219809141, -6.02145707007369, 9362.0, 30146.0, 35388.0, 9362.0, 8.390083312988281, -0.04164724051952362, 0.2293192446231842, 0.3620711863040924, -0.09079556912183762, -0.013389114290475845, 0.9948990941047668, -0.1175074428319931, -0.3352775573730469, 1.468505859375, 1.3505859375, 0.0153045654296875, 1.48974609375
44721, 4.048643112182617, -9.78664493560791, 3.414947748184204, 1.4835214614868164, -0.5139328241348267, -15.788238525390625, 2.2423195838928223, -0.7783640623092651, -0.9814209938049316, -0.7761795520782471, -1.0171090364456177, 0.07422661781311035, 0.6241969051142353, -1.1941049734797957, -6.017499706168409, 9362.0, 30146.0, 35388.0, 9362.0, 8.390083312988281, -0.17025838792324066, -0.06061560660600662, -0.02902560867369175, -0.09023280441761017, -0.016821883618831635, 0.9958199858665466, -0.1175074428319931, -0.3352775573730469, 1.468505859375, 1.3505859375, 0.0153045654296875, 1.48974609375
44741, 4.048870086669922, -9.788185119628906, 3.4164769649505615, 1.574569821357727, -0.5455394387245178, -15.82766056060791, 2.3100879192352295, -0.8019570112228394, -0.9897328019142151, -0.7761732339859009, -1.0171252489089966, 0.0741993710398674, 0.6311792644786981, -1.197731903967366, -6.023535006251169, 9362.0, 30146.0, 35388.0, 9362.0, 8.390083312988281, -0.20478928089141846, 0.36567139625549316, 0.2219604104757309, -0.09044639021158218, -0.013950221240520477, 0.999455451965332, -0.1175074428319931, -0.3352775573730469, 1.468505859375, 1.3505859375, 0.0153045654296875, 1.494140625
