timeTick, roll, pitch, yaw, stateX, stateY, stateZ, stateVX, stateVY, stateVZ, otX0, otY0, otZ0, otRoll0, otPitch0, otYaw0, left wing, pitch motor, yaw motor, right wing, voltage, roll rate, pitch rate, yaw rate, A_x, A_y, A_z, current, i_raw, v_raw, airflow_voltage, airflow_speed, pot_Pitch
99426, 0.0019503720104694366, 0.0019417189760133624, 0.0018422914436087012, 0, 0, 0, 0, 0, 0, -0.7878738045692444, -1.0198804140090942, 0.07532905787229538, -0.7754693847993163, -2.7522694792084224, -9.052842430594287, 0, 0, 0, 0, 0, 0, 0, 0, 0, 0, 0, 0, 0, 0, 0, 0, 0
99436, 0.0027356476057320833, 0.0018787869485095143, 0.002263038419187069, -2.7017101444926084e-08, -4.902301231624051e-09, -1.4319783076643944e-05, -5.460287866299041e-06, -9.672613714428735e-07, -0.0015191063284873962, -0.7878700494766235, -1.0198867321014404, 0.07534800469875336, -0.7772003808328731, -2.7482807889178673, -9.056117160226961, 9362.0, 30146.0, 35388.0, 9362.0, 0, 0.022607645019888878, 0.0612303763628006, 0.0026218618731945753, -0.1212281584739685, -0.03539741784334183, 0.9933322668075562, 0, 0, 0, 0, 0, 0
99446, 0.0033348274882882833, -6.07523434155155e-05, 0.00286299642175436, -9.812190882030336e-08, -3.115141211651462e-08, -3.306128201074898e-05, -8.761428034631535e-06, -4.272857950127218e-06, -0.002228792989626527, -0.7896478772163391, -1.0202113389968872, 0.0745372474193573, -0.0773412044379138, -1.2555492623637008, -8.896492554966725, 9362.0, 30146.0, 35388.0, 9362.0, 0, -0.35982999205589294, 0.062313105911016464, 0.25518396496772766, -0.11918814480304718, -0.03678110986948013, 0.9926552772521973, 0, 0, 0, 1.39892578125, 0.0390167236328125, 0
99456, 0.002003943081945181, -0.00024442299036309123, 0.005148973781615496, -2.0170442383005138e-07, -9.713279780498851e-08, -5.885254358872771e-05, -1.1978729162365198e-05, -8.916131264413707e-06, -0.0029290569946169853, -0.7879866361618042, -1.0199180841445923, 0.07516037672758102, -0.751591082155709, -2.6257331531027717, -9.01436913770154, 9362.0, 30146.0, 35388.0, 9362.0, 0, 0.03285693749785423, 0.043539971113204956, 0.32908880710601807, -0.12227427959442139, -0.03582321107387543, 0.9930247068405151, 0, 0, 0, 1.36376953125, 0.017181396484375, 1.49267578125
99466, 0.002183502074331045, -0.0006137918098829687, 0.0066903443075716496, -3.209739816156798e-07, -2.146340420949855e-07, -9.173344005830586e-05, -1.1877263204951305e-05, -1.460078146919841e-05, -0.0036467253230512142, -0.7879916429519653, -1.0199300050735474, 0.07516941428184509, -0.7514567912079877, -2.630740923041401, -9.014783686412164, 9362.0, 30146.0, 35388.0, 9362.0, 0, -0.01157834567129612, -0.09454948455095291, -0.1660173535346985, -0.1218373104929924, -0.03217312693595886, 0.9921301007270813, 0, 0, 0, 1.398193359375, 0.03826904296875, 1.49267578125
99476, 0.0022683499846607447, 0.0002619982697069645, 0.006302529945969582, -4.3766763724306657e-07, -3.7767392768728314e-07, -0.00013172256876714528, -1.146591421274934e-05, -1.80049792106729e-05, -0.00435069901868701, -0.7878838181495667, -1.0198897123336792, 0.07532534003257751, -0.7752915822723997, -2.7450069235018475, -9.053784248587988, 9362.0, 30146.0, 35388.0, 9362.0, 0, 0.18060804903507233, -0.09529087692499161, 0.049615781754255295, -0.12253527343273163, -0.03354832902550697, 0.9915212988853455, 0, 0, 0, 1.415771484375, 0.0568695068359375, 1.491943359375
99486, 0.0021493250969797373, -0.0019267034949734807, 0.007925061509013176, -5.47111426385527e-07, -5.762684622823144e-07, -0.0001790938840713352, -1.0411062248749658e-05, -2.171278902096674e-05, -0.0051231663674116135, -0.7878664135932922, -1.0198829174041748, 0.07532628625631332, -0.7786341864054974, -2.742180818847089, -9.050503892830182, 9362.0, 30146.0, 35388.0, 9362.0, 0, 0.020013190805912018, 0.20062744617462158, 0.23995062708854675, -0.12206893414258957, -0.03293099254369736, 0.9905692934989929, 0, 0, 0, 1.36083984375, 0.016387939453125, 1.491943359375
99496, 0.0028486798983067274, -0.0023228481877595186, 0.006827549543231726, -6.534434078275808e-07, -8.12647158454638e-07, -0.00023457960924133658, -1.0887705684581306e-05, -2.5564731913618743e-05, -0.0059735761024057865, -0.7878656983375549, -1.0198781490325928, 0.07533245533704758, -0.7748684983112465, -2.754407157212114, -9.057638748995135, 9362.0, 30146.0, 35388.0, 9362.0, 0, 0.04652082920074463, -0.35772109031677246, -0.483940988779068, -0.12010305374860764, -0.03543626517057419, 0.9927773475646973, 0, 0, 0, 1.398193359375, 0.03826904296875, 1.48974609375
99506, 0.0030964587349444628, -0.0023593828082084656, 0.004420958925038576, -7.459680659849255e-07, -1.0865312560781604e-06, -0.00029860823997296393, -7.623230430908734e-06, -2.920166662079282e-05, -0.0068317498080432415, -0.7880061268806458, -1.0199267864227295, 0.07515278458595276, -0.7588700464230961, -2.628303845619058, -9.01813150729704, 9362.0, 30146.0, 35388.0, 9362.0, 0, 0.10015156120061874, 0.26326870918273926, -0.05602886527776718, -0.12218981981277466, -0.03653678670525551, 0.9906980991363525, 0, 0, 0, 1.360107421875, 0.0162506103515625, 1.48974609375
99516, 0.0035604294389486313, -0.004257922526448965, 0.005247899331152439, -8.024580893106759e-07, -1.402753355250752e-06, -0.0003705315466504544, -3.6754386201209854e-06, -3.403981099836528e-05, -0.007552508730441332, -0.7878768444061279, -1.0198705196380615, 0.0753481462597847, -0.7760638454162736, -2.7508843545112143, -9.05788465502434, 9362.0, 30146.0, 35388.0, 9362.0, 0, -0.15515907108783722, -0.2408927083015442, -0.05094030871987343, -0.12136020511388779, -0.033965982496738434, 0.9929867386817932, 0, 0, 0, 1.36376953125, 0.017181396484375, 1.48974609375
99526, 0.0036677266471087933, -0.005390187259763479, 0.004585566930472851, -8.191866527340608e-07, -1.7694291045700083e-06, -0.00045029568718746305, 3.017247536263312e-07, -3.9288424886763096e-05, -0.008399924263358116, -0.7879793643951416, -1.0199226140975952, 0.07514449954032898, -0.7537433766970104, -2.6289680077154003, -9.008928677738801, 9362.0, 30146.0, 35388.0, 9362.0, 8.370248794555664, 0.2936899960041046, 0.35706627368927, 0.21876277029514313, -0.12166290730237961, -0.036429889500141144, 0.9897189736366272, 0, 0, 0, 1.32568359375, 0.0232086181640625, 1.48974609375
99536, 0.00339324027299881, -0.004836192354559898, 0.006205664481967688, -7.800013577252685e-07, -2.1925509372522356e-06, -0.0005381460068747401, 7.520054168708157e-06, -4.533459650701843e-05, -0.009169750846922398, -0.7879040241241455, -1.019883632659912, 0.07527761906385422, -0.7769340848849965, -2.70786174291797, -9.063577068597633, 9362.0, 30146.0, 35388.0, 9362.0, 8.370248794555664, -0.13824334740638733, -0.5584219694137573, 0.027612866833806038, -0.12222953140735626, -0.039718590676784515, 0.9907723069190979, -0.08591222763061523, -0.15607833862304688, 1.483154296875, 1.38720703125, 0.0291900634765625, 1.496337890625
99546, 0.003768106922507286, -0.0023086213041096926, 0.0062782433815300465, -6.59121042190236e-07, -2.676973963389173e-06, -0.0006348110036924481, 1.666578828007914e-05, -5.155452890903689e-05, -0.01016286015510559, -0.7879924774169922, -1.0199222564697266, 0.07515016943216324, -0.7593276096108211, -2.635622917001996, -9.02487072390924, 9362.0, 30146.0, 35388.0, 9362.0, 8.370248794555664, 0.1637098789215088, 0.023947352543473244, -0.17149105668067932, -0.12357887625694275, -0.038316499441862106, 0.9924284219741821, -0.08591222763061523, -0.15607833862304688, 1.483154296875, 1.360107421875, 0.0162506103515625, 1.496337890625
99556, 0.004293567501008511, -0.002155832713469863, 0.006664583459496498, -4.5143855231799535e-07, -3.2212967653322266e-06, -0.0007409469690173864, 2.491045779606793e-05, -5.7304139772895724e-05, -0.01106392964720726, -0.7878802418708801, -1.0198917388916016, 0.07532217353582382, -0.7694970353622235, -2.7503287168301256, -9.051958696454758, 9362.0, 30146.0, 35388.0, 9362.0, 8.370248794555664, 0.05714600160717964, -0.257122278213501, 0.012841000221669674, -0.12198613584041595, -0.03652472048997879, 0.9936854839324951, -0.08591222763061523, -0.15607833862304688, 1.483154296875, 1.44873046875, 0.102813720703125, 1.4912109375
99566, 0.005735327489674091, -0.0019090014975517988, 0.005608714185655117, -1.8270438317813387e-07, -3.826369720627554e-06, -0.0008550024358555675, 2.883824890886899e-05, -6.370412302203476e-05, -0.01174677163362503, -0.7879728674888611, -1.0199226140975952, 0.0751589834690094, -0.7532245786748232, -2.633515945011851, -9.005055718837314, 9362.0, 30146.0, 35388.0, 9362.0, 8.370248794555664, 0.16636866331100464, -0.2720482051372528, -0.2382177859544754, -0.12054282426834106, -0.03567866235971451, 0.9926325678825378, -0.08591222763061523, -0.15607833862304688, 1.483154296875, 1.4033203125, 0.043182373046875, 1.4912109375
99576, 0.005373678635805845, 0.0002733035944402218, 0.005462996661663055, 1.2401997651068086e-07, -4.499930128076812e-06, -0.0009756095823831856, 3.250918962294236e-05, -7.099223876139149e-05, -0.012374263256788254, -0.7879884243011475, -1.0199337005615234, 0.07514120638370514, -0.750096676506554, -2.6317823330167016, -9.00705899067482, 9362.0, 30146.0, 35388.0, 9362.0, 8.370248794555664, -0.2939485013484955, -0.22794796526432037, -0.03850960358977318, -0.1200876235961914, -0.03488026186823845, 0.9930775761604309, -0.08591222763061523, -0.15607833862304688, 1.483154296875, 1.388671875, 0.03033447265625, 1.494873046875
99586, 0.005125539377331734, 0.002755601890385151, 0.005684705451130867, 4.6534071884707373e-07, -5.258593773760367e-06, -0.0011029124725610018, 3.578203177312389e-05, -8.074498327914625e-05, -0.013085932470858097, -0.7878778576850891, -1.0198755264282227, 0.07531151175498962, -0.7717696205320551, -2.738840589542889, -9.05990456596325, 9362.0, 30146.0, 35388.0, 9362.0, 8.370248794555664, 0.19824382662773132, 0.21826596558094025, -0.25296932458877563, -0.12177594751119614, -0.03669687360525131, 0.9913378357887268, -0.08591222763061523, -0.15607833862304688, 1.483154296875, 1.4033203125, 0.043182373046875, 1.494873046875
99596, 0.006588441785424948, 0.0022381129674613476, 0.004473749082535505, 8.208431836465024e-07, -6.111703442002181e-06, -0.0012374379439279437, 3.5350229154573753e-05, -8.98800790309906e-05, -0.0138187725096941, -0.787871241569519, -1.0198805332183838, 0.07534566521644592, -0.7803719150777021, -2.748088323814187, -9.0453639055711, 9362.0, 30146.0, 35388.0, 9362.0, 8.370248794555664, -0.10862021148204803, -0.06430640071630478, 0.3768657147884369, -0.1229858547449112, -0.03706951066851616, 0.9925767779350281, -0.08591222763061523, -0.15607833862304688, 1.483154296875, 1.4150390625, 0.05596923828125, 1.493408203125
99606, 0.005403304938226938, 0.0022367427591234446, 0.007724629249423742, 1.1509583828228642e-06, -7.054015441099182e-06, -0.0013797614956274629, 3.066515637328848e-05, -9.856112592387944e-05, -0.014645544812083244, -0.7879838943481445, -1.019919991493225, 0.07514800876379013, -0.7556572085082625, -2.6330705920822197, -9.012864679302895, 9362.0, 30146.0, 35388.0, 9362.0, 8.370248794555664, 0.1374666392803192, -0.08347567915916443, 0.23338033258914948, -0.12400475144386292, -0.033975377678871155, 0.9933342337608337, -0.08591222763061523, -0.15607833862304688, 1.483154296875, 1.43701171875, 0.085052490234375, 1.493408203125
99616, 0.007461761124432087, 0.0033265817910432816, 0.008289029821753502, 1.4385964277607854e-06, -8.095612429315224e-06, -0.0015298579819500446, 2.6863055609283037e-05, -0.00010977347119478509, -0.015373350121080875, -0.78785640001297, -1.019875407218933, 0.07534629106521606, -0.7731312811878819, -2.7361912315736276, -9.053304659311557, 9362.0, 30146.0, 35388.0, 9362.0, 8.370248794555664, -0.047568727284669876, -0.4365861117839813, 0.02501404471695423, -0.12302019447088242, -0.03483288362622261, 0.994624674320221, -0.08591222763061523, -0.15607833862304688, 1.483154296875, 1.388671875, 0.03033447265625, 1.493408203125
99626, 0.00747879222035408, 0.0052110617980360985, 0.008632929064333439, 1.6882106592674972e-06, -9.239302016794682e-06, -0.0016868154052644968, 2.3072117983247153e-05, -0.00011894143972313032, -0.0160177331417799, -0.7878609895706177, -1.019887089729309, 0.0753348171710968, -0.7698344022893708, -2.7457949245941506, -9.051566182059323, 9362.0, 30146.0, 35388.0, 9362.0, 8.370248794555664, 0.10560596734285355, -0.08673352003097534, -0.2755195200443268, -0.1222691759467125, -0.03533410280942917, 0.9931360483169556, -0.08591222763061523, -0.15607833862304688, 1.483154296875, 1.440673828125, 0.090423583984375, 1.493408203125
99636, 0.006021374836564064, 0.0058249859139323235, 0.007919191382825375, 1.8906249579231371e-06, -1.0492235560377594e-05, -0.0018497887067496777, 1.7429185390938073e-05, -0.00013164507981855422, -0.01657654158771038, -0.7878574132919312, -1.0198882818222046, 0.07532680779695511, -0.7769260786254947, -2.736907257235316, -9.043023633949632, 9362.0, 30146.0, 35388.0, 9362.0, 8.370248794555664, -0.17220664024353027, -0.27929678559303284, 0.051877107471227646, -0.1196887418627739, -0.03418055921792984, 0.9919232726097107, -0.06737318634986877, 0.12168121337890625, 1.505859375, 1.3564453125, 0.0156707763671875, 1.4853515625
99646, 0.005631584674119949, 0.008371332660317421, 0.008135777898132801, 2.020652800638345e-06, -1.18722336992505e-05, -0.002019265666604042, 8.584174793213606e-06, -0.00014437323261518031, -0.01731845922768116, -0.7879865765571594, -1.0199087858200073, 0.07516780495643616, -0.7571482953032782, -2.613835137557146, -9.011884531456387, 9362.0, 30146.0, 35388.0, 9362.0, 8.370248794555664, 0.0703698992729187, -0.023410039022564888, 0.2579106092453003, -0.11885881423950195, -0.035994403064250946, 0.9904076457023621, -0.06737318634986877, 0.12168121337890625, 1.505859375, 1.389404296875, 0.03082275390625, 1.4853515625
99656, 0.005622813943773508, 0.008096404373645782, 0.010240141302347183, 2.0570864762703422e-06, -1.3367053725232836e-05, -0.00219689286313951, -1.2579683925650897e-06, -0.00015459688438568264, -0.01820657029747963, -0.787863552570343, -1.0198827981948853, 0.07533574104309082, -0.7815525172385771, -2.7442292210659787, -9.045022953335561, 9362.0, 30146.0, 35388.0, 9362.0, 8.370248794555664, -0.06577184796333313, 0.06265886127948761, -0.13527615368366241, -0.12057299166917801, -0.03764829784631729, 0.9924166202545166, -0.06737318634986877, 0.12168121337890625, 1.505859375, 1.31689453125, 0.0298919677734375, 1.4912109375
99666, 0.00563423428684473, 0.007021535653620958, 0.009364742785692215, 1.9734932266146643e-06, -1.4960809494368732e-05, -0.002383375773206353, -1.546458042867016e-05, -0.00016415496065746993, -0.019089598208665848, -0.7878745794296265, -1.0198837518692017, 0.07534043490886688, -0.7788712357177666, -2.7424034398258073, -9.056597312638132, 9362.0, 30146.0, 35388.0, 9362.0, 8.370248794555664, -0.010613921098411083, 0.47958576679229736, -0.060910582542419434, -0.12124629318714142, -0.039280254393815994, 0.9940540790557861, -0.06737318634986877, 0.12168121337890625, 1.505859375, 1.39013671875, 0.0314483642578125, 1.4912109375
99676, 0.004903178196400404, 0.006260276306420565, 0.008290319703519344, 1.7500420881333412e-06, -1.665016134211328e-05, -0.002577797742560506, -2.923901229223702e-05, -0.00017371507419738919, -0.019794413819909096, -0.78800368309021, -1.0199403762817383, 0.07517959922552109, -0.7586666029990988, -2.6303728989818183, -9.00648068250651, 9362.0, 30146.0, 35388.0, 9362.0, 8.370248794555664, 0.006971845403313637, 0.21434910595417023, -0.2734218239784241, -0.12143325805664062, -0.037544503808021545, 0.9935123920440674, -0.06737318634986877, 0.12168121337890625, 1.505859375, 1.34912109375, 0.015380859375, 1.489013671875
99686, 0.005127105861902237, 0.005197036080062389, 0.006992563605308533, 1.3979031336930348e-06, -1.8435272068018094e-05, -0.0027786276768893003, -4.119662116863765e-05, -0.00018331415776629, -0.020371166989207268, -0.7879965901374817, -1.0199308395385742, 0.0751756876707077, -0.7589618455275772, -2.6186849054472248, -9.01833481423484, 9362.0, 30146.0, 35388.0, 9362.0, 8.370248794555664, 0.28730320930480957, 0.33154356479644775, 0.01982216164469719, -0.12139918655157089, -0.03729548677802086, 0.9935058355331421, -0.06737318634986877, 0.12168121337890625, 1.505859375, 1.40625, 0.04620361328125, 1.489013671875
99696, 0.006707221269607544, 0.0016721845604479313, 0.008430156856775284, 9.327096108791011e-07, -2.031011536018923e-05, -0.0029856341425329447, -5.185448389966041e-05, -0.00019165156118106097, -0.02102970890700817, -0.7878680229187012, -1.0198966264724731, 0.07536352425813675, -0.7800122725141312, -2.749194196993841, -9.051942757041866, 9362.0, 30146.0, 35388.0, 9362.0, 8.370248794555664, 0.07898291945457458, 0.4064235985279083, 0.2994146943092346, -0.12041167914867401, -0.03532019257545471, 0.9923694133758545, -0.06737318634986877, 0.12168121337890625, 1.505859375, 1.423095703125, 0.06591796875, 1.497802734375
99706, 0.007093912921845913, 0.001233866554684937, 0.009220809675753117, 3.6999557551098405e-07, -2.2270216504693963e-05, -0.0031994213350117207, -6.073098847991787e-05, -0.00020034964836668223, -0.021727334707975388, -0.7878817319869995, -1.0198774337768555, 0.07534553855657578, -0.777803640199465, -2.7478211385520694, -9.06212624835808, 9362.0, 30146.0, 35388.0, 9362.0, 8.370248794555664, 0.07024545222520828, -0.03768521174788475, 0.09064923971891403, -0.12142226845026016, -0.03702401742339134, 0.9929993748664856, -0.06737318634986877, 0.12168121337890625, 1.505859375, 1.335205078125, 0.018280029296875, 1.497802734375
99716, 0.006335403770208359, -0.0010492692235857248, 0.01014201994985342, -2.515172923267528e-07, -2.433071676932741e-05, -0.0034202570095658302, -6.35768665233627e-05, -0.00021174579160287976, -0.0224393792450428, -0.7878865003585815, -1.0198899507522583, 0.0753350630402565, -0.7850863183476872, -2.7408222715782244, -9.05779158135939, 9362.0, 30146.0, 35388.0, 9362.0, 8.370248794555664, 0.0693565309047699, 0.43018653988838196, 0.047750286757946014, -0.12392139434814453, -0.03512251377105713, 0.9926603436470032, -0.06737318634986877, 0.12168121337890625, 1.505859375, 1.406982421875, 0.046966552734375, 1.493408203125
99726, 0.007010435685515404, -0.002455668291077018, 0.010702751576900482, -8.977589232017635e-07, -2.6508443625061773e-05, -0.003648382145911455, -6.570096593350172e-05, -0.00022380960581358522, -0.023185262456536293, -0.7880047559738159, -1.0199278593063354, 0.07515501230955124, -0.7599131008932218, -2.6196450784995022, -9.01042618508071, 9362.0, 30146.0, 35388.0, 9362.0, 8.370248794555664, -0.12865132093429565, -0.2844395339488983, -0.05146102234721184, -0.1211002767086029, -0.036456283181905746, 0.9918688535690308, -0.06737318634986877, 0.12168121337890625, 1.505859375, 1.346923828125, 0.015472412109375, 1.493408203125
99736, 0.006282111629843712, -0.000668157881591469, 0.012545038014650345, -1.5458438156201737e-06, -2.880036845454015e-05, -0.0038839138578623533, -6.393394141923636e-05, -0.00023456652706954628, -0.023920699954032898, -0.7879943251609802, -1.0199335813522339, 0.07517174631357193, -0.7592604743283077, -2.623409791142393, -9.015644260862153, 9362.0, 30146.0, 35388.0, 9362.0, 8.370248794555664, 0.08886466920375824, -0.288989782333374, -0.07961124926805496, -0.12300194054841995, -0.0348622165620327, 0.9930077791213989, -0.09033989906311035, -0.03959846496582031, 1.49267578125, 1.411376953125, 0.05181884765625, 1.489013671875
99746, 0.007324230391532183, 0.0017149160848930478, 0.01146959513425827, -2.164318630093476e-06, -3.120556357316673e-05, -0.004127067979425192, -5.973604493192397e-05, -0.0002464821154717356, -0.024709731340408325, -0.7878829836845398, -1.0198818445205688, 0.07534351199865341, -0.7845550826688215, -2.7427958510400288, -9.049009020788606, 9362.0, 30146.0, 35388.0, 9362.0, 8.370248794555664, -0.00433169724419713, -0.029325246810913086, 0.05290202423930168, -0.12225059419870377, -0.03428105637431145, 0.9929773807525635, -0.09033989906311035, -0.03959846496582031, 1.49267578125, 1.4033203125, 0.043182373046875, 1.489013671875
99756, 0.006699239369481802, 0.001763082924298942, 0.01289570052176714, -2.7559854061109945e-06, -3.3723805245244876e-05, -0.004377417266368866, -5.857049109181389e-05, -0.00025715475203469396, -0.025359727442264557, -0.7879952788352966, -1.0199241638183594, 0.07515905797481537, -0.7556720464886069, -2.6290753670110973, -9.026050111952612, 9362.0, 30146.0, 35388.0, 9362.0, 8.370248794555664, 0.03002886101603508, 0.29025277495384216, 0.3960377871990204, -0.1212070882320404, -0.03490087017416954, 0.9924485683441162, -0.09033989906311035, -0.03959846496582031, 1.49267578125, 1.40625, 0.04620361328125, 1.49267578125
99766, 0.00684368098154664, -0.0005263740895316005, 0.01398517470806837, -3.3562484986759955e-06, -3.635758548625745e-05, -0.004634708631783724, -6.148119427962229e-05, -0.00026960932882502675, -0.026098167523741722, -0.7880009412765503, -1.0199267864227295, 0.07515934854745865, -0.7593613324555416, -2.625385182114769, -9.015893900237545, 9362.0, 30146.0, 35388.0, 9362.0, 8.370248794555664, -0.023052116855978966, 0.36393341422080994, -0.06804496794939041, -0.12122106552124023, -0.03274327889084816, 0.9935084581375122, -0.09033989906311035, -0.03959846496582031, 1.49267578125, 1.396728515625, 0.0370025634765625, 1.49267578125
99776, 0.007012257818132639, -0.0024441659916192293, 0.015244664624333382, -3.9860306060290895e-06, -3.911061503458768e-05, -0.004899275954812765, -6.450365617638454e-05, -0.00028099463088437915, -0.02681487239897251, -0.7878773808479309, -1.0198860168457031, 0.0753294974565506, -0.7767650156012117, -2.7468684024642016, -9.0520952170257, 9362.0, 30146.0, 35388.0, 9362.0, 8.370248794555664, 0.04773043096065521, 0.1569199115037918, 0.0008871356840245426, -0.12002210319042206, -0.03361361101269722, 0.9914737939834595, -0.09033989906311035, -0.03959846496582031, 1.49267578125, 1.4384765625, 0.0871429443359375, 1.493408203125
99786, 0.006993260234594345, -0.0035539313685148954, 0.015974130481481552, -4.626579084288096e-06, -4.197872840450145e-05, -0.005170930176973343, -6.362918065860868e-05, -0.00029262612224556506, -0.027515554800629616, -0.787874162197113, -1.0198801755905151, 0.07534583657979965, -0.7793932115525944, -2.737177045664538, -9.048107935676667, 9362.0, 30146.0, 35388.0, 9362.0, 8.370248794555664, -0.0710638239979744, -0.08122536540031433, -0.1321168690919876, -0.11796808987855911, -0.03509831055998802, 0.9922435879707336, -0.09033989906311035, -0.03959846496582031, 1.49267578125, 1.3857421875, 0.0280914306640625, 1.493408203125
99796, 0.00668257474899292, -0.0016320812283083797, 0.01662539876997471, -5.2421064538066275e-06, -4.4964512198930606e-05, -0.005450195632874966, -5.949199839960784e-05, -0.0003045308112632483, -0.028337115421891212, -0.7878789305686951, -1.0198869705200195, 0.07533510774374008, -0.7801199034506737, -2.7449022247706694, -9.053636528856789, 9362.0, 30146.0, 35388.0, 9362.0, 8.370248794555664, -0.10475508868694305, 0.020023154094815254, 0.2187885195016861, -0.1192147359251976, -0.03443309664726257, 0.9920932054519653, -0.09033989906311035, -0.03959846496582031, 1.49267578125, 1.40185546875, 0.0417938232421875, 1.49560546875
99806, 0.0064128306694328785, -0.0012224533129483461, 0.01668490283191204, -5.806827175547369e-06, -4.806920333066955e-05, -0.005737472325563431, -5.342589793144725e-05, -0.0003164115478284657, -0.02911781519651413, -0.7878814339637756, -1.019881248474121, 0.07534566521644592, -0.7706672329479674, -2.744998432803584, -9.051461418713743, 9362.0, 30146.0, 35388.0, 9362.0, 8.370248794555664, 0.17618310451507568, -0.4481409192085266, -0.10925306379795074, -0.12145999073982239, -0.03565266355872154, 0.9935723543167114, -0.09033989906311035, -0.03959846496582031, 1.49267578125, 1.367431640625, 0.0183258056640625, 1.49560546875
99816, 0.0068394956178963184, 0.0016749888891354203, 0.01621248573064804, -6.327200480882311e-06, -5.129010241944343e-05, -0.00603225314989686, -5.0643564463825896e-05, -0.00032777179148979485, -0.02983793430030346, -0.7880288362503052, -1.019925594329834, 0.0751001387834549, -0.7503543005241851, -2.5875431798385193, -9.022693778938926, 9362.0, 30146.0, 35388.0, 9362.0, 8.370248794555664, 0.17196227610111237, -0.18774327635765076, 0.13540247082710266, -0.12145362049341202, -0.038751021027565, 0.9921875596046448, -0.09033989906311035, -0.03959846496582031, 1.49267578125, 1.420166015625, 0.0621337890625, 1.487548828125
99826, 0.007793719880282879, 0.00024149083765223622, 0.017822828143835068, -6.823233434261056e-06, -5.4622305469820276e-05, -0.006334309466183186, -4.85259952256456e-05, -0.0003386632597539574, -0.03057291731238365, -0.7879982590675354, -1.0199164152145386, 0.0751582533121109, -0.7558644746932871, -2.625439845913405, -9.014440135294082, 9362.0, 30146.0, 35388.0, 9362.0, 8.370248794555664, 0.09669385850429535, 0.3178696632385254, 0.1887788623571396, -0.12066454440355301, -0.03807804360985756, 0.9928151965141296, -0.09033989906311035, -0.03959846496582031, 1.49267578125, 1.377685546875, 0.023040771484375, 1.487548828125
99836, 0.0075136818923056126, 0.0010774851543828845, 0.01942329853773117, -7.322712008317467e-06, -5.806706758448854e-05, -0.006643602158874273, -5.138721098774113e-05, -0.0003502775798551738, -0.03128524124622345, -0.7880005836486816, -1.0199261903762817, 0.07516911625862122, -0.7585621586896609, -2.630126166706816, -9.016499359557264, 9362.0, 30146.0, 35388.0, 9362.0, 8.370248794555664, -0.05017287656664848, -0.5710488557815552, -0.017596203833818436, -0.11969069391489029, -0.03575728461146355, 0.9925151467323303, -0.0977451354265213, 0.09480094909667969, 1.503662109375, 1.36376953125, 0.017181396484375, 1.49560546875
99846, 0.008009525015950203, 0.0018513503018766642, 0.021384023129940033, -7.838614692445844e-06, -6.163604120956734e-05, -0.006960293278098106, -5.1781775255221874e-05, -0.0003635212196968496, -0.032052624970674515, -0.7879863977432251, -1.0199214220046997, 0.07515601813793182, -0.761262655123429, -2.6314908947612707, -9.013520512856166, 9362.0, 30146.0, 35388.0, 9362.0, 8.370248794555664, 0.2424471527338028, -0.0006738160736858845, 0.26215842366218567, -0.12058588117361069, -0.034148842096328735, 0.9930936098098755, -0.0977451354265213, 0.09480094909667969, 1.503662109375, 1.3623046875, 0.0167999267578125, 1.49560546875
99856, 0.008106800727546215, 0.002164052566513419, 0.022694554179906845, -8.365566827706061e-06, -6.533510168083012e-05, -0.007284449879080057, -5.359840361052193e-05, -0.00037628511199727654, -0.03277827054262161, -0.787984311580658, -1.0199230909347534, 0.07517537474632263, -0.7613855566625377, -2.629063493819757, -9.022056738258573, 9362.0, 30146.0, 35388.0, 9362.0, 8.370248794555664, 0.2100541591644287, 0.21246540546417236, 0.2270081788301468, -0.12220857292413712, -0.03538530692458153, 0.9944072365760803, -0.0977451354265213, 0.09480094909667969, 1.503662109375, 1.39599609375, 0.0362701416015625, 1.4912109375
99866, 0.009267473593354225, -0.0006676826742477715, 0.02374674752354622, -8.917275408748537e-06, -6.916609709151089e-05, -0.007615287322551012, -5.673976193065755e-05, -0.00038991356268525124, -0.033388860523700714, -0.7878790497779846, -1.0198742151260376, 0.07534335553646088, -0.7824814524094263, -2.7374062306066946, -9.061329706572513, 9362.0, 30146.0, 35388.0, 9362.0, 8.370248794555664, -0.00040645289118401706, 0.11416143923997879, 0.15177087485790253, -0.12110818922519684, -0.03628012165427208, 0.99381422996521, -0.0977451354265213, 0.09480094909667969, 1.503662109375, 1.400390625, 0.04034423828125, 1.4912109375
99876, 0.009041829966008663, -0.0013930379645898938, 0.024446239694952965, -9.503058208792936e-06, -7.313421519938856e-05, -0.007952190935611725, -6.04462438786868e-05, -0.0004036978061776608, -0.03399147465825081, -0.7879855632781982, -1.0199072360992432, 0.07517355680465698, -0.7578867386454872, -2.6324456761875297, -9.018143869943152, 9362.0, 30146.0, 35388.0, 9362.0, 8.370248794555664, 0.0644359290599823, -0.49209463596343994, -0.12845394015312195, -0.12174365669488907, -0.03384924679994583, 0.9928597807884216, -0.0977451354265213, 0.09480094909667969, 1.503662109375, 1.28759765625, 0.068939208984375, 1.490478515625
99886, 0.009081349708139896, 0.0011240106541663408, 0.02578129991889, -1.0101807674800511e-05, -7.725003524683416e-05, -0.008295142091810703, -5.931107807555236e-05, -0.0004194689681753516, -0.03459841385483742, -0.7878689169883728, -1.0198694467544556, 0.07534313946962357, -0.7862466832330968, -2.7420631313480612, -9.048395951264496, 9362.0, 30146.0, 35388.0, 9362.0, 8.370248794555664, -0.14175429940223694, -0.09741787612438202, 0.24947278201580048, -0.12143760919570923, -0.03735997900366783, 0.9909442067146301, -0.0977451354265213, 0.09480094909667969, 1.503662109375, 1.3330078125, 0.0191650390625, 1.490478515625
99896, 0.008013227954506874, 0.0036540664732456207, 0.027490880340337753, -1.0683052096283063e-05, -8.152152440743521e-05, -0.008644911460578442, -5.6904249504441395e-05, -0.00043482903856784105, -0.03535514697432518, -0.7879928946495056, -1.0199252367019653, 0.07516690343618393, -0.7573679305363111, -2.619667682202305, -9.017674469916557, 9362.0, 30146.0, 35388.0, 9362.0, 8.370248794555664, 0.12182260304689407, -0.33480653166770935, -0.023846028372645378, -0.12546636164188385, -0.03594093397259712, 0.9912678599357605, -0.0977451354265213, 0.09480094909667969, 1.503662109375, 1.342529296875, 0.0161895751953125, 1.489013671875
99906, 0.009107977151870728, 0.0030749815050512552, 0.026378152891993523, -1.1261594409006648e-05, -8.594685641583055e-05, -0.009002934210002422, -5.876438444829546e-05, -0.00045025363215245306, -0.03624899312853813, -0.7879964709281921, -1.019919753074646, 0.07515940815210342, -0.7540594632987107, -2.6230562270154962, -9.02570270150077, 9362.0, 30146.0, 35388.0, 9362.0, 8.370248794555664, 0.28697437047958374, 0.3427765965461731, 0.2818012535572052, -0.12404829263687134, -0.03819722309708595, 0.9926533102989197, -0.0977451354265213, 0.09480094909667969, 1.503662109375, 1.367431640625, 0.0183258056640625, 1.489013671875
99946, 0.008947409689426422, -0.001423675799742341, 0.02860379032790661, -1.4049804121896159e-05, -0.00010512673179619014, -0.01051380392163992, -7.845320214983076e-05, -0.0005090931081213057, -0.03917660564184189, -0.7878716588020325, -1.019884705543518, 0.0753394290804863, -0.7703610560407781, -2.7429541176211103, -9.050188778835775, 9362.0, 30146.0, 35388.0, 9362.0, 8.370248794555664, 0.1905098259449005, 0.20300360023975372, -0.1914578080177307, -0.12219729274511337, -0.03650218993425369, 0.991819441318512, -0.10073105245828629, -0.27255821228027344, 1.4736328125, 1.357177734375, 0.0157928466796875, 1.493408203125
99956, 0.00978376716375351, -0.0001999879168579355, 0.024557067081332207, -1.485290067648748e-05, -0.00011029151937691495, -0.01090922486037016, -8.221207826863974e-05, -0.0005238605663180351, -0.03990717604756355, -0.7879130244255066, -1.0198863744735718, 0.07530101388692856, -0.7767056292065615, -2.705679679766149, -9.059393425044945, 9362.0, 30146.0, 35388.0, 9362.0, 8.370248794555664, 0.1905098259449005, 0.20300360023975372, -0.1914578080177307, -0.11927175521850586, -0.0426907017827034, 0.9923052787780762, -0.10073105245828629, -0.27255821228027344, 1.4736328125, 1.357177734375, 0.0157928466796875, 1.493408203125
99966, 0.007196518592536449, 0.001051515806466341, 0.04134433716535568, -1.566288665344473e-05, -0.00011560614802874625, -0.011311950162053108, -7.977059431141242e-05, -0.000539054221007973, -0.04063747823238373, -0.787878692150116, -1.0198768377304077, 0.07535432279109955, -0.7753761043616323, -2.7308156108256014, -9.048022425774649, 9362.0, 30146.0, 35388.0, 9362.0, 8.370248794555664, -0.30848148465156555, -0.15623430907726288, 1.5287190675735474, -0.1291443407535553, -0.029355421662330627, 0.9919977784156799, -0.10073105245828629, -0.27255821228027344, 1.4736328125, 1.357177734375, 0.0157928466796875, 1.493408203125
100016, 0.0069558508694171906, 0.011244183406233788, 0.03324486315250397, -2.0040810341015458e-05, -0.00014435098273679614, -0.013434400781989098, -0.00011438776709837839, -0.000608459347859025, -0.04420720413327217, -0.7879934310913086, -1.0199251174926758, 0.0751936137676239, -0.7571294531356855, -2.6280662605521456, -9.011118529729485, 9362.0, 30146.0, 35388.0, 9362.0, 8.370248794555664, 0.12988638877868652, 0.08481622487306595, -0.4245400130748749, -0.12664708495140076, -0.036473456770181656, 0.9928424954414368, -0.10073105245828629, -0.27255821228027344, 1.4736328125, 1.41064453125, 0.0509490966796875, 1.4912109375
100026, 0.007140020374208689, 0.009405569173395634, 0.030626563355326653, -2.1274994651321322e-05, -0.00015049347712192684, -0.013880339451134205, -0.00013243957073427737, -0.0006200408679433167, -0.04498022049665451, -0.7880017757415771, -1.019915223121643, 0.07515124976634979, -0.756310600887539, -2.621942296042789, -9.021631820152308, 9362.0, 30146.0, 35388.0, 9362.0, 8.370248794555664, -0.10004731267690659, -0.07599647343158722, -0.37864431738853455, -0.12659810483455658, -0.03924722224473953, 0.9934076070785522, -0.10073105245828629, -0.27255821228027344, 1.4736328125, 1.3681640625, 0.0185394287109375, 1.4912109375
100056, 0.009411397390067577, 0.00974882673472166, 0.026303153485059738, -2.6055929993162863e-05, -0.00016963333473540843, -0.01525884959846735, -0.0001855074951890856, -0.0006561026093550026, -0.046845030039548874, -0.7879945039749146, -1.0199180841445923, 0.0751953199505806, -0.7562570887916105, -2.6371089287220855, -9.014765126160983, 9362.0, 30146.0, 35388.0, 9362.0, 8.370248794555664, 0.038606349378824234, 0.24892625212669373, 0.2692263126373291, -0.11627678573131561, -0.03126153722405434, 0.9926475882530212, -0.10073105245828629, -0.27255821228027344, 1.4736328125, 1.36669921875, 0.01806640625, 1.4912109375
100076, 0.00874972715973854, 0.005592412315309048, 0.023848233744502068, -3.008791281899903e-05, -0.0001830379624152556, -0.01621037721633911, -0.0002180401497753337, -0.0006856050458736718, -0.048326537013053894, -0.787983238697052, -1.019930362701416, 0.07515605539083481, -0.7530289712182201, -2.621506185989773, -9.01283697929254, 9362.0, 30146.0, 35388.0, 9362.0, 8.370248794555664, 0.25135284662246704, 0.29495561122894287, -0.10837053507566452, -0.12322373688220978, -0.03513461723923683, 0.9921857714653015, -0.10073105245828629, -0.27255821228027344, 1.4736328125, 1.361572265625, 0.016571044921875, 1.4912109375
100086, 0.010283811949193478, 0.005145922303199768, 0.022936753928661346, -3.008791281899903e-05, -0.0001830379624152556, -0.01621037721633911, -0.0002180401497753337, -0.0006856050458736718, -0.048326537013053894, -0.7878627181053162, -1.0198723077774048, 0.07535496354103088, -0.7776137869128732, -2.7516425501000867, -9.051580371136476, 9362.0, 30146.0, 35388.0, 9362.0, 8.370248794555664, -0.16379554569721222, -0.08825253695249557, -0.33774542808532715, -0.12417362630367279, -0.03596395254135132, 0.9928829669952393, -0.10073105245828629, -0.27255821228027344, 1.4736328125, 1.361572265625, 0.016571044921875, 1.4912109375
100126, 0.01186624076217413, 0.008082900196313858, 0.025680048391222954, -4.226858800393529e-05, -0.00021933835523668677, -0.0187214445322752, -0.00027049012714996934, -0.0007714351522736251, -0.051871009171009064, -0.7879742980003357, -1.0199158191680908, 0.07517470419406891, -0.7500545966604615, -2.626602024323205, -9.005819211061768, 9362.0, 30146.0, 35388.0, 9362.0, 8.370248794555664, -0.04242406412959099, -0.21995356678962708, 0.04589342698454857, -0.11764874309301376, -0.03269553929567337, 0.9930049777030945, -0.10073105245828629, -0.27255821228027344, 1.4736328125, 1.341796875, 0.0162811279296875, 1.4912109375
100206, 0.010154656134545803, 0.010528086684644222, 0.028049351647496223, -6.842992297606543e-05, -0.0002871177566703409, -0.02309531904757023, -0.00038783231866545975, -0.0009202513610944152, -0.057431843131780624, -0.7878881096839905, -1.019879698753357, 0.07534359395503998, -0.7799465773591134, -2.732766253434903, -9.049495990109524, 9362.0, 30146.0, 35388.0, 9362.0, 8.370248794555664, 0.22700557112693787, -0.27303656935691833, 0.05141323059797287, -0.1188301369547844, -0.03876100108027458, 0.9925296306610107, -0.07780345529317856, 0.05000114440917969, 1.5, 1.405517578125, 0.0454254150390625, 1.49560546875
100226, 0.010615338571369648, 0.015248054638504982, 0.02812444232404232, -7.652526255697012e-05, -0.000305862573441118, -0.024258928373456, -0.0004222904099151492, -0.0009544129716232419, -0.05892854556441307, -0.7878789305686951, -1.0198805332183838, 0.07535760849714279, -0.7755344020521752, -2.7287452050154, -9.053460329201506, 9362.0, 30146.0, 35388.0, 9362.0, 8.370248794555664, -0.0487278588116169, -0.4486299455165863, 0.11398280411958694, -0.11890368908643723, -0.03975708782672882, 0.9920251965522766, -0.07780345529317856, 0.05000114440917969, 1.5, 1.405517578125, 0.0454254150390625, 1.49560546875
100246, 0.011327357031404972, 0.01628265157341957, 0.03024248778820038, -8.54426107252948e-05, -0.0003252988972235471, -0.025452595204114914, -0.0004709853383246809, -0.0009896541014313698, -0.060393720865249634, -0.7878848910331726, -1.0198849439620972, 0.07535919547080994, -0.7710609858920229, -2.7400313000050573, -9.056152695781153, 9362.0, 30146.0, 35388.0, 9362.0, 8.370248794555664, -0.011496059596538544, -0.02231670543551445, -0.12971727550029755, -0.12123918533325195, -0.03588519245386124, 0.9938750267028809, -0.1118481382727623, -0.08439826965332031, 1.489013671875, 1.324951171875, 0.0236663818359375, 1.49560546875
100286, 0.011817751452326775, 0.01703660748898983, 0.0260772705078125, -0.00010651687625795603, -0.00036638707388192415, -0.027924245223402977, -0.0005876075592823327, -0.0010653685312718153, -0.0633363127708435, -0.788004994392395, -1.0199278593063354, 0.07517801225185394, -0.7541869633892919, -2.627005271302238, -9.016403473377736, 9362.0, 30146.0, 35388.0, 9362.0, 8.370248794555664, -0.12983748316764832, 0.229003444314003, 0.026544271036982536, -0.12181034684181213, -0.03955532982945442, 0.9928029775619507, -0.1118481382727623, -0.08439826965332031, 1.489013671875, 1.4033203125, 0.043182373046875, 1.4970703125
100306, 0.010468949563801289, 0.020144134759902954, 0.027486706152558327, -0.00011886626452906057, -0.0003880688454955816, -0.029204580932855606, -0.0006467191269621253, -0.0011037444928660989, -0.06470966339111328, -0.7880319952964783, -1.0199222564697266, 0.07513760775327682, -0.7466626502830893, -2.5798813753397383, -9.030073630645585, 9362.0, 30146.0, 35388.0, 9362.0, 8.370248794555664, 0.05935456231236458, -0.26201924681663513, 0.14794567227363586, -0.12258386611938477, -0.03559482842683792, 0.9921741485595703, -0.1118481382727623, -0.08439826965332031, 1.489013671875, 1.33447265625, 0.0186309814453125, 1.491943359375
100316, 0.010991699062287807, 0.018520524725317955, 0.026648148894309998, -0.00012548355152830482, -0.00039919570554047823, -0.029855448752641678, -0.0006767050945200026, -0.0011216270504519343, -0.06546357274055481, -0.7879855632781982, -1.0199294090270996, 0.07519052177667618, -0.7544953736330438, -2.6284323100089466, -9.015081586642244, 9362.0, 30146.0, 35388.0, 9362.0, 8.370248794555664, 0.005251315422356129, 0.07528968155384064, -0.26585620641708374, -0.12258386611938477, -0.03559482842683792, 0.9921741485595703, -0.1118481382727623, -0.08439826965332031, 1.489013671875, 1.33447265625, 0.0186309814453125, 1.491943359375
100326, 0.01145410817116499, 0.01860552281141281, 0.02441655844449997, -0.00013242165732663125, -0.0004105009720660746, -0.030513945966959, -0.000710937543772161, -0.0011394195025786757, -0.06623534113168716, -0.7879773378372192, -1.0199238061904907, 0.07519606500864029, -0.760631416442506, -2.6318197901656504, -9.016861365433238, 9362.0, 30146.0, 35388.0, 9362.0, 8.370248794555664, 0.0605773888528347, 0.278867244720459, 0.06504249572753906, -0.12258386611938477, -0.03559482842683792, 0.9921741485595703, -0.1118481382727623, -0.08439826965332031, 1.489013671875, 1.33154296875, 0.0198516845703125, 1.491943359375
100366, 0.01208491250872612, 0.017362702637910843, 0.02208845689892769, -0.00016334543761331588, -0.0004575960338115692, -0.03322361037135124, -0.000832458317745477, -0.0012158553581684828, -0.06922846287488937, -0.7878824472427368, -1.0198791027069092, 0.07534652203321457, -0.7757714432866579, -2.743838215217721, -9.05950297595194, 9362.0, 30146.0, 35388.0, 9362.0, 8.370248794555664, 0.1909608691930771, -0.014586614444851875, -0.32099565863609314, -0.12154927849769592, -0.03778804838657379, 0.9945694208145142, -0.09617391973733902, -0.13815879821777344, 1.484619140625, 1.390869140625, 0.0319671630859375, 1.491943359375
100376, 0.012821805663406849, 0.016765065491199493, 0.021894048899412155, -0.00017178741109091789, -0.0004698549455497414, -0.03391895443201065, -0.0008558995905332267, -0.0012359230313450098, -0.0698402151465416, -0.7878656983375549, -1.019878625869751, 0.07536645978689194, -0.7776855740667175, -2.737118556863777, -9.051394705819543, 9362.0, 30146.0, 35388.0, 9362.0, 8.370248794555664, 0.052943553775548935, 0.4039129316806793, 0.501218318939209, -0.12154927849769592, -0.03778804838657379, 0.9945694208145142, -0.09617391973733902, -0.13815879821777344, 1.484619140625, 1.390869140625, 0.0319671630859375, 1.49267578125
100396, 0.014061679132282734, 0.018700579181313515, 0.024572748690843582, -0.00018949128570966423, -0.0004949912545271218, -0.03532728552818298, -0.0009139534668065608, -0.0012783105485141277, -0.07104155421257019, -0.7878661751747131, -1.0198694467544556, 0.07533524930477142, -0.7756225323954828, -2.7483049617444237, -9.051988499548997, 9362.0, 30146.0, 35388.0, 9362.0, 8.370248794555664, 0.21544064581394196, -0.4078929126262665, -0.14970655739307404, -0.1219579204916954, -0.034936998039484024, 0.995124876499176, -0.09617391973733902, -0.13815879821777344, 1.484619140625, 1.399658203125, 0.0396575927734375, 1.493408203125
100456, 0.016082173213362694, 0.02328767068684101, 0.03245552256703377, -0.00024978903820738196, -0.0005761075881309807, -0.03971155732870102, -0.0010947483824566007, -0.001427380950190127, -0.07520853728055954, -0.7878799438476562, -1.0198872089385986, 0.07536879181861877, -0.7715043682987748, -2.74030859159879, -9.053939565804086, 9362.0, 30146.0, 35388.0, 9362.0, 8.370248794555664, -0.02730286866426468, 0.210956871509552, -0.09572708606719971, -0.12253575772047043, -0.037243619561195374, 0.9921402335166931, -0.09648896008729935, -0.23671722412109375, 1.4765625, 1.398193359375, 0.03826904296875, 1.49560546875
100466, 0.016325512900948524, 0.02463037334382534, 0.031297117471694946, -0.00026091322069987655, -0.0005905134603381157, -0.04046683758497238, -0.0011300608748570085, -0.0014537901151925325, -0.0758473351597786, -0.788014829158783, -1.0198918581008911, 0.07518467307090759, -0.7452542272062835, -2.6290745930340904, -9.025445245854632, 9362.0, 30146.0, 35388.0, 9362.0, 8.370248794555664, 0.2348807007074356, -0.2181270569562912, 0.20308010280132294, -0.12253575772047043, -0.037243619561195374, 0.9921402335166931, -0.09648896008729935, -0.23671722412109375, 1.4765625, 1.3857421875, 0.0280914306640625, 1.49560546875
100486, 0.017066534608602524, 0.027591606602072716, 0.03347890451550484, -0.00028431613463908434, -0.0006201378419063985, -0.04200020805001259, -0.0012113726697862148, -0.0015088515356183052, -0.07745233923196793, -0.7878863215446472, -1.0198739767074585, 0.07534987479448318, -0.7688188616552581, -2.743541058453445, -9.06137388186946, 9362.0, 30146.0, 35388.0, 9362.0, 8.370248794555664, 0.09804356843233109, 0.1269913911819458, -0.21930710971355438, -0.12071730941534042, -0.03570768982172012, 0.9921906590461731, -0.09648896008729935, -0.23671722412109375, 1.4765625, 1.3857421875, 0.0280914306640625, 1.49560546875
100516, 0.019401781260967255, 0.034509915858507156, 0.03246096149086952, -0.00032268237555399537, -0.0006667302804999053, -0.044355686753988266, -0.0013494162121787667, -0.0015981999458745122, -0.0795949175953865, -0.7878803610801697, -1.0198813676834106, 0.0753738284111023, -0.7719432930234852, -2.739659106075436, -9.054965279802655, 9362.0, 30146.0, 35388.0, 9362.0, 8.370248794555664, 0.061637673527002335, 0.09561754018068314, 0.21515917778015137, -0.12294652312994003, -0.03625081852078438, 0.9948897361755371, -0.09648896008729935, -0.23671722412109375, 1.4765625, 1.3857421875, 0.0280914306640625, 1.4912109375
100526, 0.01983814686536789, 0.03454205393791199, 0.03262007609009743, -0.0003364626318216324, -0.000682875222992152, -0.045154206454753876, -0.001406627125106752, -0.0016307885525748134, -0.08010868728160858, -0.7878848910331726, -1.0198864936828613, 0.07535797357559204, -0.7721660360475423, -2.736601864171206, -9.048032272254078, 9362.0, 30146.0, 35388.0, 9362.0, 8.370248794555664, -0.08001139014959335, 0.023099888116121292, 0.17321449518203735, -0.12294652312994003, -0.03625081852078438, 0.9948897361755371, -0.09648896008729935, -0.23671722412109375, 1.4765625, 1.3857421875, 0.0280914306640625, 1.4912109375
100536, 0.020149627700448036, 0.03408018499612808, 0.032645583152770996, -0.0003364626318216324, -0.000682875222992152, -0.045154206454753876, -0.001406627125106752, -0.0016307885525748134, -0.08010868728160858, -0.7878875136375427, -1.0198935270309448, 0.07534897327423096, -0.7687926994194959, -2.7407686481366795, -9.048540175358234, 9362.0, 30146.0, 35388.0, 9362.0, 8.370248794555664, 0.17840401828289032, -0.4974862337112427, -0.48741790652275085, -0.12294652312994003, -0.03625081852078438, 0.9948897361755371, -0.07646937668323517, -0.1739978790283203, 1.481689453125, 1.3857421875, 0.0280914306640625, 1.49560546875
100556, 0.021735263988375664, 0.033362627029418945, 0.029862646013498306, -0.00038129996391944587, -0.0007333031971938908, -0.04758528620004654, -0.0015819849213585258, -0.0017318668542429805, -0.08206911385059357, -0.7896596789360046, -1.0202229022979736, 0.07459713518619537, -0.06428068435704867, -1.2425088999493994, -8.900990474192964, 9362.0, 30146.0, 35388.0, 9362.0, 8.370248794555664, 0.21764445304870605, 0.05836666375398636, -0.28926900029182434, -0.12181119620800018, -0.03425963595509529, 0.9927110075950623, -0.07646937668323517, -0.1739978790283203, 1.481689453125, 1.4091796875, 0.04937744140625, 1.496337890625
100566, 0.020966459065675735, 0.03166673704981804, 0.03091241791844368, -0.00039740491774864495, -0.0007508046692237258, -0.04841022193431854, -0.0016390109667554498, -0.001768417307175696, -0.08291786164045334, -0.787875235080719, -1.0198781490325928, 0.07536940276622772, -0.7731590857842123, -2.7391340541191767, -9.055471147772082, 9362.0, 30146.0, 35388.0, 9362.0, 8.370248794555664, -0.1202254444360733, 0.6614562273025513, 0.451477587223053, -0.12181119620800018, -0.03425963595509529, 0.9927110075950623, -0.07646937668323517, -0.1739978790283203, 1.481689453125, 1.4091796875, 0.04937744140625, 1.496337890625
100576, 0.02146364003419876, 0.0291292741894722, 0.032654888927936554, -0.0004140788805671036, -0.000768673955462873, -0.04924227297306061, -0.0016957959160208702, -0.0018054520478472114, -0.08349203318357468, -0.7878860235214233, -1.0198761224746704, 0.07536610960960388, -0.7724414950092963, -2.7325588639145906, -9.052099436333162, 9362.0, 30146.0, 35388.0, 9362.0, 8.370248794555664, -0.14904196560382843, 0.197946697473526, -0.12000993639230728, -0.12181119620800018, -0.03425963595509529, 0.9927110075950623, -0.07646937668323517, -0.1739978790283203, 1.481689453125, 1.4091796875, 0.04937744140625, 1.49853515625
100596, 0.02208077721297741, 0.028501030057668686, 0.03202312812209129, -0.00044905199320055544, -0.0008055021753534675, -0.050921812653541565, -0.0017992962384596467, -0.001877739210613072, -0.08458992093801498, -0.7878655791282654, -1.0198726654052734, 0.07537029683589935, -0.7732784482975326, -2.739937853380667, -9.060345497599927, 9362.0, 30146.0, 35388.0, 9362.0, 8.370248794555664, -0.18022440373897552, 0.2610171437263489, 0.1937495321035385, -0.12382807582616806, -0.03658542037010193, 0.9910017251968384, -0.07646937668323517, -0.1739978790283203, 1.481689453125, 1.3974609375, 0.03759765625, 1.491943359375
100616, 0.02020823396742344, 0.02549634501338005, 0.032594043761491776, -0.0004860085027758032, -0.0008438070071861148, -0.052628785371780396, -0.001896335044875741, -0.0019528086995705962, -0.08603072911500931, -0.7879968881607056, -1.0199191570281982, 0.07518935203552246, -0.7583479219100066, -2.6246602150632157, -9.020543637025295, 9362.0, 30146.0, 35388.0, 9362.0, 8.370248794555664, 0.18194670975208282, -0.29640355706214905, -0.3742145895957947, -0.12200677394866943, -0.03540046885609627, 0.9945082068443298, -0.07646937668323517, -0.1739978790283203, 1.481689453125, 1.364501953125, 0.0173492431640625, 1.491943359375
100626, 0.020747728645801544, 0.02740018628537655, 0.03263159468770027, -0.0005051925545558333, -0.0008635157719254494, -0.0534915067255497, -0.0019404774066060781, -0.0019889487884938717, -0.08651318401098251, -0.7879988551139832, -1.0199227333068848, 0.07520166039466858, -0.757138518161406, -2.625607227631974, -9.020607876600215, 9362.0, 30146.0, 35388.0, 9362.0, 8.370248794555664, -0.09956911206245422, 0.26811161637306213, 0.2547273337841034, -0.12200677394866943, -0.03540046885609627, 0.9945082068443298, -0.07646937668323517, -0.1739978790283203, 1.481689453125, 1.364501953125, 0.0173492431640625, 1.491943359375
100656, 0.020565154030919075, 0.027817465364933014, 0.03094331920146942, -0.0005654069827869534, -0.00092474085977301, -0.05612679943442345, -0.002074697520583868, -0.0020926231518387794, -0.08904869854450226, -0.78798907995224, -1.0199166536331177, 0.07518735527992249, -0.7576800298036763, -2.6325849602270353, -9.01020604228118, 9362.0, 30146.0, 35388.0, 9362.0, 8.370248794555664, -0.08621683716773987, -0.06994590163230896, 0.05914490297436714, -0.12295693159103394, -0.034272171556949615, 0.9914450645446777, -0.07646937668323517, -0.1739978790283203, 1.481689453125, 1.373291015625, 0.0207366943359375, 1.491943359375
100666, 0.02187287248671055, 0.027452699840068817, 0.03347548097372055, -0.0005863973055966198, -0.0009458385175094008, -0.05702165514230728, -0.002123374491930008, -0.002126897918060422, -0.08992183208465576, -0.7878813743591309, -1.0198802947998047, 0.07535569369792938, -0.7795122124769057, -2.742637328464042, -9.053051688911362, 9362.0, 30146.0, 35388.0, 9362.0, 8.370248794555664, 0.22564974427223206, -0.013186211697757244, 0.11251632124185562, -0.12295693159103394, -0.034272171556949615, 0.9914450645446777, -0.07646937668323517, -0.1739978790283203, 1.481689453125, 1.353515625, 0.0154571533203125, 1.491943359375
100676, 0.02326112985610962, 0.027732739225029945, 0.03382653743028641, -0.0006078668520785868, -0.0009672819869592786, -0.0579255186021328, -0.0021705373656004667, -0.0021617815364152193, -0.09085062891244888, -0.7878734469413757, -1.0198746919631958, 0.07536336034536362, -0.7778730539830141, -2.746833638545695, -9.054694214586721, 9362.0, 30146.0, 35388.0, 9362.0, 8.370248794555664, 0.2606576681137085, 0.32257720828056335, -0.005903978832066059, -0.12166035920381546, -0.03403883054852486, 0.9927886724472046, -0.07646937668323517, -0.1739978790283203, 1.481689453125, 1.353515625, 0.0154571533203125, 1.491943359375
100686, 0.025485003367066383, 0.027980806306004524, 0.032553400844335556, -0.0006078668520785868, -0.0009672819869592786, -0.0579255186021328, -0.0021705373656004667, -0.0021617815364152193, -0.09085062891244888, -0.787998378276825, -1.0199140310287476, 0.0751812681555748, -0.7652829730896147, -2.626679582336351, -9.025536299324017, 9362.0, 30146.0, 35388.0, 9362.0, 8.370248794555664, 0.30536729097366333, -0.07263913005590439, 0.17645229399204254, -0.12155596911907196, -0.037984028458595276, 0.9937576651573181, -0.07646937668323517, -0.1739978790283203, 1.481689453125, 1.353515625, 0.0154571533203125, 1.491943359375
100696, 0.028115255758166313, 0.02694183588027954, 0.03192029893398285, -0.0006522120675072074, -0.0010112728923559189, -0.05975816398859024, -0.00226426450535655, -0.0022384903859347105, -0.0923219695687294, -0.7879912257194519, -1.0199174880981445, 0.07519495487213135, -0.7635395659571503, -2.6259491810903626, -9.014172897519664, 9362.0, 30146.0, 35388.0, 9362.0, 8.370248794555664, 0.109739750623703, 0.21329790353775024, -0.15349116921424866, -0.12155596911907196, -0.037984028458595276, 0.9937576651573181, -0.07646937668323517, -0.1739978790283203, 1.481689453125, 1.4033203125, 0.043182373046875, 1.491943359375
100716, 0.02988000214099884, 0.030733738094568253, 0.03187722712755203, -0.0006984399515204132, -0.0010569322621449828, -0.06161751598119736, -0.0023576414678245783, -0.0023296603467315435, -0.09363867342472076, -0.7879965305328369, -1.0199224948883057, 0.07517644762992859, -0.7591661667151088, -2.630620728311044, -9.015038429587234, 9362.0, 30146.0, 35388.0, 9362.0, 8.370248794555664, 0.14217358827590942, -0.18638421595096588, 0.03357166051864624, -0.12435875087976456, -0.036749791353940964, 0.9910910129547119, -0.07646937668323517, -0.1739978790283203, 1.481689453125, 1.3740234375, 0.0210723876953125, 1.491943359375
100726, 0.031964246183633804, 0.032069191336631775, 0.032094743102788925, -0.0007222375716082752, -0.0010804737685248256, -0.06255824118852615, -0.0024018106050789356, -0.002378616714850068, -0.09450563788414001, -0.7879897356033325, -1.0199235677719116, 0.07517000287771225, -0.7554651142580919, -2.6383460717724176, -9.017625581894503, 9362.0, 30146.0, 35388.0, 9362.0, 8.370248794555664, 0.20741575956344604, -0.31694793701171875, 0.27356192469596863, -0.12435875087976456, -0.036749791353940964, 0.9910910129547119, -0.07646937668323517, -0.1739978790283203, 1.481689453125, 1.3740234375, 0.0210723876953125, 1.491943359375
100736, 0.03435772657394409, 0.03267007693648338, 0.03373178839683533, -0.0007222375716082752, -0.0010804737685248256, -0.06255824118852615, -0.0024018106050789356, -0.002378616714850068, -0.09450563788414001, -0.7878836393356323, -1.0198910236358643, 0.0753403976559639, -0.7750393583014107, -2.7468796163785782, -9.052158963174408, 9362.0, 30146.0, 35388.0, 9362.0, 8.370248794555664, 0.028371185064315796, -0.09271886199712753, 0.0047478582710027695, -0.12061656266450882, -0.0372338742017746, 0.9926203489303589, -0.110904760658741, -0.1291980743408203, 1.4853515625, 1.352783203125, 0.015350341796875, 1.491943359375
100776, 0.03968695551156998, 0.04221462458372116, 0.032323483377695084, -0.0008492000633850694, -0.0012062675086781383, -0.06737372279167175, -0.002689036773517728, -0.002665967680513859, -0.09833694994449615, -0.7879881858825684, -1.0199352502822876, 0.07517097890377045, -0.7533203387317569, -2.624193471002428, -9.010703398712558, 9362.0, 30146.0, 35388.0, 9362.0, 8.370248794555664, 0.15432517230510712, -0.03567176312208176, 0.0331338569521904, -0.12061953544616699, -0.035345494747161865, 0.9918200373649597, -0.110904760658741, -0.1291980743408203, 1.4853515625, 1.358642578125, 0.0159912109375, 1.494140625
100826, 0.03723231330513954, 0.0437893383204937, 0.03068706765770912, -0.0009922879980877042, -0.0013478916371241212, -0.07238729298114777, -0.003041126299649477, -0.0029986680019646883, -0.1023603081703186, -0.7878720164299011, -1.0198955535888672, 0.07533329725265503, -0.7711455491062219, -2.7459843952775316, -9.049759730874994, 9362.0, 30146.0, 35388.0, 9362.0, 8.370248794555664, -0.20137354731559753, -0.21687203645706177, -0.38654235005378723, -0.11939001828432083, -0.035364314913749695, 0.994238555431366, -0.110904760658741, -0.1291980743408203, 1.4853515625, 1.3974609375, 0.03759765625, 1.494873046875
100836, 0.03713012859225273, 0.04540150985121727, 0.027646703645586967, -0.0009922879980877042, -0.0013478916371241212, -0.07238729298114777, -0.003041126299649477, -0.0029986680019646883, -0.1023603081703186, -0.7879886627197266, -1.0199253559112549, 0.07517294585704803, -0.7477289082197404, -2.6367292045927115, -9.011179168528685, 9362.0, 30146.0, 35388.0, 9362.0, 8.370248794555664, 0.15325434505939484, 0.10917431861162186, -0.3016662299633026, -0.12439515441656113, -0.03759462386369705, 0.9940307140350342, -0.110904760658741, -0.1291980743408203, 1.4853515625, 1.3974609375, 0.03759765625, 1.494873046875
100856, 0.03672349825501442, 0.04520528018474579, 0.02416260726749897, -0.0010868316749110818, -0.001440732041373849, -0.07548446953296661, -0.003265110310167074, -0.0031898284796625376, -0.10413022339344025, -0.7878763675689697, -1.0198864936828613, 0.07533992826938629, -0.7719569250000563, -2.7421417939763444, -9.056418409417178, 9362.0, 30146.0, 35388.0, 9362.0, 8.370248794555664, -0.24605168402194977, 0.03022753819823265, 0.0036707117687910795, -0.12312451004981995, -0.0351189561188221, 0.9944364428520203, -0.110904760658741, -0.1291980743408203, 1.4853515625, 1.3564453125, 0.0156707763671875, 1.494873046875
100886, 0.03481379151344299, 0.04357493668794632, 0.025051627308130264, -0.001188157475553453, -0.001539231394417584, -0.07864267379045486, -0.0034904645290225744, -0.0033756450284272432, -0.1063564196228981, -0.7878723740577698, -1.0198850631713867, 0.07533930242061615, -0.7743199681177132, -2.7353504641359905, -9.047889443924623, 9362.0, 30146.0, 35388.0, 9362.0, 8.370248794555664, -0.010148201137781143, -0.1625295877456665, -0.06855364888906479, -0.12012417614459991, -0.03643367066979408, 0.9935398697853088, -0.110904760658741, -0.1291980743408203, 1.4853515625, 1.3564453125, 0.0156707763671875, 1.494873046875
100936, 0.03221329301595688, 0.03857843205332756, 0.030133269727230072, -0.0013337992131710052, -0.0016789607470855117, -0.0829499214887619, -0.0037875252310186625, -0.003608361817896366, -0.10929013043642044, -0.7878729701042175, -1.0198808908462524, 0.07533922791481018, -0.781877148028747, -2.7521114495294228, -9.049275104823991, 9362.0, 30146.0, 35388.0, 9362.0, 8.370248794555664, -0.147408127784729, 0.031972095370292664, 0.09919697791337967, -0.1199980154633522, -0.03826136514544487, 0.9941754937171936, -0.08775412291288376, -0.0037593841552734375, 1.49560546875, 1.38427734375, 0.027099609375, 1.49560546875
100956, 0.03230230510234833, 0.039588890969753265, 0.03388776257634163, -0.0014505709987133741, -0.0017897041980177164, -0.0862596333026886, -0.003994386177510023, -0.0037739013787359, -0.11135055124759674, -0.7878740429878235, -1.0198793411254883, 0.0753488764166832, -0.7780077329393307, -2.7340643434672813, -9.053877607950968, 9362.0, 30146.0, 35388.0, 9362.0, 8.370248794555664, 0.05252488702535629, -0.15412537753582, -0.30777209997177124, -0.12170275300741196, -0.03579183667898178, 0.991330087184906, -0.08775412291288376, -0.0037593841552734375, 1.49560546875, 1.379150390625, 0.0238189697265625, 1.49560546875
100966, 0.033379655331373215, 0.04120286926627159, 0.03448657691478729, -0.001490824855864048, -0.001827711588703096, -0.0873771607875824, -0.004056334495544434, -0.0038275602273643017, -0.1121552363038063, -0.7878708243370056, -1.0198880434036255, 0.07533363252878189, -0.7786426866033881, -2.7440305476248454, -9.055640061364782, 9362.0, 30146.0, 35388.0, 9362.0, 8.370248794555664, -0.030627811327576637, 0.058313462883234024, 0.19378647208213806, -0.12237934023141861, -0.035649824887514114, 0.991926372051239, -0.08775412291288376, -0.0037593841552734375, 1.49560546875, 1.379150390625, 0.0238189697265625, 1.49560546875
100976, 0.03406761586666107, 0.03849460184574127, 0.03646237403154373, -0.0015317242359742522, -0.0018662617076188326, -0.08850262314081192, -0.004123521503061056, -0.0038824519142508507, -0.11293698847293854, -0.7878736257553101, -1.0198800563812256, 0.07533475011587143, -0.7822247535940875, -2.7390334056341885, -9.058728727316906, 9362.0, 30146.0, 35388.0, 9362.0, 8.370248794555664, -0.0654921680688858, 0.10474538058042526, 0.23271964490413666, -0.11858859658241272, -0.03711450472474098, 0.993639349937439, -0.08775412291288376, -0.0037593841552734375, 1.49560546875, 1.379150390625, 0.0238189697265625, 1.49560546875
