timeTick, roll, pitch, yaw, stateX, stateY, stateZ, stateVX, stateVY, stateVZ, otX0, otY0, otZ0, otRoll0, otPitch0, otYaw0, left wing, pitch motor, yaw motor, right wing, voltage, roll rate, pitch rate, yaw rate, A_x, A_y, A_z, current, i_raw, v_raw, airflow_voltage, airflow_speed, pot_Pitch
78618, -0.0001245553867192939, -0.002025588182732463, 0.0016856284346431494, 0, 0, 0, 0, 0, 0, -0.7761295437812805, -1.0237586498260498, 0.07533390820026398, 0.5168400420752407, -0.8543369377108263, -6.5786403780880045, 0, 0, 0, 0, 0, 0, 0, 0, 0, 0, 0, 0, 0, 0, 0, 0, 0
78628, -0.0006390560884028673, -0.0014849372673779726, -3.4772074286593124e-05, 0.0, 0.0, 1.1478783562779427e-05, 8.116231242638605e-08, 4.993137459052832e-09, 0.0022957567125558853, -0.7761348485946655, -1.023772954940796, 0.07532795518636703, 0.5080573266042021, -0.8470219286748772, -6.58399888536582, 9362.0, 30146.0, 35388.0, 9362.0, 0, -0.10558730363845825, -0.3002989888191223, -0.035872992128133774, -0.0849137008190155, -0.02001344785094261, 1.0247104167938232, 0, 0, 0, 0, 0, 0
78638, -0.00030376476934179664, -0.0022050156258046627, 0.000455906760180369, 1.856543896394669e-08, 1.142153038813376e-09, 4.612066550180316e-05, 3.6098770124226576e-06, 2.4431770384580886e-07, 0.004632984753698111, -0.7761396169662476, -1.0237696170806885, 0.07535329461097717, 0.5109227535650627, -0.8485691208497883, -6.576165745806949, 9362.0, 30146.0, 35388.0, 9362.0, 0, 0.10484553128480911, 0.1948326677083969, -0.018637537956237793, -0.08400769531726837, -0.01976008154451847, 1.024436593055725, 0, 0, 0, 1.406982421875, 0.046966552734375, 0
78648, -0.0005356459296308458, -0.002894321223720908, 0.0016646597068756819, 6.769546700979845e-08, 9.193430017262472e-09, 0.00010475597810000181, 6.247053988772677e-06, 1.3515561931853881e-06, 0.0070944782346487045, -0.7761423587799072, -1.0237596035003662, 0.07533948868513107, 0.509411094431384, -0.8476371668042475, -6.58128001760375, 9362.0, 30146.0, 35388.0, 9362.0, 0, 0.05499931797385216, -0.009544617496430874, 0.14753034710884094, -0.08319845050573349, -0.020499737933278084, 1.0232254266738892, 0, 0, 0, 1.412841796875, 0.0534515380859375, 1.49267578125
78658, -0.0018089176155626774, -0.00108489824924618, -0.00020950926409568638, 1.4947579529689392e-07, 2.5369276457354317e-08, 0.0001869517145678401, 1.0136075616173912e-05, 1.892802060865506e-06, 0.009345057420432568, -0.7761301398277283, -1.0237681865692139, 0.07533340156078339, 0.5085876926757978, -0.8475014320191576, -6.587518737864422, 9362.0, 30146.0, 35388.0, 9362.0, 0, -0.02835856005549431, -0.10690374672412872, -0.17092344164848328, -0.08376552909612656, -0.018533946946263313, 1.0252043008804321, 0, 0, 0, 1.487548828125, 0.1712188720703125, 1.49267578125
78668, -0.0011413610773161054, -0.0010378547012805939, -0.0023432476446032524, 2.7621871367955464e-07, 4.899547434433771e-08, 0.000292367534711957, 1.513695860921871e-05, 2.8854508400399936e-06, 0.011738507077097893, -0.7761279940605164, -1.0237611532211304, 0.0753367692232132, 0.511266507643625, -0.8487811537845289, -6.573138537794236, 9362.0, 30146.0, 35388.0, 9362.0, 0, 0.06667986512184143, 0.2868790924549103, -0.016267357394099236, -0.0834924727678299, -0.02043016627430916, 1.025534749031067, 0, 0, 0, 1.4326171875, 0.0786895751953125, 1.4912109375
78678, -0.0003388574405107647, -0.002784572308883071, -0.0021347429137676954, 4.3710974750865716e-07, 9.372550380248867e-08, 0.00042209599632769823, 1.703934140095953e-05, 6.031719749444164e-06, 0.014207592234015465, -0.7761308550834656, -1.0237600803375244, 0.07534435391426086, 0.5117363690158547, -0.8491165978317099, -6.581829873072705, 9362.0, 30146.0, 35388.0, 9362.0, 0, 0.0725816860795021, 0.21253475546836853, -0.05538901686668396, -0.08333894610404968, -0.022173786535859108, 1.025230884552002, 0, 0, 0, 1.405517578125, 0.0454254150390625, 1.4912109375
78688, -0.0010061258217319846, -0.0060601127333939075, -0.0006007762276567519, 6.166127377582598e-07, 1.6405994074375485e-07, 0.0005765510140918195, 1.8936725609819405e-05, 8.000491106940899e-06, 0.016683809459209442, -0.7761358618736267, -1.0237687826156616, 0.07532560080289841, 0.5108643029916098, -0.8458666166118292, -6.577352315660331, 9362.0, 30146.0, 35388.0, 9362.0, 0, -0.0236757081001997, 0.32778263092041016, 0.10149657726287842, -0.08204206824302673, -0.020816169679164886, 1.0272376537322998, 0, 0, 0, 1.42822265625, 0.0726470947265625, 1.493408203125
78698, -0.000629281799774617, -0.00864063948392868, -0.001031354651786387, 8.304498351208167e-07, 2.470416688993282e-07, 0.0007563810795545578, 2.3979227989912033e-05, 8.626235285191797e-06, 0.019282594323158264, -0.7761266231536865, -1.0237560272216797, 0.07533764094114304, 0.5124098168524156, -0.8403026071132444, -6.576241469547954, 9362.0, 30146.0, 35388.0, 9362.0, 0, -0.08272549510002136, 0.27396154403686523, -0.013534372672438622, -0.0826878547668457, -0.021031755954027176, 1.0238063335418701, 0, 0, 0, 1.34912109375, 0.015380859375, 1.493408203125
78708, -0.0008398107020184398, -0.010340268723666668, -0.0015364791033789515, 1.123423771787202e-06, 3.4213286426165723e-07, 0.0009615154704079032, 3.4726457670331e-05, 1.0375739293522201e-05, 0.02174469642341137, -0.7761269807815552, -1.0237656831741333, 0.07531655579805374, 0.5111025050683291, -0.8485239999359919, -6.583329196944181, 9362.0, 30146.0, 35388.0, 9362.0, 0, 0.00229556648992002, 0.3364766538143158, -0.10020824521780014, -0.08416213095188141, -0.01933116838335991, 1.0264025926589966, 0, 0, 0, 1.437744140625, 0.086029052734375, 1.493408203125
78718, -0.001484450651332736, -0.00918720755726099, -0.0009472579695284367, 1.5465475371456705e-06, 4.514135412136966e-07, 0.0011914802016690373, 4.997256110073067e-05, 1.1489464668557048e-05, 0.024248642846941948, -0.7761234045028687, -1.0237644910812378, 0.07533188909292221, 0.513029711683939, -0.8543315656878576, -6.584750592671857, 9362.0, 30146.0, 35388.0, 9362.0, 7.854546070098877, -0.04261753335595131, -0.16817060112953186, 0.22799544036388397, -0.08357412368059158, -0.019599078223109245, 1.0242971181869507, -0.0857449322938919, 0.0052013397216796875, 1.496337890625, 1.4267578125, 0.070709228515625, 1.493408203125
78728, -0.0010014948202297091, -0.009275054559111595, -0.0027977721765637398, 2.1370115064200945e-06, 5.736752655138844e-07, 0.0014462494291365147, 6.807080353610218e-05, 1.2990708455618005e-05, 0.02670559473335743, -0.7761250138282776, -1.0237622261047363, 0.0753527581691742, 0.509121019713363, -0.8438060783244055, -6.583059886081757, 9362.0, 30146.0, 35388.0, 9362.0, 7.854546070098877, 0.044975508004426956, -0.06947052478790283, -0.08146893233060837, -0.08529626578092575, -0.019803950563073158, 1.0262943506240845, -0.0857449322938919, 0.0052013397216796875, 1.496337890625, 1.4150390625, 0.05596923828125, 1.494140625
78738, -0.0014308299869298935, -0.008640026673674583, -0.0028849414084106684, 2.898371803894406e-06, 7.16612589712895e-07, 0.0017257892759516835, 8.420519588980824e-05, 1.5575194993289188e-05, 0.02920278161764145, -0.7761377692222595, -1.023768424987793, 0.07531660050153732, 0.5088529011696918, -0.8457221491825351, -6.580819193949568, 9362.0, 30146.0, 35388.0, 9362.0, 7.854546070098877, -0.12728829681873322, 0.09280356764793396, 0.06563013792037964, -0.0854271948337555, -0.020489884540438652, 1.0262136459350586, -0.0857449322938919, 0.0052013397216796875, 1.496337890625, 1.39892578125, 0.0390167236328125, 1.494140625
78748, -0.0016026082448661327, -0.009280988946557045, -0.0037833559326827526, 3.821941845671972e-06, 8.811625775706489e-07, 0.0020308836828917265, 0.00010047985415440053, 1.7354361261823215e-05, 0.031816501170396805, -0.7761291265487671, -1.0237706899642944, 0.075328029692173, 0.5134568729631918, -0.8442612863993304, -6.579084738861057, 9362.0, 30146.0, 35388.0, 9362.0, 7.854546070098877, -0.020738540217280388, 0.05470139533281326, -0.27068236470222473, -0.08331127464771271, -0.021961253136396408, 1.0255810022354126, -0.0857449322938919, 0.0052013397216796875, 1.496337890625, 1.4326171875, 0.0786895751953125, 1.49267578125
78758, -0.0015833297511562705, -0.009432313963770866, -0.00308185419999063, 4.902605269307969e-06, 1.0672658845578553e-06, 0.0023616368416696787, 0.00011568103946046904, 1.9873603378073312e-05, 0.034334514290094376, -0.7761253118515015, -1.0237616300582886, 0.07533680647611618, 0.5162965137028152, -0.8500832801970546, -6.5903021040292815, 9362.0, 30146.0, 35388.0, 9362.0, 7.854546070098877, -0.005160550121217966, -0.024147069081664085, -0.014297379180788994, -0.0840003490447998, -0.02144629880785942, 1.027064561843872, -0.0857449322938919, 0.0052013397216796875, 1.496337890625, 1.408447265625, 0.0485382080078125, 1.49267578125
78768, -0.001132496166974306, -0.006548294797539711, -0.002792167942970991, 6.140985533420462e-06, 1.2800815056834836e-06, 0.0027180437464267015, 0.000132001907331869, 2.2688849639962427e-05, 0.03694726899266243, -0.7761363983154297, -1.0237627029418945, 0.07534976303577423, 0.5138237769670013, -0.8461398313329482, -6.5780489681309335, 9362.0, 30146.0, 35388.0, 9362.0, 7.854546070098877, -0.013411206193268299, -0.12013038247823715, 0.053161464631557465, -0.08421643823385239, -0.0190806332975626, 1.0246000289916992, -0.0857449322938919, 0.0052013397216796875, 1.496337890625, 1.41943359375, 0.0612945556640625, 1.493408203125
78778, -0.000492653576657176, -0.005276577081531286, -0.0008931549382396042, 7.5438347266754135e-06, 1.5208694321700023e-06, 0.0031001553870737553, 0.00014844071120023727, 2.544894778111484e-05, 0.039475467056035995, -0.7761229872703552, -1.0237631797790527, 0.07534097135066986, 0.5148920125165082, -0.8478728651692222, -6.571809748878097, 9362.0, 30146.0, 35388.0, 9362.0, 7.854546070098877, 0.2474491000175476, -0.16521239280700684, 0.06283050775527954, -0.08376198261976242, -0.02107325941324234, 1.0246553421020508, -0.0857449322938919, 0.0052013397216796875, 1.496337890625, 1.430419921875, 0.0756378173828125, 1.493408203125
78788, 0.00027052187942899764, -0.0068731303326785564, 8.323622023453936e-05, 9.085671990760602e-06, 1.785288304745336e-06, 0.003506906796246767, 0.00015987351071089506, 2.7408445021137595e-05, 0.0418752022087574, -0.7761584520339966, -1.0237690210342407, 0.07529650628566742, 0.5097777646332022, -0.8387357449583988, -6.5694636685188295, 9362.0, 30146.0, 35388.0, 9362.0, 7.854546070098877, 0.03920648247003555, 0.15812620520591736, 0.013609707355499268, -0.0830533355474472, -0.020904522389173508, 1.0249342918395996, -0.0857449322938919, 0.0052013397216796875, 1.496337890625, 1.34033203125, 0.0166168212890625, 1.494873046875
78798, -0.0005302915233187377, -0.006750382017344236, 0.00012348993914201856, 1.0730687790783122e-05, 2.063693045784021e-06, 0.003937701229006052, 0.00016919680638238788, 2.824058901751414e-05, 0.04428406059741974, -0.7761708498001099, -1.023762822151184, 0.07530318200588226, 0.5042555741222398, -0.8354449360630554, -6.566427754288802, 9362.0, 30146.0, 35388.0, 9362.0, 7.854546070098877, -0.1623963862657547, 0.04854133352637291, 0.01732615940272808, -0.08378371596336365, -0.020094553008675575, 1.0242671966552734, -0.0857449322938919, 0.0052013397216796875, 1.496337890625, 1.387939453125, 0.0297393798828125, 1.494873046875
78808, 0.0002487676974851638, -0.003953468054533005, 0.00022767367772758007, 1.2482932106649969e-05, 2.343726691833581e-06, 0.004392516333609819, 0.00018124694179277867, 2.7799593226518482e-05, 0.04667937755584717, -0.7761651277542114, -1.023767352104187, 0.07531767338514328, 0.505069426565398, -0.840399125106245, -6.569967088361447, 9362.0, 30146.0, 35388.0, 9362.0, 7.854546070098877, 0.05988848954439163, -0.2944018542766571, 0.003264184109866619, -0.08363968133926392, -0.018377244472503662, 1.0267592668533325, -0.0857449322938919, 0.0052013397216796875, 1.496337890625, 1.330078125, 0.0206298828125, 1.49560546875
78818, 0.0014594722306355834, -0.0013658570824190974, -5.470324322232045e-05, 1.435470585420262e-05, 2.6263815016136505e-06, 0.00487216841429472, 0.00019298224651720375, 2.8696435038000345e-05, 0.049251411110162735, -0.776164710521698, -1.023764729499817, 0.07530023902654648, 0.5078399535289552, -0.839029523351229, -6.573349481907281, 9362.0, 30146.0, 35388.0, 9362.0, 7.854546070098877, 0.25308164954185486, 0.041451312601566315, 0.1493987888097763, -0.08423808962106705, -0.02050575613975525, 1.0256950855255127, -0.0642332062125206, -0.14711761474609375, 1.48388671875, 1.385009765625, 0.0276336669921875, 1.49560546875
78828, 0.0017353077419102192, 4.692795846494846e-05, -0.0013097107876092196, 1.631927261769306e-05, 2.9111597541486844e-06, 0.005377707537263632, 0.00019981339573860168, 2.8204152840771712e-05, 0.051856786012649536, -0.7761555314064026, -1.0237635374069214, 0.07531709223985672, 0.5107438802652909, -0.8328220451342077, -6.567757748933515, 9362.0, 30146.0, 35388.0, 9362.0, 7.854546070098877, -0.05510776489973068, 0.028103163465857506, -0.031358275562524796, -0.08123784512281418, -0.02048831805586815, 1.0234711170196533, -0.0642332062125206, -0.14711761474609375, 1.48388671875, 1.37841796875, 0.023406982421875, 1.49267578125
78838, 0.003917674068361521, -0.00016130822768900543, -0.0012965728528797626, 1.8329385056858882e-05, 3.180402472935384e-06, 0.005908229388296604, 0.00020214999676682055, 2.563281850598287e-05, 0.054247960448265076, -0.7761626243591309, -1.023772120475769, 0.07530269026756287, 0.5014981449061146, -0.8390345768908958, -6.5686564181165865, 9362.0, 30146.0, 35388.0, 9362.0, 7.854546070098877, 0.21425142884254456, -0.275346577167511, -0.18592384457588196, -0.0822838544845581, -0.02184929884970188, 1.0254237651824951, -0.0642332062125206, -0.14711761474609375, 1.48388671875, 1.41796875, 0.05950927734375, 1.49267578125
78848, 0.003598644398152828, -0.001622424111701548, -0.0006441853474825621, 2.03504732780857e-05, 3.4215163395856507e-06, 0.006462546996772289, 0.00020207623310852796, 2.2499831175082363e-05, 0.05661594867706299, -0.7761657238006592, -1.0237698554992676, 0.07529576867818832, 0.5082548543776498, -0.8385692203835902, -6.5720892712783, 9362.0, 30146.0, 35388.0, 9362.0, 7.854546070098877, 0.10784564912319183, 0.0381946936249733, 0.20577223598957062, -0.08330539613962173, -0.021346749737858772, 1.0273114442825317, -0.0642332062125206, -0.14711761474609375, 1.48388671875, 1.4443359375, 0.0959930419921875, 1.49560546875
78858, 0.003558786353096366, 0.00013549985305871814, -0.0002841739624273032, 2.2372652892954648e-05, 3.6120691220276058e-06, 0.007041970267891884, 0.0002024274435825646, 1.5625480955350213e-05, 0.05926908552646637, -0.7761776447296143, -1.0237665176391602, 0.07529390603303909, 0.5111843664899093, -0.8420818372012775, -6.556925439036895, 9362.0, 30146.0, 35388.0, 9362.0, 7.854546070098877, 0.007969647645950317, -0.2884073555469513, -0.05828738585114479, -0.08306525647640228, -0.02277289144694805, 1.0285598039627075, -0.0642332062125206, -0.14711761474609375, 1.48388671875, 1.36962890625, 0.01910400390625, 1.49560546875
78868, 0.0040860953740775585, -0.0004776395217049867, 0.0007289095083251595, 2.441120523144491e-05, 3.7366521610238124e-06, 0.0076484219171106815, 0.00020519881218206137, 9.293047696701251e-06, 0.06202160567045212, -0.7761521935462952, -1.0237637758255005, 0.07530436664819717, 0.5054849755316475, -0.8361194712524593, -6.570697430621518, 9362.0, 30146.0, 35388.0, 9362.0, 7.854546070098877, 0.1899542510509491, 0.07174497097730637, 0.05480049178004265, -0.08311931043863297, -0.02198292687535286, 1.0270594358444214, -0.0642332062125206, -0.14711761474609375, 1.48388671875, 1.4384765625, 0.0871429443359375, 1.4912109375
78878, 0.0033153053373098373, 0.000857942271977663, 0.00040301395347341895, 2.646200118761044e-05, 3.7982674712111475e-06, 0.008282305672764778, 0.00020498967205639929, 3.004869540745858e-06, 0.06475545465946198, -0.7761641144752502, -1.0237702131271362, 0.07528966665267944, 0.5051678753810374, -0.8476450527622603, -6.563129817129978, 9362.0, 30146.0, 35388.0, 9362.0, 7.854546070098877, -0.11518613249063492, -0.15238980948925018, 0.12309930473566055, -0.08423711359500885, -0.020817164331674576, 1.0233091115951538, -0.0642332062125206, -0.14711761474609375, 1.48388671875, 1.452392578125, 0.10870361328125, 1.4912109375
78888, 0.0020384155213832855, 0.003960235044360161, 0.0017036449862644076, 2.8516089514596388e-05, 3.792458528550924e-06, 0.00894216075539589, 0.0002057707024505362, -4.13357702200301e-06, 0.06721597164869308, -0.7761632204055786, -1.023770809173584, 0.07530185580253601, 0.5021886481432684, -0.8380215940797768, -6.573614846059954, 9362.0, 30146.0, 35388.0, 9362.0, 7.854546070098877, -0.010434867814183235, -0.24920643866062164, 0.09683728963136673, -0.08231240510940552, -0.022223833948373795, 1.0240294933319092, -0.0642332062125206, -0.14711761474609375, 1.48388671875, 1.326416015625, 0.022705078125, 1.48828125
78898, 0.0022536835167557, 0.0013624129351228476, 0.0024230724666267633, 3.056627610931173e-05, 3.7220602280285675e-06, 0.009626084938645363, 0.00020413937454577535, -9.893686183204409e-06, 0.06956937164068222, -0.7761644124984741, -1.0237630605697632, 0.0753050148487091, 0.5059349992506768, -0.8450430696476872, -6.570178241653833, 9362.0, 30146.0, 35388.0, 9362.0, 7.854546070098877, 0.10091140866279602, 0.46073099970817566, 0.027359437197446823, -0.08414878696203232, -0.021522562950849533, 1.0245273113250732, -0.0642332062125206, -0.14711761474609375, 1.48388671875, 1.365234375, 0.0175933837890625, 1.48828125
78908, 0.002708223182708025, 0.0004042312502861023, -0.00012177229655208066, 3.2572963391430676e-05, 3.6052585983270546e-06, 0.010333393700420856, 0.00019730361236725003, -1.3475472769641783e-05, 0.07189276069402695, -0.7761633992195129, -1.0237617492675781, 0.07531224936246872, 0.5008653768834455, -0.8494176129520383, -6.566830936241811, 9362.0, 30146.0, 35388.0, 9362.0, 7.854546070098877, 0.08489055931568146, 0.03689116612076759, -0.39053070545196533, -0.08482015132904053, -0.0201695766299963, 1.026776671409607, -0.0642332062125206, -0.14711761474609375, 1.48388671875, 1.433349609375, 0.0797576904296875, 1.491943359375
78918, 0.003955330699682236, 0.0022792217787355185, -0.0010151301976293325, 3.453403041930869e-05, 3.450704070928623e-06, 0.011065182276070118, 0.00019495277956593782, -1.7455693523515947e-05, 0.0744652971625328, -0.7761754393577576, -1.02376389503479, 0.07527989894151688, 0.5073158176398077, -0.8468107684526274, -6.567455194319664, 9362.0, 30146.0, 35388.0, 9362.0, 7.854546070098877, -0.016916830092668533, -0.06487203389406204, -0.14950528740882874, -0.08214474469423294, -0.019997918978333473, 1.0257210731506348, -0.07708070427179337, -0.09335899353027344, 1.48828125, 1.437744140625, 0.086029052734375, 1.491943359375
78928, 0.00423564063385129, 0.002175497356802225, -0.001871539861895144, 3.64800107490737e-05, 3.2523778372706147e-06, 0.01182220596820116, 0.00019416221766732633, -2.2263400751398876e-05, 0.07693987339735031, -0.7761625647544861, -1.0237555503845215, 0.07529546320438385, 0.5004340860759869, -0.8429004862029501, -6.568193278871832, 9362.0, 30146.0, 35388.0, 9362.0, 7.854546070098877, -0.012378103099763393, -0.09212126582860947, -0.14047323167324066, -0.08308516442775726, -0.02078421041369438, 1.0242500305175781, -0.07708070427179337, -0.09335899353027344, 1.48828125, 1.453125, 0.1099090576171875, 1.4912109375
78938, 0.003965071868151426, 0.0015044277533888817, -0.0011566493194550276, 3.840164208668284e-05, 2.9950522275612457e-06, 0.012603641487658024, 0.0001901681680465117, -2.9213415473350324e-05, 0.07934756577014923, -0.7761603593826294, -1.0237678289413452, 0.07531421631574631, 0.5059761549629166, -0.8442574637517453, -6.562780052008029, 9362.0, 30146.0, 35388.0, 9362.0, 7.854546070098877, -0.022892853245139122, 0.10547381639480591, 0.183115616440773, -0.08501393347978592, -0.020277343690395355, 1.0263419151306152, -0.07708070427179337, -0.09335899353027344, 1.48828125, 1.365966796875, 0.017791748046875, 1.4912109375
78948, 0.00485340366140008, -0.0010259017581120133, -0.003992742858827114, 4.0284219721797854e-05, 2.6657282887754263e-06, 0.013409695588052273, 0.0001863771176431328, -3.663957249955274e-05, 0.08186358213424683, -0.7761675119400024, -1.0237623453140259, 0.07528042793273926, 0.5039288567374207, -0.8431354506771527, -6.562805352788671, 9362.0, 30146.0, 35388.0, 9362.0, 7.854546070098877, 0.003398928791284561, 0.13718795776367188, -0.33510759472846985, -0.08102230727672577, -0.020286213606595993, 1.025835633277893, -0.07708070427179337, -0.09335899353027344, 1.48828125, 1.4560546875, 0.1147003173828125, 1.494873046875
78958, 0.006173281464725733, -0.001197328558191657, -0.005392517428845167, 4.213477222947404e-05, 2.2644951513939304e-06, 0.014241239987313747, 0.00018384697614237666, -4.3646839912980795e-05, 0.08444563299417496, -0.7761817574501038, -1.023751139640808, 0.07529010623693466, 0.5124290931109599, -0.8420257231322239, -6.562961210695952, 9362.0, 30146.0, 35388.0, 9362.0, 7.854546070098877, 0.11358892172574997, -0.02024613693356514, -0.23269745707511902, -0.08497923612594604, -0.021160215139389038, 1.025376796722412, -0.07708070427179337, -0.09335899353027344, 1.48828125, 1.43115234375, 0.0766143798828125, 1.494873046875
78968, 0.005295537877827883, -0.0027252219151705503, -0.0073985084891319275, 4.398225064505823e-05, 1.785398580977926e-06, 0.015098427422344685, 0.00018565591017249972, -5.2231145673431456e-05, 0.08699222654104233, -0.7761666178703308, -1.0237736701965332, 0.07530496269464493, 0.5052701561492603, -0.8373263842353822, -6.5727463228705005, 9362.0, 30146.0, 35388.0, 9362.0, 7.854546070098877, -0.2861257493495941, 0.24371111392974854, -0.1095767542719841, -0.08498837053775787, -0.0211249440908432, 1.0234310626983643, -0.07708070427179337, -0.09335899353027344, 1.48828125, 1.46337890625, 0.1270751953125, 1.48974609375
78978, 0.006395307369530201, -0.002749072387814522, -0.007544585503637791, 4.5849301386624575e-05, 1.2089640222257003e-06, 0.015980171039700508, 0.00018781695689540356, -6.301963730948046e-05, 0.08935698866844177, -0.7761655449867249, -1.0237675905227661, 0.07530196756124496, 0.5042642542432397, -0.8370526873857216, -6.569125089503931, 9362.0, 30146.0, 35388.0, 9362.0, 7.854546070098877, 0.09533078223466873, 0.009792504832148552, -0.12935496866703033, -0.08400259912014008, -0.021379005163908005, 1.0235013961791992, -0.07708070427179337, -0.09335899353027344, 1.48828125, 1.48095703125, 0.1587677001953125, 1.48974609375
78988, 0.006830223836004734, -0.002582316054031253, -0.008180282078683376, 4.7751334932399914e-05, 5.323792038325337e-07, 0.016885114833712578, 0.0001925909164128825, -7.234098302433267e-05, 0.09163211286067963, -0.7761767506599426, -1.023764729499817, 0.07527140527963638, 0.5077131080818494, -0.8422649934258857, -6.5658932117460145, 9362.0, 30146.0, 35388.0, 9362.0, 7.854546070098877, 0.08845693618059158, 0.09492240846157074, -0.004101112484931946, -0.08449113368988037, -0.020387861877679825, 1.0245473384857178, -0.07708070427179337, -0.09335899353027344, 1.48828125, 1.424560546875, 0.0678253173828125, 1.490478515625
78998, 0.00656425766646862, -0.000893633347004652, -0.009704012423753738, 4.970133522874676e-05, -2.470978301971627e-07, 0.017813215032219887, 0.00019740239076782018, -8.357234764844179e-05, 0.09398846328258514, -0.7761654853820801, -1.023762583732605, 0.07529406994581223, 0.5083929975341395, -0.8410051615795737, -6.570766506503939, 9362.0, 30146.0, 35388.0, 9362.0, 7.854546070098877, 0.026550505310297012, -0.22022590041160583, -0.2410135269165039, -0.08463943004608154, -0.018603354692459106, 1.0267542600631714, -0.07708070427179337, -0.09335899353027344, 1.48828125, 1.37548828125, 0.021820068359375, 1.490478515625
79008, 0.007055444177240133, -0.0015461398288607597, -0.010003671981394291, 5.1698036259040236e-05, -1.1428273865021765e-06, 0.01876593753695488, 0.0002018618251895532, -9.556181612424552e-05, 0.09655656665563583, -0.776161789894104, -1.0237659215927124, 0.07529190182685852, 0.5036650401441165, -0.8440418849728246, -6.566221961466073, 9362.0, 30146.0, 35388.0, 9362.0, 7.854546070098877, 0.10056369006633759, -0.08213963359594345, -0.09369736164808273, -0.08437497168779373, -0.021539481356739998, 1.0261222124099731, -0.07708070427179337, -0.09335899353027344, 1.48828125, 1.456787109375, 0.115966796875, 1.48974609375
79018, 0.006361302919685841, -0.0016596866771578789, -0.009308865293860435, 5.372449959395453e-05, -2.156151367671555e-06, 0.019744673743844032, 0.00020346093515399843, -0.00010712556832004339, 0.0991910919547081, -0.7761672139167786, -1.0237622261047363, 0.07526624202728271, 0.5061185900586734, -0.8357729575565429, -6.571309816699424, 9362.0, 30146.0, 35388.0, 9362.0, 7.854546070098877, -0.06272394210100174, -0.17385797202587128, -0.026078125461935997, -0.08288239687681198, -0.019332457333803177, 1.027883529663086, -0.057170283049345016, -0.04855918884277344, 1.491943359375, 1.4677734375, 0.1347198486328125, 1.48974609375
79028, 0.006655900273472071, -0.0016599427908658981, -0.009730573743581772, 5.577269257628359e-05, -3.2894397463678615e-06, 0.02074982039630413, 0.00020618285634554923, -0.00011950004409300163, 0.10183863341808319, -0.7761687636375427, -1.0237675905227661, 0.0752851665019989, 0.5095066422809477, -0.8402112474841772, -6.568176777330379, 9362.0, 30146.0, 35388.0, 9362.0, 7.854546070098877, 0.19379822909832, 0.22486603260040283, 0.2991688847541809, -0.08289477229118347, -0.02125624753534794, 1.0266731977462769, -0.057170283049345016, -0.04855918884277344, 1.491943359375, 1.45166015625, 0.107452392578125, 1.49267578125
79038, 0.005920399446040392, -0.00021661903883796185, -0.00863736867904663, 5.7849094446282834e-05, -4.54033215646632e-06, 0.02178110182285309, 0.000209097343031317, -0.00013069174019619823, 0.10441795736551285, -0.7761582732200623, -1.0237559080123901, 0.07530636340379715, 0.502912518860338, -0.8421137401485055, -6.563847959860055, 9362.0, 30146.0, 35388.0, 9362.0, 7.854546070098877, 0.019680138677358627, -0.06204177439212799, 0.17383791506290436, -0.083048976957798, -0.0212700292468071, 1.0285128355026245, -0.057170283049345016, -0.04855918884277344, 1.491943359375, 1.46044921875, 0.12200927734375, 1.49267578125
79048, 0.005358996335417032, -0.00073793507181108, -0.007534061558544636, 5.995466563035734e-05, -5.905831130803563e-06, 0.022839047014713287, 0.00021194816508796066, -0.0001423726644134149, 0.1071714237332344, -0.7761590480804443, -1.0237637758255005, 0.07528850436210632, 0.5033426248945824, -0.8346778490986821, -6.5685805326682924, 9362.0, 30146.0, 35388.0, 9362.0, 7.854546070098877, -0.06753677129745483, -0.23170161247253418, -0.007757470011711121, -0.08435259759426117, -0.018889006227254868, 1.0275764465332031, -0.057170283049345016, -0.04855918884277344, 1.491943359375, 1.43701171875, 0.085052490234375, 1.491943359375
79058, 0.006340332329273224, 0.000676671857945621, -0.00610603392124176, 6.207604747032747e-05, -7.381698196695652e-06, 0.023924855515360832, 0.00021235397434793413, -0.00015277310740202665, 0.10999079048633575, -0.7761683464050293, -1.0237735509872437, 0.07527046650648117, 0.5077944859229433, -0.8391278110169367, -6.563734291261798, 9362.0, 30146.0, 35388.0, 9362.0, 7.854546070098877, 0.1839754730463028, -0.09731001406908035, 0.04591372236609459, -0.08288948982954025, -0.02104032039642334, 1.0239722728729248, -0.057170283049345016, -0.04855918884277344, 1.491943359375, 1.453857421875, 0.1110687255859375, 1.491943359375
79068, 0.00561264343559742, 0.000117579082143493, -0.005787753500044346, 6.420605495804921e-05, -8.95643825060688e-06, 0.025036849081516266, 0.00021358791855163872, -0.00016221616533584893, 0.11240842938423157, -0.7761608362197876, -1.0237611532211304, 0.07528731226921082, 0.5069541084559086, -0.8395676159272512, -6.562668303407605, 9362.0, 30146.0, 35388.0, 9362.0, 7.854546070098877, -0.07149319350719452, -0.0009851189097389579, 0.05156917870044708, -0.08163459599018097, -0.020570630207657814, 1.024680495262146, -0.057170283049345016, -0.04855918884277344, 1.491943359375, 1.475830078125, 0.1492767333984375, 1.493408203125
79078, 0.006440373603254557, -0.00024694931926205754, -0.006956380791962147, 6.633599696215242e-05, -1.0634204045345541e-05, 0.02617291547358036, 0.00021242329967208207, -0.00017330652917735279, 0.11480516940355301, -0.776165783405304, -1.02376389503479, 0.07528083771467209, 0.5040535065786181, -0.8403731623278645, -6.568075810542292, 9362.0, 30146.0, 35388.0, 9362.0, 7.854546070098877, 0.17550894618034363, 0.3622174859046936, -0.03323162719607353, -0.08379574120044708, -0.02122575044631958, 1.0269525051116943, -0.057170283049345016, -0.04855918884277344, 1.491943359375, 1.44580078125, 0.098236083984375, 1.493408203125
79088, 0.007873312570154667, -0.00010250506602460518, -0.0074876719154417515, 6.845919415354729e-05, -1.2416559911798686e-05, 0.027333645150065422, 0.0002122317091561854, -0.00018320127855986357, 0.11734101176261902, -0.7761620283126831, -1.0237685441970825, 0.07528125494718552, 0.5083968673571492, -0.8383081545102016, -6.568040112512106, 9362.0, 30146.0, 35388.0, 9362.0, 7.854546070098877, 0.10778374969959259, -0.12294173985719681, -0.012010208331048489, -0.08367356657981873, -0.022318392992019653, 1.0287219285964966, -0.057170283049345016, -0.04855918884277344, 1.491943359375, 1.36376953125, 0.017181396484375, 1.490478515625
79098, 0.0079659353941679, -0.0002791371080093086, -0.008503337390720844, 7.058367918943986e-05, -1.4305291188065894e-05, 0.028521141037344933, 0.00021265809482429177, -0.00019461539341136813, 0.12015858292579651, -0.7761743068695068, -1.0237637758255005, 0.07530124485492706, 0.5088512601480454, -0.8427001644386962, -6.567439015943922, 9362.0, 30146.0, 35388.0, 9362.0, 7.854546070098877, -0.039354801177978516, 0.013834208250045776, 0.015213492326438427, -0.08450525254011154, -0.022267121821641922, 1.0249723196029663, -0.057170283049345016, -0.04855918884277344, 1.491943359375, 1.423095703125, 0.06591796875, 1.490478515625
79108, 0.009004779160022736, -0.004291204735636711, -0.007286195643246174, 7.271115464391187e-05, -1.6320640497724526e-05, 0.029735777527093887, 0.0002128442720277235, -0.0002084587176796049, 0.12276899814605713, -0.7761548161506653, -1.0237700939178467, 0.07528584450483322, 0.5074013364081648, -0.8448868577054895, -6.5664844058298355, 9362.0, 30146.0, 35388.0, 9362.0, 7.854546070098877, -0.028103873133659363, 0.5319669842720032, 0.13631291687488556, -0.08386258035898209, -0.021442482247948647, 1.0245065689086914, -0.057170283049345016, -0.04855918884277344, 1.491943359375, 1.445068359375, 0.0970306396484375, 1.493408203125
79118, 0.009379287250339985, -0.0036800263915210962, -0.006013837177306414, 7.484203524654731e-05, -1.8475080651114695e-05, 0.03097539022564888, 0.0002134988026227802, -0.00022247266315389425, 0.12515407800674438, -0.7761708498001099, -1.0237598419189453, 0.07529173046350479, 0.5109110538791323, -0.8408859035211833, -6.564763122361957, 9362.0, 30146.0, 35388.0, 9362.0, 7.854546070098877, 0.053276754915714264, -0.4817107319831848, -0.12148461490869522, -0.0832441970705986, -0.020280621945858, 1.0256938934326172, -0.0746578797698021, -0.1291980743408203, 1.4853515625, 1.456787109375, 0.115966796875, 1.493408203125
79128, 0.0106471823528409, -0.0025586436968296766, -0.004778472241014242, 7.701468712184578e-05, -2.077886529150419e-05, 0.032239433377981186, 0.00022100504429545254, -0.0002383004321018234, 0.12765486538410187, -0.7761751413345337, -1.0237643718719482, 0.07528620213270187, 0.5051125429587418, -0.8451224994267363, -6.566097948470192, 9362.0, 30146.0, 35388.0, 9362.0, 7.854546070098877, 0.17252033948898315, 0.042564671486616135, 0.24036113917827606, -0.08474372327327728, -0.019615815952420235, 1.025600552558899, -0.0746578797698021, -0.1291980743408203, 1.4853515625, 1.46044921875, 0.12200927734375, 1.489013671875
79138, 0.011278639547526836, 0.0007142729591578245, -0.0063157035037875175, 7.925703539513052e-05, -2.3244221665663645e-05, 0.03352852538228035, 0.00022741655993741006, -0.0002548260090406984, 0.13016407191753387, -0.7761580348014832, -1.0237659215927124, 0.07528312504291534, 0.5077504323599926, -0.8435989087239193, -6.565717799326898, 9362.0, 30146.0, 35388.0, 9362.0, 7.854546070098877, 0.17252033948898315, 0.042564671486616135, 0.24036113917827606, -0.08540172129869461, -0.020029574632644653, 1.0252432823181152, -0.0746578797698021, -0.1291980743408203, 1.4853515625, 1.411376953125, 0.05181884765625, 1.489013671875
79148, 0.010792918503284454, 0.002914606826379895, -0.007391119841486216, 8.155365503625944e-05, -2.5885952709359117e-05, 0.034842655062675476, 0.0002317643811693415, -0.00027354806661605835, 0.13266250491142273, -0.7761602997779846, -1.023768424987793, 0.07528036832809448, 0.504654341806332, -0.8423236522260993, -6.567007352061744, 9362.0, 30146.0, 35388.0, 9362.0, 7.854546070098877, 0.20674076676368713, -0.1534533053636551, -0.15086662769317627, -0.08346368372440338, -0.02095712162554264, 1.0252262353897095, -0.0746578797698021, -0.1291980743408203, 1.4853515625, 1.41357421875, 0.0542449951171875, 1.48974609375
79158, 0.010676709935069084, 0.004317356273531914, -0.00840633362531662, 8.38650157675147e-05, -2.8720416594296694e-05, 0.03618162125349045, 0.00023041341046337038, -0.0002933238574769348, 0.1351313591003418, -0.7761663794517517, -1.023764967918396, 0.07526236027479172, 0.5009684257230742, -0.8421436578843782, -6.56584580327421, 9362.0, 30146.0, 35388.0, 9362.0, 7.854546070098877, -0.04524191841483116, -0.12131602317094803, 0.01327164750546217, -0.08421846479177475, -0.020257072523236275, 1.0259071588516235, -0.0746578797698021, -0.1291980743408203, 1.4853515625, 1.4501953125, 0.1050872802734375, 1.48974609375
79168, 0.009816475212574005, 0.006486829370260239, -0.00944333616644144, 8.614354010205716e-05, -3.174842640873976e-05, 0.03754556551575661, 0.00022523004736285657, -0.0003122731577605009, 0.1376577913761139, -0.7761622667312622, -1.0237572193145752, 0.0752822682261467, 0.5047732802437799, -0.8485503178918066, -6.569139861403889, 9362.0, 30146.0, 35388.0, 9362.0, 7.854546070098877, -0.07478180527687073, -0.31027644872665405, -0.3532697856426239, -0.08458444476127625, -0.020650453865528107, 1.0253559350967407, -0.0746578797698021, -0.1291980743408203, 1.4853515625, 1.43701171875, 0.085052490234375, 1.49560546875
79178, 0.010718638077378273, 0.005770833697170019, -0.012055803090333939, 8.835791231831536e-05, -3.4964912629220635e-05, 0.038934800773859024, 0.00021754836780019104, -0.00033098607673309743, 0.1401900202035904, -0.7761569619178772, -1.0237661600112915, 0.07528409361839294, 0.4998861873428872, -0.8376481918084551, -6.5714140736782225, 9362.0, 30146.0, 35388.0, 9362.0, 7.854546070098877, 0.14079290628433228, 0.2959159314632416, -0.24753700196743011, -0.08559713512659073, -0.019555045291781425, 1.0249682664871216, -0.0746578797698021, -0.1291980743408203, 1.4853515625, 1.406982421875, 0.046966552734375, 1.49560546875
79188, 0.01082388125360012, 0.008887170813977718, -0.014171411283314228, 9.047646017279476e-05, -3.836090400000103e-05, 0.040348973125219345, 0.00020619099086616188, -0.00034825020702555776, 0.1426447182893753, -0.7761697173118591, -1.0237669944763184, 0.07526133209466934, 0.5021181974395803, -0.8466335917847232, -6.566613819577232, 9362.0, 30146.0, 35388.0, 9362.0, 7.854546070098877, 0.023241879418492317, -0.2450692057609558, -0.28320834040641785, -0.08322805911302567, -0.020451504737138748, 1.0228651762008667, -0.0746578797698021, -0.1291980743408203, 1.4853515625, 1.458251953125, 0.1184234619140625, 1.4912109375
79198, 0.01053333468735218, 0.006801760755479336, -0.015489195473492146, 9.248775313608348e-05, -4.193736822344363e-05, 0.04178725183010101, 0.0001959387882379815, -0.00036704697413370013, 0.14501161873340607, -0.7761512398719788, -1.0237641334533691, 0.07529499381780624, 0.5092356811905064, -0.8347466127073631, -6.567715277450468, 9362.0, 30146.0, 35388.0, 9362.0, 7.854546070098877, -0.19633957743644714, 0.33376121520996094, -0.019940348342061043, -0.08380864560604095, -0.021182475611567497, 1.0258755683898926, -0.0746578797698021, -0.1291980743408203, 1.4853515625, 1.395263671875, 0.035675048828125, 1.4912109375
79208, 0.010987109504640102, 0.007472955156117678, -0.01797500066459179, 9.436918480787426e-05, -4.570273085846566e-05, 0.043249282985925674, 0.0001804342755349353, -0.0003860131255351007, 0.14739489555358887, -0.7761591076850891, -1.0237617492675781, 0.07527215033769608, 0.5036304870166946, -0.841189622317728, -6.576641283252165, 9362.0, 30146.0, 35388.0, 9362.0, 7.854546070098877, 0.03026784211397171, -0.09106618911027908, -0.16870492696762085, -0.08306978642940521, -0.01851002499461174, 1.0259130001068115, -0.0746578797698021, -0.1291980743408203, 1.4853515625, 1.465576171875, 0.130889892578125, 1.493408203125
79218, 0.010530791245400906, 0.005944522097706795, -0.016913898289203644, 9.611374116502702e-05, -4.9655391194391996e-05, 0.04473613575100899, 0.00016844618949107826, -0.0004045390523970127, 0.1499757468700409, -0.7761646509170532, -1.0237634181976318, 0.07527875900268555, 0.5058734927109999, -0.842934371188278, -6.565886019346706, 9362.0, 30146.0, 35388.0, 9362.0, 7.854546070098877, -0.04490029811859131, -0.06522449851036072, 0.017201103270053864, -0.0842360407114029, -0.019283726811408997, 1.0257384777069092, -0.07804529368877411, -0.1739978790283203, 1.481689453125, 1.395263671875, 0.035675048828125, 1.493408203125
79228, 0.010158872231841087, 0.009716695174574852, -0.016834009438753128, 9.773258352652192e-05, -5.379719004849903e-05, 0.04624825716018677, 0.00015538888692390174, -0.0004238015098962933, 0.15244901180267334, -0.7761598825454712, -1.0237617492675781, 0.07528994977474213, 0.5102050359371691, -0.8365645857435311, -6.56779592832461, 9362.0, 30146.0, 35388.0, 9362.0, 7.854546070098877, -0.05828295275568962, -0.250510036945343, 0.011700053699314594, -0.08526133745908737, -0.021168339997529984, 1.025864839553833, -0.07804529368877411, -0.1739978790283203, 1.481689453125, 1.435546875, 0.0829315185546875, 1.494140625
79238, 0.011121498420834541, 0.008563299663364887, -0.015795685350894928, 9.923421748680994e-05, -5.812771269120276e-05, 0.04778565093874931, 0.00014476795331574976, -0.00044228648766875267, 0.15503022074699402, -0.7761706113815308, -1.0237528085708618, 0.07524687051773071, 0.5032942663162323, -0.8450982272058241, -6.567374620658586, 9362.0, 30146.0, 35388.0, 9362.0, 7.854546070098877, 0.13134033977985382, 0.24361933767795563, 0.147626593708992, -0.08422583341598511, -0.019962575286626816, 1.0255316495895386, -0.07804529368877411, -0.1739978790283203, 1.481689453125, 1.382080078125, 0.0256195068359375, 1.494140625
79248, 0.010607104748487473, 0.006749066058546305, -0.01606885716319084, 0.00010059658234240487, -6.263972318265587e-05, 0.04934835433959961, 0.00012775558570865542, -0.00046015690895728767, 0.157510906457901, -0.7761656045913696, -1.0237631797790527, 0.07528257369995117, 0.509203537011888, -0.8421750793713159, -6.561842366752773, 9362.0, 30146.0, 35388.0, 9362.0, 7.854546070098877, -0.19467833638191223, 0.18833597004413605, 0.013631600886583328, -0.08183345943689346, -0.016947541385889053, 1.0254004001617432, -0.07804529368877411, -0.1739978790283203, 1.481689453125, 1.41357421875, 0.0542449951171875, 1.48974609375
79258, 0.010120533406734467, 0.007061279844492674, -0.016307242214679718, 0.00010179894889006391, -6.733888585586101e-05, 0.05093584954738617, 0.00011279636964900419, -0.00047965324483811855, 0.15998850762844086, -0.776155948638916, -1.023768663406372, 0.07526886463165283, 0.501471542080253, -0.8403401409840399, -6.574784598976238, 9362.0, 30146.0, 35388.0, 9362.0, 7.854546070098877, 0.09970439225435257, -0.03496977686882019, -0.1704469472169876, -0.08301840722560883, -0.018531756475567818, 1.0260778665542603, -0.07804529368877411, -0.1739978790283203, 1.481689453125, 1.339599609375, 0.0168914794921875, 1.48974609375
79268, 0.009829121641814709, 0.00710801687091589, -0.01572062075138092, 0.0001028676051646471, -7.222856947919354e-05, 0.052548494189977646, 0.00010092098091263324, -0.0004982618265785277, 0.16254112124443054, -0.7761631608009338, -1.0237613916397095, 0.07528229057788849, 0.5053344879516842, -0.8374324575654271, -6.5689458099756175, 9362.0, 30146.0, 35388.0, 9362.0, 7.854546070098877, -0.0019764630123972893, 0.027527598664164543, -0.10571873933076859, -0.08112023025751114, -0.021033242344856262, 1.0243501663208008, -0.07804529368877411, -0.1739978790283203, 1.481689453125, 1.47802734375, 0.1532745361328125, 1.489013671875
79278, 0.009937826544046402, 0.0050634401850402355, -0.016517510637640953, 0.00010381484753452241, -7.729994831606746e-05, 0.05418601259589195, 8.85255794855766e-05, -0.0005160019500181079, 0.16496315598487854, -0.7761636972427368, -1.0237549543380737, 0.0752941220998764, 0.506986788944941, -0.844823694210902, -6.569424893558329, 9362.0, 30146.0, 35388.0, 9362.0, 7.854546070098877, 0.027375830337405205, 0.24575282633304596, 0.1265234798192978, -0.08265066146850586, -0.019706204533576965, 1.0240387916564941, -0.07804529368877411, -0.1739978790283203, 1.481689453125, 1.4677734375, 0.1347198486328125, 1.489013671875
79288, 0.008502411656081676, 0.006185565143823624, -0.01775297522544861, 0.00010463775106472895, -8.254613931057975e-05, 0.05584755539894104, 7.613982597831637e-05, -0.0005332405562512577, 0.1673455685377121, -0.7761574387550354, -1.0237716436386108, 0.07527224719524384, 0.5075268680516062, -0.8490401436517914, -6.558478417316736, 9362.0, 30146.0, 35388.0, 9362.0, 7.854546070098877, -0.14131763577461243, -0.20746000111103058, -0.19471630454063416, -0.08514021337032318, -0.020106272771954536, 1.026120662689209, -0.07804529368877411, -0.1739978790283203, 1.481689453125, 1.380615234375, 0.024749755859375, 1.4912109375
79298, 0.007020093500614166, 0.007069960702210665, -0.017596609890460968, 0.00010535468754824251, -8.79657527548261e-05, 0.057533372193574905, 6.71980669721961e-05, -0.0005506200832314789, 0.16981841623783112, -0.7761560678482056, -1.0237700939178467, 0.07527858018875122, 0.5029853109482562, -0.8411501400459827, -6.569643190201173, 9362.0, 30146.0, 35388.0, 9362.0, 7.854546070098877, -0.2921193838119507, -0.08162504434585571, 0.04126651585102081, -0.08372742682695389, -0.02000144124031067, 1.0259900093078613, -0.07804529368877411, -0.1739978790283203, 1.481689453125, 1.48095703125, 0.1587677001953125, 1.4912109375
79308, 0.006656107027083635, 0.006975038908421993, -0.01700635254383087, 0.00010597228538244963, -9.354665235150605e-05, 0.05924456566572189, 5.628179860650562e-05, -0.0005654931301251054, 0.17242036759853363, -0.7761645317077637, -1.0237613916397095, 0.07528425753116608, 0.5049245989801163, -0.8424812665760726, -6.566919713521839, 9362.0, 30146.0, 35388.0, 9362.0, 7.854546070098877, 0.01479239109903574, -0.09589560329914093, 0.08783342689275742, -0.08166582882404327, -0.020641501992940903, 1.0263580083847046, -0.07804529368877411, -0.1739978790283203, 1.481689453125, 1.435546875, 0.0829315185546875, 1.491943359375
79328, 0.006750163622200489, 0.007498948834836483, -0.0179631058126688, 0.00010647298040566966, -9.92632340057753e-05, 0.06098157912492752, 4.386122600408271e-05, -0.0005778067279607058, 0.17498309910297394, -0.776151180267334, -1.023764967918396, 0.075285404920578, 0.5027602953787074, -0.836140528563476, -6.566419904389786, 9362.0, 30146.0, 35388.0, 9362.0, 7.854546070098877, 0.16101020574569702, 0.21519716084003448, -0.02437398210167885, -0.08301860839128494, -0.022592755034565926, 1.02549409866333, -0.09418793022632599, -0.030637741088867188, 1.493408203125, 1.461181640625, 0.1233062744140625, 1.491943359375
79338, 0.006659252103418112, 0.00716897938400507, -0.015972644090652466, 0.00010710400238167495, -0.0001110481534851715, 0.0645299181342125, 1.909357524709776e-05, -0.0006002626032568514, 0.17986845970153809, -0.7761540412902832, -1.0237691402435303, 0.0752723217010498, 0.5026910346737953, -0.8412380568767901, -6.567079435042899, 9362.0, 30146.0, 35388.0, 9362.0, 7.854546070098877, -0.05243328586220741, -0.23407098650932312, 0.14703288674354553, -0.08284600079059601, -0.02266804501414299, 1.0270034074783325, -0.09418793022632599, -0.030637741088867188, 1.493408203125, 1.461181640625, 0.1233062744140625, 1.491943359375
79348, 0.005837841425091028, 0.006714643910527229, -0.013807538896799088, 0.00010710400238167495, -0.0001110481534851715, 0.0645299181342125, 1.909357524709776e-05, -0.0006002626032568514, 0.17986845970153809, -0.7761508822441101, -1.0237587690353394, 0.07527802884578705, 0.5062258236525358, -0.8421332296421156, -6.56216800784529, 9362.0, 30146.0, 35388.0, 9362.0, 7.854546070098877, -0.09351728111505508, 0.03787306696176529, 0.16988682746887207, -0.08406756073236465, -0.02335161156952381, 1.0235867500305176, -0.09418793022632599, -0.030637741088867188, 1.493408203125, 1.461181640625, 0.1233062744140625, 1.491943359375
79358, 0.006331238895654678, 0.006141989026218653, -0.013733228668570518, 0.00010722532897489145, -0.00012328970478847623, 0.06817875802516937, -6.637407750531565e-06, -0.000623765867203474, 0.18490371108055115, -0.7761591672897339, -1.023763656616211, 0.07531427592039108, 0.5048299684084803, -0.8429305745476938, -6.570521743227237, 9362.0, 30146.0, 35388.0, 9362.0, 7.854546070098877, 0.08610447496175766, -0.0383528396487236, 0.018549101427197456, -0.08523465692996979, -0.022090274840593338, 1.0241398811340332, -0.09418793022632599, -0.030637741088867188, 1.493408203125, 1.461181640625, 0.1233062744140625, 1.491943359375
79368, 0.0057471515610814095, 0.006518722046166658, -0.012742911465466022, 0.00010722532897489145, -0.00012328970478847623, 0.06817875802516937, -6.637407750531565e-06, -0.000623765867203474, 0.18490371108055115, -0.7761541604995728, -1.0237680673599243, 0.07528778165578842, 0.5044523330367991, -0.8415997808105544, -6.567181650133652, 9362.0, 30146.0, 35388.0, 9362.0, 7.854546070098877, -0.1286897361278534, -0.07854263484477997, 0.11033520102500916, -0.08436114341020584, -0.021725084632635117, 1.0246378183364868, -0.09418793022632599, -0.030637741088867188, 1.493408203125, 1.461181640625, 0.1233062744140625, 1.49560546875
79388, 0.003916868008673191, 0.009077956900000572, -0.013903127983212471, 0.00010686233872547746, -0.00013597420183941722, 0.0719238817691803, -2.9180142519180663e-05, -0.0006450962973758578, 0.18965405225753784, -0.7761614322662354, -1.023758053779602, 0.07528027892112732, 0.5043071235970362, -0.8405326052328519, -6.568294386519918, 9362.0, 30146.0, 35388.0, 9362.0, 7.854546070098877, -0.13262499868869781, -0.18526671826839447, -0.19344471395015717, -0.083429254591465, -0.02190825156867504, 1.0254710912704468, -0.09418793022632599, -0.030637741088867188, 1.493408203125, 1.4208984375, 0.063079833984375, 1.49560546875
79398, 0.004069081507623196, 0.008776302449405193, -0.015137376263737679, 0.00010601487156236544, -0.0001490686263423413, 0.07576775550842285, -5.8830788475461304e-05, -0.000663422339130193, 0.19475705921649933, -0.7761483192443848, -1.0237634181976318, 0.07529278099536896, 0.5080194010788763, -0.8358729280577393, -6.567568668110896, 9362.0, 30146.0, 35388.0, 9362.0, 7.854546070098877, -0.020661357790231705, -0.2459326684474945, -0.1799224615097046, -0.08532431721687317, -0.023261848837137222, 1.0248136520385742, -0.09418793022632599, -0.030637741088867188, 1.493408203125, 1.4208984375, 0.063079833984375, 1.49560546875
79408, 0.003307376056909561, 0.010246693156659603, -0.016127441078424454, 0.00010601487156236544, -0.0001490686263423413, 0.07576775550842285, -5.8830788475461304e-05, -0.000663422339130193, 0.19475705921649933, -0.7761538028717041, -1.023763656616211, 0.07529287785291672, 0.5049440861343424, -0.8439534496139913, -6.565072003854713, 9362.0, 30146.0, 35388.0, 9362.0, 7.854546070098877, -0.14190883934497833, -0.2995689809322357, -0.20603914558887482, -0.08532431721687317, -0.023261848837137222, 1.0248136520385742, -0.09418793022632599, -0.030637741088867188, 1.493408203125, 1.447998046875, 0.1016693115234375, 1.49560546875
79428, 0.005138642154633999, 0.00966576300561428, -0.01724920980632305, 0.00010452234710101038, -0.00016247588791884482, 0.07971207797527313, -9.02241954463534e-05, -0.0006774046923965216, 0.19969509541988373, -0.7761597037315369, -1.0237566232681274, 0.07530045509338379, 0.5018037256683298, -0.8401467419912763, -6.565126144962812, 9362.0, 30146.0, 35388.0, 9362.0, 7.854546070098877, -0.09289754927158356, -0.09533240646123886, -0.18087142705917358, -0.08436349779367447, -0.020955068990588188, 1.024859070777893, -0.08403370529413223, -0.10231781005859375, 1.487548828125, 1.447998046875, 0.1016693115234375, 1.49560546875
79438, 0.0052456981502473354, 0.010596014559268951, -0.016987916082143784, 0.00010452234710101038, -0.00016247588791884482, 0.07971207797527313, -9.02241954463534e-05, -0.0006774046923965216, 0.19969509541988373, -0.7761697173118591, -1.0237613916397095, 0.07530078291893005, 0.5063102183211328, -0.8470552358228076, -6.562693794586024, 9362.0, 30146.0, 35388.0, 9362.0, 7.854546070098877, -0.09556876122951508, -0.022949572652578354, -0.023909665644168854, -0.0849960446357727, -0.018412955105304718, 1.0258351564407349, -0.08403370529413223, -0.10231781005859375, 1.487548828125, 1.447998046875, 0.1016693115234375, 1.49560546875
79448, 0.0045923576690256596, 0.009267065674066544, -0.016264023259282112, 0.00010452234710101038, -0.00016247588791884482, 0.07971207797527313, -9.02241954463534e-05, -0.0006774046923965216, 0.19969509541988373, -0.7761615514755249, -1.023757815361023, 0.07529720664024353, 0.5010282470775839, -0.8444065652738288, -6.565289358591449, 9362.0, 30146.0, 35388.0, 9362.0, 7.854546070098877, -0.06036228686571121, 0.0937282145023346, 0.23618535697460175, -0.08360597491264343, -0.018495088443160057, 1.0239075422286987, -0.08403370529413223, -0.10231781005859375, 1.487548828125, 1.447998046875, 0.1016693115234375, 1.491943359375
79458, 0.004712344147264957, 0.007679575122892857, -0.015652641654014587, 0.00010452234710101038, -0.00016247588791884482, 0.07971207797527313, -9.02241954463534e-05, -0.0006774046923965216, 0.19969509541988373, -0.7761538624763489, -1.023772120475769, 0.07531019300222397, 0.5102777634071171, -0.8337767245343173, -6.569321430012388, 9362.0, 30146.0, 35388.0, 9362.0, 7.854546070098877, 0.08656831830739975, 0.12852640450000763, 0.16928307712078094, -0.08227842301130295, -0.02077431231737137, 1.023476243019104, -0.08403370529413223, -0.10231781005859375, 1.487548828125, 1.428955078125, 0.073577880859375, 1.491943359375
79468, 0.0056476290337741375, 0.011682872660458088, -0.017022311687469482, 0.00010452234710101038, -0.00016247588791884482, 0.07971207797527313, -9.02241954463534e-05, -0.0006774046923965216, 0.19969509541988373, -0.776176929473877, -1.0237680673599243, 0.07529062032699585, 0.5018886184698699, -0.8400040334396977, -6.568549692515422, 9362.0, 30146.0, 35388.0, 9362.0, 7.854546070098877, 0.11683204770088196, -0.31648892164230347, -0.15191082656383514, -0.08416802436113358, -0.02184169366955757, 1.0236221551895142, -0.08403370529413223, -0.10231781005859375, 1.487548828125, 1.45751953125, 0.117095947265625, 1.491943359375
79478, 0.006167885847389698, 0.011033467948436737, -0.016928555443882942, 0.00010452234710101038, -0.00016247588791884482, 0.07971207797527313, -9.02241954463534e-05, -0.0006774046923965216, 0.19969509541988373, -0.776160478591919, -1.0237631797790527, 0.07529725134372711, 0.5026271238699741, -0.8420525281339906, -6.569619834532875, 9362.0, 30146.0, 35388.0, 9362.0, 7.854546070098877, 0.06576980650424957, 0.16804710030555725, 0.06599916517734528, -0.08364671468734741, -0.021474922075867653, 1.0257779359817505, -0.08403370529413223, -0.10231781005859375, 1.487548828125, 1.423828125, 0.066802978515625, 1.491943359375
79488, 0.004933873191475868, 0.00824241153895855, -0.018057480454444885, 0.00010452234710101038, -0.00016247588791884482, 0.07971207797527313, -9.02241954463534e-05, -0.0006774046923965216, 0.19969509541988373, -0.7761529088020325, -1.0237585306167603, 0.0753074511885643, 0.4974198374124813, -0.8380836554828193, -6.573415473621391, 9362.0, 30146.0, 35388.0, 9362.0, 7.854546070098877, -0.18608960509300232, 0.1924399584531784, 0.020074209198355675, -0.08290817588567734, -0.023524435237050056, 1.0260599851608276, -0.08403370529413223, -0.10231781005859375, 1.487548828125, 1.423828125, 0.066802978515625, 1.493408203125
79498, 0.006245880853384733, 0.008027046918869019, -0.01844266802072525, 9.188683179672807e-05, -0.00021922343876212835, 0.09648611396551132, -0.00022852142865303904, -0.0007464349619112909, 0.21952110528945923, -0.7761653065681458, -1.0237700939178467, 0.07529892772436142, 0.506357773898366, -0.8464487095060633, -6.569187450209216, 9362.0, 30146.0, 35388.0, 9362.0, 7.854546070098877, 0.29794827103614807, -0.10160882025957108, -0.12404618412256241, -0.0836978629231453, -0.021273694932460785, 1.0252701044082642, -0.08403370529413223, -0.10231781005859375, 1.487548828125, 1.423828125, 0.066802978515625, 1.493408203125
79508, 0.005614704918116331, 0.007878546603024006, -0.020086150616407394, 9.188683179672807e-05, -0.00021922343876212835, 0.09648611396551132, -0.00022852142865303904, -0.0007464349619112909, 0.21952110528945923, -0.7761648297309875, -1.0237621068954468, 0.075291708111763, 0.5031423559018269, -0.8405674971819224, -6.566569815720147, 9362.0, 30146.0, 35388.0, 9362.0, 7.854546070098877, -0.09669654071331024, 0.07709522545337677, -0.2613285481929779, -0.0836978629231453, -0.021273694932460785, 1.0252701044082642, -0.08403370529413223, -0.10231781005859375, 1.487548828125, 1.423828125, 0.066802978515625, 1.494140625
79518, 0.005900915712118149, 0.009530916810035706, -0.02190450392663479, 8.702895866008475e-05, -0.0002343373344046995, 0.10092603415250778, -0.00025705414009280503, -0.0007660675328224897, 0.2243461012840271, -0.7761629819869995, -1.0237609148025513, 0.0752771720290184, 0.50370881858159, -0.8414582893801992, -6.569441904394737, 9362.0, 30146.0, 35388.0, 9362.0, 7.854546070098877, 0.03822246193885803, -0.31290894746780396, -0.11384973675012589, -0.0836978629231453, -0.021273694932460785, 1.0252701044082642, -0.08320142328739166, -0.1739978790283203, 1.481689453125, 1.462646484375, 0.125823974609375, 1.494140625
79528, 0.006868693977594376, 0.008968641981482506, -0.02392878197133541, 8.702895866008475e-05, -0.0002343373344046995, 0.10092603415250778, -0.00025705414009280503, -0.0007660675328224897, 0.2243461012840271, -0.7761648297309875, -1.023762822151184, 0.07528690993785858, 0.5014228406508228, -0.8426164039991022, -6.568172884441812, 9362.0, 30146.0, 35388.0, 9362.0, 7.854546070098877, 0.04653851315379143, 0.02329852059483528, -0.2896217703819275, -0.08350835740566254, -0.019585922360420227, 1.0238192081451416, -0.08320142328739166, -0.1739978790283203, 1.481689453125, 1.462646484375, 0.125823974609375, 1.494140625
79538, 0.007679204922169447, 0.009210980497300625, -0.02440345287322998, 8.159617573255673e-05, -0.0002498582180123776, 0.10546134412288666, -0.0002876482321880758, -0.000786308606620878, 0.22916604578495026, -0.776141345500946, -1.0237669944763184, 0.0753118023276329, 0.5010120694352237, -0.8411192544513142, -6.570971607875688, 9362.0, 30146.0, 35388.0, 9362.0, 7.854546070098877, 0.007725961040705442, -0.062311429530382156, 0.12809057533740997, -0.08494342863559723, -0.018222253769636154, 1.0256117582321167, -0.08320142328739166, -0.1739978790283203, 1.481689453125, 1.462646484375, 0.125823974609375, 1.494140625
79548, 0.006646346766501665, 0.010157763957977295, -0.024383846670389175, 8.159617573255673e-05, -0.0002498582180123776, 0.10546134412288666, -0.0002876482321880758, -0.000786308606620878, 0.22916604578495026, -0.7761551141738892, -1.0237629413604736, 0.0753127932548523, 0.5075337417376032, -0.8366862260530183, -6.5675823310736074, 9362.0, 30146.0, 35388.0, 9362.0, 7.854546070098877, -0.06436971575021744, -0.10530087351799011, 0.20905949175357819, -0.08509987592697144, -0.021863335743546486, 1.027022361755371, -0.08320142328739166, -0.1739978790283203, 1.481689453125, 1.4267578125, 0.070709228515625, 1.494140625
79558, 0.006999545264989138, 0.012085475027561188, -0.025080934166908264, 8.159617573255673e-05, -0.0002498582180123776, 0.10546134412288666, -0.0002876482321880758, -0.000786308606620878, 0.22916604578495026, -0.7761657238006592, -1.0237587690353394, 0.07530396431684494, 0.4985631657400978, -0.8451732757223454, -6.561524683543143, 9362.0, 30146.0, 35388.0, 9362.0, 7.854546070098877, 0.15989698469638824, -0.3593831956386566, -0.18876881897449493, -0.08602678030729294, -0.022438518702983856, 1.0242140293121338, -0.08320142328739166, -0.1739978790283203, 1.481689453125, 1.446533203125, 0.09930419921875, 1.494140625
79568, 0.00730486586689949, 0.014079410582780838, -0.029125425964593887, 8.159617573255673e-05, -0.0002498582180123776, 0.10546134412288666, -0.0002876482321880758, -0.000786308606620878, 0.22916604578495026, -0.7761522531509399, -1.0237623453140259, 0.07530470192432404, 0.5027494727766344, -0.8377763211465492, -6.568764409209, 9362.0, 30146.0, 35388.0, 9362.0, 7.854546070098877, -0.09688759595155716, -0.20884601771831512, -0.3947441279888153, -0.08727874606847763, -0.018230699002742767, 1.0249836444854736, -0.08320142328739166, -0.1739978790283203, 1.481689453125, 1.459716796875, 0.120849609375, 1.494140625
79578, 0.007871194742619991, 0.014399952255189419, -0.029719989746809006, 8.159617573255673e-05, -0.0002498582180123776, 0.10546134412288666, -0.0002876482321880758, -0.000786308606620878, 0.22916604578495026, -0.7761585116386414, -1.0237693786621094, 0.07528606802225113, 0.507832234542746, -0.8388788119646904, -6.570893648481322, 9362.0, 30146.0, 35388.0, 9362.0, 7.854546070098877, 0.19565199315547943, 0.057268716394901276, -0.09963426738977432, -0.08498364686965942, -0.018322911113500595, 1.0249290466308594, -0.08320142328739166, -0.1739978790283203, 1.481689453125, 1.423828125, 0.066802978515625, 1.494140625
79588, 0.007540598511695862, 0.01504254899919033, -0.028681140393018723, 8.159617573255673e-05, -0.0002498582180123776, 0.10546134412288666, -0.0002876482321880758, -0.000786308606620878, 0.22916604578495026, -0.7761550545692444, -1.0237641334533691, 0.07530104368925095, 0.5020017078581784, -0.8387090610287657, -6.569407235276485, 9362.0, 30146.0, 35388.0, 9362.0, 7.854546070098877, 0.04913219437003136, -0.241390660405159, 0.009478123858571053, -0.0845484584569931, -0.01909150369465351, 1.0232388973236084, -0.08320142328739166, -0.1739978790283203, 1.481689453125, 1.423828125, 0.066802978515625, 1.4912109375
79598, 0.007487866096198559, 0.018035974353551865, -0.0306414682418108, 6.108392699388787e-05, -0.000299283565254882, 0.1196628287434578, -0.00040885957423597574, -0.0008623976609669626, 0.2439429610967636, -0.7761601209640503, -1.0237689018249512, 0.07529892772436142, 0.5050120615126309, -0.8399231458932661, -6.563879733337147, 9362.0, 30146.0, 35388.0, 9362.0, 7.854546070098877, 0.03147955983877182, -0.2148248702287674, -0.40726438164711, -0.08474915474653244, -0.019088711589574814, 1.0247209072113037, -0.08320142328739166, -0.1739978790283203, 1.481689453125, 1.461181640625, 0.1233062744140625, 1.4912109375
79608, 0.008888966403901577, 0.01722443476319313, -0.03233091160655022, 6.108392699388787e-05, -0.000299283565254882, 0.1196628287434578, -0.00040885957423597574, -0.0008623976609669626, 0.2439429610967636, -0.776167631149292, -1.0237634181976318, 0.07530470192432404, 0.5042596706956097, -0.8356877219538603, -6.5647778116118705, 9362.0, 30146.0, 35388.0, 9362.0, 7.854546070098877, -0.12290088832378387, -0.20148976147174835, -0.22438576817512512, -0.08418069034814835, -0.02108353190124035, 1.0256433486938477, -0.08320142328739166, -0.1739978790283203, 1.481689453125, 1.461181640625, 0.1233062744140625, 1.49267578125
