timeTick, roll, pitch, yaw, stateX, stateY, stateZ, stateVX, stateVY, stateVZ, otX0, otY0, otZ0, otRoll0, otPitch0, otYaw0, left wing, pitch motor, yaw motor, right wing, voltage, roll rate, pitch rate, yaw rate, A_x, A_y, A_z, current, i_raw, v_raw, airflow_voltage, airflow_speed, pot_Pitch
20244, 1.200323462486267, 2.130415201187134, -0.19875723123550415, 0, 0, 0, 0, 0, 0, -0.7802290320396423, -1.024317979812622, 0.07392729073762894, -0.15874234038192256, -1.1086434679662034, -10.559606332504238, 0, 0, 0, 0, 0, 0, 0, 0, 0, 0, 0, 0, 0, 0, 0, 0, 0
20254, 1.1994093656539917, 2.130411386489868, -0.19895412027835846, 0.0003399520937819034, 0.00019005629292223603, -8.95003604888916, 0.03217692673206329, 0.017988987267017365, -0.9609410762786865, -0.780226469039917, -1.024327039718628, 0.07393994182348251, -0.1641594532026264, -1.1019972799374784, -10.563291574839809, 9362.0, 30146.0, 35388.0, 9362.0, 0, -0.08727435767650604, -0.1048559620976448, -0.05195821076631546, -0.0923822820186615, -0.03120463714003563, 0.9969302415847778, 0, 0, 0, 0, 0, 0
20264, 1.200194001197815, 2.127600908279419, -0.19955430924892426, 0.0006435161922127008, 0.00035976816434413195, -8.959647178649902, 0.028535885736346245, 0.015953397378325462, -0.9613537192344666, -0.7802203893661499, -1.0243276357650757, 0.07390674203634262, -0.16829320972299908, -1.1020300299490486, -10.561644242666807, 9362.0, 30146.0, 35388.0, 9362.0, 0, -0.03109136037528515, 0.0718759074807167, 0.03662552684545517, -0.09158027917146683, -0.029295457527041435, 0.9972991943359375, 0, 0, 0, 1.402587890625, 0.0425262451171875, 0
20274, 1.2006051540374756, 2.129612684249878, -0.2013564258813858, 0.0009106706129387021, 0.0005091323982924223, -8.969263076782227, 0.024894969537854195, 0.013919495977461338, -0.9617702960968018, -0.7802202105522156, -1.0243299007415771, 0.07394756376743317, -0.16549282522069517, -1.1010891869893555, -10.570003832405758, 9362.0, 30146.0, 35388.0, 9362.0, 0, 0.01646883599460125, -0.44139590859413147, -0.3162093162536621, -0.09092558920383453, -0.02941926009953022, 0.9958124756813049, 0, 0, 0, 1.3828125, 0.0261077880859375, 1.491943359375
20284, 1.19913649559021, 2.1344692707061768, -0.20229700207710266, 0.001141433953307569, 0.0006381478160619736, -8.978882789611816, 0.021257640793919563, 0.011883704923093319, -0.9621557593345642, -0.780224084854126, -1.024319052696228, 0.07390672713518143, -0.16330902067228537, -1.1001729012030808, -10.56283674254286, 9362.0, 30146.0, 35388.0, 9362.0, 0, -0.1297023445367813, -0.15630896389484406, 0.22128938138484955, -0.09141295403242111, -0.030774198472499847, 0.9946721792221069, 0, 0, 0, 1.40771484375, 0.0478363037109375, 1.491943359375
20294, 1.1998690366744995, 2.1345646381378174, -0.20236143469810486, 0.0013358516152948141, 0.0007468276307918131, -8.988507270812988, 0.017625899985432625, 0.009852307848632336, -0.9627834558486938, -0.7802249193191528, -1.0243233442306519, 0.07390254735946655, -0.1636758368719854, -1.103049966317542, -10.562314339547832, 9362.0, 30146.0, 35388.0, 9362.0, 0, -0.0822063758969307, 0.08938061445951462, -0.16352079808712006, -0.09046341478824615, -0.030240369960665703, 0.9956669807434082, 0, 0, 0, 1.43701171875, 0.085052490234375, 1.490478515625
20304, 1.1989171504974365, 2.1326076984405518, -0.1998877078294754, 0.0014938985696062446, 0.0008351998403668404, -8.998137474060059, 0.01398347970098257, 0.007822140119969845, -0.9633476734161377, -0.7802309393882751, -1.024318814277649, 0.07392242550849915, -0.16061474293354533, -1.105643943533778, -10.557306361974144, 9362.0, 30146.0, 35388.0, 9362.0, 0, -0.21458032727241516, 0.15903516113758087, 0.40728434920310974, -0.09352102130651474, -0.030101807788014412, 0.9959154725074768, 0, 0, 0, 1.40771484375, 0.0478363037109375, 1.490478515625
20314, 1.1995971202850342, 2.1340041160583496, -0.199435755610466, 0.0016155069461092353, 0.0009032566449604928, -9.007773399353027, 0.010338264517486095, 0.005789055023342371, -0.9638392925262451, -0.7802202105522156, -1.0243300199508667, 0.07393181324005127, -0.1611261757963736, -1.104065749520089, -10.564920859550922, 9362.0, 30146.0, 35388.0, 9362.0, 0, 0.08198200911283493, -0.29130029678344727, -0.048918090760707855, -0.09294812381267548, -0.028770145028829575, 0.996724009513855, 0, 0, 0, 1.36669921875, 0.01806640625, 1.491943359375
20324, 1.199552297592163, 2.135291814804077, -0.20041167736053467, 0.0017006723210215569, 0.0009509854135103524, -9.017414093017578, 0.00669485330581665, 0.0037566761020570993, -0.9642888903617859, -0.7802330255508423, -1.0243316888809204, 0.07392557710409164, -0.1657272081202293, -1.1038364846907598, -10.56373434768488, 9362.0, 30146.0, 35388.0, 9362.0, 0, 0.055827826261520386, -0.20193471014499664, -0.2912982702255249, -0.08853563666343689, -0.029834482818841934, 0.997471034526825, 0, 0, 0, 1.41357421875, 0.0542449951171875, 1.491943359375
20334, 1.1995644569396973, 2.135411024093628, -0.20098483562469482, 0.0017493816558271646, 0.0009783789282664657, -9.027058601379395, 0.00304700480774045, 0.0017220766749233007, -0.9646843671798706, -0.7802194952964783, -1.0243288278579712, 0.07390883564949036, -0.16824182566657803, -1.0993799427243118, -10.562688116321947, 9362.0, 30146.0, 35388.0, 9362.0, 0, -0.03604086861014366, 0.003979487344622612, 0.058179862797260284, -0.09276526421308517, -0.02950064279139042, 0.9975938200950623, 0, 0, 0, 1.34765625, 0.0154571533203125, 1.494140625
20344, 1.1994447708129883, 2.1344308853149414, -0.19870929419994354, 0.0017615912947803736, 0.000985421473160386, -9.036706924438477, -0.000605098670348525, -0.00031352860969491303, -0.9650256037712097, -0.7802231907844543, -1.0243217945098877, 0.0739164650440216, -0.16474150188506806, -1.1061915083009808, -10.559793048205945, 9362.0, 30146.0, 35388.0, 9362.0, 8.350414276123047, -0.09031370282173157, -0.05909595638513565, 0.028677498921751976, -0.0938589870929718, -0.02899729274213314, 0.9969388842582703, -0.07028032094240189, -0.13815879821777344, 1.484619140625, 1.341796875, 0.0162811279296875, 1.494140625
20354, 1.1991572380065918, 2.135638475418091, -0.19948992133140564, 0.001737290294840932, 0.0009721145033836365, -9.046359062194824, -0.004255031701177359, -0.0023480146192014217, -0.965428352355957, -0.7802258133888245, -1.0243223905563354, 0.07391674816608429, -0.16753782009067586, -1.1031800699076086, -10.562200677341645, 9362.0, 30146.0, 35388.0, 9362.0, 8.350414276123047, 0.11082886904478073, -0.03500276431441307, -0.16953818500041962, -0.09309744834899902, -0.029759543016552925, 0.9966831207275391, -0.07028032094240189, -0.13815879821777344, 1.484619140625, 1.30224609375, 0.0460052490234375, 1.49560546875
20364, 1.1986963748931885, 2.135488986968994, -0.19948282837867737, 0.0016764962347224355, 0.0009384615113958716, -9.056015014648438, -0.007903809659183025, -0.0043825372122228146, -0.9658178687095642, -0.7802221775054932, -1.0243256092071533, 0.07392322272062302, -0.16698119833797226, -1.1001430448187364, -10.569345058107826, 9362.0, 30146.0, 35388.0, 9362.0, 8.350414276123047, -0.1738143265247345, -0.07930964231491089, 0.0012675038306042552, -0.09234870225191116, -0.029284927994012833, 0.9975935816764832, -0.07028032094240189, -0.13815879821777344, 1.484619140625, 1.35791015625, 0.015869140625, 1.49560546875
20374, 1.198378324508667, 2.135305166244507, -0.19961322844028473, 0.001579197240062058, 0.0008844623807817698, -9.065674781799316, -0.011555974371731281, -0.006417301017791033, -0.9661717414855957, -0.7802290320396423, -1.024328351020813, 0.07391829043626785, -0.16447944086240968, -1.105356552489127, -10.566040669915383, 9362.0, 30146.0, 35388.0, 9362.0, 8.350414276123047, -0.015497403219342232, -0.1239999383687973, -0.2459115982055664, -0.09016260504722595, -0.031093144789338112, 0.9964642524719238, -0.07028032094240189, -0.13815879821777344, 1.484619140625, 1.360107421875, 0.0162506103515625, 1.496337890625
20384, 1.1987926959991455, 2.1353275775909424, -0.20109473168849945, 0.001445394242182374, 0.0008101285202428699, -9.075338363647461, -0.015204643830657005, -0.008449460379779339, -0.9666123986244202, -0.7802310585975647, -1.0243276357650757, 0.07392729073762894, -0.1662729249295165, -1.0942678553328165, -10.5599438297616, 9362.0, 30146.0, 35388.0, 9362.0, 8.350414276123047, -0.04734953120350838, 0.3862243890762329, 0.019485851749777794, -0.09291571378707886, -0.031068259850144386, 0.9965834021568298, -0.07028032094240189, -0.13815879821777344, 1.484619140625, 1.3916015625, 0.0325927734375, 1.496337890625
20394, 1.1979284286499023, 2.1351616382598877, -0.20243100821971893, 0.001275093643926084, 0.0007154689519666135, -9.085006713867188, -0.018855510279536247, -0.010482351295650005, -0.966987133026123, -0.7802297472953796, -1.0243216753005981, 0.073935866355896, -0.16640388310028634, -1.098847391521872, -10.57223452181039, 9362.0, 30146.0, 35388.0, 9362.0, 8.350414276123047, -0.06742744147777557, -0.01568508893251419, 0.01713310368359089, -0.0936417356133461, -0.03170100599527359, 0.9955682158470154, -0.07028032094240189, -0.13815879821777344, 1.484619140625, 1.33740234375, 0.0175323486328125, 1.494873046875
20404, 1.1984883546829224, 2.135338306427002, -0.2034977823495865, 0.0010683175642043352, 0.0006004961323924363, -9.094679832458496, -0.022499745711684227, -0.01251213252544403, -0.9675421118736267, -0.7802254557609558, -1.0243176221847534, 0.07390454411506653, -0.1657949817677571, -1.099102238719638, -10.564001995242226, 9362.0, 30146.0, 35388.0, 9362.0, 8.350414276123047, -0.05451202392578125, 0.08624548465013504, -0.23504208028316498, -0.09172529727220535, -0.031329210847616196, 0.9957042336463928, -0.07028032094240189, -0.13815879821777344, 1.484619140625, 1.430419921875, 0.0756378173828125, 1.494873046875
20414, 1.1986337900161743, 2.133911371231079, -0.20376518368721008, 0.0008250887622125447, 0.00046522688353434205, -9.104357719421387, -0.026146048679947853, -0.01454164832830429, -0.9680348038673401, -0.7801682949066162, -1.0243161916732788, 0.0739135891199112, -0.16776453257293156, -1.103261840486681, -10.549217331225904, 9362.0, 30146.0, 35388.0, 9362.0, 8.350414276123047, 0.05524886026978493, 0.09034322947263718, 0.21513208746910095, -0.0908675268292427, -0.03161383420228958, 0.9940706491470337, -0.07028032094240189, -0.13815879821777344, 1.484619140625, 1.30810546875, 0.0388031005859375, 1.49560546875
20424, 1.197837233543396, 2.1337201595306396, -0.2033722847700119, 0.0005454233614727855, 0.0003096737200394273, -9.114041328430176, -0.029787052422761917, -0.016568973660469055, -0.9686780571937561, -0.7801904082298279, -1.0243263244628906, 0.073943592607975, -0.16435042805646227, -1.0991595802281608, -10.54483187089612, 9362.0, 30146.0, 35388.0, 9362.0, 8.350414276123047, -0.20526893436908722, 0.07454559952020645, -0.147309809923172, -0.09028517454862595, -0.028106559067964554, 0.9956135749816895, -0.07028032094240189, -0.13815879821777344, 1.484619140625, 1.4296875, 0.07464599609375, 1.49560546875
20434, 1.199447751045227, 2.1317312717437744, -0.20380176603794098, 0.0002293506113346666, 0.00013384084741119295, -9.123730659484863, -0.03342748060822487, -0.01859762892127037, -0.9692711234092712, -0.7801746129989624, -1.024314284324646, 0.07394880056381226, -0.16592460998022282, -1.1086968268637918, -10.550314570024776, 9362.0, 30146.0, 35388.0, 9362.0, 8.350414276123047, 0.38967713713645935, 0.010430119931697845, -0.08007460832595825, -0.09072446823120117, -0.02964123897254467, 0.9923471808433533, -0.07028032094240189, -0.13815879821777344, 1.484619140625, 1.3740234375, 0.0210723876953125, 1.48974609375
20444, 1.1995604038238525, 2.1319453716278076, -0.20546211302280426, -0.00012311374302953482, -6.226585537660867e-05, -9.133426666259766, -0.037065424025058746, -0.020623667165637016, -0.969922661781311, -0.7801881432533264, -1.0243116617202759, 0.07393325120210648, -0.16994666318336596, -1.1114557626994213, -10.550774136494251, 9362.0, 30146.0, 35388.0, 9362.0, 8.350414276123047, -0.0843193456530571, 0.03497358039021492, 0.05403261259198189, -0.09150876104831696, -0.02854112908244133, 0.9966742396354675, -0.08018674701452255, -0.04855918884277344, 1.491943359375, 1.36962890625, 0.01910400390625, 1.48974609375
20454, 1.1986180543899536, 2.1306521892547607, -0.20454250276088715, -0.0005119257839396596, -0.00027863815193995833, -9.143129348754883, -0.04069702699780464, -0.022650688886642456, -0.9706544876098633, -0.780173659324646, -1.0243195295333862, 0.0739438533782959, -0.1656400774372638, -1.102171483579923, -10.54758233593887, 9362.0, 30146.0, 35388.0, 9362.0, 8.350414276123047, -0.19207745790481567, -0.0790996327996254, 0.11074516922235489, -0.09223669022321701, -0.029868988320231438, 0.9990635514259338, -0.08018674701452255, -0.04855918884277344, 1.491943359375, 1.42529296875, 0.0688018798828125, 1.49560546875
20464, 1.1998376846313477, 2.1329424381256104, -0.20803798735141754, -0.0009371524211019278, -0.0005153350066393614, -9.152836799621582, -0.04434829205274582, -0.02468874678015709, -0.970868706703186, -0.7801832556724548, -1.0243175029754639, 0.0739373192191124, -0.16557599373392645, -1.1047534288942131, -10.545281406396105, 9362.0, 30146.0, 35388.0, 9362.0, 8.350414276123047, -0.20040026307106018, -0.5073729157447815, -0.3155584931373596, -0.09201165288686752, -0.02925642393529415, 0.9975070357322693, -0.08018674701452255, -0.04855918884277344, 1.491943359375, 1.3623046875, 0.0167999267578125, 1.49560546875
20474, 1.199869155883789, 2.1323227882385254, -0.20694105327129364, -0.0013988674618303776, -0.0007723973831161857, -9.16254711151123, -0.04799482598900795, -0.026723505929112434, -0.9711533188819885, -0.7801855206489563, -1.0243213176727295, 0.07393449544906616, -0.1675553891685366, -1.1032111494896242, -10.546458546259307, 9362.0, 30146.0, 35388.0, 9362.0, 8.350414276123047, 0.255139023065567, -0.016629790887236595, -0.05127853527665138, -0.09059092402458191, -0.028364241123199463, 0.9959162473678589, -0.08018674701452255, -0.04855918884277344, 1.491943359375, 1.37841796875, 0.023406982421875, 1.48974609375
20484, 1.1986963748931885, 2.1325204372406006, -0.20570144057273865, -0.0018970472738146782, -0.0010498050833120942, -9.172260284423828, -0.051641106605529785, -0.028758104890584946, -0.9715484380722046, -0.7801759839057922, -1.0243090391159058, 0.07394552230834961, -0.15933182613401353, -1.1020720988915116, -10.543587398051052, 9362.0, 30146.0, 35388.0, 9362.0, 8.350414276123047, -0.26317912340164185, -0.13558804988861084, 0.11361637711524963, -0.09166873246431351, -0.029072539880871773, 0.994622528553009, -0.08018674701452255, -0.04855918884277344, 1.491943359375, 1.41943359375, 0.0612945556640625, 1.48974609375
20494, 1.1988276243209839, 2.1340110301971436, -0.20520304143428802, -0.002431656001135707, -0.0013475436717271805, -9.181978225708008, -0.055280618369579315, -0.030789686366915703, -0.9720956683158875, -0.7801756858825684, -1.024312973022461, 0.07393521070480347, -0.1611522054849406, -1.1136456385894746, -10.546381049194892, 9362.0, 30146.0, 35388.0, 9362.0, 8.350414276123047, -0.015953147783875465, 0.23709984123706818, 0.13024698197841644, -0.09238646924495697, -0.031028807163238525, 0.9945709109306335, -0.08018674701452255, -0.04855918884277344, 1.491943359375, 1.4619140625, 0.1246185302734375, 1.4912109375
20504, 1.1986854076385498, 2.1352484226226807, -0.20522117614746094, -0.0030026487074792385, -0.0016655813669785857, -9.191701889038086, -0.058917898684740067, -0.03281787410378456, -0.972710907459259, -0.7801715731620789, -1.0243127346038818, 0.07392849773168564, -0.16386277041592356, -1.0993523006985129, -10.55294056896864, 9362.0, 30146.0, 35388.0, 9362.0, 8.350414276123047, -0.11154888570308685, -0.4154258370399475, -0.07850775867700577, -0.09283693879842758, -0.029979800805449486, 0.9969250559806824, -0.08018674701452255, -0.04855918884277344, 1.491943359375, 1.38134765625, 0.025177001953125, 1.4912109375
20514, 1.1998835802078247, 2.138091802597046, -0.20474418997764587, -0.0036100384313613176, -0.00200390862300992, -9.201432228088379, -0.06256002187728882, -0.03484756499528885, -0.9732644557952881, -0.7801849842071533, -1.0243229866027832, 0.07394065707921982, -0.16692206627241046, -1.0963859638852398, -10.54952670962322, 9362.0, 30146.0, 35388.0, 9362.0, 8.350414276123047, -0.008147552609443665, -0.3247126042842865, 0.048819415271282196, -0.09273624420166016, -0.030081497505307198, 0.996815025806427, -0.08018674701452255, -0.04855918884277344, 1.491943359375, 1.4326171875, 0.0786895751953125, 1.494140625
20524, 1.198670744895935, 2.1377220153808594, -0.20373128354549408, -0.004253902472555637, -0.0023625551257282495, -9.211166381835938, -0.0662127360701561, -0.036881763488054276, -0.9735909104347229, -0.7801802158355713, -1.024315357208252, 0.07389920949935913, -0.16459785961530776, -1.1026021638438692, -10.551843668284418, 9362.0, 30146.0, 35388.0, 9362.0, 8.350414276123047, -0.2444741427898407, 0.1271781176328659, -0.013014053925871849, -0.09182131290435791, -0.029115471988916397, 0.9957653880119324, -0.08018674701452255, -0.04855918884277344, 1.491943359375, 1.42236328125, 0.0649566650390625, 1.494140625
20534, 1.1985200643539429, 2.137713670730591, -0.20192661881446838, -0.004934290423989296, -0.00274153845384717, -9.220904350280762, -0.06986475735902786, -0.038914985954761505, -0.9740648865699768, -0.7801855206489563, -1.0243299007415771, 0.07392987608909607, -0.1692607058940431, -1.1012874769187704, -10.552569872112622, 9362.0, 30146.0, 35388.0, 9362.0, 8.350414276123047, -0.19561946392059326, -0.3174368739128113, 0.19224023818969727, -0.0930178090929985, -0.029287707060575485, 0.9965670704841614, -0.08018674701452255, -0.04855918884277344, 1.491943359375, 1.329345703125, 0.02105712890625, 1.49267578125
20544, 1.199508786201477, 2.1380555629730225, -0.20361554622650146, -0.0056512001901865005, -0.0031408469658344984, -9.230647087097168, -0.07351710647344589, -0.040946830064058304, -0.9745110869407654, -0.7801862955093384, -1.0243157148361206, 0.07394471764564514, -0.16702774622083763, -1.1027055291019394, -10.542374380005365, 9362.0, 30146.0, 35388.0, 9362.0, 8.350414276123047, 0.11693482846021652, -0.17404258251190186, -0.31949281692504883, -0.09288051724433899, -0.03026941791176796, 0.9939178228378296, -0.0893280953168869, -0.09335899353027344, 1.48828125, 1.4443359375, 0.0959930419921875, 1.49267578125
20554, 1.199758529663086, 2.1382226943969727, -0.20519013702869415, -0.006404618266969919, -0.0035604650620371103, -9.240394592285156, -0.07716656476259232, -0.042976658791303635, -0.9750359058380127, -0.7801884412765503, -1.0243345499038696, 0.07393783330917358, -0.17179705467618794, -1.0989680723507718, -10.554472960095595, 9362.0, 30146.0, 35388.0, 9362.0, 8.350414276123047, 0.21653114259243011, -0.04961276054382324, -0.1301853507757187, -0.0926341712474823, -0.02899705432355404, 0.9952627420425415, -0.0893280953168869, -0.09335899353027344, 1.48828125, 1.3681640625, 0.0185394287109375, 1.4912109375
20564, 1.2003265619277954, 2.140601873397827, -0.20727214217185974, -0.007194508798420429, -0.004000375047326088, -9.250147819519043, -0.08081158995628357, -0.04500525817275047, -0.9756967425346375, -0.7801814675331116, -1.0243264436721802, 0.0739438459277153, -0.1713115263607475, -1.0979365738649562, -10.550627415754684, 9362.0, 30146.0, 35388.0, 9362.0, 8.350414276123047, 0.08166617900133133, -0.14637571573257446, -0.1966511309146881, -0.09384337812662125, -0.028733307495713234, 0.9953263998031616, -0.0893280953168869, -0.09335899353027344, 1.48828125, 1.368896484375, 0.01885986328125, 1.4912109375
20574, 1.2017375230789185, 2.1431565284729004, -0.20631250739097595, -0.008020882494747639, -0.004460589960217476, -9.259907722473145, -0.08446313440799713, -0.04703758656978607, -0.9761921763420105, -0.7801756858825684, -1.0243240594863892, 0.0739339292049408, -0.1670792971618567, -1.1055149272369817, -10.545553536139474, 9362.0, 30146.0, 35388.0, 9362.0, 8.350414276123047, -0.05974623188376427, -0.2280028760433197, 0.02733048051595688, -0.092803455889225, -0.027557875961065292, 0.9960110187530518, -0.0893280953168869, -0.09335899353027344, 1.48828125, 1.427490234375, 0.0716400146484375, 1.49560546875
20584, 1.202647089958191, 2.1418814659118652, -0.20585094392299652, -0.008883778937160969, -0.004941124934703112, -9.269672393798828, -0.08811604231595993, -0.049069445580244064, -0.9767589569091797, -0.7801738977432251, -1.02432119846344, 0.07393278181552887, -0.16277180989163054, -1.1039422567392876, -10.54708479803675, 9362.0, 30146.0, 35388.0, 9362.0, 8.350414276123047, -0.12602272629737854, 0.1482357680797577, -0.001328522921539843, -0.0912729948759079, -0.029164500534534454, 0.9945574402809143, -0.0893280953168869, -0.09335899353027344, 1.48828125, 1.376220703125, 0.0222930908203125, 1.49560546875
20594, 1.2021832466125488, 2.1388156414031982, -0.2062338888645172, -0.009783226065337658, -0.005441990680992603, -9.27944278717041, -0.09177333116531372, -0.051103729754686356, -0.9773258566856384, -0.7801706194877625, -1.0243257284164429, 0.07392299920320511, -0.16153218861484248, -1.1155640296971683, -10.542396001325288, 9362.0, 30146.0, 35388.0, 9362.0, 8.350414276123047, -0.019270051270723343, 0.32337042689323425, 0.055876024067401886, -0.09179504215717316, -0.02832460217177868, 0.9935166835784912, -0.0893280953168869, -0.09335899353027344, 1.48828125, 1.4150390625, 0.05596923828125, 1.500732421875
20604, 1.2014788389205933, 2.138533115386963, -0.20678021013736725, -0.010719213634729385, -0.005963195580989122, -9.289219856262207, -0.09542431682348251, -0.05313722416758537, -0.978003740310669, -0.7801727652549744, -1.0243176221847534, 0.07392720878124237, -0.16943248052439577, -1.1112391434615176, -10.555880828294141, 9362.0, 30146.0, 35388.0, 9362.0, 8.350414276123047, -0.005834159906953573, -0.004455536603927612, 0.04009859263896942, -0.09312291443347931, -0.026802392676472664, 0.9951620697975159, -0.0893280953168869, -0.09335899353027344, 1.48828125, 1.3095703125, 0.037139892578125, 1.500732421875
20614, 1.2015033960342407, 2.1380250453948975, -0.20752404630184174, -0.01169169507920742, -0.006504736840724945, -9.299002647399902, -0.09907200932502747, -0.05517101287841797, -0.9786290526390076, -0.7801874279975891, -1.024326205253601, 0.0739331766963005, -0.16411873321083909, -1.105334327841632, -10.542823629654235, 9362.0, 30146.0, 35388.0, 9362.0, 8.350414276123047, 0.07777486741542816, -0.3259364366531372, -0.11179430037736893, -0.09454438090324402, -0.028597841039299965, 0.9961223006248474, -0.0893280953168869, -0.09335899353027344, 1.48828125, 1.352783203125, 0.015350341796875, 1.49267578125
20624, 1.2021338939666748, 2.136920928955078, -0.20646700263023376, -0.012700672261416912, -0.007066621445119381, -9.308791160583496, -0.1027233898639679, -0.05720583721995354, -0.9791443347930908, -0.7801714539527893, -1.0243151187896729, 0.07394888997077942, -0.16367420220178405, -1.1085830283316227, -10.54895320481452, 9362.0, 30146.0, 35388.0, 9362.0, 8.350414276123047, 0.1852857917547226, -0.1062367707490921, 0.1073046550154686, -0.09242556989192963, -0.0279187373816967, 0.9947370886802673, -0.0893280953168869, -0.09335899353027344, 1.48828125, 1.35791015625, 0.015869140625, 1.49267578125
20634, 1.2022335529327393, 2.1366567611694336, -0.20656029880046844, -0.01374615728855133, -0.007648853585124016, -9.318585395812988, -0.10637369751930237, -0.059240683913230896, -0.9796642661094666, -0.7801701426506042, -1.0243200063705444, 0.07392172515392303, -0.16582462268632317, -1.1069200512419002, -10.547598711119084, 9362.0, 30146.0, 35388.0, 9362.0, 8.350414276123047, 0.011567821726202965, 0.24881918728351593, 0.04021934047341347, -0.08944738656282425, -0.028794489800930023, 0.9941781163215637, -0.0893280953168869, -0.09335899353027344, 1.48828125, 1.411376953125, 0.05181884765625, 1.491943359375
20644, 1.2021174430847168, 2.137890338897705, -0.20799671113491058, -0.014828111976385117, -0.008251426741480827, -9.328385353088379, -0.11001722514629364, -0.061273880302906036, -0.980315625667572, -0.7801814675331116, -1.0243079662322998, 0.07393480092287064, -0.16489645767383013, -1.1015797977719615, -10.554208501626968, 9362.0, 30146.0, 35388.0, 9362.0, 8.350414276123047, -0.04567084088921547, -0.47593674063682556, -0.12294294685125351, -0.09353233873844147, -0.028869938105344772, 0.9960499405860901, -0.0900077298283577, -0.030637741088867188, 1.493408203125, 1.376953125, 0.0225982666015625, 1.491943359375
20654, 1.2028354406356812, 2.138282299041748, -0.20923712849617004, -0.015946511179208755, -0.008874339051544666, -9.338191032409668, -0.11366269737482071, -0.0633084625005722, -0.9809030890464783, -0.7801763415336609, -1.024317741394043, 0.07391933351755142, -0.16522472247258924, -1.1060936288411085, -10.546325048373872, 9362.0, 30146.0, 35388.0, 9362.0, 8.350414276123047, -0.046493642032146454, -0.005496765021234751, -0.1182178482413292, -0.09183516353368759, -0.030374150723218918, 0.9961863160133362, -0.0900077298283577, -0.030637741088867188, 1.493408203125, 1.355712890625, 0.0155029296875, 1.49560546875
20664, 1.2028172016143799, 2.1383676528930664, -0.2110588699579239, -0.017101403325796127, -0.009517611004412174, -9.348002433776855, -0.11731579154729843, -0.06534582376480103, -0.9813440442085266, -0.7801748514175415, -1.0243206024169922, 0.0739479586482048, -0.16365958415634746, -1.1089519846225357, -10.541306068188936, 9362.0, 30146.0, 35388.0, 9362.0, 8.350414276123047, 0.09070506691932678, -0.006885547190904617, -0.2945418953895569, -0.09160212427377701, -0.030260926112532616, 0.9956032633781433, -0.0900077298283577, -0.030637741088867188, 1.493408203125, 1.355712890625, 0.0155029296875, 1.49560546875
20674, 1.2023340463638306, 2.135547637939453, -0.21075566112995148, -0.018292807042598724, -0.010181249119341373, -9.357818603515625, -0.12096506357192993, -0.06738173961639404, -0.9819082021713257, -0.7801827788352966, -1.0243130922317505, 0.07392524927854538, -0.16351486265760534, -1.1076083076974896, -10.547595163212097, 9362.0, 30146.0, 35388.0, 9362.0, 8.350414276123047, -0.11080534756183624, -0.03264763206243515, -0.08570682257413864, -0.09013056010007858, -0.030422169715166092, 0.9954118728637695, -0.0900077298283577, -0.030637741088867188, 1.493408203125, 1.345458984375, 0.0156707763671875, 1.49560546875
20684, 1.2025117874145508, 2.1337873935699463, -0.21154151856899261, -0.01952071487903595, -0.01086525060236454, -9.367640495300293, -0.124616339802742, -0.06941868364810944, -0.9824219942092896, -0.780170738697052, -1.0243291854858398, 0.07391976565122604, -0.16646819086577663, -1.0934752363297378, -10.545236007756728, 9362.0, 30146.0, 35388.0, 9362.0, 8.350414276123047, -0.05678381398320198, 0.2169545590877533, -0.10921479016542435, -0.09192565828561783, -0.030157286673784256, 0.9945715665817261, -0.0900077298283577, -0.030637741088867188, 1.493408203125, 1.37841796875, 0.023406982421875, 1.49560546875
20694, 1.202311396598816, 2.132452964782715, -0.21145153045654297, -0.020785098895430565, -0.011569611728191376, -9.377467155456543, -0.12826061248779297, -0.0714535117149353, -0.9829952120780945, -0.7801818251609802, -1.0243345499038696, 0.07391098141670227, -0.16554309928242358, -1.1026830020136629, -10.543765643917027, 9362.0, 30146.0, 35388.0, 9362.0, 8.350414276123047, -0.07805052399635315, 0.09106135368347168, -0.024718303233385086, -0.09238480031490326, -0.02993057109415531, 0.9968721866607666, -0.0900077298283577, -0.030637741088867188, 1.493408203125, 1.399658203125, 0.0396575927734375, 1.496337890625
20704, 1.2019990682601929, 2.1305415630340576, -0.2106045037508011, -0.022085923701524734, -0.012294329702854156, -9.387299537658691, -0.13190431892871857, -0.07349003851413727, -0.983502984046936, -0.7801734209060669, -1.0243176221847534, 0.07393975555896759, -0.16259720473935765, -1.101834066596922, -10.54873230548104, 9362.0, 30146.0, 35388.0, 9362.0, 8.350414276123047, -0.15766659379005432, 0.22626769542694092, 0.23248796164989471, -0.0936126708984375, -0.028683410957455635, 0.9966188073158264, -0.0900077298283577, -0.030637741088867188, 1.493408203125, 1.33154296875, 0.0198516845703125, 1.496337890625
20714, 1.202272653579712, 2.1303651332855225, -0.21162404119968414, -0.023423202335834503, -0.013039426878094673, -9.397136688232422, -0.13555143773555756, -0.07552947103977203, -0.983858585357666, -0.7801821827888489, -1.0243120193481445, 0.07394438982009888, -0.1674601599064619, -1.114761640500376, -10.552597274684658, 9362.0, 30146.0, 35388.0, 9362.0, 8.350414276123047, -0.0017242735484614968, 0.1715686023235321, 0.020673168823122978, -0.09087801724672318, -0.02927485853433609, 0.9943844676017761, -0.0900077298283577, -0.030637741088867188, 1.493408203125, 1.379150390625, 0.0238189697265625, 1.503662109375
20724, 1.202980637550354, 2.12842059135437, -0.2135382890701294, -0.02479689195752144, -0.013804891146719456, -9.406978607177734, -0.1391863226890564, -0.07756327837705612, -0.9844545722007751, -0.7802247405052185, -1.0243251323699951, 0.0739029049873352, -0.17091070951763157, -1.1074028698115228, -10.564241371444798, 9362.0, 30146.0, 35388.0, 9362.0, 8.350414276123047, 0.01130309421569109, -0.007675857283174992, -0.17986689507961273, -0.0894969031214714, -0.029293255880475044, 0.9958335161209106, -0.0900077298283577, -0.030637741088867188, 1.493408203125, 1.346923828125, 0.015472412109375, 1.503662109375
20734, 1.202491044998169, 2.127119779586792, -0.2126719355583191, -0.026206938549876213, -0.014590701088309288, -9.416826248168945, -0.1428232043981552, -0.07959868758916855, -0.9849905967712402, -0.7802273631095886, -1.024324655532837, 0.07390788942575455, -0.16118437213780448, -1.0991696558537, -10.56301221552119, 9362.0, 30146.0, 35388.0, 9362.0, 8.350414276123047, 0.1159333735704422, 0.33698928356170654, 0.18076872825622559, -0.08969652652740479, -0.02849402464926243, 0.9963402152061462, -0.0900077298283577, -0.030637741088867188, 1.493408203125, 1.319091796875, 0.0279998779296875, 1.49560546875
20744, 1.2026039361953735, 2.1259946823120117, -0.21424952149391174, -0.027653353288769722, -0.01539687905460596, -9.426678657531738, -0.14645971357822418, -0.08163701742887497, -0.9854469895362854, -0.780225932598114, -1.0243288278579712, 0.07392525672912598, -0.1633654354339954, -1.10016126027989, -10.564618850071307, 9362.0, 30146.0, 35388.0, 9362.0, 8.350414276123047, -0.17910511791706085, 0.15530040860176086, -0.2802294194698334, -0.09136278927326202, -0.029897339642047882, 0.9959560036659241, -0.07524903863668442, -0.18295860290527344, 1.48095703125, 1.404052734375, 0.04400634765625, 1.49560546875
20754, 1.2045735120773315, 2.1262366771698, -0.2164354771375656, -0.02913612127304077, -0.01622343622148037, -9.436535835266113, -0.15009401738643646, -0.08367440849542618, -0.98590487241745, -0.7802284955978394, -1.0243335962295532, 0.07392046600580215, -0.16547845568894853, -1.1013898434769942, -10.567324911068612, 9362.0, 30146.0, 35388.0, 9362.0, 8.350414276123047, 0.41733354330062866, 0.05303109809756279, -0.3275398910045624, -0.09373581409454346, -0.028871705755591393, 0.99625563621521, -0.07524903863668442, -0.18295860290527344, 1.48095703125, 1.3095703125, 0.037139892578125, 1.49560546875
20764, 1.2048569917678833, 2.125357151031494, -0.2186485379934311, -0.030655229464173317, -0.01707037165760994, -9.446396827697754, -0.15372756123542786, -0.08571245521306992, -0.9863338470458984, -0.7802212238311768, -1.024324655532837, 0.0739225223660469, -0.16722571257168006, -1.1059197304092834, -10.561363797489202, 9362.0, 30146.0, 35388.0, 9362.0, 8.350414276123047, 0.15208306908607483, 0.15664216876029968, -0.12465543299913406, -0.092812180519104, -0.02903825417160988, 0.996952474117279, -0.07524903863668442, -0.18295860290527344, 1.48095703125, 1.37548828125, 0.021820068359375, 1.49560546875
20774, 1.2046808004379272, 2.128368377685547, -0.22071613371372223, -0.030655229464173317, -0.01707037165760994, -9.446396827697754, -0.15372756123542786, -0.08571245521306992, -0.9863338470458984, -0.7802217602729797, -1.0243333578109741, 0.07390737533569336, -0.16328209296802873, -1.1091023605994792, -10.558950319513631, 9362.0, 30146.0, 35388.0, 9362.0, 8.350414276123047, -0.12390969693660736, -0.26055192947387695, -0.260087251663208, -0.09065716713666916, -0.028800005093216896, 0.9959319233894348, -0.07524903863668442, -0.18295860290527344, 1.48095703125, 1.37548828125, 0.021820068359375, 1.493408203125
20804, 1.2056504487991333, 2.1293928623199463, -0.2218579649925232, -0.037095047533512115, -0.020662181079387665, -9.485884666442871, -0.16825950145721436, -0.09387713670730591, -0.9882317185401917, -0.7802183032035828, -1.024330973625183, 0.07393621653318405, -0.16804350415240857, -1.1042005184815196, -10.567780637382764, 9362.0, 30146.0, 35388.0, 9362.0, 8.350414276123047, 0.10490617156028748, -0.21104946732521057, 0.07693087309598923, -0.09121762961149216, -0.030307352542877197, 0.9943695068359375, -0.07524903863668442, -0.18295860290527344, 1.48095703125, 1.426025390625, 0.069732666015625, 1.493408203125
20814, 1.2052814960479736, 2.1302590370178223, -0.22387227416038513, -0.037095047533512115, -0.020662181079387665, -9.485884666442871, -0.16825950145721436, -0.09387713670730591, -0.9882317185401917, -0.780225932598114, -1.0243284702301025, 0.07392443716526031, -0.1611948449255511, -1.1102015918676784, -10.557485129571912, 9362.0, 30146.0, 35388.0, 9362.0, 8.350414276123047, 0.10490617156028748, -0.21104946732521057, 0.07693087309598923, -0.092032290995121, -0.028626563027501106, 0.9937044978141785, -0.07524903863668442, -0.18295860290527344, 1.48095703125, 1.426025390625, 0.069732666015625, 1.48974609375
20824, 1.206093192100525, 2.1292245388031006, -0.22536827623844147, -0.037095047533512115, -0.020662181079387665, -9.485884666442871, -0.16825950145721436, -0.09387713670730591, -0.9882317185401917, -0.7802150845527649, -1.024322509765625, 0.07392963021993637, -0.16304464443092215, -1.097320216927784, -10.564625786280025, 9362.0, 30146.0, 35388.0, 9362.0, 8.350414276123047, 0.2442186027765274, 0.14340391755104065, -0.4485960900783539, -0.09297411143779755, -0.03240058571100235, 0.9948753714561462, -0.07524903863668442, -0.18295860290527344, 1.48095703125, 1.292724609375, 0.060089111328125, 1.48974609375
20834, 1.2065789699554443, 2.1282949447631836, -0.22497059404850006, -0.037095047533512115, -0.020662181079387665, -9.485884666442871, -0.16825950145721436, -0.09387713670730591, -0.9882317185401917, -0.7802150845527649, -1.024322509765625, 0.07392963021993637, -0.16304464443092215, -1.097320216927784, -10.564625786280025, 9362.0, 30146.0, 35388.0, 9362.0, 8.350414276123047, -0.0002707378880586475, 0.14282862842082977, 0.09950462728738785, -0.09052448719739914, -0.033494457602500916, 0.9943261742591858, -0.07524903863668442, -0.18295860290527344, 1.48095703125, 1.292724609375, 0.060089111328125, 1.502197265625
20844, 1.2075364589691162, 2.1302154064178467, -0.22482143342494965, -0.037095047533512115, -0.020662181079387665, -9.485884666442871, -0.16825950145721436, -0.09387713670730591, -0.9882317185401917, -0.7802218794822693, -1.0243260860443115, 0.07390943914651871, -0.16811892589205232, -1.0988672211082928, -10.561305675319007, 9362.0, 30146.0, 35388.0, 9362.0, 8.350414276123047, -0.0002707378880586475, 0.14282862842082977, 0.09950462728738785, -0.09223555028438568, -0.032397106289863586, 0.9951884746551514, -0.07524903863668442, -0.18295860290527344, 1.48095703125, 1.292724609375, 0.060089111328125, 1.502197265625
20854, 1.2077722549438477, 2.1300015449523926, -0.22406405210494995, -0.037095047533512115, -0.020662181079387665, -9.485884666442871, -0.16825950145721436, -0.09387713670730591, -0.9882317185401917, -0.7802259922027588, -1.024322748184204, 0.07391691952943802, -0.16481161544759734, -1.1071053939009516, -10.558948811467069, 9362.0, 30146.0, 35388.0, 9362.0, 8.350414276123047, 0.02217664010822773, 0.15254494547843933, -0.002890976844355464, -0.09229998290538788, -0.03016657568514347, 0.9977176785469055, -0.07524903863668442, -0.18295860290527344, 1.48095703125, 1.292724609375, 0.060089111328125, 1.502197265625
20864, 1.2077667713165283, 2.1275086402893066, -0.22556768357753754, -0.037095047533512115, -0.020662181079387665, -9.485884666442871, -0.16825950145721436, -0.09387713670730591, -0.9882317185401917, -0.7802291512489319, -1.024336338043213, 0.07391966879367828, -0.15556135845542318, -1.099329719531454, -10.562322127717065, 9362.0, 30146.0, 35388.0, 9362.0, 8.350414276123047, -0.13049210608005524, -0.29717743396759033, -0.12795449793338776, -0.09122633188962936, -0.029531214386224747, 0.9951934814453125, -0.07524903863668442, -0.18295860290527344, 1.48095703125, 1.292724609375, 0.060089111328125, 1.502197265625
20874, 1.2069659233093262, 2.1275668144226074, -0.22728106379508972, -0.037095047533512115, -0.020662181079387665, -9.485884666442871, -0.16825950145721436, -0.09387713670730591, -0.9882317185401917, -0.7802205681800842, -1.0243171453475952, 0.0739358514547348, -0.16450692185397064, -1.1023558245190088, -10.567462277364951, 9362.0, 30146.0, 35388.0, 9362.0, 8.350414276123047, 0.038120172917842865, 0.1699492335319519, -0.28456199169158936, -0.0920601338148117, -0.02942715398967266, 0.9966384768486023, -0.07524903863668442, -0.18295860290527344, 1.48095703125, 1.292724609375, 0.060089111328125, 1.497802734375
20884, 1.2057331800460815, 2.1288187503814697, -0.22881989181041718, -0.037095047533512115, -0.020662181079387665, -9.485884666442871, -0.16825950145721436, -0.09387713670730591, -0.9882317185401917, -0.7802342176437378, -1.0243167877197266, 0.07392534613609314, -0.17071204025971723, -1.1048131722450307, -10.558234507347715, 9362.0, 30146.0, 35388.0, 9362.0, 8.350414276123047, -0.13550104200839996, -0.32507410645484924, 0.01984933204948902, -0.09093499928712845, -0.03165899217128754, 0.9949610829353333, -0.07524903863668442, -0.18295860290527344, 1.48095703125, 1.34619140625, 0.015594482421875, 1.497802734375
20894, 1.2061117887496948, 2.127544403076172, -0.2287345677614212, -0.037095047533512115, -0.020662181079387665, -9.485884666442871, -0.16825950145721436, -0.09387713670730591, -0.9882317185401917, -0.7802314162254333, -1.0243360996246338, 0.0739181861281395, -0.16298171675364562, -1.1040253341658115, -10.56233811669365, 9362.0, 30146.0, 35388.0, 9362.0, 8.350414276123047, 0.09436682611703873, -0.048540759831666946, 0.14753419160842896, -0.09133850783109665, -0.032390154898166656, 0.9958567023277283, -0.07524903863668442, -0.18295860290527344, 1.48095703125, 1.34619140625, 0.015594482421875, 1.497802734375
20924, 1.2044405937194824, 2.130894422531128, -0.22792521119117737, -0.037095047533512115, -0.020662181079387665, -9.485884666442871, -0.16825950145721436, -0.09387713670730591, -0.9882317185401917, -0.7802321910858154, -1.0243271589279175, 0.0739506408572197, -0.16920928642029656, -1.106049927043955, -10.563587197552927, 9362.0, 30146.0, 35388.0, 9362.0, 8.350414276123047, -0.0661407932639122, -0.16548678278923035, -0.15211094915866852, -0.08874712139368057, -0.02955309860408306, 0.9952625036239624, -0.07524903863668442, -0.18295860290527344, 1.48095703125, 1.32421875, 0.024139404296875, 1.497802734375
20934, 1.2039079666137695, 2.133281707763672, -0.2292802333831787, -0.037095047533512115, -0.020662181079387665, -9.485884666442871, -0.16825950145721436, -0.09387713670730591, -0.9882317185401917, -0.7802321910858154, -1.0243271589279175, 0.0739506408572197, -0.16920928642029656, -1.106049927043955, -10.563587197552927, 9362.0, 30146.0, 35388.0, 9362.0, 8.350414276123047, -0.1985771805047989, -0.08657574653625488, -0.11969415098428726, -0.09082698076963425, -0.029661081731319427, 0.9928169250488281, -0.07524903863668442, -0.18295860290527344, 1.48095703125, 1.32421875, 0.024139404296875, 1.497802734375
20944, 1.205248236656189, 2.135194778442383, -0.23041212558746338, -0.037095047533512115, -0.020662181079387665, -9.485884666442871, -0.16825950145721436, -0.09387713670730591, -0.9882317185401917, -0.7802304029464722, -1.0243233442306519, 0.07392309606075287, -0.16843176375608165, -1.0918165697625568, -10.560346589070367, 9362.0, 30146.0, 35388.0, 9362.0, 8.350414276123047, 0.024971511214971542, -0.37215808033943176, -0.010882527567446232, -0.09082698076963425, -0.029661081731319427, 0.9928169250488281, -0.07524903863668442, -0.18295860290527344, 1.48095703125, 1.36669921875, 0.01806640625, 1.497802734375
20954, 1.2069205045700073, 2.134490728378296, -0.23028549551963806, -0.037095047533512115, -0.020662181079387665, -9.485884666442871, -0.16825950145721436, -0.09387713670730591, -0.9882317185401917, -0.7802225947380066, -1.0243273973464966, 0.07391931861639023, -0.16663526395445008, -1.107839123473184, -10.565671309128602, 9362.0, 30146.0, 35388.0, 9362.0, 8.350414276123047, 0.020218070596456528, 0.19825968146324158, 0.2666289210319519, -0.0918954461812973, -0.029929213225841522, 0.9936140775680542, -0.07524903863668442, -0.18295860290527344, 1.48095703125, 1.36669921875, 0.01806640625, 1.497802734375
20964, 1.2056137323379517, 2.137153387069702, -0.228960782289505, -0.06866799294948578, -0.038294631987810135, -9.644736289978027, -0.2264152318239212, -0.1265156865119934, -0.9975204467773438, -0.7802160382270813, -1.0243339538574219, 0.07391224056482315, -0.16655842613453326, -1.101626500444354, -10.565627811476212, 9362.0, 30146.0, 35388.0, 9362.0, 8.350414276123047, -0.05809884890913963, -0.2494467943906784, -0.045538075268268585, -0.09122124314308167, -0.031357064843177795, 0.9977445006370544, -0.07524903863668442, -0.18295860290527344, 1.48095703125, 1.36669921875, 0.01806640625, 1.497802734375
20974, 1.2057541608810425, 2.1378774642944336, -0.22980690002441406, -0.06866799294948578, -0.038294631987810135, -9.644736289978027, -0.2264152318239212, -0.1265156865119934, -0.9975204467773438, -0.7802165746688843, -1.0243206024169922, 0.07391078770160675, -0.16115952003015688, -1.1091918616226621, -10.56634014155261, 9362.0, 30146.0, 35388.0, 9362.0, 8.350414276123047, 0.008322818204760551, -0.13257566094398499, -0.21212612092494965, -0.09122124314308167, -0.031357064843177795, 0.9977445006370544, -0.07524903863668442, -0.18295860290527344, 1.48095703125, 1.36669921875, 0.01806640625, 1.49560546875
20984, 1.204969048500061, 2.139197826385498, -0.23083418607711792, -0.06866799294948578, -0.038294631987810135, -9.644736289978027, -0.2264152318239212, -0.1265156865119934, -0.9975204467773438, -0.7802233099937439, -1.024322509765625, 0.07393530011177063, -0.16149027855745213, -1.1045169889602278, -10.562230659217294, 9362.0, 30146.0, 35388.0, 9362.0, 8.350414276123047, 0.03663409873843193, 0.030155237764120102, 0.05305374041199684, -0.09205101430416107, -0.027525009587407112, 0.9938412308692932, -0.07524903863668442, -0.18295860290527344, 1.48095703125, 1.37841796875, 0.023406982421875, 1.49560546875
20994, 1.206027626991272, 2.1405651569366455, -0.2298821210861206, -0.06866799294948578, -0.038294631987810135, -9.644736289978027, -0.2264152318239212, -0.1265156865119934, -0.9975204467773438, -0.7802262306213379, -1.0243253707885742, 0.07392017543315887, -0.1663680416118602, -1.0998920675534691, -10.563575836883613, 9362.0, 30146.0, 35388.0, 9362.0, 8.350414276123047, 0.13611961901187897, -0.10135312378406525, 0.23849152028560638, -0.09243042021989822, -0.02836991660296917, 0.9955168962478638, -0.07524903863668442, -0.18295860290527344, 1.48095703125, 1.37841796875, 0.023406982421875, 1.49560546875
21004, 1.2059268951416016, 2.1415038108825684, -0.2280515432357788, -0.06866799294948578, -0.038294631987810135, -9.644736289978027, -0.2264152318239212, -0.1265156865119934, -0.9975204467773438, -0.7802197933197021, -1.0243266820907593, 0.07393264025449753, -0.1636070094330458, -1.1064382134506445, -10.55919136118723, 9362.0, 30146.0, 35388.0, 9362.0, 8.350414276123047, -0.055134814232587814, 0.03602064773440361, 0.27273476123809814, -0.09309263527393341, -0.02955413982272148, 0.9974597096443176, -0.07524903863668442, -0.18295860290527344, 1.48095703125, 1.37841796875, 0.023406982421875, 1.49560546875
21014, 1.205183982849121, 2.140408515930176, -0.22769862413406372, -0.06866799294948578, -0.038294631987810135, -9.644736289978027, -0.2264152318239212, -0.1265156865119934, -0.9975204467773438, -0.7802204489707947, -1.0243244171142578, 0.07392732053995132, -0.16018927828284, -1.1031394085858892, -10.56338490073466, 9362.0, 30146.0, 35388.0, 9362.0, 8.350414276123047, -0.038207802921533585, 0.10680330544710159, -0.031909264624118805, -0.09309263527393341, -0.02955413982272148, 0.9974597096443176, -0.07524903863668442, -0.18295860290527344, 1.48095703125, 1.37841796875, 0.023406982421875, 1.494873046875
21044, 1.2050918340682983, 2.1376280784606934, -0.2277670055627823, -0.08290991932153702, -0.046253006905317307, -9.704679489135742, -0.24833039939403534, -0.1387629210948944, -1.0005353689193726, -0.7802255749702454, -1.0243308544158936, 0.07391837239265442, -0.16588979474419666, -1.102403948136157, -10.565062486992442, 9362.0, 30146.0, 35388.0, 9362.0, 8.350414276123047, -0.038207802921533585, 0.10680330544710159, -0.031909264624118805, -0.09309263527393341, -0.02955413982272148, 0.9974597096443176, -0.07524903863668442, -0.18295860290527344, 1.48095703125, 1.37841796875, 0.023406982421875, 1.494873046875
21054, 1.2043709754943848, 2.1355834007263184, -0.22845295071601868, -0.08290991932153702, -0.046253006905317307, -9.704679489135742, -0.24833039939403534, -0.1387629210948944, -1.0005353689193726, -0.7802221775054932, -1.0243247747421265, 0.07391735166311264, -0.1651856762371657, -1.1030229430537304, -10.562593345469805, 9362.0, 30146.0, 35388.0, 9362.0, 8.350414276123047, 0.013462101109325886, 0.19762194156646729, -0.04200730100274086, -0.09162580221891403, -0.030443698167800903, 0.9938585162162781, -0.07524903863668442, -0.18295860290527344, 1.48095703125, 1.37841796875, 0.023406982421875, 1.494873046875
21064, 1.203295111656189, 2.135842800140381, -0.22847889363765717, -0.09313549101352692, -0.05196673423051834, -9.74474048614502, -0.262940376996994, -0.14692173898220062, -1.002560019493103, -0.7802129983901978, -1.024322748184204, 0.07391750067472458, -0.1595201399622797, -1.1057183603988392, -10.560058767275144, 9362.0, 30146.0, 35388.0, 9362.0, 8.350414276123047, -0.17579226195812225, 0.06534479558467865, -0.014837580733001232, -0.09133143723011017, -0.031087029725313187, 0.9921929836273193, -0.07524903863668442, -0.18295860290527344, 1.48095703125, 1.37841796875, 0.023406982421875, 1.494873046875
21074, 1.2039471864700317, 2.138512372970581, -0.22929906845092773, -0.09313549101352692, -0.05196673423051834, -9.74474048614502, -0.262940376996994, -0.14692173898220062, -1.002560019493103, -0.7802167534828186, -1.0243216753005981, 0.07388827204704285, -0.16414226684090688, -1.1113258455826553, -10.559841345589613, 9362.0, 30146.0, 35388.0, 9362.0, 8.350414276123047, 0.03714423254132271, 0.048934221267700195, -0.0026388291735202074, -0.09307532757520676, -0.027888404205441475, 0.994956910610199, -0.07524903863668442, -0.18295860290527344, 1.48095703125, 1.37841796875, 0.023406982421875, 1.500732421875
21084, 1.2054009437561035, 2.1382763385772705, -0.22933916747570038, -0.09846705198287964, -0.054945822805166245, -9.76480770111084, -0.27021801471710205, -0.15098725259304047, -1.0040453672409058, -0.7802252173423767, -1.0243265628814697, 0.07392049580812454, -0.16204043881118113, -1.09813485113159, -10.56250052616062, 9362.0, 30146.0, 35388.0, 9362.0, 8.350414276123047, 0.14343516528606415, -0.016916103661060333, 0.034852080047130585, -0.0914633572101593, -0.027676982805132866, 0.9957415461540222, -0.07524903863668442, -0.18295860290527344, 1.48095703125, 1.37841796875, 0.023406982421875, 1.500732421875
21094, 1.2052297592163086, 2.1345136165618896, -0.2297063171863556, -0.09846705198287964, -0.054945822805166245, -9.76480770111084, -0.27021801471710205, -0.15098725259304047, -1.0040453672409058, -0.780215322971344, -1.0243240594863892, 0.07391762733459473, -0.1727688079806857, -1.1046378888200366, -10.565650878721854, 9362.0, 30146.0, 35388.0, 9362.0, 8.350414276123047, -0.05681260675191879, 0.07757171243429184, -0.11756400763988495, -0.09446641057729721, -0.030557068064808846, 0.9936327934265137, -0.07524903863668442, -0.18295860290527344, 1.48095703125, 1.4326171875, 0.0786895751953125, 1.500732421875
21104, 1.2052897214889526, 2.1343882083892822, -0.2302030622959137, -0.10394442826509476, -0.058006320148706436, -9.784899711608887, -0.2775162160396576, -0.15506179630756378, -1.0052292346954346, -0.7802188992500305, -1.0243161916732788, 0.07392028719186783, -0.17071935917058395, -1.102359115219997, -10.55738889748164, 9362.0, 30146.0, 35388.0, 9362.0, 8.350414276123047, 0.07044527679681778, -0.00816661398857832, -0.092552550137043, -0.09446641057729721, -0.030557068064808846, 0.9936327934265137, -0.07524903863668442, -0.18295860290527344, 1.48095703125, 1.4326171875, 0.0786895751953125, 1.500732421875
21114, 1.2063138484954834, 2.134218215942383, -0.23002184927463531, -0.10394442826509476, -0.058006320148706436, -9.784899711608887, -0.2775162160396576, -0.15506179630756378, -1.0052292346954346, -0.7802181839942932, -1.0243192911148071, 0.07388924807310104, -0.16732169574942063, -1.1005750120148718, -10.56591488084618, 9362.0, 30146.0, 35388.0, 9362.0, 8.350414276123047, 0.023374222218990326, 0.03485018387436867, -0.06586005538702011, -0.09367115050554276, -0.030281394720077515, 0.9961580038070679, -0.07524903863668442, -0.18295860290527344, 1.48095703125, 1.37548828125, 0.021820068359375, 1.500732421875
21134, 1.2087583541870117, 2.1374223232269287, -0.23392783105373383, -0.10956767201423645, -0.06114836409687996, -9.805013656616211, -0.2848101258277893, -0.15914341807365417, -1.0061688423156738, -0.7802192568778992, -1.0243195295333862, 0.07390989363193512, -0.16892715613099107, -1.103358160321818, -10.562748721635034, 9362.0, 30146.0, 35388.0, 9362.0, 8.350414276123047, 0.16813957691192627, -0.22421345114707947, -0.16291511058807373, -0.09476737678050995, -0.029851365834474564, 0.995542585849762, -0.07524903863668442, -0.18295860290527344, 1.48095703125, 1.37548828125, 0.021820068359375, 1.493408203125
21144, 1.2098957300186157, 2.1386983394622803, -0.23537911474704742, -0.10956767201423645, -0.06114836409687996, -9.805013656616211, -0.2848101258277893, -0.15914341807365417, -1.0061688423156738, -0.7802228927612305, -1.0243256092071533, 0.0738973394036293, -0.1678797470365322, -1.1005238178202035, -10.56024461265711, 9362.0, 30146.0, 35388.0, 9362.0, 8.350414276123047, -0.18370595574378967, -0.06686868518590927, -0.029718482866883278, -0.09432636946439743, -0.02994055300951004, 0.994794487953186, -0.07524903863668442, -0.18295860290527344, 1.48095703125, 1.39599609375, 0.0362701416015625, 1.493408203125
21154, 1.209200143814087, 2.1393325328826904, -0.2353573441505432, -0.10956767201423645, -0.06114836409687996, -9.805013656616211, -0.2848101258277893, -0.15914341807365417, -1.0061688423156738, -0.7802228927612305, -1.0243256092071533, 0.0738973394036293, -0.1678797470365322, -1.1005238178202035, -10.56024461265711, 9362.0, 30146.0, 35388.0, 9362.0, 8.350414276123047, -0.07588061690330505, 0.10433129966259003, -0.09265181422233582, -0.09169598668813705, -0.026604825630784035, 0.9976727366447449, -0.07524903863668442, -0.18295860290527344, 1.48095703125, 1.39599609375, 0.0362701416015625, 1.493408203125
21164, 1.2084954977035522, 2.1408050060272217, -0.235657200217247, -0.12125173956155777, -0.06767752766609192, -9.845304489135742, -0.2994012236595154, -0.16731984913349152, -1.0083247423171997, -0.7802295684814453, -1.024330735206604, 0.07390352338552475, -0.16544055034394156, -1.1018442380315605, -10.567120795992446, 9362.0, 30146.0, 35388.0, 9362.0, 8.350414276123047, -0.12687312066555023, -0.5753641128540039, -0.18584869801998138, -0.09169598668813705, -0.026604825630784035, 0.9976727366447449, -0.07524903863668442, -0.18295860290527344, 1.48095703125, 1.39599609375, 0.0362701416015625, 1.493408203125
21174, 1.2086491584777832, 2.1433887481689453, -0.2353619486093521, -0.12125173956155777, -0.06767752766609192, -9.845304489135742, -0.2994012236595154, -0.16731984913349152, -1.0083247423171997, -0.7802152037620544, -1.0243275165557861, 0.07390476018190384, -0.16373240107819073, -1.1005511908693393, -10.567898436685631, 9362.0, 30146.0, 35388.0, 9362.0, 8.350414276123047, -0.025662466883659363, -0.07341377437114716, 0.002616076497361064, -0.0928986668586731, -0.029213573783636093, 0.995177149772644, -0.07524903863668442, -0.18295860290527344, 1.48095703125, 1.440673828125, 0.090423583984375, 1.496337890625
21184, 1.2077466249465942, 2.1438329219818115, -0.23409101366996765, -0.12125173956155777, -0.06767752766609192, -9.845304489135742, -0.2994012236595154, -0.16731984913349152, -1.0083247423171997, -0.7802122831344604, -1.0243152379989624, 0.07389683276414871, -0.16501693993541208, -1.1046590127397167, -10.570781897906915, 9362.0, 30146.0, 35388.0, 9362.0, 8.350414276123047, -0.1716238409280777, -0.3862667381763458, -0.05874324217438698, -0.09091976284980774, -0.030413871631026268, 0.997189998626709, -0.07524903863668442, -0.18295860290527344, 1.48095703125, 1.3037109375, 0.04412841796875, 1.496337890625
21194, 1.2077057361602783, 2.1444621086120605, -0.23435834050178528, -0.12125173956155777, -0.06767752766609192, -9.845304489135742, -0.2994012236595154, -0.16731984913349152, -1.0083247423171997, -0.7802176475524902, -1.0243200063705444, 0.0738988146185875, -0.16571611449797402, -1.0987209959147322, -10.564384373209926, 9362.0, 30146.0, 35388.0, 9362.0, 8.350414276123047, 0.05747941881418228, 0.12052088975906372, -0.0814899355173111, -0.09082488715648651, -0.03039437346160412, 0.9977781176567078, -0.07524903863668442, -0.18295860290527344, 1.48095703125, 1.3037109375, 0.04412841796875, 1.496337890625
21204, 1.2082079648971558, 2.142996311187744, -0.2331598401069641, -0.12125173956155777, -0.06767752766609192, -9.845304489135742, -0.2994012236595154, -0.16731984913349152, -1.0083247423171997, -0.7802201509475708, -1.0243269205093384, 0.07390112429857254, -0.16333076429341642, -1.1085160729719234, -10.565236237916064, 9362.0, 30146.0, 35388.0, 9362.0, 8.350414276123047, 0.15072834491729736, -0.0880463495850563, 0.07008291780948639, -0.08988777548074722, -0.03181751072406769, 0.9939810633659363, -0.07524903863668442, -0.18295860290527344, 1.48095703125, 1.345458984375, 0.0156707763671875, 1.496337890625
21214, 1.2084627151489258, 2.1422226428985596, -0.23207354545593262, -0.12125173956155777, -0.06767752766609192, -9.845304489135742, -0.2994012236595154, -0.16731984913349152, -1.0083247423171997, -0.7802115678787231, -1.0243338346481323, 0.07391415536403656, -0.15973864342623936, -1.1005932633126179, -10.562953311880195, 9362.0, 30146.0, 35388.0, 9362.0, 8.350414276123047, -0.013181357644498348, -0.016075024381279945, -0.03412134572863579, -0.08988777548074722, -0.03181751072406769, 0.9939810633659363, -0.07524903863668442, -0.18295860290527344, 1.48095703125, 1.345458984375, 0.0156707763671875, 1.496337890625
21224, 1.2085514068603516, 2.1445460319519043, -0.2344876378774643, -0.12125173956155777, -0.06767752766609192, -9.845304489135742, -0.2994012236595154, -0.16731984913349152, -1.0083247423171997, -0.7802191972732544, -1.024324655532837, 0.07389812916517258, -0.16212985876325392, -1.1027261075009847, -10.562053846690427, 9362.0, 30146.0, 35388.0, 9362.0, 8.350414276123047, 0.13001176714897156, -0.19965603947639465, -0.24670647084712982, -0.09242064505815506, -0.03169693425297737, 0.9966654777526855, -0.07524903863668442, -0.18295860290527344, 1.48095703125, 1.34326171875, 0.01605224609375, 1.496337890625
21234, 1.208627700805664, 2.1430599689483643, -0.2321784496307373, -0.12125173956155777, -0.06767752766609192, -9.845304489135742, -0.2994012236595154, -0.16731984913349152, -1.0083247423171997, -0.7802231907844543, -1.0243244171142578, 0.07389500737190247, -0.16460775743941272, -1.0979870313249762, -10.566744213026295, 9362.0, 30146.0, 35388.0, 9362.0, 8.350414276123047, -0.019685789942741394, 0.3055311143398285, 0.16290266811847687, -0.0918913409113884, -0.029077034443616867, 0.9958157539367676, -0.07524903863668442, -0.18295860290527344, 1.48095703125, 1.34326171875, 0.01605224609375, 1.49560546875
21254, 1.2074967622756958, 2.1409358978271484, -0.231135755777359, -0.12125173956155777, -0.06767752766609192, -9.845304489135742, -0.2994012236595154, -0.16731984913349152, -1.0083247423171997, -0.7802258133888245, -1.024327278137207, 0.07387985289096832, -0.1692884124679626, -1.1014059717508076, -10.560955956273729, 9362.0, 30146.0, 35388.0, 9362.0, 8.350414276123047, 0.04985521733760834, -0.14265021681785583, 0.19049039483070374, -0.09288280457258224, -0.03107464872300625, 0.9950610399246216, -0.07292867451906204, -0.03959846496582031, 1.49267578125, 1.41943359375, 0.0612945556640625, 1.496337890625
21274, 1.2071303129196167, 2.1406819820404053, -0.2335325926542282, -0.12125173956155777, -0.06767752766609192, -9.845304489135742, -0.2994012236595154, -0.16731984913349152, -1.0083247423171997, -0.7802237868309021, -1.0243165493011475, 0.0739043578505516, -0.16433669437287846, -1.101018946789992, -10.563014997594454, 9362.0, 30146.0, 35388.0, 9362.0, 8.350414276123047, -0.47029441595077515, -0.012304477393627167, -0.02749362215399742, -0.09041652828454971, -0.030876409262418747, 0.997247040271759, -0.07292867451906204, -0.03959846496582031, 1.49267578125, 1.3154296875, 0.03118896484375, 1.494873046875
21284, 1.2075636386871338, 2.1401419639587402, -0.2350020855665207, -0.12125173956155777, -0.06767752766609192, -9.845304489135742, -0.2994012236595154, -0.16731984913349152, -1.0083247423171997, -0.7802192568778992, -1.0243269205093384, 0.0739041417837143, -0.16052134151482428, -1.1074684081035855, -10.56551014540498, 9362.0, 30146.0, 35388.0, 9362.0, 8.350414276123047, 0.1200743317604065, 0.08083541691303253, 0.08655718713998795, -0.09323107451200485, -0.030685799196362495, 0.9956228137016296, -0.07292867451906204, -0.03959846496582031, 1.49267578125, 1.3271484375, 0.022308349609375, 1.494873046875
21294, 1.207662582397461, 2.1396307945251465, -0.23423044383525848, -0.12125173956155777, -0.06767752766609192, -9.845304489135742, -0.2994012236595154, -0.16731984913349152, -1.0083247423171997, -0.7802101969718933, -1.0243144035339355, 0.07391849905252457, -0.1664849446986478, -1.1101435813287708, -10.570379082302061, 9362.0, 30146.0, 35388.0, 9362.0, 8.350414276123047, 0.020731184631586075, 0.12247184664011002, -0.043656494468450546, -0.09233466535806656, -0.030379194766283035, 0.9944471716880798, -0.07292867451906204, -0.03959846496582031, 1.49267578125, 1.363037109375, 0.0169219970703125, 1.494873046875
21304, 1.207483172416687, 2.140385150909424, -0.2366010695695877, -0.1667545735836029, -0.09310680627822876, -9.98694896697998, -0.3506229519844055, -0.19594401121139526, -1.0154404640197754, -0.7802349328994751, -1.0243204832077026, 0.07392053306102753, -0.16478767642589287, -1.0966337147389993, -10.561206982006878, 9362.0, 30146.0, 35388.0, 9362.0, 8.350414276123047, -0.01375862117856741, -0.12618809938430786, -0.4021803140640259, -0.09233466535806656, -0.030379194766283035, 0.9944471716880798, -0.07292867451906204, -0.03959846496582031, 1.49267578125, 1.363037109375, 0.0169219970703125, 1.494873046875
21324, 1.2084625959396362, 2.135694742202759, -0.23475460708141327, -0.1667545735836029, -0.09310680627822876, -9.98694896697998, -0.3506229519844055, -0.19594401121139526, -1.0154404640197754, -0.7802349328994751, -1.0243204832077026, 0.07392053306102753, -0.16478767642589287, -1.0966337147389993, -10.561206982006878, 9362.0, 30146.0, 35388.0, 9362.0, 8.350414276123047, 0.18267962336540222, 0.37004372477531433, 0.06660693883895874, -0.09233466535806656, -0.030379194766283035, 0.9944471716880798, -0.07292867451906204, -0.03959846496582031, 1.49267578125, 1.363037109375, 0.0169219970703125, 1.494873046875
