timeTick, roll, pitch, yaw, stateX, stateY, stateZ, stateVX, stateVY, stateVZ, otX0, otY0, otZ0, otRoll0, otPitch0, otYaw0, left wing, pitch motor, yaw motor, right wing, voltage, roll rate, pitch rate, yaw rate, A_x, A_y, A_z, current, i_raw, v_raw, airflow_voltage, airflow_speed, pot_Pitch, voltage_nKF
22719, 46.8881721496582, 84.75286102294922, -45.06003189086914, 0, 0, 0, 0, 0, 0, 0, 0, 0, 0, 0, 0, 0, 0, 0, 0, 0, 0, 0, 0, 0, 0, 0, 0, 0, 0, 0, 0, 0, 0
22729, 46.899261474609375, 84.75318908691406, -45.071678161621094, 0.0, 0.0, -20.891626358032227, 0.0, 0.0, -0.7015228271484375, 0, 0, 0, 0, 0, 0, 9362.0, 30146.0, 35388.0, 9362.0, 0, 0.03135453164577484, 0.08486608415842056, -0.16745251417160034, 0.9997161626815796, 0.028473535552620888, 0.02728928066790104, 0, 0, 0, 0, 0, 0, 0
22739, 46.901615142822266, 84.75468444824219, -45.07410430908203, 0.0, 0.0, -20.89794158935547, 0.0, 0.0, -0.6315231323242188, 0, 0, 0, 0, 0, 0, 9362.0, 30146.0, 35388.0, 9362.0, 0, 0.19843557476997375, -0.019930627197027206, 0.16342516243457794, 0.9984851479530334, 0.02881048433482647, 0.027370909228920937, 0, 0, 0, 1.311767578125, 0.0348052978515625, 0, 0.0
22749, 46.91569137573242, 84.75476837158203, -45.08803939819336, 0.0, 0.0, -20.904170989990234, 0.0, 0.0, -0.6229400634765625, 0, 0, 0, 0, 0, 0, 9362.0, 30146.0, 35388.0, 9362.0, 0, 0.00842023454606533, -0.0026993914507329464, -0.040800806134939194, 0.9984745979309082, 0.029360169544816017, 0.027219902724027634, 0, 0, 0, 1.431884765625, 0.07769775390625, 1.4970703125, 0.0
22759, 46.98115539550781, 84.75592041015625, -45.154823303222656, 0.0, 0.0, -20.909778594970703, 0.0, 0.0, -0.560760498046875, 0, 0, 0, 0, 0, 0, 9362.0, 30146.0, 35388.0, 9362.0, 0, -0.15150780975818634, -0.4749947488307953, -0.13254858553409576, 0.9975005388259888, 0.029740534722805023, 0.026563735678792, 0, 0, 0, 1.393798828125, 0.0344085693359375, 1.4970703125, 0.0
22769, 46.98735427856445, 84.75569915771484, -45.15983963012695, 0.0, 0.0, -20.91592025756836, 0.0, 0.0, -0.614166259765625, 0, 0, 0, 0, 0, 0, 9362.0, 30146.0, 35388.0, 9362.0, 0, 0.14401544630527496, 0.10125096887350082, -0.03814104571938515, 0.9986615180969238, 0.028534356504678726, 0.029535606503486633, 0, 0, 0, 1.27294921875, 0.099334716796875, 1.48974609375, 0.0
22779, 47.0042610168457, 84.75460815429688, -45.17617416381836, 0.0, 0.0, -20.92144775390625, 0.0, 0.0, -0.5527496337890625, 0, 0, 0, 0, 0, 0, 9362.0, 30146.0, 35388.0, 9362.0, 0, 0.10430105030536652, 0.17499424517154694, -0.17349594831466675, 0.9960121512413025, 0.030281394720077515, 0.030594537034630775, 0, 0, 0, 1.390869140625, 0.0319671630859375, 1.48974609375, 0.0
22789, 46.93975067138672, 84.75476837158203, -45.11175537109375, 0.0, 0.0, -20.932985305786133, 0.0, 0.0, -1.1537551879882812, 0, 0, 0, 0, 0, 0, 9362.0, 30146.0, 35388.0, 9362.0, 0, 0.052836738526821136, 0.2562033534049988, 0.31592628359794617, 0.9969660639762878, 0.030409177765250206, 0.031920090317726135, 0, 0, 0, 1.40478515625, 0.0446624755859375, 1.49560546875, 0.0
22799, 46.93424987792969, 84.75532531738281, -45.1071662902832, 0.0, 0.0, -20.943370819091797, 0.0, 0.0, -1.0385513305664062, 0, 0, 0, 0, 0, 0, 9362.0, 30146.0, 35388.0, 9362.0, 0, 0.021725527942180634, 0.09793228656053543, -0.28483593463897705, 0.9978860020637512, 0.030244067311286926, 0.02943425066769123, 0, 0, 0, 1.45458984375, 0.11224365234375, 1.49560546875, 0.0
22809, 46.919620513916016, 84.75472259521484, -45.09373092651367, 0.0, 0.0, -20.93959617614746, 0.0, 0.0, 0.37746429443359375, 0, 0, 0, 0, 0, 0, 9362.0, 30146.0, 35388.0, 9362.0, 0, -0.20891153812408447, 0.23104345798492432, -0.04822781682014465, 0.9977427124977112, 0.03105766698718071, 0.02937941625714302, 0, 0, 0, 1.40771484375, 0.0478363037109375, 1.494140625, 0.0
22819, 46.95756530761719, 84.75446319580078, -45.1302375793457, 0.0, 0.0, -20.93619728088379, 0.0, 0.0, 0.3398895263671875, 0, 0, 0, 0, 0, 0, 9362.0, 30146.0, 35388.0, 9362.0, 8.211570739746094, 0.30922093987464905, -0.09001564979553223, -0.19408710300922394, 0.9977983832359314, 0.03053406998515129, 0.029030393809080124, -0.043993156403303146, 0.15752029418945312, 1.5087890625, 1.48974609375, 0.1755218505859375, 1.494140625, 0.0
22829, 46.9581413269043, 84.75420379638672, -45.13005065917969, 0.0, 0.0, -20.932594299316406, 0.0, 0.0, 0.36029815673828125, 0, 0, 0, 0, 0, 0, 9362.0, 30146.0, 35388.0, 9362.0, 8.211570739746094, 0.08079124987125397, 0.36616435647010803, -0.03691384568810463, 0.9993773698806763, 0.0306838545948267, 0.02810679003596306, -0.043993156403303146, 0.15752029418945312, 1.5087890625, 1.423828125, 0.066802978515625, 1.49560546875, 0.0
22839, 46.99131774902344, 84.75543212890625, -45.16376495361328, 0.0, 0.0, -20.929351806640625, 0.0, 0.0, 0.324249267578125, 0, 0, 0, 0, 0, 0, 9362.0, 30146.0, 35388.0, 9362.0, 8.211570739746094, 0.13596993684768677, -0.20874814689159393, 0.08121028542518616, 0.9959046244621277, 0.029951028525829315, 0.02771362103521824, -0.043993156403303146, 0.15752029418945312, 1.5087890625, 1.400390625, 0.04034423828125, 1.49560546875, 0.0
22849, 46.98883056640625, 84.75592041015625, -45.15982437133789, 0.0, 0.0, -20.92342758178711, 0.0, 0.0, 0.5924224853515625, 0, 0, 0, 0, 0, 0, 9362.0, 30146.0, 35388.0, 9362.0, 8.211570739746094, 0.2393335998058319, 0.07328102737665176, 0.1275871992111206, 0.9976247549057007, 0.030576014891266823, 0.028311535716056824, -0.043993156403303146, 0.15752029418945312, 1.5087890625, 1.400390625, 0.04034423828125, 1.494140625, 0.0
22859, 46.98417663574219, 84.7564468383789, -45.15421676635742, 0.0, 0.0, -20.9180965423584, 0.0, 0.0, 0.5331039428710938, 0, 0, 0, 0, 0, 0, 9362.0, 30146.0, 35388.0, 9362.0, 8.211570739746094, -0.0818873792886734, 0.22466449439525604, 0.06744395196437836, 0.998860239982605, 0.03146640211343765, 0.028448181226849556, -0.043993156403303146, 0.15752029418945312, 1.5087890625, 1.379150390625, 0.0238189697265625, 1.494140625, 0.0
22869, 46.960689544677734, 84.756591796875, -45.13007736206055, 0.0, 0.0, -20.91466522216797, 0.0, 0.0, 0.34313201904296875, 0, 0, 0, 0, 0, 0, 9362.0, 30146.0, 35388.0, 9362.0, 8.211570739746094, 0.08463256806135178, -0.01820445992052555, 0.2415231168270111, 0.998917818069458, 0.030409596860408783, 0.03264926001429558, -0.043993156403303146, 0.15752029418945312, 1.5087890625, 1.267822265625, 0.111724853515625, 1.49560546875, 0.0
22879, 46.908775329589844, 84.7563705444336, -45.079246520996094, 0.0, 0.0, -20.911577224731445, 0.0, 0.0, 0.30879974365234375, 0, 0, 0, 0, 0, 0, 9362.0, 30146.0, 35388.0, 9362.0, 8.211570739746094, -0.21532723307609558, 0.25624698400497437, 0.28717318177223206, 0.9983922243118286, 0.030195189639925957, 0.03351215273141861, -0.043993156403303146, 0.15752029418945312, 1.5087890625, 1.341064453125, 0.01654052734375, 1.49560546875, 0.0
22889, 46.8941650390625, 84.75536346435547, -45.06285858154297, 0.0, 0.0, -20.905242919921875, 0.0, 0.0, 0.6334304809570312, 0, 0, 0, 0, 0, 0, 9362.0, 30146.0, 35388.0, 9362.0, 8.211570739746094, 0.06877245008945465, 0.278462290763855, 0.08381485939025879, 0.9991394877433777, 0.029413403943181038, 0.029745858162641525, -0.043993156403303146, 0.15752029418945312, 1.5087890625, 1.428955078125, 0.073577880859375, 1.48974609375, 0.0
22899, 46.87771224975586, 84.7558822631836, -45.0472412109375, 0.0, 0.0, -20.8995418548584, 0.0, 0.0, 0.5701065063476562, 0, 0, 0, 0, 0, 0, 9362.0, 30146.0, 35388.0, 9362.0, 8.211570739746094, -0.08586879074573517, 0.13155126571655273, 0.18180325627326965, 1.0004417896270752, 0.027955779805779457, 0.028192978352308273, -0.043993156403303146, 0.15752029418945312, 1.5087890625, 1.388671875, 0.03033447265625, 1.48974609375, 0.0
22909, 46.9151725769043, 84.756103515625, -45.083316802978516, 0.0, 0.0, -20.897689819335938, 0.0, 0.0, 0.18520355224609375, 0, 0, 0, 0, 0, 0, 9362.0, 30146.0, 35388.0, 9362.0, 8.211570739746094, 0.2346169799566269, -0.08726901561021805, -0.03213636577129364, 0.997971773147583, 0.028655482456088066, 0.028589950874447823, -0.043993156403303146, 0.15752029418945312, 1.5087890625, 1.42822265625, 0.0726470947265625, 1.497802734375, 0.0
22919, 47.00663375854492, 84.75599670410156, -45.17542266845703, 0.0, 0.0, -20.896024703979492, 0.0, 0.0, 0.16651153564453125, 0, 0, 0, 0, 0, 0, 9362.0, 30146.0, 35388.0, 9362.0, 8.211570739746094, -0.01752176694571972, -0.2493894100189209, -0.31711509823799133, 1.0002022981643677, 0.028590155765414238, 0.029094550758600235, -0.05312461033463478, -0.12023735046386719, 1.486083984375, 1.44873046875, 0.102813720703125, 1.497802734375, 0.0
22929, 46.984432220458984, 84.75585174560547, -45.15283966064453, 0.0, 0.0, -20.904094696044922, 0.0, 0.0, -0.8069992065429688, 0, 0, 0, 0, 0, 0, 9362.0, 30146.0, 35388.0, 9362.0, 8.211570739746094, 0.0004189217579551041, 0.2678258419036865, -0.017721479758620262, 0.9989907145500183, 0.03001391887664795, 0.02858034148812294, -0.05312461033463478, -0.12023735046386719, 1.486083984375, 1.333740234375, 0.0189361572265625, 1.4912109375, 0.0
22939, 46.951351165771484, 84.7553939819336, -45.119503021240234, 0.0, 0.0, -20.91135597229004, 0.0, 0.0, -0.7261276245117188, 0, 0, 0, 0, 0, 0, 9362.0, 30146.0, 35388.0, 9362.0, 8.211570739746094, 0.015177645720541477, 0.2509080469608307, 0.095545694231987, 0.9990853071212769, 0.0300274770706892, 0.028253553435206413, -0.05312461033463478, -0.12023735046386719, 1.486083984375, 1.354248046875, 0.0154266357421875, 1.4912109375, 0.0
22949, 46.913734436035156, 84.75438690185547, -45.082374572753906, 0.0, 0.0, -20.919803619384766, 0.0, 0.0, -0.8447647094726562, 0, 0, 0, 0, 0, 0, 9362.0, 30146.0, 35388.0, 9362.0, 8.211570739746094, -0.09294094145298004, 0.32036930322647095, -0.19258543848991394, 0.9980574250221252, 0.0312766395509243, 0.027860889211297035, -0.05312461033463478, -0.12023735046386719, 1.486083984375, 1.431884765625, 0.07769775390625, 1.497802734375, 0.0
22959, 46.95807647705078, 84.75367736816406, -45.126983642578125, 0.0, 0.0, -20.927406311035156, 0.0, 0.0, -0.7602691650390625, 0, 0, 0, 0, 0, 0, 9362.0, 30146.0, 35388.0, 9362.0, 8.211570739746094, 0.09782256186008453, 0.01860542595386505, -0.12022265046834946, 0.9998857975006104, 0.03159523382782936, 0.029811402782797813, -0.05312461033463478, -0.12023735046386719, 1.486083984375, 1.4619140625, 0.1246185302734375, 1.497802734375, 0.0
22969, 47.00377655029297, 84.75297546386719, -45.17235565185547, 0.0, 0.0, -20.938350677490234, 0.0, 0.0, -1.0944366455078125, 0, 0, 0, 0, 0, 0, 9362.0, 30146.0, 35388.0, 9362.0, 8.211570739746094, 0.12368559837341309, -0.03625050187110901, -0.17501913011074066, 0.9978821277618408, 0.031073549762368202, 0.02982756868004799, -0.05312461033463478, -0.12023735046386719, 1.486083984375, 1.34912109375, 0.015380859375, 1.493408203125, 0.0
22979, 46.95219421386719, 84.75244140625, -45.12078094482422, 0.0, 0.0, -20.948200225830078, 0.0, 0.0, -0.984954833984375, 0, 0, 0, 0, 0, 0, 9362.0, 30146.0, 35388.0, 9362.0, 8.211570739746094, 0.02120337449014187, 0.40876954793930054, 0.16835922002792358, 0.9995320439338684, 0.030269712209701538, 0.032574620097875595, -0.05312461033463478, -0.12023735046386719, 1.486083984375, 1.365234375, 0.0175933837890625, 1.493408203125, 0.0
22989, 47.00914001464844, 84.7508773803711, -45.17555236816406, 0.0, 0.0, -20.957611083984375, 0.0, 0.0, -0.9410858154296875, 0, 0, 0, 0, 0, 0, 9362.0, 30146.0, 35388.0, 9362.0, 8.211570739746094, 0.1685430258512497, 0.3108895719051361, -0.39511916041374207, 0.9995082020759583, 0.029832031577825546, 0.02834247797727585, -0.05312461033463478, -0.12023735046386719, 1.486083984375, 1.44873046875, 0.102813720703125, 1.4912109375, 0.0
22999, 47.02117919921875, 84.75132751464844, -45.18781661987305, 0.0, 0.0, -20.966081619262695, 0.0, 0.0, -0.8470535278320312, 0, 0, 0, 0, 0, 0, 9362.0, 30146.0, 35388.0, 9362.0, 8.211570739746094, -0.15600503981113434, -0.15673965215682983, 0.15113955736160278, 0.9976784586906433, 0.031054584309458733, 0.027951059862971306, -0.05312461033463478, -0.12023735046386719, 1.486083984375, 1.38427734375, 0.027099609375, 1.4912109375, 0.0
23009, 47.098114013671875, 84.75129699707031, -45.26347351074219, 0.0, 0.0, -20.974254608154297, 0.0, 0.0, -0.8172988891601562, 0, 0, 0, 0, 0, 0, 9362.0, 30146.0, 35388.0, 9362.0, 8.211570739746094, -0.01523368526250124, -0.05923251435160637, -0.2098725289106369, 0.9966467022895813, 0.030095715075731277, 0.02688787505030632, -0.05312461033463478, -0.12023735046386719, 1.486083984375, 1.452392578125, 0.10870361328125, 1.48974609375, 0.0
23019, 47.09510040283203, 84.75203704833984, -45.26045608520508, 0.0, 0.0, -20.981609344482422, 0.0, 0.0, -0.7354736328125, 0, 0, 0, 0, 0, 0, 9362.0, 30146.0, 35388.0, 9362.0, 8.211570739746094, -0.11214219778776169, 0.0827246755361557, 0.12166538089513779, 0.9999485015869141, 0.029494591057300568, 0.027711505070328712, -0.04319413751363754, -0.11127853393554688, 1.48681640625, 1.423095703125, 0.06591796875, 1.48974609375, 0.0
23029, 47.17729187011719, 84.75211334228516, -45.342506408691406, 0.0, 0.0, -20.98194122314453, 0.0, 0.0, -0.0331878662109375, 0, 0, 0, 0, 0, 0, 9362.0, 30146.0, 35388.0, 9362.0, 8.211570739746094, 0.07080768048763275, -0.17136456072330475, -0.35783886909484863, 0.9985149502754211, 0.03009856306016445, 0.02670682780444622, -0.04319413751363754, -0.11127853393554688, 1.48681640625, 1.428955078125, 0.073577880859375, 1.494140625, 0.0
23039, 47.219669342041016, 84.75233459472656, -45.385379791259766, 0.0, 0.0, -20.98223876953125, 0.0, 0.0, -0.029754638671875, 0, 0, 0, 0, 0, 0, 9362.0, 30146.0, 35388.0, 9362.0, 8.211570739746094, -0.13194213807582855, -0.15033939480781555, -0.08994537591934204, 0.999273419380188, 0.029620666056871414, 0.029980188235640526, -0.04319413751363754, -0.11127853393554688, 1.48681640625, 1.400390625, 0.04034423828125, 1.494140625, 0.0
23049, 47.22547912597656, 84.75300598144531, -45.39085388183594, 0.0, 0.0, -20.97239112854004, 0.0, 0.0, 0.9847640991210938, 0, 0, 0, 0, 0, 0, 9362.0, 30146.0, 35388.0, 9362.0, 8.211570739746094, 0.10686755925416946, -0.23575538396835327, 0.09211111813783646, 0.998586118221283, 0.030456598848104477, 0.029388584196567535, -0.04319413751363754, -0.11127853393554688, 1.48681640625, 1.36083984375, 0.016387939453125, 1.49560546875, 0.0
23059, 47.215721130371094, 84.75267791748047, -45.380706787109375, 0.0, 0.0, -20.963525772094727, 0.0, 0.0, 0.88653564453125, 0, 0, 0, 0, 0, 0, 9362.0, 30146.0, 35388.0, 9362.0, 8.211570739746094, -0.007217627018690109, -0.010249524377286434, -0.03371692821383476, 1.0001800060272217, 0.03079529106616974, 0.0317484587430954, -0.04319413751363754, -0.11127853393554688, 1.48681640625, 1.39599609375, 0.0362701416015625, 1.49560546875, 0.0
23069, 47.22698974609375, 84.75251770019531, -45.391136169433594, 0.0, 0.0, -20.962106704711914, 0.0, 0.0, 0.14190673828125, 0, 0, 0, 0, 0, 0, 9362.0, 30146.0, 35388.0, 9362.0, 8.211570739746094, 0.10453617572784424, -0.0351061150431633, -0.19802705943584442, 1.0011651515960693, 0.031157424673438072, 0.03167907893657684, -0.04319413751363754, -0.11127853393554688, 1.48681640625, 1.330810546875, 0.0203399658203125, 1.496337890625, 0.0
23079, 47.22004699707031, 84.75308227539062, -45.38450241088867, 0.0, 0.0, -20.960830688476562, 0.0, 0.0, 0.12760162353515625, 0, 0, 0, 0, 0, 0, 9362.0, 30146.0, 35388.0, 9362.0, 8.211570739746094, -0.05845939368009567, -0.0629424974322319, 0.05618762597441673, 0.9982187747955322, 0.03079526126384735, 0.03144681081175804, -0.04319413751363754, -0.11127853393554688, 1.48681640625, 1.4736328125, 0.1452178955078125, 1.496337890625, 0.0
23089, 47.175785064697266, 84.75218963623047, -45.34111785888672, 0.0, 0.0, -20.955581665039062, 0.0, 0.0, 0.52490234375, 0, 0, 0, 0, 0, 0, 9362.0, 30146.0, 35388.0, 9362.0, 8.211570739746094, -0.16028910875320435, 0.380892276763916, 0.09217481315135956, 0.9978631138801575, 0.03262140229344368, 0.029790367931127548, -0.04319413751363754, -0.11127853393554688, 1.48681640625, 1.386474609375, 0.028656005859375, 1.49267578125, 0.0
23099, 47.223350524902344, 84.75364685058594, -45.38998031616211, 0.0, 0.0, -20.950857162475586, 0.0, 0.0, 0.47245025634765625, 0, 0, 0, 0, 0, 0, 9362.0, 30146.0, 35388.0, 9362.0, 8.211570739746094, -0.30050066113471985, -0.3584669828414917, 0.18345452845096588, 0.9959084987640381, 0.031098855659365654, 0.027915943413972855, -0.04319413751363754, -0.11127853393554688, 1.48681640625, 1.370361328125, 0.0194549560546875, 1.49267578125, 0.0
23109, 47.20379638671875, 84.75300598144531, -45.37136459350586, 0.0, 0.0, -20.941686630249023, 0.0, 0.0, 0.91705322265625, 0, 0, 0, 0, 0, 0, 9362.0, 30146.0, 35388.0, 9362.0, 8.211570739746094, -0.14445994794368744, 0.5671601891517639, 0.08519283682107925, 0.9960761666297913, 0.031724851578474045, 0.027918530628085136, -0.04319413751363754, -0.11127853393554688, 1.48681640625, 1.443603515625, 0.0948486328125, 1.4912109375, 0.0
23119, 47.178653717041016, 84.75401306152344, -45.34602737426758, 0.0, 0.0, -20.933435440063477, 0.0, 0.0, 0.8251190185546875, 0, 0, 0, 0, 0, 0, 9362.0, 30146.0, 35388.0, 9362.0, 8.211570739746094, 0.11519552022218704, 0.049357347190380096, 0.36657634377479553, 0.9972686171531677, 0.029816636815667152, 0.02862870879471302, -0.05628664046525955, -0.021678924560546875, 1.494140625, 1.423828125, 0.066802978515625, 1.4912109375, 0.0
23129, 47.203670501708984, 84.75353240966797, -45.37123107910156, 0.0, 0.0, -20.930112838745117, 0.0, 0.0, 0.3322601318359375, 0, 0, 0, 0, 0, 0, 9362.0, 30146.0, 35388.0, 9362.0, 8.211570739746094, 0.03526037186384201, 0.06980706751346588, -0.1586340069770813, 0.99736487865448, 0.02983853593468666, 0.029662225395441055, -0.05628664046525955, -0.021678924560546875, 1.494140625, 1.31982421875, 0.0273590087890625, 1.48828125, 0.0
23139, 47.202430725097656, 84.75318908691406, -45.37016296386719, 0.0, 0.0, -20.927122116088867, 0.0, 0.0, 0.299072265625, 0, 0, 0, 0, 0, 0, 9362.0, 30146.0, 35388.0, 9362.0, 8.211570739746094, -0.13237427175045013, 0.13626959919929504, 0.08309662342071533, 0.9994311332702637, 0.030701331794261932, 0.0305496696382761, -0.05628664046525955, -0.021678924560546875, 1.494140625, 1.3037109375, 0.04412841796875, 1.48828125, 0.0
23149, 47.246334075927734, 84.75237274169922, -45.41291809082031, 0.0, 0.0, -20.916500091552734, 0.0, 0.0, 1.0622024536132812, 0, 0, 0, 0, 0, 0, 9362.0, 30146.0, 35388.0, 9362.0, 8.211570739746094, -0.06831878423690796, 0.20054081082344055, -0.05167674645781517, 0.9994609355926514, 0.031773075461387634, 0.031096696853637695, -0.05628664046525955, -0.021678924560546875, 1.494140625, 1.376953125, 0.0225982666015625, 1.49267578125, 0.0
23159, 47.23202896118164, 84.7522201538086, -45.39665985107422, 0.0, 0.0, -20.906940460205078, 0.0, 0.0, 0.955963134765625, 0, 0, 0, 0, 0, 0, 9362.0, 30146.0, 35388.0, 9362.0, 8.211570739746094, 0.26769235730171204, 0.02636823058128357, 0.10996934026479721, 0.9970434308052063, 0.03112882934510708, 0.03388984873890877, -0.05628664046525955, -0.021678924560546875, 1.494140625, 1.37841796875, 0.023406982421875, 1.49267578125, 0.0
23169, 47.19435119628906, 84.75196838378906, -45.357269287109375, 0.0, 0.0, -20.899158477783203, 0.0, 0.0, 0.7781982421875, 0, 0, 0, 0, 0, 0, 9362.0, 30146.0, 35388.0, 9362.0, 8.211570739746094, 0.03470849245786667, 0.027396176010370255, 0.06273951381444931, 0.9967963695526123, 0.029353775084018707, 0.03204711899161339, -0.05628664046525955, -0.021678924560546875, 1.494140625, 1.34912109375, 0.015380859375, 1.49267578125, 0.0
23179, 47.210514068603516, 84.75215148925781, -45.37407302856445, 0.0, 0.0, -20.89215660095215, 0.0, 0.0, 0.7001876831054688, 0, 0, 0, 0, 0, 0, 9362.0, 30146.0, 35388.0, 9362.0, 8.211570739746094, -0.07106006145477295, -0.025241095572710037, 0.09188256412744522, 0.997842013835907, 0.028854718431830406, 0.03049386851489544, -0.05628664046525955, -0.021678924560546875, 1.494140625, 1.41064453125, 0.0509490966796875, 1.49267578125, 0.0
23189, 47.21411895751953, 84.75196838378906, -45.37858963012695, 0.0, 0.0, -20.884214401245117, 0.0, 0.0, 0.794219970703125, 0, 0, 0, 0, 0, 0, 9362.0, 30146.0, 35388.0, 9362.0, 8.211570739746094, 0.011143604293465614, 0.25614404678344727, -0.08984332531690598, 0.9985337257385254, 0.028775891289114952, 0.028752893209457397, -0.05628664046525955, -0.021678924560546875, 1.494140625, 1.32421875, 0.024139404296875, 1.49560546875, 0.0
23199, 47.259666442871094, 84.75237274169922, -45.42405319213867, 0.0, 0.0, -20.877065658569336, 0.0, 0.0, 0.714874267578125, 0, 0, 0, 0, 0, 0, 9362.0, 30146.0, 35388.0, 9362.0, 8.211570739746094, -0.019377056509256363, -0.13078457117080688, -0.10272713750600815, 0.9979039430618286, 0.029773013666272163, 0.027827000245451927, -0.05628664046525955, -0.021678924560546875, 1.494140625, 1.35791015625, 0.015869140625, 1.49560546875, 0.0
23209, 47.2053108215332, 84.7522201538086, -45.370296478271484, 0.0, 0.0, -20.878013610839844, 0.0, 0.0, -0.09479522705078125, 0, 0, 0, 0, 0, 0, 9362.0, 30146.0, 35388.0, 9362.0, 8.211570739746094, -0.36312222480773926, 0.22214825451374054, 0.39953097701072693, 0.995945394039154, 0.03207608684897423, 0.02848009765148163, -0.05628664046525955, -0.021678924560546875, 1.494140625, 1.4326171875, 0.0786895751953125, 1.490478515625, 0.0
23219, 47.20111083984375, 84.7522201538086, -45.36561584472656, 0.0, 0.0, -20.878870010375977, 0.0, 0.0, -0.08563995361328125, 0, 0, 0, 0, 0, 0, 9362.0, 30146.0, 35388.0, 9362.0, 8.211570739746094, 0.10736878961324692, 0.11500860750675201, 0.10019925236701965, 0.9970558881759644, 0.031514108180999756, 0.029052237048745155, -0.04415791854262352, 0.08584022521972656, 1.5029296875, 1.281005859375, 0.0816650390625, 1.490478515625, 0.0
23229, 47.278926849365234, 84.75199890136719, -45.44282913208008, 0.0, 0.0, -20.886476516723633, 0.0, 0.0, -0.760650634765625, 0, 0, 0, 0, 0, 0, 9362.0, 30146.0, 35388.0, 9362.0, 8.211570739746094, -0.020443135872483253, -0.12034375220537186, -0.18295155465602875, 0.9984211921691895, 0.031484466046094894, 0.03002488799393177, -0.04415791854262352, 0.08584022521972656, 1.5029296875, 1.24658203125, 0.1746063232421875, 1.49267578125, 0.0
23239, 47.29659652709961, 84.75199890136719, -45.45939636230469, 0.0, 0.0, -20.89332389831543, 0.0, 0.0, -0.6847381591796875, 0, 0, 0, 0, 0, 0, 9362.0, 30146.0, 35388.0, 9362.0, 8.211570739746094, 0.20003166794776917, -0.1246853768825531, 0.031194692477583885, 1.0002036094665527, 0.029513174667954445, 0.03182075917720795, -0.04415791854262352, 0.08584022521972656, 1.5029296875, 1.45166015625, 0.107452392578125, 1.49267578125, 0.0
23249, 47.28938293457031, 84.7520751953125, -45.45329284667969, 0.0, 0.0, -20.907958984375, 0.0, 0.0, -1.4635086059570312, 0, 0, 0, 0, 0, 0, 9362.0, 30146.0, 35388.0, 9362.0, 8.211570739746094, -0.25467076897621155, 0.10626734048128128, 0.12403654307126999, 0.9998191595077515, 0.02873929962515831, 0.03127892315387726, -0.04415791854262352, 0.08584022521972656, 1.5029296875, 1.4501953125, 0.1050872802734375, 1.49853515625, 0.0
23259, 47.277828216552734, 84.75247955322266, -45.441749572753906, 0.0, 0.0, -20.921131134033203, 0.0, 0.0, -1.3172149658203125, 0, 0, 0, 0, 0, 0, 9362.0, 30146.0, 35388.0, 9362.0, 8.211570739746094, 0.03590262308716774, 0.04866946116089821, 0.29355067014694214, 0.9975409507751465, 0.03025512956082821, 0.030648408457636833, -0.04415791854262352, 0.08584022521972656, 1.5029296875, 1.30810546875, 0.0388031005859375, 1.49853515625, 0.0
23269, 47.24503707885742, 84.75375366210938, -45.41056442260742, 0.0, 0.0, -20.933805465698242, 0.0, 0.0, -1.2674331665039062, 0, 0, 0, 0, 0, 0, 9362.0, 30146.0, 35388.0, 9362.0, 8.211570739746094, -0.14938770234584808, -0.1875917911529541, 0.35512575507164, 0.9968487620353699, 0.02886660397052765, 0.0311288945376873, -0.04415791854262352, 0.08584022521972656, 1.5029296875, 1.45751953125, 0.117095947265625, 1.4912109375, 0.0
23279, 47.280670166015625, 84.75393676757812, -45.44676971435547, 0.0, 0.0, -20.945215225219727, 0.0, 0.0, -1.1409759521484375, 0, 0, 0, 0, 0, 0, 9362.0, 30146.0, 35388.0, 9362.0, 8.211570739746094, -0.1012292206287384, -0.09500677138566971, 0.023371217772364616, 0.9987347722053528, 0.029338141903281212, 0.029516560956835747, -0.04415791854262352, 0.08584022521972656, 1.5029296875, 1.48681640625, 0.1698150634765625, 1.4912109375, 0.0
23289, 47.31084060668945, 84.75509643554688, -45.47642135620117, 0.0, 0.0, -20.9494686126709, 0.0, 0.0, -0.4253387451171875, 0, 0, 0, 0, 0, 0, 9362.0, 30146.0, 35388.0, 9362.0, 8.211570739746094, 0.20580610632896423, -0.2703591585159302, 0.3840436637401581, 0.9999392628669739, 0.028689952567219734, 0.029798757284879684, -0.04415791854262352, 0.08584022521972656, 1.5029296875, 1.426025390625, 0.069732666015625, 1.491943359375, 0.0
23299, 47.33737564086914, 84.75480651855469, -45.5025749206543, 0.0, 0.0, -20.95329475402832, 0.0, 0.0, -0.3826141357421875, 0, 0, 0, 0, 0, 0, 9362.0, 30146.0, 35388.0, 9362.0, 8.211570739746094, 0.027779780328273773, 0.1057194247841835, -0.08495152741670609, 0.998658299446106, 0.030334290117025375, 0.028136320412158966, -0.04415791854262352, 0.08584022521972656, 1.5029296875, 1.377685546875, 0.023040771484375, 1.491943359375, 0.0
23309, 47.391876220703125, 84.7557373046875, -45.55712890625, 0.0, 0.0, -20.954551696777344, 0.0, 0.0, -0.12569427490234375, 0, 0, 0, 0, 0, 0, 9362.0, 30146.0, 35388.0, 9362.0, 8.211570739746094, 0.09794742614030838, 0.03214697539806366, 0.04537944123148918, 0.9969955682754517, 0.03135180100798607, 0.027733400464057922, -0.04415791854262352, 0.08584022521972656, 1.5029296875, 1.39892578125, 0.0390167236328125, 1.4970703125, 0.0
23319, 47.41240692138672, 84.75509643554688, -45.57773208618164, 0.0, 0.0, -20.955684661865234, 0.0, 0.0, -0.1132965087890625, 0, 0, 0, 0, 0, 0, 9362.0, 30146.0, 35388.0, 9362.0, 8.211570739746094, -0.027176951989531517, 0.2614322304725647, -0.18041498959064484, 0.9984100461006165, 0.030029142275452614, 0.029536006972193718, -0.06409290432929993, -0.20087814331054688, 1.4794921875, 1.349853515625, 0.015350341796875, 1.4970703125, 0.0
23329, 47.454078674316406, 84.7553939819336, -45.62007522583008, 0.0, 0.0, -20.957250595092773, 0.0, 0.0, -0.15659332275390625, 0, 0, 0, 0, 0, 0, 9362.0, 30146.0, 35388.0, 9362.0, 8.211570739746094, -0.2821252942085266, -0.36355140805244446, -0.024438614025712013, 0.9977706670761108, 0.030012408271431923, 0.03133257478475571, -0.06409290432929993, -0.20087814331054688, 1.4794921875, 1.39013671875, 0.0314483642578125, 1.49560546875, 0.0
23339, 47.37321090698242, 84.75550079345703, -45.53969192504883, 0.0, 0.0, -20.958662033081055, 0.0, 0.0, -0.141143798828125, 0, 0, 0, 0, 0, 0, 9362.0, 30146.0, 35388.0, 9362.0, 8.211570739746094, -0.06864555925130844, 0.3214515149593353, 0.36266180872917175, 0.9969921708106995, 0.0305835772305727, 0.03106416016817093, -0.06409290432929993, -0.20087814331054688, 1.4794921875, 1.241455078125, 0.192626953125, 1.49560546875, 0.0
23349, 47.3526496887207, 84.75498962402344, -45.51810836791992, 0.0, 0.0, -20.954736709594727, 0.0, 0.0, 0.3925323486328125, 0, 0, 0, 0, 0, 0, 9362.0, 30146.0, 35388.0, 9362.0, 8.211570739746094, 0.20357967913150787, -0.11017733067274094, -0.23799864947795868, 0.9982382655143738, 0.031132541596889496, 0.031481679528951645, -0.06409290432929993, -0.20087814331054688, 1.4794921875, 1.30517578125, 0.0422515869140625, 1.49560546875, 0.0
23359, 47.361576080322266, 84.75528717041016, -45.526611328125, 0.0, 0.0, -20.951204299926758, 0.0, 0.0, 0.353240966796875, 0, 0, 0, 0, 0, 0, 9362.0, 30146.0, 35388.0, 9362.0, 8.211570739746094, 0.158348947763443, 0.06855589896440506, -0.015453740023076534, 0.9984928369522095, 0.03006637841463089, 0.028883516788482666, -0.06409290432929993, -0.20087814331054688, 1.4794921875, 1.317626953125, 0.0291900634765625, 1.49560546875, 0.0
23369, 47.33030319213867, 84.75498962402344, -45.49601745605469, 0.0, 0.0, -20.951032638549805, 0.0, 0.0, 0.0171661376953125, 0, 0, 0, 0, 0, 0, 9362.0, 30146.0, 35388.0, 9362.0, 8.211570739746094, 0.08533628284931183, 0.20839111506938934, 0.023324303328990936, 1.0002245903015137, 0.031073974445462227, 0.02964514121413231, -0.06409290432929993, -0.20087814331054688, 1.4794921875, 1.37109375, 0.0197906494140625, 1.493408203125, 0.0
23379, 47.33838653564453, 84.75476837158203, -45.50354766845703, 0.0, 0.0, -20.950878143310547, 0.0, 0.0, 0.01544952392578125, 0, 0, 0, 0, 0, 0, 9362.0, 30146.0, 35388.0, 9362.0, 8.211570739746094, 0.11481267958879471, 0.06965667754411697, -0.15411993861198425, 0.9991308450698853, 0.031060287728905678, 0.030040040612220764, -0.06409290432929993, -0.20087814331054688, 1.4794921875, 1.29638671875, 0.0542755126953125, 1.493408203125, 0.0
23389, 47.367366790771484, 84.75521087646484, -45.53351974487305, 0.0, 0.0, -20.945816040039062, 0.0, 0.0, 0.5062103271484375, 0, 0, 0, 0, 0, 0, 9362.0, 30146.0, 35388.0, 9362.0, 8.211570739746094, -0.16149240732192993, 0.09491690248250961, 0.07538431137800217, 1.0004059076309204, 0.0298767127096653, 0.028467286378145218, -0.06409290432929993, -0.20087814331054688, 1.4794921875, 1.279541015625, 0.0847015380859375, 1.494140625, 0.0
23399, 47.4012336730957, 84.75585174560547, -45.56706237792969, 0.0, 0.0, -20.941259384155273, 0.0, 0.0, 0.45566558837890625, 0, 0, 0, 0, 0, 0, 9362.0, 30146.0, 35388.0, 9362.0, 8.211570739746094, 0.06497998535633087, -0.2209397703409195, -0.06687244027853012, 0.9996855854988098, 0.030143342912197113, 0.03188037872314453, -0.06409290432929993, -0.20087814331054688, 1.4794921875, 1.390869140625, 0.0319671630859375, 1.494140625, 0.0
23409, 47.45940399169922, 84.75607299804688, -45.62367248535156, 0.0, 0.0, -20.941259384155273, 0.0, 0.0, 0.45566558837890625, 0, 0, 0, 0, 0, 0, 9362.0, 30146.0, 35388.0, 9362.0, 8.211570739746094, 0.148089200258255, 0.05082734674215317, -0.26266857981681824, 0.9980271458625793, 0.03021717257797718, 0.029801346361637115, -0.06409290432929993, -0.20087814331054688, 1.4794921875, 1.4384765625, 0.0871429443359375, 1.5, 0.0
23419, 47.47290802001953, 84.75692749023438, -45.638038635253906, 0.0, 0.0, -20.927753448486328, 0.0, 0.0, 0.6397247314453125, 0, 0, 0, 0, 0, 0, 9362.0, 30146.0, 35388.0, 9362.0, 8.211570739746094, -0.17818836867809296, -0.23451866209506989, 0.09611105918884277, 0.9995627999305725, 0.028505032882094383, 0.030179079622030258, -0.05663945525884628, -0.1291980743408203, 1.4853515625, 1.41943359375, 0.0612945556640625, 1.5, 0.0
23429, 47.469146728515625, 84.75569915771484, -45.63327407836914, 0.0, 0.0, -20.927753448486328, 0.0, 0.0, 0.6397247314453125, 0, 0, 0, 0, 0, 0, 9362.0, 30146.0, 35388.0, 9362.0, 8.211570739746094, 0.09603030979633331, 0.19112072885036469, -0.0013656190130859613, 1.0004781484603882, 0.0297558531165123, 0.030526960268616676, -0.05663945525884628, -0.1291980743408203, 1.4853515625, 1.41943359375, 0.0612945556640625, 1.5, 0.0
23439, 47.474609375, 84.7550277709961, -45.63739776611328, 0.0, 0.0, -20.915767669677734, 0.0, 0.0, 0.5678176879882812, 0, 0, 0, 0, 0, 0, 9362.0, 30146.0, 35388.0, 9362.0, 8.211570739746094, 0.1392751932144165, 0.14825738966464996, -0.24599744379520416, 0.9981392025947571, 0.02785017155110836, 0.031857702881097794, -0.05663945525884628, -0.1291980743408203, 1.4853515625, 1.41943359375, 0.0612945556640625, 1.5, 0.0
23449, 47.45835876464844, 84.75514221191406, -45.620235443115234, 0.0, 0.0, -20.915767669677734, 0.0, 0.0, 0.5678176879882812, 0, 0, 0, 0, 0, 0, 9362.0, 30146.0, 35388.0, 9362.0, 8.211570739746094, 0.08175969868898392, 0.09998023509979248, 0.09053564071655273, 0.9985926151275635, 0.03139469772577286, 0.031109653413295746, -0.05663945525884628, -0.1291980743408203, 1.4853515625, 1.36376953125, 0.017181396484375, 1.49267578125, 0.0
23459, 47.49123001098633, 84.75498962402344, -45.65226364135742, 0.0, 0.0, -20.89930534362793, 0.0, 0.0, 0.77972412109375, 0, 0, 0, 0, 0, 0, 9362.0, 30146.0, 35388.0, 9362.0, 8.211570739746094, 0.11723165959119797, 0.02755676582455635, -0.18578487634658813, 0.9985926151275635, 0.03139469772577286, 0.031109653413295746, -0.05663945525884628, -0.1291980743408203, 1.4853515625, 1.3037109375, 0.04412841796875, 1.49267578125, 0.0
23469, 47.496761322021484, 84.75460815429688, -45.65860366821289, 0.0, 0.0, -20.89930534362793, 0.0, 0.0, 0.77972412109375, 0, 0, 0, 0, 0, 0, 9362.0, 30146.0, 35388.0, 9362.0, 8.211570739746094, -0.075864776968956, 0.13758976757526398, -0.08159391582012177, 0.9969288110733032, 0.03109847381711006, 0.0308828242123127, -0.05663945525884628, -0.1291980743408203, 1.4853515625, 1.3740234375, 0.0210723876953125, 1.494140625, 0.0
23479, 47.43354415893555, 84.75393676757812, -45.59547424316406, 0.0, 0.0, -20.887531280517578, 0.0, 0.0, 0.557708740234375, 0, 0, 0, 0, 0, 0, 9362.0, 30146.0, 35388.0, 9362.0, 8.211570739746094, 0.0039938329719007015, 0.5380353331565857, -0.006205492187291384, 0.9970174431800842, 0.029989412054419518, 0.029534844681620598, -0.05663945525884628, -0.1291980743408203, 1.4853515625, 1.39892578125, 0.0390167236328125, 1.494140625, 0.0
23489, 47.444915771484375, 84.75360107421875, -45.60630798339844, 0.0, 0.0, -20.887531280517578, 0.0, 0.0, 0.557708740234375, 0, 0, 0, 0, 0, 0, 9362.0, 30146.0, 35388.0, 9362.0, 8.211570739746094, 0.2119685709476471, 0.05185643956065178, -0.1263750046491623, 0.9980522394180298, 0.030527135357260704, 0.029067879542708397, -0.05663945525884628, -0.1291980743408203, 1.4853515625, 1.335205078125, 0.018280029296875, 1.490478515625, 0.0
23499, 47.42720413208008, 84.75353240966797, -45.58940505981445, 0.0, 0.0, -20.87332534790039, 0.0, 0.0, 0.67291259765625, 0, 0, 0, 0, 0, 0, 9362.0, 30146.0, 35388.0, 9362.0, 8.211570739746094, -0.0647946149110794, 0.06891559809446335, 0.005498064216226339, 0.9997389316558838, 0.03053204156458378, 0.02979617565870285, -0.05663945525884628, -0.1291980743408203, 1.4853515625, 1.3623046875, 0.0167999267578125, 1.490478515625, 0.0
23509, 47.43291091918945, 84.75416564941406, -45.59468460083008, 0.0, 0.0, -20.87332534790039, 0.0, 0.0, 0.67291259765625, 0, 0, 0, 0, 0, 0, 9362.0, 30146.0, 35388.0, 9362.0, 8.211570739746094, 0.018147142603993416, 0.0005690261605195701, 0.09283831715583801, 1.0014772415161133, 0.029413267970085144, 0.0276050865650177, -0.05663945525884628, -0.1291980743408203, 1.4853515625, 1.44873046875, 0.102813720703125, 1.49560546875, 0.0
23519, 47.4057502746582, 84.75401306152344, -45.567237854003906, 0.0, 0.0, -20.868043899536133, 0.0, 0.0, 0.250244140625, 0, 0, 0, 0, 0, 0, 9362.0, 30146.0, 35388.0, 9362.0, 8.211570739746094, 0.018147142603993416, 0.0005690261605195701, 0.09283831715583801, 0.9971139430999756, 0.028124097734689713, 0.030803479254245758, -0.043523360043764114, -0.24567794799804688, 1.475830078125, 1.283203125, 0.0772247314453125, 1.49560546875, 0.0
23529, 47.39297103881836, 84.75409698486328, -45.554019927978516, 0.0, 0.0, -20.868043899536133, 0.0, 0.0, 0.250244140625, 0, 0, 0, 0, 0, 0, 9362.0, 30146.0, 35388.0, 9362.0, 8.211570739746094, -0.0763162225484848, -0.0034390471410006285, -0.12658213078975677, 0.9956564903259277, 0.030163690447807312, 0.030981887131929398, -0.043523360043764114, -0.24567794799804688, 1.475830078125, 1.283203125, 0.0772247314453125, 1.497802734375, 0.0
23539, 47.356666564941406, 84.75460815429688, -45.51783752441406, 0.0, 0.0, -20.866886138916016, 0.0, 0.0, 0.05474090576171875, 0, 0, 0, 0, 0, 0, 9362.0, 30146.0, 35388.0, 9362.0, 8.211570739746094, -0.138753741979599, 0.12737077474594116, 0.13891682028770447, 0.9988431930541992, 0.029767479747533798, 0.028998510912060738, -0.043523360043764114, -0.24567794799804688, 1.475830078125, 1.365234375, 0.0175933837890625, 1.497802734375, 0.0
23549, 47.356651306152344, 84.75367736816406, -45.517730712890625, 0.0, 0.0, -20.866886138916016, 0.0, 0.0, 0.05474090576171875, 0, 0, 0, 0, 0, 0, 9362.0, 30146.0, 35388.0, 9362.0, 8.211570739746094, 0.055310871452093124, 0.274564653635025, -0.10980033874511719, 0.9977087378501892, 0.02979726530611515, 0.029521415010094643, -0.043523360043764114, -0.24567794799804688, 1.475830078125, 1.3037109375, 0.04412841796875, 1.490478515625, 0.0
23559, 47.39340591430664, 84.75393676757812, -45.554649353027344, 0.0, 0.0, -20.866886138916016, 0.0, 0.0, 0.05474090576171875, 0, 0, 0, 0, 0, 0, 9362.0, 30146.0, 35388.0, 9362.0, 8.211570739746094, -0.0036237668246030807, -0.16335560381412506, -0.09450788050889969, 0.9978302121162415, 0.029662124812602997, 0.02979203872382641, -0.043523360043764114, -0.24567794799804688, 1.475830078125, 1.29052734375, 0.06378173828125, 1.490478515625, 0.0
23569, 47.534461975097656, 84.75442504882812, -45.69660949707031, 0.0, 0.0, -20.866886138916016, 0.0, 0.0, 0.05474090576171875, 0, 0, 0, 0, 0, 0, 9362.0, 30146.0, 35388.0, 9362.0, 8.211570739746094, -0.13226096332073212, -0.5368608236312866, -0.2073906660079956, 0.997736394405365, 0.03061596490442753, 0.03060963749885559, -0.043523360043764114, -0.24567794799804688, 1.475830078125, 1.4677734375, 0.1347198486328125, 1.494140625, 0.0
23579, 47.54694366455078, 84.75375366210938, -45.70927047729492, 0.0, 0.0, -20.8492431640625, 0.0, 0.0, 0.4962921142578125, 0, 0, 0, 0, 0, 0, 9362.0, 30146.0, 35388.0, 9362.0, 8.211570739746094, -0.0777834877371788, 0.10742653161287308, -0.23718267679214478, 0.9968082308769226, 0.029047388583421707, 0.030070871114730835, -0.043523360043764114, -0.24567794799804688, 1.475830078125, 1.4501953125, 0.1050872802734375, 1.494140625, 0.0
23589, 47.55192565917969, 84.75393676757812, -45.71451187133789, 0.0, 0.0, -20.8492431640625, 0.0, 0.0, 0.4962921142578125, 0, 0, 0, 0, 0, 0, 9362.0, 30146.0, 35388.0, 9362.0, 8.211570739746094, -0.0019200992537662387, -0.03135833144187927, 0.04852296784520149, 0.9976480007171631, 0.030622541904449463, 0.029484551399946213, -0.043523360043764114, -0.24567794799804688, 1.475830078125, 1.31982421875, 0.0273590087890625, 1.494140625, 0.0
23599, 47.46023941040039, 84.75364685058594, -45.62214660644531, 0.0, 0.0, -20.8438777923584, 0.0, 0.0, 0.254058837890625, 0, 0, 0, 0, 0, 0, 9362.0, 30146.0, 35388.0, 9362.0, 8.211570739746094, 0.1565757691860199, 0.410016268491745, 0.33151528239250183, 0.9993634819984436, 0.03037157468497753, 0.031169889494776726, -0.043523360043764114, -0.24567794799804688, 1.475830078125, 1.453125, 0.1099090576171875, 1.494140625, 0.0
23609, 47.456729888916016, 84.75379180908203, -45.620243072509766, 0.0, 0.0, -20.8438777923584, 0.0, 0.0, 0.254058837890625, 0, 0, 0, 0, 0, 0, 9362.0, 30146.0, 35388.0, 9362.0, 8.211570739746094, -0.052755650132894516, -0.05032307654619217, -0.18750926852226257, 0.9994398951530457, 0.030399072915315628, 0.03167342767119408, -0.043523360043764114, -0.24567794799804688, 1.475830078125, 1.294189453125, 0.0578155517578125, 1.494140625, 0.0
23619, 47.498069763183594, 84.75424194335938, -45.661766052246094, 0.0, 0.0, -20.848360061645508, 0.0, 0.0, -0.21228790283203125, 0, 0, 0, 0, 0, 0, 9362.0, 30146.0, 35388.0, 9362.0, 8.211570739746094, -0.052755650132894516, -0.05032307654619217, -0.18750926852226257, 0.9993237257003784, 0.03006235882639885, 0.03165482357144356, -0.05574771761894226, -0.08439826965332031, 1.489013671875, 1.283203125, 0.0772247314453125, 1.494140625, 0.0
23629, 47.442134857177734, 84.75438690185547, -45.60517120361328, 0.0, 0.0, -20.848360061645508, 0.0, 0.0, -0.21228790283203125, 0, 0, 0, 0, 0, 0, 9362.0, 30146.0, 35388.0, 9362.0, 8.211570739746094, 0.004846739117056131, 0.17714808881282806, 0.10239492356777191, 0.9969723224639893, 0.029400717467069626, 0.030772559344768524, -0.05574771761894226, -0.08439826965332031, 1.489013671875, 1.283203125, 0.0772247314453125, 1.494140625, 0.0
23639, 47.41969299316406, 84.75353240966797, -45.58208465576172, 0.0, 0.0, -20.8795223236084, 0.0, 0.0, -1.4760971069335938, 0, 0, 0, 0, 0, 0, 9362.0, 30146.0, 35388.0, 9362.0, 8.211570739746094, 0.04349210113286972, 0.23560765385627747, -0.16751760244369507, 0.9981141686439514, 0.030160006135702133, 0.030391672626137733, -0.05574771761894226, -0.08439826965332031, 1.489013671875, 1.3447265625, 0.0158538818359375, 1.494140625, 0.0
23649, 47.41755294799805, 84.75409698486328, -45.578433990478516, 0.0, 0.0, -20.888980865478516, 0.0, 0.0, -0.9458541870117188, 0, 0, 0, 0, 0, 0, 9362.0, 30146.0, 35388.0, 9362.0, 8.211570739746094, 0.026964310556650162, -0.059311989694833755, 0.04033071920275688, 0.9981673359870911, 0.031376779079437256, 0.029855377972126007, -0.05574771761894226, -0.08439826965332031, 1.489013671875, 1.27001953125, 0.10626220703125, 1.49560546875, 0.0
23659, 47.419437408447266, 84.75367736816406, -45.57892990112305, 0.0, 0.0, -20.897493362426758, 0.0, 0.0, -0.8512496948242188, 0, 0, 0, 0, 0, 0, 9362.0, 30146.0, 35388.0, 9362.0, 8.211570739746094, 0.26485732197761536, 0.12741900980472565, -0.053810764104127884, 0.998821496963501, 0.03147542104125023, 0.029506025835871696, -0.05574771761894226, -0.08439826965332031, 1.489013671875, 1.33447265625, 0.0186309814453125, 1.49560546875, 0.0
23669, 47.42924118041992, 84.75409698486328, -45.590614318847656, 0.0, 0.0, -20.897493362426758, 0.0, 0.0, -0.8512496948242188, 0, 0, 0, 0, 0, 0, 9362.0, 30146.0, 35388.0, 9362.0, 8.211570739746094, -0.06441692262887955, -0.13456843793392181, 0.08484542369842529, 0.9982896447181702, 0.03155534714460373, 0.02923518419265747, -0.05574771761894226, -0.08439826965332031, 1.489013671875, 1.412109375, 0.0526123046875, 1.491943359375, 0.0
23679, 47.44316101074219, 84.75367736816406, -45.604251861572266, 0.0, 0.0, -20.905296325683594, 0.0, 0.0, -0.3696441650390625, 0, 0, 0, 0, 0, 0, 9362.0, 30146.0, 35388.0, 9362.0, 8.211570739746094, -0.0099182715639472, 0.16904577612876892, -0.26111921668052673, 1.0000144243240356, 0.02951287105679512, 0.02926807478070259, -0.05574771761894226, -0.08439826965332031, 1.489013671875, 1.37109375, 0.0197906494140625, 1.491943359375, 0.0
23689, 47.476383209228516, 84.75360107421875, -45.637420654296875, 0.0, 0.0, -20.909170150756836, 0.0, 0.0, -0.38738250732421875, 0, 0, 0, 0, 0, 0, 9362.0, 30146.0, 35388.0, 9362.0, 8.211570739746094, -0.21354344487190247, 0.1525179147720337, -0.23748594522476196, 0.998431384563446, 0.028840452432632446, 0.029371654614806175, -0.05574771761894226, -0.08439826965332031, 1.489013671875, 1.31689453125, 0.0298919677734375, 1.49267578125, 0.0
23699, 47.491294860839844, 84.75379180908203, -45.65290069580078, 0.0, 0.0, -20.912654876708984, 0.0, 0.0, -0.34847259521484375, 0, 0, 0, 0, 0, 0, 9362.0, 30146.0, 35388.0, 9362.0, 8.211570739746094, -0.07857077568769455, -0.08249248564243317, -0.005726931616663933, 0.9989444613456726, 0.030763549730181694, 0.029258616268634796, -0.05574771761894226, -0.08439826965332031, 1.489013671875, 1.423828125, 0.066802978515625, 1.49267578125, 0.0
23709, 47.49007797241211, 84.75282287597656, -45.65128707885742, 0.0, 0.0, -20.916336059570312, 0.0, 0.0, -0.3681182861328125, 0, 0, 0, 0, 0, 0, 9362.0, 30146.0, 35388.0, 9362.0, 8.211570739746094, -0.11357977986335754, 0.2380380779504776, -0.24345260858535767, 0.9979039430618286, 0.03088715299963951, 0.029775042086839676, -0.05574771761894226, -0.08439826965332031, 1.489013671875, 1.288330078125, 0.0676116943359375, 1.494140625, 0.0
23719, 47.45651626586914, 84.75315856933594, -45.61759567260742, 0.0, 0.0, -20.919649124145508, 0.0, 0.0, -0.33130645751953125, 0, 0, 0, 0, 0, 0, 9362.0, 30146.0, 35388.0, 9362.0, 8.211570739746094, -0.04903600364923477, 0.0727175921201706, 0.20851564407348633, 0.9984244108200073, 0.029410729184746742, 0.03092869371175766, -0.044434837996959686, -0.04855918884277344, 1.491943359375, 1.415771484375, 0.0568695068359375, 1.494140625, 0.0
23729, 47.46077346801758, 84.75237274169922, -45.62137222290039, 0.0, 0.0, -20.919649124145508, 0.0, 0.0, -0.33130645751953125, 0, 0, 0, 0, 0, 0, 9362.0, 30146.0, 35388.0, 9362.0, 8.211570739746094, 0.16934840381145477, 0.24101606011390686, -0.10623051971197128, 0.9971534609794617, 0.030284883454442024, 0.031325582414865494, -0.044434837996959686, -0.04855918884277344, 1.491943359375, 1.415771484375, 0.0568695068359375, 1.494873046875, 0.0
23739, 47.506351470947266, 84.75178527832031, -45.665916442871094, 0.0, 0.0, -20.919649124145508, 0.0, 0.0, -0.33130645751953125, 0, 0, 0, 0, 0, 0, 9362.0, 30146.0, 35388.0, 9362.0, 8.211570739746094, 0.1360383927822113, 0.06343349069356918, -0.22368669509887695, 0.9974802136421204, 0.031306978315114975, 0.02954203635454178, -0.044434837996959686, -0.04855918884277344, 1.491943359375, 1.351318359375, 0.0153350830078125, 1.494873046875, 0.0
23749, 47.48839569091797, 84.75191497802734, -45.648651123046875, 0.0, 0.0, -20.919649124145508, 0.0, 0.0, -0.33130645751953125, 0, 0, 0, 0, 0, 0, 9362.0, 30146.0, 35388.0, 9362.0, 8.211570739746094, -0.2184009701013565, -0.05028699338436127, 0.14602163434028625, 0.9971901178359985, 0.030675437301397324, 0.030633091926574707, -0.044434837996959686, -0.04855918884277344, 1.491943359375, 1.351318359375, 0.0153350830078125, 1.491943359375, 0.0
23759, 47.54803466796875, 84.75251770019531, -45.70886993408203, 0.0, 0.0, -20.913591384887695, 0.0, 0.0, 0.48160552978515625, 0, 0, 0, 0, 0, 0, 9362.0, 30146.0, 35388.0, 9362.0, 8.211570739746094, -0.2184009701013565, -0.05028699338436127, 0.14602163434028625, 0.997036874294281, 0.03062882274389267, 0.030184561386704445, -0.044434837996959686, -0.04855918884277344, 1.491943359375, 1.201171875, 0.3771514892578125, 1.491943359375, 0.0
23769, 47.60902786254883, 84.75360107421875, -45.770469665527344, 0.0, 0.0, -20.913591384887695, 0.0, 0.0, 0.48160552978515625, 0, 0, 0, 0, 0, 0, 9362.0, 30146.0, 35388.0, 9362.0, 8.211570739746094, -0.26336538791656494, -0.2309998869895935, 0.171439990401268, 0.9979901313781738, 0.029580477625131607, 0.03005104325711727, -0.044434837996959686, -0.04855918884277344, 1.491943359375, 1.43701171875, 0.085052490234375, 1.49560546875, 0.0
23779, 47.65681457519531, 84.75331115722656, -45.81822204589844, 0.0, 0.0, -20.910030364990234, 0.0, 0.0, 0.168609619140625, 0, 0, 0, 0, 0, 0, 9362.0, 30146.0, 35388.0, 9362.0, 8.211570739746094, -0.07845914363861084, 0.023751040920615196, -0.20590099692344666, 0.9990212917327881, 0.030797045677900314, 0.03075277991592884, -0.044434837996959686, -0.04855918884277344, 1.491943359375, 1.458251953125, 0.1184234619140625, 1.49560546875, 0.0
23789, 47.57374572753906, 84.75218963623047, -45.735595703125, 0.0, 0.0, -20.910030364990234, 0.0, 0.0, 0.168609619140625, 0, 0, 0, 0, 0, 0, 9362.0, 30146.0, 35388.0, 9362.0, 8.211570739746094, -0.14917579293251038, 0.4743750989437103, 0.1371026635169983, 1.0008710622787476, 0.028044430539011955, 0.029920976608991623, -0.044434837996959686, -0.04855918884277344, 1.491943359375, 1.4560546875, 0.1147003173828125, 1.4970703125, 0.0
23799, 47.556602478027344, 84.75189208984375, -45.71776580810547, 0.0, 0.0, -20.910030364990234, 0.0, 0.0, 0.168609619140625, 0, 0, 0, 0, 0, 0, 9362.0, 30146.0, 35388.0, 9362.0, 8.211570739746094, 0.08291131258010864, 0.2203531563282013, -0.02370407059788704, 0.9989328384399414, 0.027944263070821762, 0.030910544097423553, -0.044434837996959686, -0.04855918884277344, 1.491943359375, 1.314697265625, 0.0319061279296875, 1.4970703125, 0.0
23809, 47.6182746887207, 84.7518081665039, -45.780216217041016, 0.0, 0.0, -20.910030364990234, 0.0, 0.0, 0.168609619140625, 0, 0, 0, 0, 0, 0, 9362.0, 30146.0, 35388.0, 9362.0, 8.211570739746094, -0.16682641208171844, -0.11289016902446747, -0.13263751566410065, 0.9997689723968506, 0.030616851523518562, 0.029535958543419838, -0.044434837996959686, -0.04855918884277344, 1.491943359375, 1.276611328125, 0.0910186767578125, 1.4970703125, 0.0
23829, 47.52363586425781, 84.75047302246094, -45.68538284301758, 0.0, 0.0, -20.903818130493164, 0.0, 0.0, 0.40378570556640625, 0, 0, 0, 0, 0, 0, 9362.0, 30146.0, 35388.0, 9362.0, 8.211570739746094, -0.17552728950977325, 0.37927374243736267, -0.016583628952503204, 0.9980441331863403, 0.02951851487159729, 0.030630510300397873, -0.05533813685178757, -0.0037593841552734375, 1.49560546875, 1.276611328125, 0.0910186767578125, 1.4970703125, 0.0
23839, 47.484012603759766, 84.75102233886719, -45.644046783447266, 0.0, 0.0, -20.903818130493164, 0.0, 0.0, 0.40378570556640625, 0, 0, 0, 0, 0, 0, 9362.0, 30146.0, 35388.0, 9362.0, 8.211570739746094, 0.2932276725769043, 0.12428336590528488, 0.3122912049293518, 0.9988117814064026, 0.029504459351301193, 0.030085375532507896, -0.05533813685178757, -0.0037593841552734375, 1.49560546875, 1.4384765625, 0.0871429443359375, 1.4970703125, 0.0
23849, 47.46778106689453, 84.75028991699219, -45.62858963012695, 0.0, 0.0, -20.903818130493164, 0.0, 0.0, 0.40378570556640625, 0, 0, 0, 0, 0, 0, 9362.0, 30146.0, 35388.0, 9362.0, 8.211570739746094, -0.01259951014071703, 0.25862303376197815, -0.18128009140491486, 0.999289870262146, 0.029878854751586914, 0.03151579946279526, -0.05533813685178757, -0.0037593841552734375, 1.49560546875, 1.4736328125, 0.1452178955078125, 1.49853515625, 0.0
23859, 47.48040771484375, 84.751220703125, -45.64198684692383, 0.0, 0.0, -20.903818130493164, 0.0, 0.0, 0.40378570556640625, 0, 0, 0, 0, 0, 0, 9362.0, 30146.0, 35388.0, 9362.0, 8.211570739746094, -0.229694202542305, -0.18945562839508057, 0.12338341027498245, 1.0010974407196045, 0.030278606340289116, 0.02954486943781376, -0.05533813685178757, -0.0037593841552734375, 1.49560546875, 1.420166015625, 0.0621337890625, 1.49853515625, 0.0
23869, 47.43767547607422, 84.75125122070312, -45.59896469116211, 0.0, 0.0, -20.903818130493164, 0.0, 0.0, 0.40378570556640625, 0, 0, 0, 0, 0, 0, 9362.0, 30146.0, 35388.0, 9362.0, 8.211570739746094, -0.21569135785102844, 0.17963239550590515, 0.13799765706062317, 0.9989815354347229, 0.029394933953881264, 0.030355485156178474, -0.05533813685178757, -0.0037593841552734375, 1.49560546875, 1.291259765625, 0.0625457763671875, 1.49853515625, 0.0
23879, 47.423011779785156, 84.75196838378906, -45.58331298828125, 0.0, 0.0, -20.903818130493164, 0.0, 0.0, 0.40378570556640625, 0, 0, 0, 0, 0, 0, 9362.0, 30146.0, 35388.0, 9362.0, 8.211570739746094, 0.1124916523694992, -0.037070970982313156, 0.21215270459651947, 0.9983834624290466, 0.03031543456017971, 0.029350263997912407, -0.05533813685178757, -0.0037593841552734375, 1.49560546875, 1.241455078125, 0.192626953125, 1.49853515625, 0.0
23889, 47.3884162902832, 84.75102233886719, -45.54954147338867, 0.0, 0.0, -20.903818130493164, 0.0, 0.0, 0.40378570556640625, 0, 0, 0, 0, 0, 0, 9362.0, 30146.0, 35388.0, 9362.0, 8.211570739746094, -0.3024384677410126, 0.25532248616218567, 0.035678744316101074, 0.9987207055091858, 0.03129091486334801, 0.030298899859189987, -0.05533813685178757, -0.0037593841552734375, 1.49560546875, 1.276611328125, 0.0910186767578125, 1.493408203125, 0.0
23899, 47.43876647949219, 84.75148010253906, -45.599090576171875, 0.0, 0.0, -20.903818130493164, 0.0, 0.0, 0.40378570556640625, 0, 0, 0, 0, 0, 0, 9362.0, 30146.0, 35388.0, 9362.0, 8.211570739746094, 0.10633867233991623, -0.21208684146404266, -0.06393403559923172, 0.9998013973236084, 0.030732639133930206, 0.029287265613675117, -0.05533813685178757, -0.0037593841552734375, 1.49560546875, 1.36669921875, 0.01806640625, 1.493408203125, 0.0
23909, 47.383121490478516, 84.75129699707031, -45.543365478515625, 0.0, 0.0, -20.903818130493164, 0.0, 0.0, 0.40378570556640625, 0, 0, 0, 0, 0, 0, 9362.0, 30146.0, 35388.0, 9362.0, 8.211570739746094, 0.16823193430900574, 0.10635360330343246, 0.13491341471672058, 0.9998013973236084, 0.030732639133930206, 0.029287265613675117, -0.05533813685178757, -0.0037593841552734375, 1.49560546875, 1.402587890625, 0.0425262451171875, 1.493408203125, 0.0
23919, 47.37516784667969, 84.75102233886719, -45.53566360473633, 0.0, 0.0, -20.903818130493164, 0.0, 0.0, 0.40378570556640625, 0, 0, 0, 0, 0, 0, 9362.0, 30146.0, 35388.0, 9362.0, 8.211570739746094, 0.16823193430900574, 0.10635360330343246, 0.13491341471672058, 0.9998013973236084, 0.030732639133930206, 0.029287265613675117, -0.03776097670197487, -0.10231781005859375, 1.487548828125, 1.207763671875, 0.341400146484375, 1.493408203125, 0.0
23929, 47.37001419067383, 84.75143432617188, -45.530696868896484, 0.0, 0.0, -20.903818130493164, 0.0, 0.0, 0.40378570556640625, 0, 0, 0, 0, 0, 0, 9362.0, 30146.0, 35388.0, 9362.0, 8.211570739746094, -0.03170698136091232, -0.05489853397011757, -0.03343016281723976, 0.9998013973236084, 0.030732639133930206, 0.029287265613675117, -0.03776097670197487, -0.10231781005859375, 1.487548828125, 1.19677734375, 0.40228271484375, 1.493408203125, 0.0
23939, 47.382568359375, 84.7518539428711, -45.544342041015625, 0.0, 0.0, -20.913068771362305, 0.0, 0.0, 0.20313262939453125, 0, 0, 0, 0, 0, 0, 9362.0, 30146.0, 35388.0, 9362.0, 8.211570739746094, -0.13622024655342102, -0.05571882426738739, -0.001634994987398386, 0.9998013973236084, 0.030732639133930206, 0.029287265613675117, -0.03776097670197487, -0.10231781005859375, 1.487548828125, 1.207763671875, 0.341400146484375, 1.493408203125, 0.0
23949, 47.38138961791992, 84.75211334228516, -45.54354476928711, 0.0, 0.0, -20.913068771362305, 0.0, 0.0, 0.20313262939453125, 0, 0, 0, 0, 0, 0, 9362.0, 30146.0, 35388.0, 9362.0, 8.211570739746094, 0.032349251210689545, 0.07543513178825378, 0.11076096445322037, 0.9998013973236084, 0.030732639133930206, 0.029287265613675117, -0.03776097670197487, -0.10231781005859375, 1.487548828125, 1.24072265625, 0.1952667236328125, 1.48828125, 0.0
23959, 47.335533142089844, 84.7515869140625, -45.4973258972168, 0.0, 0.0, -20.915311813354492, 0.0, 0.0, -0.10623931884765625, 0, 0, 0, 0, 0, 0, 9362.0, 30146.0, 35388.0, 9362.0, 8.211570739746094, 0.05097820237278938, 0.38818082213401794, 0.09260845929384232, 1.0005483627319336, 0.030064361169934273, 0.031055547297000885, -0.03776097670197487, -0.10231781005859375, 1.487548828125, 1.27001953125, 0.10626220703125, 1.48828125, 0.0
23969, 47.3878059387207, 84.75106048583984, -45.54896545410156, 0.0, 0.0, -20.915311813354492, 0.0, 0.0, -0.10623931884765625, 0, 0, 0, 0, 0, 0, 9362.0, 30146.0, 35388.0, 9362.0, 8.211570739746094, 0.13052904605865479, 0.05334873124957085, -0.08438540995121002, 0.99908447265625, 0.02998717874288559, 0.030782271176576614, -0.03776097670197487, -0.10231781005859375, 1.487548828125, 1.428955078125, 0.073577880859375, 1.4970703125, 0.0
23979, 47.375770568847656, 84.75080108642578, -45.537254333496094, 0.0, 0.0, -20.92595100402832, 0.0, 0.0, -0.5039215087890625, 0, 0, 0, 0, 0, 0, 9362.0, 30146.0, 35388.0, 9362.0, 8.211570739746094, -0.15203994512557983, 0.2988934814929962, 0.08105742931365967, 0.997838020324707, 0.03158819302916527, 0.028305932879447937, -0.03776097670197487, -0.10231781005859375, 1.487548828125, 1.442138671875, 0.0926361083984375, 1.4970703125, 0.0
23989, 47.367897033691406, 84.75054168701172, -45.529293060302734, 0.0, 0.0, -20.92595100402832, 0.0, 0.0, -0.5039215087890625, 0, 0, 0, 0, 0, 0, 9362.0, 30146.0, 35388.0, 9362.0, 8.211570739746094, -0.09674371778964996, 0.1410854309797287, -0.03299333155155182, 0.9975214600563049, 0.03046104498207569, 0.02795105054974556, -0.03776097670197487, -0.10231781005859375, 1.487548828125, 1.42236328125, 0.0649566650390625, 1.494140625, 0.0
23999, 47.37798309326172, 84.7508773803711, -45.53892135620117, 0.0, 0.0, -20.937170028686523, 0.0, 0.0, -0.5313873291015625, 0, 0, 0, 0, 0, 0, 9362.0, 30146.0, 35388.0, 9362.0, 8.211570739746094, 0.030497552827000618, 0.018707143142819405, 0.03330950066447258, 0.9993477463722229, 0.030272023752331734, 0.030681828036904335, -0.03776097670197487, -0.10231781005859375, 1.487548828125, 1.4560546875, 0.1147003173828125, 1.494140625, 0.0
24009, 47.421085357666016, 84.75110626220703, -45.58103561401367, 0.0, 0.0, -20.937170028686523, 0.0, 0.0, -0.5313873291015625, 0, 0, 0, 0, 0, 0, 9362.0, 30146.0, 35388.0, 9362.0, 8.211570739746094, 0.20885920524597168, -0.21978798508644104, -0.024944057688117027, 0.999267578125, 0.028310421854257584, 0.0320819690823555, -0.03776097670197487, -0.10231781005859375, 1.487548828125, 1.458251953125, 0.1184234619140625, 1.48974609375, 0.0
24019, 47.43029022216797, 84.75061798095703, -45.58900833129883, 0.0, 0.0, -20.937170028686523, 0.0, 0.0, -0.5313873291015625, 0, 0, 0, 0, 0, 0, 9362.0, 30146.0, 35388.0, 9362.0, 8.211570739746094, 0.20885920524597168, -0.21978798508644104, -0.024944057688117027, 0.9990911483764648, 0.029112529009580612, 0.0320625863969326, -0.0653354823589325, -0.021678924560546875, 1.494140625, 1.3974609375, 0.03759765625, 1.48974609375, 0.0
24029, 47.38375473022461, 84.7505874633789, -45.542762756347656, 0.0, 0.0, -20.937170028686523, 0.0, 0.0, -0.5313873291015625, 0, 0, 0, 0, 0, 0, 9362.0, 30146.0, 35388.0, 9362.0, 8.211570739746094, -0.07721047848463058, 0.22444602847099304, 0.15449942648410797, 0.999582827091217, 0.030131492763757706, 0.03151854872703552, -0.0653354823589325, -0.021678924560546875, 1.494140625, 1.3974609375, 0.03759765625, 1.48974609375, 0.0
24039, 47.36217498779297, 84.75061798095703, -45.519874572753906, 0.0, 0.0, -20.937170028686523, 0.0, 0.0, -0.5313873291015625, 0, 0, 0, 0, 0, 0, 9362.0, 30146.0, 35388.0, 9362.0, 8.211570739746094, 0.14847195148468018, 0.20584486424922943, 0.14753015339374542, 0.9986212849617004, 0.03080056607723236, 0.029049625620245934, -0.0653354823589325, -0.021678924560546875, 1.494140625, 1.355712890625, 0.0155029296875, 1.48974609375, 0.0
24049, 47.33284378051758, 84.75125122070312, -45.48991394042969, 0.0, 0.0, -20.937170028686523, 0.0, 0.0, -0.5313873291015625, 0, 0, 0, 0, 0, 0, 9362.0, 30146.0, 35388.0, 9362.0, 8.211570739746094, -0.04595242068171501, -0.03746877238154411, 0.23708407580852509, 0.998058557510376, 0.030494313687086105, 0.028446204960346222, -0.0653354823589325, -0.021678924560546875, 1.494140625, 1.2978515625, 0.05224609375, 1.48974609375, 0.0
24059, 47.30508041381836, 84.75170135498047, -45.46323776245117, 0.0, 0.0, -20.967540740966797, 0.0, 0.0, 0.01888275146484375, 0, 0, 0, 0, 0, 0, 9362.0, 30146.0, 35388.0, 9362.0, 8.211570739746094, -0.2791658043861389, 0.11111361533403397, 0.22900813817977905, 0.9979128837585449, 0.03020217828452587, 0.029917916283011436, -0.0653354823589325, -0.021678924560546875, 1.494140625, 1.4033203125, 0.043182373046875, 1.48974609375, 0.0
24069, 47.32914733886719, 84.7518539428711, -45.485565185546875, 0.0, 0.0, -20.967540740966797, 0.0, 0.0, 0.01888275146484375, 0, 0, 0, 0, 0, 0, 9362.0, 30146.0, 35388.0, 9362.0, 8.211570739746094, 0.1900993138551712, -0.010594518855214119, -0.02124379575252533, 0.9975463151931763, 0.029136642813682556, 0.028393888846039772, -0.0653354823589325, -0.021678924560546875, 1.494140625, 1.324951171875, 0.0236663818359375, 1.48974609375, 0.0
24079, 47.34896469116211, 84.7522201538086, -45.505340576171875, 0.0, 0.0, -20.967540740966797, 0.0, 0.0, 0.01888275146484375, 0, 0, 0, 0, 0, 0, 9362.0, 30146.0, 35388.0, 9362.0, 8.211570739746094, 0.01381717436015606, -0.07993879914283752, 0.013119123876094818, 0.9975463151931763, 0.029136642813682556, 0.028393888846039772, -0.0653354823589325, -0.021678924560546875, 1.494140625, 1.34912109375, 0.015380859375, 1.48974609375, 0.0
24089, 47.315284729003906, 84.75080108642578, -45.47207260131836, 0.0, 0.0, -20.967540740966797, 0.0, 0.0, 0.01888275146484375, 0, 0, 0, 0, 0, 0, 9362.0, 30146.0, 35388.0, 9362.0, 8.211570739746094, -0.034434329718351364, 0.2930510342121124, -0.34123024344444275, 0.9986135363578796, 0.030813520774245262, 0.03138785809278488, -0.0653354823589325, -0.021678924560546875, 1.494140625, 1.175537109375, 0.5392303466796875, 1.49267578125, 0.0
24099, 47.30793762207031, 84.75005340576172, -45.46323013305664, 0.0, 0.0, -20.96609878540039, 0.0, 0.0, -0.1190185546875, 0, 0, 0, 0, 0, 0, 9362.0, 30146.0, 35388.0, 9362.0, 8.211570739746094, 0.1950196921825409, 0.2867709696292877, -0.15610666573047638, 0.9986135363578796, 0.030813520774245262, 0.03138785809278488, -0.0653354823589325, -0.021678924560546875, 1.494140625, 1.2216796875, 0.27325439453125, 1.49267578125, 0.0
24109, 47.36180877685547, 84.7509536743164, -45.5166130065918, 0.0, 0.0, -20.96609878540039, 0.0, 0.0, -0.1190185546875, 0, 0, 0, 0, 0, 0, 9362.0, 30146.0, 35388.0, 9362.0, 8.211570739746094, 0.3493700921535492, -0.38205376267433167, -0.018802879378199577, 0.9986135363578796, 0.030813520774245262, 0.03138785809278488, -0.0653354823589325, -0.021678924560546875, 1.494140625, 1.439208984375, 0.0882415771484375, 1.4970703125, 0.0
