timeTick, roll, pitch, yaw, stateX, stateY, stateZ, stateVX, stateVY, stateVZ, otX0, otY0, otZ0, otRoll0, otPitch0, otYaw0, left wing, pitch motor, yaw motor, right wing, voltage, roll rate, pitch rate, yaw rate, A_x, A_y, A_z, current, i_raw, v_raw, airflow_voltage, airflow_speed, pot_Pitch
20972, -3.0769004821777344, -83.08695220947266, -2.4475278854370117, 0, 0, 0, 0, 0, 0, 0, 0, 0, 0, 0, 0, 0, 0, 0, 0, 0, 0, 0, 0, 0, 0, 0, 0, 0, 0, 0, 0, 0
20982, -3.0670881271362305, -83.09569549560547, -2.436399221420288, 0.0, 0.0, -38.793113708496094, 0.0, 0.0, -0.34332275390625, 0, 0, 0, 0, 0, 0, 9362.0, 30146.0, 35388.0, 9362.0, 0, -0.18105116486549377, 0.3085000514984131, 0.20396655797958374, -0.998400092124939, -0.004927074536681175, 0.04066160321235657, 0, 0, 0, 0, 0, 0
20992, -3.086115837097168, -83.10789489746094, -2.4563798904418945, 0.0, 0.0, -38.796199798583984, 0.0, 0.0, -0.3086090087890625, 0, 0, 0, 0, 0, 0, 9362.0, 30146.0, 35388.0, 9362.0, 0, 0.1981017142534256, 0.28259798884391785, -0.20086078345775604, -0.9983687996864319, -0.006074644159525633, 0.04077303409576416, 0, 0, 0, 0.0, 0.10870361328125, 0
21002, -3.0957255363464355, -83.11376190185547, -2.4660074710845947, 0.0, 0.0, -38.79132080078125, 0.0, 0.0, 0.4878997802734375, 0, 0, 0, 0, 0, 0, 9362.0, 30146.0, 35388.0, 9362.0, 0, -0.005034440662711859, -0.2687593400478363, -0.0822448879480362, -0.9998469352722168, -0.005658133886754513, 0.03927271440625191, 0, 0, 0, 0.0, 0.1811065673828125, 1.4912109375
21012, -3.1158981323242188, -83.123046875, -2.48606276512146, 0.0, 0.0, -38.786930084228516, 0.0, 0.0, 0.4390716552734375, 0, 0, 0, 0, 0, 0, 9362.0, 30146.0, 35388.0, 9362.0, 0, -0.06082524359226227, -0.209985613822937, -0.21084481477737427, -0.9988725781440735, -0.005350014660507441, 0.04051132872700691, 0, 0, 0, 0.0, 0.2148895263671875, 1.4912109375
21022, -3.134209394454956, -83.12924194335938, -2.5051963329315186, 0.0, 0.0, -38.78461456298828, 0.0, 0.0, 0.2315521240234375, 0, 0, 0, 0, 0, 0, 9362.0, 30146.0, 35388.0, 9362.0, 0, 0.04606536403298378, -0.0760711058974266, -0.05769578367471695, -0.998170018196106, -0.0057783410884439945, 0.03938214108347893, 0, 0, 0, 0.0, 0.1399383544921875, 1.491943359375
21032, -3.1288981437683105, -83.13961029052734, -2.499647855758667, 0.0, 0.0, -38.78253173828125, 0.0, 0.0, 0.208282470703125, 0, 0, 0, 0, 0, 0, 9362.0, 30146.0, 35388.0, 9362.0, 0, -0.09979233890771866, 0.007801463361829519, 0.24966245889663696, -0.9997472167015076, -0.004173050168901682, 0.03845607861876488, 0, 0, 0, 0.0, 0.125823974609375, 1.491943359375
21042, -3.1378676891326904, -83.14584350585938, -2.5080034732818604, 0.0, 0.0, -38.778743743896484, 0.0, 0.0, 0.3787994384765625, 0, 0, 0, 0, 0, 0, 9362.0, 30146.0, 35388.0, 9362.0, 0, -0.10263744741678238, -0.1085338294506073, -0.007148092146962881, -1.0000007152557373, -0.0058824000880122185, 0.039445143193006516, 0, 0, 0, 0.0, 0.081787109375, 1.494140625
21052, -3.1178457736968994, -83.15742492675781, -2.4875237941741943, 0.0, 0.0, -38.77532958984375, 0.0, 0.0, 0.3414154052734375, 0, 0, 0, 0, 0, 0, 9362.0, 30146.0, 35388.0, 9362.0, 0, -0.12935051321983337, 0.12035562098026276, 0.11722350865602493, -0.9997474551200867, -0.004361856263130903, 0.04005679115653038, 0, 0, 0, 0.0, 0.1334686279296875, 1.494140625
21062, -3.1144871711730957, -83.16539001464844, -2.4850242137908936, 0.0, 0.0, -38.7695198059082, 0.0, 0.0, 0.5809783935546875, 0, 0, 0, 0, 0, 0, 9362.0, 30146.0, 35388.0, 9362.0, 0, 0.12305671721696854, 0.21444447338581085, 0.09460746496915817, -1.000056505203247, -0.004847388248890638, 0.0404195711016655, 0, 0, 0, 0.0, 0.1985626220703125, 1.496337890625
21072, -3.1248042583465576, -83.17584991455078, -2.495185136795044, 0.0, 0.0, -38.76428985595703, 0.0, 0.0, 0.5229949951171875, 0, 0, 0, 0, 0, 0, 9362.0, 30146.0, 35388.0, 9362.0, 8.211570739746094, 0.028739526867866516, -0.1282133311033249, -0.03917151317000389, -0.9993060231208801, -0.005698462948203087, 0.03870472311973572, -0.08927278220653534, 0.12168121337890625, 1.505859375, 0.0, 0.2209625244140625, 1.496337890625
21082, -3.11305570602417, -83.18119812011719, -2.4829187393188477, 0.0, 0.0, -38.75821304321289, 0.0, 0.0, 0.6076812744140625, 0, 0, 0, 0, 0, 0, 9362.0, 30146.0, 35388.0, 9362.0, 8.211570739746094, -0.06769038736820221, -0.3469679057598114, 0.20252947509288788, -0.9992733597755432, -0.002860030857846141, 0.041124410927295685, -0.08927278220653534, 0.12168121337890625, 1.505859375, 0.0, 0.172576904296875, 1.4912109375
21092, -3.077075958251953, -83.1915283203125, -2.445207118988037, 0.0, 0.0, -38.752742767333984, 0.0, 0.0, 0.547027587890625, 0, 0, 0, 0, 0, 0, 9362.0, 30146.0, 35388.0, 9362.0, 8.211570739746094, -0.04325779154896736, 0.18127818405628204, 0.4822365343570709, -0.9993211627006531, -0.0045142946764826775, 0.04054327681660652, -0.08927278220653534, 0.12168121337890625, 1.505859375, 0.0, 0.102813720703125, 1.4912109375
21102, -3.0664560794830322, -83.19766235351562, -2.433397054672241, 0.0, 0.0, -38.745361328125, 0.0, 0.0, 0.7381439208984375, 0, 0, 0, 0, 0, 0, 9362.0, 30146.0, 35388.0, 9362.0, 8.211570739746094, -0.22631148993968964, -0.18932346999645233, 0.1978030651807785, -0.9994813799858093, -0.004578368738293648, 0.039761077612638474, -0.08927278220653534, 0.12168121337890625, 1.505859375, 0.0, 0.147857666015625, 1.49267578125
21112, -3.072181463241577, -83.2101058959961, -2.4390451908111572, 0.0, 0.0, -38.73871612548828, 0.0, 0.0, 0.664520263671875, 0, 0, 0, 0, 0, 0, 9362.0, 30146.0, 35388.0, 9362.0, 8.211570739746094, 0.059916384518146515, 0.22515539824962616, 0.10251659154891968, -1.0017187595367432, -0.0039212666451931, 0.041245657950639725, -0.08927278220653534, 0.12168121337890625, 1.505859375, 0.0, 0.1184234619140625, 1.49267578125
21122, -3.064753770828247, -83.21778869628906, -2.432351589202881, 0.0, 0.0, -38.7310905456543, 0.0, 0.0, 0.7625579833984375, 0, 0, 0, 0, 0, 0, 9362.0, 30146.0, 35388.0, 9362.0, 8.211570739746094, 0.10517913103103638, 0.3069577217102051, 0.19727088510990143, -0.9998602867126465, -0.005408097058534622, 0.04212146997451782, -0.08927278220653534, 0.12168121337890625, 1.505859375, 0.0, 0.174041748046875, 1.493408203125
21132, -3.107752799987793, -83.2292251586914, -2.476059675216675, 0.0, 0.0, -38.72422409057617, 0.0, 0.0, 0.6866455078125, 0, 0, 0, 0, 0, 0, 9362.0, 30146.0, 35388.0, 9362.0, 8.211570739746094, -0.046034250408411026, 0.30970677733421326, -0.1164437085390091, -1.0005046129226685, -0.0038584109861403704, 0.0426749549806118, -0.08927278220653534, 0.12168121337890625, 1.505859375, 0.0, 0.1712188720703125, 1.493408203125
21142, -3.1122829914093018, -83.2352523803711, -2.4820339679718018, 0.0, 0.0, -38.72214126586914, 0.0, 0.0, 0.208282470703125, 0, 0, 0, 0, 0, 0, 9362.0, 30146.0, 35388.0, 9362.0, 8.211570739746094, 0.1297817826271057, -0.08004039525985718, 0.03939756751060486, -0.9985504150390625, -0.006131238304078579, 0.041742585599422455, -0.08927278220653534, 0.12168121337890625, 1.505859375, 0.0, 0.1656646728515625, 1.49267578125
21152, -3.1324527263641357, -83.24465942382812, -2.5015552043914795, 0.0, 0.0, -38.72026824951172, 0.0, 0.0, 0.1873016357421875, 0, 0, 0, 0, 0, 0, 9362.0, 30146.0, 35388.0, 9362.0, 8.211570739746094, 0.12927843630313873, -0.20091786980628967, -0.1550743281841278, -1.0011487007141113, -0.006568800192326307, 0.041746873408555984, -0.08927278220653534, 0.12168121337890625, 1.505859375, 0.0, 0.1519775390625, 1.49267578125
21162, -3.105952501296997, -83.25223541259766, -2.474358558654785, 0.0, 0.0, -38.727054595947266, 0.0, 0.0, -0.6786346435546875, 0, 0, 0, 0, 0, 0, 9362.0, 30146.0, 35388.0, 9362.0, 8.211570739746094, -0.09970673173666, 0.34099799394607544, 0.3132323920726776, -0.9998939633369446, -0.00434830179437995, 0.04212459176778793, -0.08927278220653534, 0.12168121337890625, 1.505859375, 0.0, 0.225494384765625, 1.4912109375
21172, -3.102381706237793, -83.26200866699219, -2.4693760871887207, 0.0, 0.0, -38.73316192626953, 0.0, 0.0, -0.6107330322265625, 0, 0, 0, 0, 0, 0, 9362.0, 30146.0, 35388.0, 9362.0, 8.211570739746094, 0.0024413748178631067, 0.15332099795341492, 0.03149116411805153, -0.9995346665382385, -0.00555883813649416, 0.04078081250190735, -0.09287925809621811, 0.04104042053222656, 1.499267578125, 0.0, 0.089324951171875, 1.4912109375
21182, -3.114816665649414, -83.26861572265625, -2.482313871383667, 0.0, 0.0, -38.735374450683594, 0.0, 0.0, -0.22125244140625, 0, 0, 0, 0, 0, 0, 9362.0, 30146.0, 35388.0, 9362.0, 8.211570739746094, 0.08160749822854996, 0.05204615369439125, -0.04787154495716095, -0.9995644092559814, -0.004250411409884691, 0.039010729640722275, -0.09287925809621811, 0.04104042053222656, 1.499267578125, 0.0, 0.1050872802734375, 1.494873046875
21192, -3.1146509647369385, -83.27806091308594, -2.481058359146118, 0.0, 0.0, -38.73736572265625, 0.0, 0.0, -0.199127197265625, 0, 0, 0, 0, 0, 0, 9362.0, 30146.0, 35388.0, 9362.0, 8.211570739746094, -0.13873323798179626, -0.10872189700603485, -0.020907599478960037, -1.0014797449111938, -0.003022480756044388, 0.039671700447797775, -0.09287925809621811, 0.04104042053222656, 1.499267578125, 0.0, 0.19122314453125, 1.494873046875
21202, -3.122457981109619, -83.28639221191406, -2.4897871017456055, 0.0, 0.0, -38.73450469970703, 0.0, 0.0, 0.286102294921875, 0, 0, 0, 0, 0, 0, 9362.0, 30146.0, 35388.0, 9362.0, 8.211570739746094, 0.15942123532295227, 0.4438167214393616, -0.057680606842041016, -1.0009346008300781, -0.0034300084225833416, 0.03852144256234169, -0.09287925809621811, 0.04104042053222656, 1.499267578125, 0.0, 0.14654541015625, 1.49267578125
21212, -3.128127336502075, -83.29500579833984, -2.495255947113037, 0.0, 0.0, -38.73192596435547, 0.0, 0.0, 0.25787353515625, 0, 0, 0, 0, 0, 0, 9362.0, 30146.0, 35388.0, 9362.0, 8.211570739746094, -0.11001257598400116, 0.10673821717500687, 0.20939724147319794, -0.9987039566040039, -0.00317459087818861, 0.0391053669154644, -0.09287925809621811, 0.04104042053222656, 1.499267578125, 0.0, 0.1004791259765625, 1.49267578125
21222, -3.1511082649230957, -83.3025894165039, -2.519763946533203, 0.0, 0.0, -38.73316192626953, 0.0, 0.0, -0.12359619140625, 0, 0, 0, 0, 0, 0, 9362.0, 30146.0, 35388.0, 9362.0, 8.211570739746094, 0.2585254907608032, 0.2197042554616928, -0.19393645226955414, -0.9985488653182983, -0.004057968035340309, 0.039981432259082794, -0.09287925809621811, 0.04104042053222656, 1.499267578125, 0.0, 0.1147003173828125, 1.48828125
21232, -3.187875986099243, -83.31035614013672, -2.5565061569213867, 0.0, 0.0, -38.73427200317383, 0.0, 0.0, -0.1110076904296875, 0, 0, 0, 0, 0, 0, 9362.0, 30146.0, 35388.0, 9362.0, 8.211570739746094, -0.0458039827644825, -0.1302565187215805, -0.3325829803943634, -0.9989315867424011, -0.005467916373163462, 0.04293064400553703, -0.09287925809621811, 0.04104042053222656, 1.499267578125, 0.0, 0.0936279296875, 1.48828125
21242, -3.1730897426605225, -83.31559753417969, -2.5410754680633545, 0.0, 0.0, -38.729530334472656, 0.0, 0.0, 0.4741668701171875, 0, 0, 0, 0, 0, 0, 9362.0, 30146.0, 35388.0, 9362.0, 8.211570739746094, -0.06097476929426193, -0.14805711805820465, 0.25676247477531433, -0.9989789724349976, -0.004277511034160852, 0.04114491865038872, -0.09287925809621811, 0.04104042053222656, 1.499267578125, 0.0, 0.1246185302734375, 1.491943359375
21252, -3.1860859394073486, -83.32440948486328, -2.554044485092163, 0.0, 0.0, -38.725257873535156, 0.0, 0.0, 0.42724609375, 0, 0, 0, 0, 0, 0, 9362.0, 30146.0, 35388.0, 9362.0, 8.211570739746094, -0.025971628725528717, -0.26389628648757935, 0.035374727100133896, -1.0008282661437988, -0.004859466105699539, 0.0380244180560112, -0.09287925809621811, 0.04104042053222656, 1.499267578125, 0.0, 0.21942138671875, 1.491943359375
21262, -3.182995557785034, -83.33137512207031, -2.5510504245758057, 0.0, 0.0, -38.725242614746094, 0.0, 0.0, 0.00152587890625, 0, 0, 0, 0, 0, 0, 9362.0, 30146.0, 35388.0, 9362.0, 8.211570739746094, 0.0018967512296512723, -0.08680541813373566, 0.0695536658167839, -1.0023294687271118, -0.003729793708771467, 0.0388895645737648, -0.09287925809621811, 0.04104042053222656, 1.499267578125, 0.0, 0.137359619140625, 1.48828125
21272, -3.2069358825683594, -83.3405532836914, -2.5750741958618164, 0.0, 0.0, -38.725223541259766, 0.0, 0.0, 0.0019073486328125, 0, 0, 0, 0, 0, 0, 9362.0, 30146.0, 35388.0, 9362.0, 8.211570739746094, -0.05607042461633682, -0.062109097838401794, -0.16517521440982819, -0.9998798370361328, -0.004470854066312313, 0.041440825909376144, -0.0840650275349617, -0.09335899353027344, 1.48828125, 0.0, 0.178253173828125, 1.48828125
21282, -3.2050697803497314, -83.34810638427734, -2.574350118637085, 0.0, 0.0, -38.72274398803711, 0.0, 0.0, 0.247955322265625, 0, 0, 0, 0, 0, 0, 9362.0, 30146.0, 35388.0, 9362.0, 8.211570739746094, 0.1675516664981842, 0.3922380805015564, 0.019765367731451988, -1.0000638961791992, -0.005503603722900152, 0.04092817381024361, -0.0840650275349617, -0.09335899353027344, 1.48828125, 0.0, 0.2286224365234375, 1.489013671875
21292, -3.193687915802002, -83.35626983642578, -2.562479257583618, 0.0, 0.0, -38.72051239013672, 0.0, 0.0, 0.2231597900390625, 0, 0, 0, 0, 0, 0, 9362.0, 30146.0, 35388.0, 9362.0, 8.211570739746094, -0.021867617964744568, -0.24246583878993988, 0.03633793443441391, -0.998622715473175, -0.005425322335213423, 0.040066078305244446, -0.0840650275349617, -0.09335899353027344, 1.48828125, 0.0, 0.137359619140625, 1.489013671875
21302, -3.182682991027832, -83.3627700805664, -2.5528194904327393, 0.0, 0.0, -38.723148345947266, 0.0, 0.0, -0.2635955810546875, 0, 0, 0, 0, 0, 0, 9362.0, 30146.0, 35388.0, 9362.0, 8.211570739746094, 0.29318544268608093, 0.038911107927560806, 0.2140689343214035, -1.0018155574798584, -0.004675534553825855, 0.04141365736722946, -0.0840650275349617, -0.09335899353027344, 1.48828125, 0.0, 0.16845703125, 1.49560546875
21312, -3.184298515319824, -83.37013244628906, -2.5536649227142334, 0.0, 0.0, -38.72551727294922, 0.0, 0.0, -0.2368927001953125, 0, 0, 0, 0, 0, 0, 9362.0, 30146.0, 35388.0, 9362.0, 8.211570739746094, 0.03901780769228935, 0.06435739248991013, -0.05218426138162613, -1.0019829273223877, -0.004760102368891239, 0.04110944643616676, -0.0840650275349617, -0.09335899353027344, 1.48828125, 0.0, 0.1270751953125, 1.49560546875
21322, -3.1997666358947754, -83.37506866455078, -2.5676848888397217, 0.0, 0.0, -38.72655487060547, 0.0, 0.0, -0.103759765625, 0, 0, 0, 0, 0, 0, 9362.0, 30146.0, 35388.0, 9362.0, 8.211570739746094, -0.17156420648097992, -0.05505606159567833, -0.19598843157291412, -0.9995735287666321, -0.005213089287281036, 0.04219631105661392, -0.0840650275349617, -0.09335899353027344, 1.48828125, 0.0, 0.1532745361328125, 1.48828125
21332, -3.184966802597046, -83.38446044921875, -2.5524919033050537, 0.0, 0.0, -38.727481842041016, 0.0, 0.0, -0.0926971435546875, 0, 0, 0, 0, 0, 0, 9362.0, 30146.0, 35388.0, 9362.0, 8.211570739746094, -0.08427412062883377, 0.1379605084657669, 0.2458227276802063, -0.9989728927612305, -0.003960232250392437, 0.04082025587558746, -0.0840650275349617, -0.09335899353027344, 1.48828125, 0.0, 0.0970306396484375, 1.48828125
21342, -3.2018113136291504, -83.39122009277344, -2.568577289581299, 0.0, 0.0, -38.73542404174805, 0.0, 0.0, -0.794219970703125, 0, 0, 0, 0, 0, 0, 9362.0, 30146.0, 35388.0, 9362.0, 8.211570739746094, -0.0849960446357727, 0.2776545584201813, -0.07710134238004684, -1.0002365112304688, -0.0034797873813658953, 0.04174173250794411, -0.0840650275349617, -0.09335899353027344, 1.48828125, 0.0, 0.0649566650390625, 1.49267578125
21352, -3.2397868633270264, -83.40099334716797, -2.606055974960327, 0.0, 0.0, -38.74257278442383, 0.0, 0.0, -0.714874267578125, 0, 0, 0, 0, 0, 0, 9362.0, 30146.0, 35388.0, 9362.0, 8.211570739746094, -0.17671538889408112, 0.30895549058914185, -0.2575560212135315, -1.0016237497329712, -0.004019543062895536, 0.03953186795115471, -0.0840650275349617, -0.09335899353027344, 1.48828125, 0.0, 0.12200927734375, 1.49267578125
21362, -3.2342638969421387, -83.40586853027344, -2.601036787033081, 0.0, 0.0, -38.75228500366211, 0.0, 0.0, -0.971221923828125, 0, 0, 0, 0, 0, 0, 9362.0, 30146.0, 35388.0, 9362.0, 8.211570739746094, -0.00161260599270463, -0.28525614738464355, 0.06057548522949219, -1.0027910470962524, -0.0037209882866591215, 0.03731442242860794, -0.0840650275349617, -0.09335899353027344, 1.48828125, 0.0, 0.09930419921875, 1.496337890625
21372, -3.2398040294647217, -83.41324615478516, -2.606612205505371, 0.0, 0.0, -38.76102066040039, 0.0, 0.0, -0.873565673828125, 0, 0, 0, 0, 0, 0, 9362.0, 30146.0, 35388.0, 9362.0, 8.211570739746094, 0.12355435639619827, -0.37231162190437317, -0.2219458520412445, -1.0001554489135742, -0.005757155362516642, 0.04114256799221039, -0.08626469224691391, -0.32631683349609375, 1.46923828125, 0.0, 0.098236083984375, 1.496337890625
21382, -3.253926992416382, -83.41875457763672, -2.6201891899108887, 0.0, 0.0, -38.7669677734375, 0.0, 0.0, -0.5947113037109375, 0, 0, 0, 0, 0, 0, 9362.0, 30146.0, 35388.0, 9362.0, 8.211570739746094, -0.04842027649283409, -0.07334853708744049, -0.07462997734546661, -0.9974469542503357, -0.007246698718518019, 0.04067087545990944, -0.08626469224691391, -0.32631683349609375, 1.46923828125, 0.0, 0.19561767578125, 1.489013671875
21392, -3.256364345550537, -83.42668914794922, -2.6224334239959717, 0.0, 0.0, -38.77231979370117, 0.0, 0.0, -0.5352020263671875, 0, 0, 0, 0, 0, 0, 9362.0, 30146.0, 35388.0, 9362.0, 8.211570739746094, 0.04522687569260597, 0.09662602841854095, 0.20372548699378967, -0.9994094967842102, -0.006517021916806698, 0.041399531066417694, -0.08626469224691391, -0.32631683349609375, 1.46923828125, 0.0, 0.130889892578125, 1.489013671875
21402, -3.2531604766845703, -83.43089294433594, -2.619565010070801, 0.0, 0.0, -38.78697967529297, 0.0, 0.0, -1.4659881591796875, 0, 0, 0, 0, 0, 0, 9362.0, 30146.0, 35388.0, 9362.0, 8.211570739746094, 0.15229322016239166, -0.08955895155668259, 0.11312185227870941, -1.0006705522537231, -0.003419063985347748, 0.043515395373106, -0.08626469224691391, -0.32631683349609375, 1.46923828125, 0.0, 0.1184234619140625, 1.49267578125
21412, -3.2540602684020996, -83.43959045410156, -2.620410919189453, 0.0, 0.0, -38.8001708984375, 0.0, 0.0, -1.319122314453125, 0, 0, 0, 0, 0, 0, 9362.0, 30146.0, 35388.0, 9362.0, 8.211570739746094, 0.05705000460147858, 0.10063397139310837, 0.11646156013011932, -1.001457929611206, -0.004306651186197996, 0.0406576469540596, -0.08626469224691391, -0.32631683349609375, 1.46923828125, 0.0, 0.0526123046875, 1.49267578125
21422, -3.2502601146698, -83.44432067871094, -2.6160733699798584, 0.0, 0.0, -38.81012725830078, 0.0, 0.0, -0.995635986328125, 0, 0, 0, 0, 0, 0, 9362.0, 30146.0, 35388.0, 9362.0, 8.211570739746094, -0.07481468468904495, -0.0906369537115097, 0.26572689414024353, -1.000107765197754, -0.003147312207147479, 0.042158544063568115, -0.08626469224691391, -0.32631683349609375, 1.46923828125, 0.0, 0.1669921875, 1.49560546875
21432, -3.2628328800201416, -83.45419311523438, -2.629323959350586, 0.0, 0.0, -38.81908416748047, 0.0, 0.0, -0.89569091796875, 0, 0, 0, 0, 0, 0, 9362.0, 30146.0, 35388.0, 9362.0, 8.211570739746094, -0.06714558601379395, 0.13608182966709137, -0.03065464086830616, -0.9998432993888855, -0.0034248053561896086, 0.043367378413677216, -0.08626469224691391, -0.32631683349609375, 1.46923828125, 0.0, 0.236236572265625, 1.49560546875
21442, -3.2707250118255615, -83.45989227294922, -2.636662006378174, 0.0, 0.0, -38.82741928100586, 0.0, 0.0, -0.8335113525390625, 0, 0, 0, 0, 0, 0, 9362.0, 30146.0, 35388.0, 9362.0, 8.211570739746094, -0.07560377568006516, 0.02055809460580349, 0.011992686428129673, -0.9999562501907349, -0.0030207564122974873, 0.03886939212679863, -0.08626469224691391, -0.32631683349609375, 1.46923828125, 0.0, 0.0640716552734375, 1.48974609375
21452, -3.266200304031372, -83.47074890136719, -2.633688449859619, 0.0, 0.0, -38.83491897583008, 0.0, 0.0, -0.749969482421875, 0, 0, 0, 0, 0, 0, 9362.0, 30146.0, 35388.0, 9362.0, 8.211570739746094, 0.13493652641773224, 0.236911803483963, 0.12936937808990479, -1.0004816055297852, -0.004047673661261797, 0.0376657135784626, -0.08626469224691391, -0.32631683349609375, 1.46923828125, 0.0, 0.2073974609375, 1.48974609375
21462, -3.2835612297058105, -83.47549438476562, -2.651994466781616, 0.0, 0.0, -38.84904861450195, 0.0, 0.0, -1.4129638671875, 0, 0, 0, 0, 0, 0, 9362.0, 30146.0, 35388.0, 9362.0, 8.211570739746094, 0.09580890834331512, -0.25039783120155334, -0.15235231816768646, -1.0023657083511353, -0.006633386481553316, 0.039034295827150345, -0.08626469224691391, -0.32631683349609375, 1.46923828125, 0.0, 0.1768646240234375, 1.49267578125
21472, -3.2671732902526855, -83.4845199584961, -2.636537551879883, 0.0, 0.0, -38.86176300048828, 0.0, 0.0, -1.2714385986328125, 0, 0, 0, 0, 0, 0, 9362.0, 30146.0, 35388.0, 9362.0, 8.211570739746094, -0.0445418581366539, 0.1360236257314682, 0.3670247793197632, -1.002025842666626, -0.005226886365562677, 0.03942912071943283, -0.07983019202947617, -0.10231781005859375, 1.487548828125, 0.0, 0.1270751953125, 1.49267578125
21482, -3.274963855743408, -83.4899673461914, -2.6436760425567627, 0.0, 0.0, -38.873477935791016, 0.0, 0.0, -1.1714935302734375, 0, 0, 0, 0, 0, 0, 9362.0, 30146.0, 35388.0, 9362.0, 8.211570739746094, -0.18453790247440338, 0.12317533791065216, -0.042746011167764664, -0.9991294145584106, -0.0045310454443097115, 0.03999699652194977, -0.07983019202947617, -0.10231781005859375, 1.487548828125, 0.0, 0.1246185302734375, 1.493408203125
21492, -3.3320600986480713, -83.49768829345703, -2.7018871307373047, 0.0, 0.0, -38.88401794433594, 0.0, 0.0, -1.0540008544921875, 0, 0, 0, 0, 0, 0, 9362.0, 30146.0, 35388.0, 9362.0, 8.211570739746094, 0.252860963344574, 0.010585795156657696, -0.2140437513589859, -0.9999471306800842, -0.004697892349213362, 0.041806191205978394, -0.07983019202947617, -0.10231781005859375, 1.487548828125, 0.0, 0.183990478515625, 1.493408203125
21502, -3.354348659515381, -83.50519561767578, -2.7246148586273193, 0.0, 0.0, -38.890220642089844, 0.0, 0.0, -0.620269775390625, 0, 0, 0, 0, 0, 0, 9362.0, 30146.0, 35388.0, 9362.0, 8.211570739746094, 0.10451707243919373, 0.5193589329719543, -0.008052672259509563, -1.0015263557434082, -0.006220755632966757, 0.04177010431885719, -0.07983019202947617, -0.10231781005859375, 1.487548828125, 0.0, 0.1295928955078125, 1.49560546875
21512, -3.336517333984375, -83.51244354248047, -2.7054760456085205, 0.0, 0.0, -38.89580154418945, 0.0, 0.0, -0.5580902099609375, 0, 0, 0, 0, 0, 0, 9362.0, 30146.0, 35388.0, 9362.0, 8.211570739746094, -0.32624658942222595, -0.28098171949386597, 0.343257337808609, -1.0021653175354004, -0.0055371238850057125, 0.03986187279224396, -0.07983019202947617, -0.10231781005859375, 1.487548828125, 0.0, 0.1927032470703125, 1.49560546875
21522, -3.3639907836914062, -83.5181655883789, -2.734009265899658, 0.0, 0.0, -38.90409851074219, 0.0, 0.0, -0.8296966552734375, 0, 0, 0, 0, 0, 0, 9362.0, 30146.0, 35388.0, 9362.0, 8.211570739746094, 0.18756255507469177, 0.14898966252803802, -0.2808876037597656, -1.0007716417312622, -0.00724532688036561, 0.0416027307510376, -0.07983019202947617, -0.10231781005859375, 1.487548828125, 0.0, 0.1283111572265625, 1.5
21532, -3.370897054672241, -83.52615356445312, -2.740365505218506, 0.0, 0.0, -38.91156768798828, 0.0, 0.0, -0.746917724609375, 0, 0, 0, 0, 0, 0, 9362.0, 30146.0, 35388.0, 9362.0, 8.211570739746094, -0.05518447607755661, -0.1622931957244873, 0.22211836278438568, -0.9992924928665161, -0.006547919008880854, 0.03787842392921448, -0.07983019202947617, -0.10231781005859375, 1.487548828125, 0.0, 0.1063690185546875, 1.5
21542, -3.3679182529449463, -83.53306579589844, -2.7372512817382812, 0.0, 0.0, -38.9141845703125, 0.0, 0.0, -0.261688232421875, 0, 0, 0, 0, 0, 0, 9362.0, 30146.0, 35388.0, 9362.0, 8.211570739746094, -0.004045248031616211, 0.30937087535858154, 0.2115185260772705, -0.9975627064704895, -0.005527532193809748, 0.04020834341645241, -0.07983019202947617, -0.10231781005859375, 1.487548828125, 0.0, 0.1134796142578125, 1.493408203125
21552, -3.3794057369232178, -83.54074096679688, -2.747060775756836, 0.0, 0.0, -38.91653823852539, 0.0, 0.0, -0.2353668212890625, 0, 0, 0, 0, 0, 0, 9362.0, 30146.0, 35388.0, 9362.0, 8.211570739746094, -0.23657754063606262, 0.07890050858259201, 0.09881307929754257, -0.9979788661003113, -0.005898370873183012, 0.04118715599179268, -0.07983019202947617, -0.10231781005859375, 1.487548828125, 0.0, 0.1184234619140625, 1.493408203125
21562, -3.378754138946533, -83.5451431274414, -2.7455837726593018, 0.0, 0.0, -38.91975402832031, 0.0, 0.0, -0.3215789794921875, 0, 0, 0, 0, 0, 0, 9362.0, 30146.0, 35388.0, 9362.0, 8.211570739746094, -0.119224913418293, -0.21306270360946655, 0.13356266915798187, -1.0000662803649902, -0.003913259133696556, 0.043080128729343414, -0.07983019202947617, -0.10231781005859375, 1.487548828125, 0.0, 0.1600799560546875, 1.48974609375
21572, -3.4087233543395996, -83.55109405517578, -2.776095390319824, 0.0, 0.0, -38.922645568847656, 0.0, 0.0, -0.289154052734375, 0, 0, 0, 0, 0, 0, 9362.0, 30146.0, 35388.0, 9362.0, 8.211570739746094, -0.119224913418293, -0.21306270360946655, 0.13356266915798187, -1.0003584623336792, -0.004514659289270639, 0.041122421622276306, -0.07983019202947617, -0.10231781005859375, 1.487548828125, 0.0, 0.1600799560546875, 1.48974609375
21582, -3.409517526626587, -83.55648803710938, -2.7770330905914307, 0.0, 0.0, -38.922645568847656, 0.0, 0.0, -0.289154052734375, 0, 0, 0, 0, 0, 0, 9362.0, 30146.0, 35388.0, 9362.0, 8.211570739746094, 0.06284035742282867, 0.06977371871471405, 0.08790081739425659, -1.0003584623336792, -0.004514659289270639, 0.041122421622276306, -0.07983019202947617, -0.10231781005859375, 1.487548828125, 0.0, 0.070709228515625, 1.49560546875
21592, -3.4288203716278076, -83.5654067993164, -2.7950661182403564, 0.0, 0.0, -38.925514221191406, 0.0, 0.0, -0.13580322265625, 0, 0, 0, 0, 0, 0, 9362.0, 30146.0, 35388.0, 9362.0, 8.211570739746094, -0.27067986130714417, -0.03836628422141075, -0.19167625904083252, -0.9969380497932434, -0.006498051341623068, 0.040963832288980484, -0.07983019202947617, -0.10231781005859375, 1.487548828125, 0.0, 0.183990478515625, 1.49560546875
21602, -3.443164110183716, -83.57150268554688, -2.8087856769561768, 0.0, 0.0, -38.92618942260742, 0.0, 0.0, -0.0675201416015625, 0, 0, 0, 0, 0, 0, 9362.0, 30146.0, 35388.0, 9362.0, 8.211570739746094, -0.11294282227754593, 0.06545226275920868, -0.027135483920574188, -0.9971371293067932, -0.00541288685053587, 0.039503056555986404, -0.07983019202947617, -0.10231781005859375, 1.487548828125, 0.0, 0.2224273681640625, 1.49560546875
21612, -3.4727962017059326, -83.57888793945312, -2.8392887115478516, 0.0, 0.0, -38.926795959472656, 0.0, 0.0, -0.0606536865234375, 0, 0, 0, 0, 0, 0, 9362.0, 30146.0, 35388.0, 9362.0, 8.211570739746094, 0.07916680723428726, -0.09154926240444183, -0.1560041755437851, -0.9971371293067932, -0.00541288685053587, 0.039503056555986404, -0.07983019202947617, -0.10231781005859375, 1.487548828125, 0.0, 0.12200927734375, 1.49560546875
21622, -3.47526478767395, -83.58399200439453, -2.8433594703674316, 0.0, 0.0, -38.92816162109375, 0.0, 0.0, -0.136566162109375, 0, 0, 0, 0, 0, 0, 9362.0, 30146.0, 35388.0, 9362.0, 8.211570739746094, 0.24120570719242096, -0.02412131056189537, 0.020719407126307487, -1.0021963119506836, -0.005202187225222588, 0.039876606315374374, -0.07983019202947617, -0.10231781005859375, 1.487548828125, 0.0, 0.117095947265625, 1.493408203125
21632, -3.5058767795562744, -83.59271240234375, -2.8720104694366455, 0.0, 0.0, -38.92816162109375, 0.0, 0.0, -0.136566162109375, 0, 0, 0, 0, 0, 0, 9362.0, 30146.0, 35388.0, 9362.0, 8.211570739746094, -0.11897357553243637, 0.10878399014472961, -0.21320028603076935, -0.9991879463195801, -0.0048699090257287025, 0.04020654037594795, -0.07983019202947617, -0.10231781005859375, 1.487548828125, 0.0, 0.080810546875, 1.493408203125
21642, -3.523792028427124, -83.59718322753906, -2.890342950820923, 0.0, 0.0, -38.93268585205078, 0.0, 0.0, -0.3292083740234375, 0, 0, 0, 0, 0, 0, 9362.0, 30146.0, 35388.0, 9362.0, 8.211570739746094, 0.05847596004605293, -0.08057283610105515, -0.044685181230306625, -0.9996960759162903, -0.006415094248950481, 0.04132508486509323, -0.07983019202947617, -0.10231781005859375, 1.487548828125, 0.0, 0.1656646728515625, 1.493408203125
21652, -3.5460197925567627, -83.60444641113281, -2.911867380142212, 0.0, 0.0, -38.935646057128906, 0.0, 0.0, -0.2960205078125, 0, 0, 0, 0, 0, 0, 9362.0, 30146.0, 35388.0, 9362.0, 8.211570739746094, -0.04179888591170311, 0.09650486707687378, -0.05901636183261871, -1.0026307106018066, -0.007010651286691427, 0.04264594987034798, -0.07983019202947617, -0.10231781005859375, 1.487548828125, 0.0, 0.1712188720703125, 1.493408203125
21662, -3.5807554721832275, -83.60974884033203, -2.948084831237793, 0.0, 0.0, -38.935646057128906, 0.0, 0.0, -0.2960205078125, 0, 0, 0, 0, 0, 0, 9362.0, 30146.0, 35388.0, 9362.0, 8.211570739746094, 0.20602057874202728, 0.06292004138231277, -0.3477485775947571, -1.000349521636963, -0.005032952409237623, 0.040036339312791824, -0.07983019202947617, -0.10231781005859375, 1.487548828125, 0.0, 0.157379150390625, 1.493408203125
21672, -3.577913999557495, -83.61732482910156, -2.9462268352508545, 0.0, 0.0, -38.935646057128906, 0.0, 0.0, -0.2960205078125, 0, 0, 0, 0, 0, 0, 9362.0, 30146.0, 35388.0, 9362.0, 8.211570739746094, 0.10001217573881149, -0.010833358392119408, 0.2030448019504547, -1.000349521636963, -0.005032952409237623, 0.040036339312791824, -0.08986291289329529, -0.09335899353027344, 1.48828125, 0.0, 0.161529541015625, 1.493408203125
21682, -3.6157171726226807, -83.6224365234375, -2.9845376014709473, 0.0, 0.0, -38.921199798583984, 0.0, 0.0, 0.9113311767578125, 0, 0, 0, 0, 0, 0, 9362.0, 30146.0, 35388.0, 9362.0, 8.211570739746094, 0.05168265476822853, -0.11360415816307068, -0.32305753231048584, -0.9982612729072571, -0.003773272270336747, 0.03984647989273071, -0.08986291289329529, -0.09335899353027344, 1.48828125, 0.0, 0.161529541015625, 1.493408203125
21692, -3.5993776321411133, -83.63082885742188, -2.9684925079345703, 0.0, 0.0, -38.91299819946289, 0.0, 0.0, 0.820159912109375, 0, 0, 0, 0, 0, 0, 9362.0, 30146.0, 35388.0, 9362.0, 8.211570739746094, 0.14894188940525055, 0.09232485294342041, 0.1172695904970169, -0.9989292621612549, -0.0024257279001176357, 0.040398940443992615, -0.08986291289329529, -0.09335899353027344, 1.48828125, 0.0, 0.130889892578125, 1.493408203125
21702, -3.589707612991333, -83.63668060302734, -2.9588871002197266, 0.0, 0.0, -38.91627883911133, 0.0, 0.0, -0.32806396484375, 0, 0, 0, 0, 0, 0, 9362.0, 30146.0, 35388.0, 9362.0, 8.211570739746094, 0.03508879616856575, 0.18953794240951538, 0.05378432944417, -1.0008984804153442, -0.004422625992447138, 0.03908264636993408, -0.08986291289329529, -0.09335899353027344, 1.48828125, 0.0, 0.1825714111328125, 1.493408203125
21712, -3.6172754764556885, -83.64488983154297, -2.986563205718994, 0.0, 0.0, -38.91923141479492, 0.0, 0.0, -0.295257568359375, 0, 0, 0, 0, 0, 0, 9362.0, 30146.0, 35388.0, 9362.0, 8.211570739746094, 0.08819848299026489, 0.1808146834373474, 0.05060445889830589, -0.9995865821838379, -0.00626375200226903, 0.03764617070555687, -0.08986291289329529, -0.09335899353027344, 1.48828125, 0.0, 0.1600799560546875, 1.493408203125
21722, -3.6192214488983154, -83.64935302734375, -2.9889936447143555, 0.0, 0.0, -38.91923141479492, 0.0, 0.0, -0.295257568359375, 0, 0, 0, 0, 0, 0, 9362.0, 30146.0, 35388.0, 9362.0, 8.211570739746094, 0.028651105239987373, -0.15941265225410461, 0.19996538758277893, -0.9990672469139099, -0.002833901671692729, 0.039184026420116425, -0.08986291289329529, -0.09335899353027344, 1.48828125, 0.0, 0.085052490234375, 1.49560546875
21732, -3.6053926944732666, -83.65677642822266, -2.975332260131836, 0.0, 0.0, -38.91923141479492, 0.0, 0.0, -0.295257568359375, 0, 0, 0, 0, 0, 0, 9362.0, 30146.0, 35388.0, 9362.0, 8.211570739746094, -0.018537692725658417, 0.1057206243276596, 0.10921524465084076, -0.9986370801925659, -0.0038472276646643877, 0.041518907994031906, -0.08986291289329529, -0.09335899353027344, 1.48828125, 0.0, 0.0621337890625, 1.49560546875
21742, -3.6314656734466553, -83.6612548828125, -3.001664876937866, 0.0, 0.0, -38.91923141479492, 0.0, 0.0, -0.295257568359375, 0, 0, 0, 0, 0, 0, 9362.0, 30146.0, 35388.0, 9362.0, 8.211570739746094, 0.06884386390447617, -0.02984141930937767, -0.12185917794704437, -0.9969747066497803, -0.004995953291654587, 0.041244663298130035, -0.08986291289329529, -0.09335899353027344, 1.48828125, 0.0, 0.1246185302734375, 1.49267578125
21752, -3.6347367763519287, -83.66626739501953, -3.003511667251587, 0.0, 0.0, -38.91923141479492, 0.0, 0.0, -0.295257568359375, 0, 0, 0, 0, 0, 0, 9362.0, 30146.0, 35388.0, 9362.0, 8.211570739746094, -0.053289745002985, -0.10461336374282837, 0.20714524388313293, -0.9969747066497803, -0.004995953291654587, 0.041244663298130035, -0.08986291289329529, -0.09335899353027344, 1.48828125, 0.0, 0.1439361572265625, 1.49267578125
21762, -3.6415481567382812, -83.6701431274414, -3.0098400115966797, 0.0, 0.0, -38.92245101928711, 0.0, 0.0, 0.1659393310546875, 0, 0, 0, 0, 0, 0, 9362.0, 30146.0, 35388.0, 9362.0, 8.211570739746094, -0.07560145109891891, -0.27547335624694824, 0.11411936581134796, -1.0027790069580078, -0.006955924443900585, 0.03948327153921127, -0.08986291289329529, -0.09335899353027344, 1.48828125, 0.0, 0.1399383544921875, 1.49267578125
21772, -3.6373953819274902, -83.67792510986328, -3.0064260959625244, 0.0, 0.0, -38.920955657958984, 0.0, 0.0, 0.1495361328125, 0, 0, 0, 0, 0, 0, 9362.0, 30146.0, 35388.0, 9362.0, 8.211570739746094, -0.07560145109891891, -0.27547335624694824, 0.11411936581134796, -1.0014723539352417, -0.0050125434063375, 0.04081625118851662, -0.08986291289329529, -0.09335899353027344, 1.48828125, 0.0, 0.1868743896484375, 1.49267578125
21782, -3.6067702770233154, -83.68629455566406, -2.9757187366485596, 0.0, 0.0, -38.9201545715332, 0.0, 0.0, 0.080108642578125, 0, 0, 0, 0, 0, 0, 9362.0, 30146.0, 35388.0, 9362.0, 8.211570739746094, 0.11716360598802567, 0.7597408294677734, 0.4303095042705536, -1.0014723539352417, -0.0050125434063375, 0.04081625118851662, -0.08986291289329529, -0.09335899353027344, 1.48828125, 0.0, 0.1868743896484375, 1.49267578125
21792, -3.5809011459350586, -83.6963119506836, -2.947845697402954, 0.0, 0.0, -38.919429779052734, 0.0, 0.0, 0.072479248046875, 0, 0, 0, 0, 0, 0, 9362.0, 30146.0, 35388.0, 9362.0, 8.211570739746094, -0.14340713620185852, 0.3991800844669342, 0.5572516918182373, -1.0020180940628052, -0.004437184892594814, 0.039700087159872055, -0.08986291289329529, -0.09335899353027344, 1.48828125, 0.0, 0.1195831298828125, 1.49267578125
21802, -3.6192920207977295, -83.70193481445312, -2.9863343238830566, 0.0, 0.0, -38.916587829589844, 0.0, 0.0, 0.2841949462890625, 0, 0, 0, 0, 0, 0, 9362.0, 30146.0, 35388.0, 9362.0, 8.211570739746094, 0.13730625808238983, 0.20097729563713074, -0.4243992567062378, -1.001051664352417, -0.004691684618592262, 0.039047811180353165, -0.08986291289329529, -0.09335899353027344, 1.48828125, 0.0, 0.1698150634765625, 1.49267578125
21812, -3.6568379402160645, -83.70854187011719, -3.022859573364258, 0.0, 0.0, -38.916587829589844, 0.0, 0.0, 0.2841949462890625, 0, 0, 0, 0, 0, 0, 9362.0, 30146.0, 35388.0, 9362.0, 8.211570739746094, -0.13235847651958466, -0.17015261948108673, -0.036672670394182205, -1.002112865447998, -0.004620486404746771, 0.04100427031517029, -0.08986291289329529, -0.09335899353027344, 1.48828125, 0.0, 0.1492767333984375, 1.49267578125
21822, -3.668052911758423, -83.71284484863281, -3.0339415073394775, 0.0, 0.0, -38.916587829589844, 0.0, 0.0, 0.2841949462890625, 0, 0, 0, 0, 0, 0, 9362.0, 30146.0, 35388.0, 9362.0, 8.211570739746094, -0.03716964274644852, 0.011258861050009727, -0.0014577483525499701, -1.003281593322754, -0.0021987867075949907, 0.03983968868851662, -0.08986291289329529, -0.09335899353027344, 1.48828125, 0.0, 0.0756378173828125, 1.49267578125
21832, -3.7026877403259277, -83.71758270263672, -3.0692601203918457, 0.0, 0.0, -38.916587829589844, 0.0, 0.0, 0.2841949462890625, 0, 0, 0, 0, 0, 0, 9362.0, 30146.0, 35388.0, 9362.0, 8.211570739746094, -0.10304304957389832, -0.3547145426273346, -0.16260771453380585, -1.000791072845459, -0.003965561278164387, 0.03851323202252388, -0.08986291289329529, -0.09335899353027344, 1.48828125, 0.0, 0.0756378173828125, 1.49267578125
21842, -3.7059967517852783, -83.72279357910156, -3.0731325149536133, 0.0, 0.0, -38.916587829589844, 0.0, 0.0, 0.2841949462890625, 0, 0, 0, 0, 0, 0, 9362.0, 30146.0, 35388.0, 9362.0, 8.211570739746094, 0.1415485441684723, 0.0717160552740097, 0.08182284981012344, -1.000791072845459, -0.003965561278164387, 0.03851323202252388, -0.08986291289329529, -0.09335899353027344, 1.48828125, 0.0, 0.10870361328125, 1.49267578125
21852, -3.7110507488250732, -83.73036193847656, -3.078220844268799, 0.0, 0.0, -38.916587829589844, 0.0, 0.0, 0.2841949462890625, 0, 0, 0, 0, 0, 0, 9362.0, 30146.0, 35388.0, 9362.0, 8.211570739746094, 0.0914946049451828, -0.03448481112718582, -0.014828951098024845, -1.0008214712142944, -0.004236165899783373, 0.04012007266283035, -0.08986291289329529, -0.09335899353027344, 1.48828125, 0.0, 0.137359619140625, 1.49267578125
21862, -3.7272517681121826, -83.73455047607422, -3.09535813331604, 0.0, 0.0, -38.916587829589844, 0.0, 0.0, 0.2841949462890625, 0, 0, 0, 0, 0, 0, 9362.0, 30146.0, 35388.0, 9362.0, 8.211570739746094, 0.1580960750579834, -0.06250402331352234, -0.095070980489254, -1.0004563331604004, -0.005650610197335482, 0.04134662076830864, -0.08986291289329529, -0.09335899353027344, 1.48828125, 0.0, 0.16845703125, 1.49267578125
21872, -3.7540085315704346, -83.74056243896484, -3.122529983520508, 0.0, 0.0, -38.92436981201172, 0.0, 0.0, -0.3871917724609375, 0, 0, 0, 0, 0, 0, 9362.0, 30146.0, 35388.0, 9362.0, 8.211570739746094, -0.052803654223680496, 0.0561707578599453, 0.10909093171358109, -1.000004768371582, -0.005601267796009779, 0.03930174186825752, -0.08986291289329529, -0.09335899353027344, 1.48828125, 0.0, 0.1883087158203125, 1.49267578125
21882, -3.7325692176818848, -83.74701690673828, -3.1015565395355225, 0.0, 0.0, -38.92436981201172, 0.0, 0.0, -0.3871917724609375, 0, 0, 0, 0, 0, 0, 9362.0, 30146.0, 35388.0, 9362.0, 8.211570739746094, 0.12083949893712997, 0.5220298171043396, 0.40923988819122314, -1.000683069229126, -0.0056685758754611015, 0.039748966693878174, -0.08986291289329529, -0.09335899353027344, 1.48828125, 0.0, 0.174041748046875, 1.490478515625
21892, -3.757530927658081, -83.75228118896484, -3.1250534057617188, 0.0, 0.0, -38.92436981201172, 0.0, 0.0, -0.3871917724609375, 0, 0, 0, 0, 0, 0, 9362.0, 30146.0, 35388.0, 9362.0, 8.211570739746094, -0.19977742433547974, -0.3954254686832428, -0.22196581959724426, -1.000683069229126, -0.0056685758754611015, 0.039748966693878174, -0.08986291289329529, -0.09335899353027344, 1.48828125, 0.0, 0.125823974609375, 1.490478515625
21902, -3.751390218734741, -83.75602722167969, -3.119511842727661, 0.0, 0.0, -38.93813705444336, 0.0, 0.0, -0.5069732666015625, 0, 0, 0, 0, 0, 0, 9362.0, 30146.0, 35388.0, 9362.0, 8.211570739746094, 0.09476770460605621, -0.2138247936964035, -0.0005198573344387114, -1.0012966394424438, -0.00404299097135663, 0.03888590261340141, -0.08986291289329529, -0.09335899353027344, 1.48828125, 0.0, 0.1868743896484375, 1.494873046875
21912, -3.7947280406951904, -83.76105499267578, -3.164003372192383, 0.0, 0.0, -38.94269943237305, 0.0, 0.0, -0.45623779296875, 0, 0, 0, 0, 0, 0, 9362.0, 30146.0, 35388.0, 9362.0, 8.211570739746094, 0.1290198713541031, -0.16338194906711578, -0.1199062317609787, -1.0004709959030151, -0.003037028480321169, 0.04141997918486595, -0.08986291289329529, -0.09335899353027344, 1.48828125, 0.0, 0.1868743896484375, 1.494873046875
21922, -3.813453197479248, -83.76492309570312, -3.182694673538208, 0.0, 0.0, -38.94269943237305, 0.0, 0.0, -0.45623779296875, 0, 0, 0, 0, 0, 0, 9362.0, 30146.0, 35388.0, 9362.0, 8.211570739746094, 0.07292074710130692, 0.009483719244599342, -0.20783944427967072, -0.9999165534973145, -0.007062872406095266, 0.04071526601910591, -0.08986291289329529, -0.09335899353027344, 1.48828125, 0.0, 0.137359619140625, 1.493408203125
21932, -3.8670504093170166, -83.7695083618164, -3.2363204956054688, 0.0, 0.0, -38.94789505004883, 0.0, 0.0, -0.2460479736328125, 0, 0, 0, 0, 0, 0, 9362.0, 30146.0, 35388.0, 9362.0, 8.211570739746094, -0.05364494398236275, -0.2854684591293335, -0.4103299677371979, -0.9997639060020447, -0.0061202882789075375, 0.03883577510714531, -0.08986291289329529, -0.09335899353027344, 1.48828125, 0.0, 0.236236572265625, 1.493408203125
21942, -3.877171277999878, -83.77348327636719, -3.2471346855163574, 0.0, 0.0, -38.94789505004883, 0.0, 0.0, -0.2460479736328125, 0, 0, 0, 0, 0, 0, 9362.0, 30146.0, 35388.0, 9362.0, 8.211570739746094, 0.10945284366607666, -0.055714841932058334, -0.05205709487199783, -0.999156653881073, -0.005631896201521158, 0.03879539296030998, -0.08986291289329529, -0.09335899353027344, 1.48828125, 0.0, 0.125823974609375, 1.494873046875
21952, -3.8883821964263916, -83.7788314819336, -3.256932020187378, 0.0, 0.0, -38.94789505004883, 0.0, 0.0, -0.2460479736328125, 0, 0, 0, 0, 0, 0, 9362.0, 30146.0, 35388.0, 9362.0, 8.211570739746094, 0.002648659748956561, -0.045292507857084274, -0.010136914439499378, -0.999156653881073, -0.005631896201521158, 0.03879539296030998, -0.08986291289329529, -0.09335899353027344, 1.48828125, 0.0, 0.1233062744140625, 1.494873046875
21962, -3.866443157196045, -83.7837905883789, -3.234912395477295, 0.0, 0.0, -38.9604606628418, 0.0, 0.0, -0.835418701171875, 0, 0, 0, 0, 0, 0, 9362.0, 30146.0, 35388.0, 9362.0, 8.211570739746094, 0.0606490895152092, 0.14663739502429962, 0.29931870102882385, -1.00178062915802, -0.006636923644691706, 0.04225088655948639, -0.08986291289329529, -0.09335899353027344, 1.48828125, 0.0, 0.117095947265625, 1.494873046875
21972, -3.895423173904419, -83.78794860839844, -3.263380527496338, 0.0, 0.0, -38.9604606628418, 0.0, 0.0, -0.835418701171875, 0, 0, 0, 0, 0, 0, 9362.0, 30146.0, 35388.0, 9362.0, 8.211570739746094, 0.008989407680928707, -0.29934120178222656, -0.0948464423418045, -0.9996176958084106, -0.005041533149778843, 0.03897882252931595, -0.08986291289329529, -0.09335899353027344, 1.48828125, 0.0, 0.1270751953125, 1.494873046875
21982, -3.9126076698303223, -83.79154205322266, -3.2789268493652344, 0.0, 0.0, -38.96462631225586, 0.0, 0.0, 0.3353118896484375, 0, 0, 0, 0, 0, 0, 9362.0, 30146.0, 35388.0, 9362.0, 8.211570739746094, -0.25789496302604675, -0.19729083776474, -0.07527881860733032, -0.9995571374893188, -0.005926464684307575, 0.03926641121506691, -0.08986291289329529, -0.09335899353027344, 1.48828125, 0.0, 0.1270751953125, 1.494873046875
21992, -3.927581787109375, -83.79818725585938, -3.294847011566162, 0.0, 0.0, -38.96160888671875, 0.0, 0.0, 0.3017425537109375, 0, 0, 0, 0, 0, 0, 9362.0, 30146.0, 35388.0, 9362.0, 8.211570739746094, 0.05508657172322273, -0.1349896490573883, -0.17039844393730164, -0.9995571374893188, -0.005926464684307575, 0.03926641121506691, -0.08986291289329529, -0.09335899353027344, 1.48828125, 0.0, 0.1270751953125, 1.494873046875
22002, -3.9368607997894287, -83.80320739746094, -3.3040895462036133, 0.0, 0.0, -38.953426361083984, 0.0, 0.0, 0.8182525634765625, 0, 0, 0, 0, 0, 0, 9362.0, 30146.0, 35388.0, 9362.0, 8.211570739746094, -0.06433204561471939, 0.18243132531642914, 0.04163404926657677, -1.000728726387024, -0.004364687018096447, 0.037812478840351105, -0.08986291289329529, -0.09335899353027344, 1.48828125, 0.0, 0.201446533203125, 1.494873046875
22012, -3.969013214111328, -83.80855560302734, -3.334883213043213, 0.0, 0.0, -38.94606018066406, 0.0, 0.0, 0.7366180419921875, 0, 0, 0, 0, 0, 0, 9362.0, 30146.0, 35388.0, 9362.0, 8.211570739746094, -0.07714282721281052, -0.07673093676567078, -0.003613276407122612, -1.0002501010894775, -0.005461663473397493, 0.03813287243247032, -0.08986291289329529, -0.09335899353027344, 1.48828125, 0.0, 0.14654541015625, 1.494873046875
22022, -3.9777133464813232, -83.81312561035156, -3.3441789150238037, 0.0, 0.0, -38.94606018066406, 0.0, 0.0, 0.7366180419921875, 0, 0, 0, 0, 0, 0, 9362.0, 30146.0, 35388.0, 9362.0, 8.211570739746094, 0.09030544012784958, 0.0559672974050045, 0.10845186561346054, -1.0030959844589233, -0.0046330904588103294, 0.03975966200232506, -0.08986291289329529, -0.09335899353027344, 1.48828125, 0.0, 0.2209625244140625, 1.49267578125
22032, -3.981656789779663, -83.81900787353516, -3.3484673500061035, 0.0, 0.0, -38.94606018066406, 0.0, 0.0, 0.7366180419921875, 0, 0, 0, 0, 0, 0, 9362.0, 30146.0, 35388.0, 9362.0, 8.211570739746094, 0.18919458985328674, -0.013776826672255993, 0.1543377786874771, -1.0030736923217773, -0.004959958605468273, 0.04242102801799774, -0.08986291289329529, -0.09335899353027344, 1.48828125, 0.0, 0.1532745361328125, 1.49267578125
22042, -3.983095169067383, -83.82291412353516, -3.3502583503723145, 0.0, 0.0, -38.94606018066406, 0.0, 0.0, 0.7366180419921875, 0, 0, 0, 0, 0, 0, 9362.0, 30146.0, 35388.0, 9362.0, 8.211570739746094, 0.16026373207569122, 0.2014574259519577, -0.022964855656027794, -1.0005295276641846, -0.005799067672342062, 0.04100419580936432, -0.08986291289329529, -0.09335899353027344, 1.48828125, 0.0, 0.0936279296875, 1.49267578125
22052, -4.007019519805908, -83.82831573486328, -3.3734796047210693, 0.0, 0.0, -38.94606018066406, 0.0, 0.0, 0.7366180419921875, 0, 0, 0, 0, 0, 0, 9362.0, 30146.0, 35388.0, 9362.0, 8.211570739746094, -0.11507614701986313, -0.21987736225128174, -0.19700853526592255, -1.0012061595916748, -0.006644335575401783, 0.04154128208756447, -0.08986291289329529, -0.09335899353027344, 1.48828125, 0.0, 0.117095947265625, 1.49267578125
22062, -4.037408828735352, -83.83269500732422, -3.4043052196502686, 0.0, 0.0, -38.92565155029297, 0.0, 0.0, 0.51116943359375, 0, 0, 0, 0, 0, 0, 9362.0, 30146.0, 35388.0, 9362.0, 8.211570739746094, 0.052984341979026794, 0.11711534857749939, -0.3585010766983032, -1.0014280080795288, -0.005853504873812199, 0.03894789516925812, -0.08986291289329529, -0.09335899353027344, 1.48828125, 0.0, 0.172576904296875, 1.49267578125
22072, -4.042125701904297, -83.83798217773438, -3.4092142581939697, 0.0, 0.0, -38.92565155029297, 0.0, 0.0, 0.51116943359375, 0, 0, 0, 0, 0, 0, 9362.0, 30146.0, 35388.0, 9362.0, 8.211570739746094, -0.06770659238100052, -0.2918139100074768, -0.047259263694286346, -1.000171422958374, -0.006602595094591379, 0.04231578856706619, -0.08986291289329529, -0.09335899353027344, 1.48828125, 0.0, 0.1452178955078125, 1.49267578125
22082, -4.027454376220703, -83.8418960571289, -3.3943331241607666, 0.0, 0.0, -38.92565155029297, 0.0, 0.0, 0.51116943359375, 0, 0, 0, 0, 0, 0, 9362.0, 30146.0, 35388.0, 9362.0, 8.211570739746094, -0.07738376408815384, 0.017613500356674194, 0.25518524646759033, -0.998421847820282, -0.006029760465025902, 0.04061127081513405, -0.08986291289329529, -0.09335899353027344, 1.48828125, 0.0, 0.161529541015625, 1.48828125
22092, -4.031042575836182, -83.8464126586914, -3.3978183269500732, 0.0, 0.0, -38.92565155029297, 0.0, 0.0, 0.51116943359375, 0, 0, 0, 0, 0, 0, 9362.0, 30146.0, 35388.0, 9362.0, 8.211570739746094, -0.07738376408815384, 0.017613500356674194, 0.25518524646759033, -0.997887372970581, -0.006314536556601524, 0.03932115063071251, -0.08986291289329529, -0.09335899353027344, 1.48828125, 0.0, 0.14654541015625, 1.48828125
22102, -4.035969257354736, -83.85135650634766, -3.4034817218780518, 0.0, 0.0, -38.91267013549805, 0.0, 0.0, 0.1544952392578125, 0, 0, 0, 0, 0, 0, 9362.0, 30146.0, 35388.0, 9362.0, 8.211570739746094, 0.21118192374706268, 0.19757020473480225, 0.07333771884441376, -1.000433325767517, -0.0063203549943864346, 0.04099440947175026, -0.08986291289329529, -0.09335899353027344, 1.48828125, 0.0, 0.14654541015625, 1.48828125
22112, -4.061013221740723, -83.85736083984375, -3.4298288822174072, 0.0, 0.0, -38.91128158569336, 0.0, 0.0, 0.13885498046875, 0, 0, 0, 0, 0, 0, 9362.0, 30146.0, 35388.0, 9362.0, 8.211570739746094, 0.2980371117591858, -0.037016551941633224, -0.06672261655330658, -0.9996604919433594, -0.0051546357572078705, 0.04092385992407799, -0.08986291289329529, -0.09335899353027344, 1.48828125, 0.0, 0.1347198486328125, 1.48828125
22122, -4.062338829040527, -83.86393737792969, -3.431180715560913, 0.0, 0.0, -38.91128158569336, 0.0, 0.0, 0.13885498046875, 0, 0, 0, 0, 0, 0, 9362.0, 30146.0, 35388.0, 9362.0, 8.211570739746094, 0.06794241070747375, 0.5428772568702698, -0.019522733986377716, -1.0000109672546387, -0.0023191338405013084, 0.03893500193953514, -0.08986291289329529, -0.09335899353027344, 1.48828125, 0.0, 0.20001220703125, 1.49560546875
22132, -4.050084590911865, -83.8704833984375, -3.4185328483581543, 0.0, 0.0, -38.89435577392578, 0.0, 0.0, 0.801849365234375, 0, 0, 0, 0, 0, 0, 9362.0, 30146.0, 35388.0, 9362.0, 8.211570739746094, 0.015968475490808487, -0.1751440316438675, 0.16466668248176575, -0.9999411702156067, -0.005687776021659374, 0.03854246065020561, -0.08986291289329529, -0.09335899353027344, 1.48828125, 0.0, 0.1399383544921875, 1.49560546875
22142, -4.042283535003662, -83.87464141845703, -3.409743547439575, 0.0, 0.0, -38.89435577392578, 0.0, 0.0, 0.801849365234375, 0, 0, 0, 0, 0, 0, 9362.0, 30146.0, 35388.0, 9362.0, 8.211570739746094, -0.11532802134752274, -0.12941205501556396, 0.23011676967144012, -1.0014780759811401, -0.005897585768252611, 0.037366174161434174, -0.08986291289329529, -0.09335899353027344, 1.48828125, 0.0, 0.1016693115234375, 1.49853515625
22152, -4.078329086303711, -83.88288116455078, -3.446305990219116, 0.0, 0.0, -38.886356353759766, 0.0, 0.0, 0.3787994384765625, 0, 0, 0, 0, 0, 0, 9362.0, 30146.0, 35388.0, 9362.0, 8.211570739746094, 0.01775352470576763, 0.45926135778427124, -0.03793131560087204, -1.0014780759811401, -0.005897585768252611, 0.037366174161434174, -0.08986291289329529, -0.09335899353027344, 1.48828125, 0.0, 0.1016693115234375, 1.49853515625
22162, -4.076054096221924, -83.88825988769531, -3.443502426147461, 0.0, 0.0, -38.886356353759766, 0.0, 0.0, 0.3787994384765625, 0, 0, 0, 0, 0, 0, 9362.0, 30146.0, 35388.0, 9362.0, 8.211570739746094, -0.09744369238615036, 0.23949962854385376, 0.07467174530029297, -1.00086510181427, -0.0048146722838282585, 0.04047210514545441, -0.08986291289329529, -0.09335899353027344, 1.48828125, 0.0, 0.132171630859375, 1.497802734375
22172, -4.064498424530029, -83.89244079589844, -3.4309566020965576, 0.0, 0.0, -38.886356353759766, 0.0, 0.0, 0.3787994384765625, 0, 0, 0, 0, 0, 0, 9362.0, 30146.0, 35388.0, 9362.0, 8.211570739746094, -0.10407257825136185, -0.24714958667755127, 0.07037249952554703, -1.00086510181427, -0.0048146722838282585, 0.04047210514545441, -0.0729341208934784, -0.11127853393554688, 1.48681640625, 0.0, 0.0882415771484375, 1.497802734375
22182, -4.055033206939697, -83.89645385742188, -3.4209256172180176, 0.0, 0.0, -38.86041259765625, 0.0, 0.0, 1.0631561279296875, 0, 0, 0, 0, 0, 0, 9362.0, 30146.0, 35388.0, 9362.0, 8.211570739746094, -0.05158602073788643, 0.049006830900907516, 0.17053905129432678, -0.9980305433273315, -0.004423021338880062, 0.04276939481496811, -0.0729341208934784, -0.11127853393554688, 1.48681640625, 0.0, 0.0882415771484375, 1.497802734375
22192, -4.040987491607666, -83.90190887451172, -3.4073312282562256, 0.0, 0.0, -38.86041259765625, 0.0, 0.0, 1.0631561279296875, 0, 0, 0, 0, 0, 0, 9362.0, 30146.0, 35388.0, 9362.0, 8.211570739746094, -0.07421455532312393, -0.09677436947822571, 0.04650706425309181, -1.0003708600997925, -0.005447979085147381, 0.04370810464024544, -0.0729341208934784, -0.11127853393554688, 1.48681640625, 0.0, 0.1492767333984375, 1.497802734375
22202, -4.048374176025391, -83.905517578125, -3.4158902168273926, 0.0, 0.0, -38.86041259765625, 0.0, 0.0, 1.0631561279296875, 0, 0, 0, 0, 0, 0, 9362.0, 30146.0, 35388.0, 9362.0, 8.211570739746094, 0.050410058349370956, 0.010616924613714218, -0.0874616950750351, -0.998849093914032, -0.005258479621261358, 0.04209698736667633, -0.0729341208934784, -0.11127853393554688, 1.48681640625, 0.0, 0.1099090576171875, 1.49560546875
22212, -4.032371520996094, -83.91320037841797, -3.399665594100952, 0.0, 0.0, -38.86041259765625, 0.0, 0.0, 1.0631561279296875, 0, 0, 0, 0, 0, 0, 9362.0, 30146.0, 35388.0, 9362.0, 8.211570739746094, -0.12101145088672638, 0.3811224400997162, 0.3306436836719513, -0.998849093914032, -0.005258479621261358, 0.04209698736667633, -0.0729341208934784, -0.11127853393554688, 1.48681640625, 0.0, 0.07769775390625, 1.49560546875
22222, -4.036857604980469, -83.91690826416016, -3.404554843902588, 0.0, 0.0, -38.84135055541992, 0.0, 0.0, 0.45623779296875, 0, 0, 0, 0, 0, 0, 9362.0, 30146.0, 35388.0, 9362.0, 8.211570739746094, 0.11773378401994705, -0.010235864669084549, 0.013365792110562325, -1.0013171434402466, -0.00418254965916276, 0.03953013941645622, -0.0729341208934784, -0.11127853393554688, 1.48681640625, 0.0, 0.237762451171875, 1.49560546875
22232, -4.05219030380249, -83.92335510253906, -3.4203202724456787, 0.0, 0.0, -38.84135055541992, 0.0, 0.0, 0.45623779296875, 0, 0, 0, 0, 0, 0, 9362.0, 30146.0, 35388.0, 9362.0, 8.211570739746094, 0.08405833691358566, 0.2530151903629303, -0.05820632353425026, -1.0013171434402466, -0.00418254965916276, 0.03953013941645622, -0.0729341208934784, -0.11127853393554688, 1.48681640625, 0.0, 0.1492767333984375, 1.49560546875
22242, -4.057342529296875, -83.92781066894531, -3.4254908561706543, 0.0, 0.0, -38.838191986083984, 0.0, 0.0, -0.0949859619140625, 0, 0, 0, 0, 0, 0, 9362.0, 30146.0, 35388.0, 9362.0, 8.211570739746094, -0.005117196124047041, 0.027873916551470757, 0.013709343038499355, -1.001720666885376, -0.0055943201296031475, 0.03970073163509369, -0.0729341208934784, -0.11127853393554688, 1.48681640625, 0.0, 0.2286224365234375, 1.49560546875
22252, -4.120031833648682, -83.93155670166016, -3.4886019229888916, 0.0, 0.0, -38.83904266357422, 0.0, 0.0, -0.0850677490234375, 0, 0, 0, 0, 0, 0, 9362.0, 30146.0, 35388.0, 9362.0, 8.211570739746094, 0.02995808981359005, -0.24395586550235748, -0.41952449083328247, -1.0012487173080444, -0.00486476207152009, 0.03928578644990921, -0.0729341208934784, -0.11127853393554688, 1.48681640625, 0.0, 0.2286224365234375, 1.49560546875
22262, -4.150355339050293, -83.93443298339844, -3.517991542816162, 0.0, 0.0, -38.839534759521484, 0.0, 0.0, -0.0492095947265625, 0, 0, 0, 0, 0, 0, 9362.0, 30146.0, 35388.0, 9362.0, 8.211570739746094, -0.20859605073928833, -0.08831212669610977, -0.25461524724960327, -1.0001039505004883, -0.00448484206572175, 0.04340743273496628, -0.0729341208934784, -0.11127853393554688, 1.48681640625, 0.0, 0.2286224365234375, 1.49560546875
22282, -4.184603691101074, -83.94352722167969, -3.554053544998169, 0.0, 0.0, -38.839534759521484, 0.0, 0.0, -0.0492095947265625, 0, 0, 0, 0, 0, 0, 9362.0, 30146.0, 35388.0, 9362.0, 8.211570739746094, 0.03739383444190025, 0.24607525765895844, -0.001824081875383854, -0.9979524612426758, -0.002666027983650565, 0.03941459208726883, -0.07450143992900848, 0.13064002990722656, 1.506591796875, 0.0, 0.11224365234375, 1.489013671875
22292, -4.199906349182129, -83.94815063476562, -3.5691285133361816, 0.0, 0.0, -38.839534759521484, 0.0, 0.0, -0.0492095947265625, 0, 0, 0, 0, 0, 0, 9362.0, 30146.0, 35388.0, 9362.0, 8.211570739746094, 0.12851093709468842, -0.037571560591459274, -0.009911349043250084, -0.9991093873977661, -0.00679154135286808, 0.041355084627866745, -0.07450143992900848, 0.13064002990722656, 1.506591796875, 0.0, 0.090423583984375, 1.489013671875
22302, -4.230110168457031, -83.9510726928711, -3.5990333557128906, 0.0, 0.0, -38.84062576293945, 0.0, 0.0, 0.1148223876953125, 0, 0, 0, 0, 0, 0, 9362.0, 30146.0, 35388.0, 9362.0, 8.211570739746094, 0.0012395083904266357, -0.1583535522222519, -0.1960187405347824, -1.000535249710083, -0.007678650785237551, 0.038750991225242615, -0.07450143992900848, 0.13064002990722656, 1.506591796875, 0.0, 0.090423583984375, 1.489013671875
22312, -4.218774795532227, -83.9579086303711, -3.5873680114746094, 0.0, 0.0, -38.84062576293945, 0.0, 0.0, 0.1148223876953125, 0, 0, 0, 0, 0, 0, 9362.0, 30146.0, 35388.0, 9362.0, 8.211570739746094, -0.09837862849235535, 0.2625478208065033, 0.2299051284790039, -0.9978727698326111, -0.00785171426832676, 0.037956394255161285, -0.07450143992900848, 0.13064002990722656, 1.506591796875, 0.0, 0.2073974609375, 1.489013671875
22322, -4.219764232635498, -83.96206665039062, -3.5874295234680176, 0.0, 0.0, -38.84062576293945, 0.0, 0.0, 0.1148223876953125, 0, 0, 0, 0, 0, 0, 9362.0, 30146.0, 35388.0, 9362.0, 8.211570739746094, -0.2713267207145691, 0.10790935903787613, 0.04885568097233772, -0.9981470108032227, -0.0054461234249174595, 0.03897012025117874, -0.07450143992900848, 0.13064002990722656, 1.506591796875, 0.0, 0.1587677001953125, 1.497802734375
22332, -4.2353620529174805, -83.9670639038086, -3.603069543838501, 0.0, 0.0, -38.84062576293945, 0.0, 0.0, 0.1148223876953125, 0, 0, 0, 0, 0, 0, 9362.0, 30146.0, 35388.0, 9362.0, 8.211570739746094, 0.005716987885534763, -0.052314527332782745, 0.030687745660543442, -1.00249445438385, -0.004980418831110001, 0.039462823420763016, -0.07450143992900848, 0.13064002990722656, 1.506591796875, 0.0, 0.130889892578125, 1.497802734375
22342, -4.2674336433410645, -83.96992492675781, -3.634673595428467, 0.0, 0.0, -38.86433029174805, 0.0, 0.0, -0.98876953125, 0, 0, 0, 0, 0, 0, 9362.0, 30146.0, 35388.0, 9362.0, 8.211570739746094, 0.0016193975461646914, -0.1634160429239273, -0.25537729263305664, -1.002052664756775, -0.004514432046562433, 0.041382770985364914, -0.07450143992900848, 0.13064002990722656, 1.506591796875, 0.0, 0.1970977783203125, 1.497802734375
22352, -4.305731296539307, -83.97343444824219, -3.673879623413086, 0.0, 0.0, -38.86433029174805, 0.0, 0.0, -0.98876953125, 0, 0, 0, 0, 0, 0, 9362.0, 30146.0, 35388.0, 9362.0, 8.211570739746094, 0.26958000659942627, -0.37690529227256775, -0.3570251762866974, -1.0002774000167847, -0.006547934375703335, 0.04064277559518814, -0.07450143992900848, 0.13064002990722656, 1.506591796875, 0.0, 0.1811065673828125, 1.497802734375
22362, -4.355495929718018, -83.97639465332031, -3.723897695541382, 0.0, 0.0, -38.86433029174805, 0.0, 0.0, -0.98876953125, 0, 0, 0, 0, 0, 0, 9362.0, 30146.0, 35388.0, 9362.0, 8.211570739746094, 0.007585964165627956, -0.040219053626060486, -0.45684492588043213, -1.0002774000167847, -0.006547934375703335, 0.04064277559518814, -0.07450143992900848, 0.13064002990722656, 1.506591796875, 0.0, 0.086029052734375, 1.494873046875
22372, -4.3830180168151855, -83.97904205322266, -3.7498996257781982, 0.0, 0.0, -38.88427734375, 0.0, 0.0, -0.52337646484375, 0, 0, 0, 0, 0, 0, 9362.0, 30146.0, 35388.0, 9362.0, 8.211570739746094, 0.007585964165627956, -0.040219053626060486, -0.45684492588043213, -1.001044750213623, -0.007293468341231346, 0.04337206482887268, -0.07450143992900848, 0.13064002990722656, 1.506591796875, 0.0, 0.086029052734375, 1.494873046875
22382, -4.3827409744262695, -83.9818344116211, -3.7500576972961426, 0.0, 0.0, -38.88427734375, 0.0, 0.0, -0.52337646484375, 0, 0, 0, 0, 0, 0, 9362.0, 30146.0, 35388.0, 9362.0, 8.211570739746094, 0.13817188143730164, -0.215058371424675, 0.07849853485822678, -1.0005698204040527, -0.006225505378097296, 0.04221607744693756, -0.07450143992900848, 0.13064002990722656, 1.506591796875, 0.0, 0.1642303466796875, 1.49853515625
22392, -4.337015628814697, -83.98770141601562, -3.7040820121765137, 0.0, 0.0, -38.88427734375, 0.0, 0.0, -0.52337646484375, 0, 0, 0, 0, 0, 0, 9362.0, 30146.0, 35388.0, 9362.0, 8.211570739746094, -0.13889892399311066, -0.12020520120859146, 0.4153311550617218, -1.0005698204040527, -0.006225505378097296, 0.04221607744693756, -0.07450143992900848, 0.13064002990722656, 1.506591796875, 0.0, 0.132171630859375, 1.49853515625
22402, -4.329330921173096, -83.99207305908203, -3.696424722671509, 0.0, 0.0, -38.88539123535156, 0.0, 0.0, -0.3589630126953125, 0, 0, 0, 0, 0, 0, 9362.0, 30146.0, 35388.0, 9362.0, 8.211570739746094, -0.08712181448936462, 0.01778687909245491, 0.12466999888420105, -0.9984445571899414, -0.003954985644668341, 0.041148148477077484, -0.07450143992900848, 0.13064002990722656, 1.506591796875, 0.0, 0.1439361572265625, 1.49853515625
