timeTick, roll, pitch, yaw, stateX, stateY, stateZ, stateVX, stateVY, stateVZ, otX0, otY0, otZ0, otRoll0, otPitch0, otYaw0, left wing, pitch motor, yaw motor, right wing, voltage, roll rate, pitch rate, yaw rate, A_x, A_y, A_z, current, i_raw, v_raw, airflow_voltage, airflow_speed, pot_Pitch, voltage_KF, pkk
16757, 17.497163772583008, 80.45675659179688, -15.158111572265625, 0, 0, 0, 0, 0, 0, 0, 0, 0, 0, 0, 0, 0, 0, 0, 0, 0, 0, 0, 0, 0, 0, 0, 0, 0, 0, 0, 0, 0, 0, 0
16767, 17.539690017700195, 80.47469329833984, -15.200174331665039, 0.0, 0.0, -25.48259162902832, 0.0, 0.0, 1.1959075927734375, 0, 0, 0, 0, 0, 0, 9362.0, 30146.0, 35388.0, 9362.0, 0, 0.035916656255722046, -0.12833663821220398, 0.00015182993956841528, 0.9968453049659729, 0.04446614161133766, 0.03035818226635456, 0, 0, 0, 1.39453125, 0.035003662109375, 0, 0, 0
16777, 17.608753204345703, 80.49982452392578, -15.269339561462402, 0.0, 0.0, -25.471818923950195, 0.0, 0.0, 1.0772705078125, 0, 0, 0, 0, 0, 0, 9362.0, 30146.0, 35388.0, 9362.0, 0, -0.1329048126935959, 0.22250200808048248, -0.11226733773946762, 0.9947772026062012, 0.04504796862602234, 0.031104061752557755, 0, 0, 0, 1.3271484375, 0.022308349609375, 0, 0.0034257732331752777, 3.1916490115690976e-05
16787, 17.650230407714844, 80.51766967773438, -15.309966087341309, 0.0, 0.0, -25.459930419921875, 0.0, 0.0, 1.1888504028320312, 0, 0, 0, 0, 0, 0, 9362.0, 30146.0, 35388.0, 9362.0, 0, 0.11490119993686676, -0.026452869176864624, 0.16333995759487152, 0.9987186789512634, 0.047459542751312256, 0.030108042061328888, 0, 0, 0, 1.41943359375, 0.0612945556640625, 1.4970703125, 0.003403907176107168, 3.1914314604364336e-05
16797, 17.720611572265625, 80.54285430908203, -15.380744934082031, 0.0, 0.0, -25.449220657348633, 0.0, 0.0, 1.0709762573242188, 0, 0, 0, 0, 0, 0, 9362.0, 30146.0, 35388.0, 9362.0, 0, -0.13264170289039612, -0.10828922688961029, -0.03891906887292862, 0.9988200664520264, 0.045044489204883575, 0.03082750178873539, 0, 0, 0, 1.376220703125, 0.0222930908203125, 1.4970703125, 0.0033821817487478256, 3.1912150006974116e-05
16807, 17.76692771911621, 80.55886840820312, -15.427288055419922, 0.0, 0.0, -25.44996452331543, 0.0, 0.0, -0.0743865966796875, 0, 0, 0, 0, 0, 0, 9362.0, 30146.0, 35388.0, 9362.0, 0, -0.1549856811761856, 0.011749417521059513, -0.20054401457309723, 0.9982439875602722, 0.04317647963762283, 0.032659128308296204, 0, 0, 0, 1.44287109375, 0.0936279296875, 1.494140625, 0.0033605964854359627, 3.1909999961499125e-05
16817, 17.826932907104492, 80.58466339111328, -15.48606014251709, 0.0, 0.0, -25.45062255859375, 0.0, 0.0, -0.06580352783203125, 0, 0, 0, 0, 0, 0, 9362.0, 30146.0, 35388.0, 9362.0, 0, -0.08097190409898758, 0.0315290242433548, 0.0006292431498877704, 0.9974902272224426, 0.04120220988988876, 0.03127763792872429, 0, 0, 0, 1.39306640625, 0.0337982177734375, 1.494140625, 0.0033391504548490047, 3.190786446793936e-05
16827, 17.88521385192871, 80.60279083251953, -15.545151710510254, 0.0, 0.0, -25.45366859436035, 0.0, 0.0, -0.30460357666015625, 0, 0, 0, 0, 0, 0, 9362.0, 30146.0, 35388.0, 9362.0, 0, -0.08081787824630737, -0.2136363685131073, -0.27481356263160706, 0.9976651668548584, 0.04173502326011658, 0.029830724000930786, 0, 0, 0, 1.341064453125, 0.01654052734375, 1.494140625, 0.003317842725664377, 3.190573988831602e-05
16837, 17.95171356201172, 80.62861633300781, -15.610074996948242, 0.0, 0.0, -25.45639991760254, 0.0, 0.0, -0.27313232421875, 0, 0, 0, 0, 0, 0, 9362.0, 30146.0, 35388.0, 9362.0, 0, 0.008771595545113087, -0.0494515597820282, 0.1815083771944046, 0.9970197677612305, 0.04349689558148384, 0.031214015558362007, 0, 0, 0, 1.388671875, 0.03033447265625, 1.494140625, 0.0032966723665595055, 3.190362986060791e-05
16847, 18.014726638793945, 80.6458740234375, -15.672307968139648, 0.0, 0.0, -25.458030700683594, 0.0, 0.0, -0.16307830810546875, 0, 0, 0, 0, 0, 0, 9362.0, 30146.0, 35388.0, 9362.0, 0, 0.11611311137676239, -0.06913510710000992, -0.4082382619380951, 0.9979255199432373, 0.04325268417596817, 0.0307962354272604, 0, 0, 0, 1.39013671875, 0.0314483642578125, 1.493408203125, 0.003275638446211815, 3.190153438481502e-05
16857, 18.09174346923828, 80.67017364501953, -15.746460914611816, 0.0, 0.0, -25.459489822387695, 0.0, 0.0, -0.14591217041015625, 0, 0, 0, 0, 0, 0, 9362.0, 30146.0, 35388.0, 9362.0, 7.576860427856445, 0.31307727098464966, 0.0682709738612175, -0.07704275846481323, 0.9993246793746948, 0.045943647623062134, 0.03251491114497185, -0.048454202711582184, -0.1291980743408203, 1.4853515625, 1.341796875, 0.0162811279296875, 1.493408203125, 0.003254740033298731, 3.1899453460937366e-05
16867, 18.13908576965332, 80.68644714355469, -15.794720649719238, 0.0, 0.0, -25.471458435058594, 0.0, 0.0, -1.1968612670898438, 0, 0, 0, 0, 0, 0, 9362.0, 30146.0, 35388.0, 9362.0, 7.576860427856445, -0.18842561542987823, 0.020230745896697044, -0.09367310255765915, 0.998612105846405, 0.04488493502140045, 0.030419765040278435, -0.048454202711582184, -0.1291980743408203, 1.4853515625, 1.447265625, 0.1004791259765625, 1.49560546875, 0.003233976662158966, 3.189738345099613e-05
16877, 18.20044708251953, 80.71085357666016, -15.854377746582031, 0.0, 0.0, -25.48221778869629, 0.0, 0.0, -1.0759353637695312, 0, 0, 0, 0, 0, 0, 9362.0, 30146.0, 35388.0, 9362.0, 7.576860427856445, 0.17537066340446472, 0.09090893715620041, 0.08867762982845306, 0.9996804594993591, 0.04518978297710419, 0.0308169424533844, -0.048454202711582184, -0.1291980743408203, 1.4853515625, 1.29052734375, 0.06378173828125, 1.49560546875, 0.0032133469358086586, 3.1895327992970124e-05
16887, 18.250072479248047, 80.72616577148438, -15.904152870178223, 0.0, 0.0, -25.485605239868164, 0.0, 0.0, -0.3387451171875, 0, 0, 0, 0, 0, 0, 9362.0, 30146.0, 35388.0, 9362.0, 7.576860427856445, -0.07556410133838654, 0.028478628024458885, -0.22231999039649963, 0.9999182820320129, 0.0433434434235096, 0.03276105970144272, -0.048454202711582184, -0.1291980743408203, 1.4853515625, 1.430419921875, 0.0756378173828125, 1.496337890625, 0.003192849922925234, 3.189328344888054e-05
16897, 18.325164794921875, 80.74893188476562, -15.97811508178711, 0.0, 0.0, -25.4886417388916, 0.0, 0.0, -0.30364990234375, 0, 0, 0, 0, 0, 0, 9362.0, 30146.0, 35388.0, 9362.0, 7.576860427856445, 0.09240934997797012, -0.000373794580809772, -0.4548654556274414, 0.9979432821273804, 0.04259611293673515, 0.03081711381673813, -0.048454202711582184, -0.1291980743408203, 1.4853515625, 1.357177734375, 0.0157928466796875, 1.496337890625, 0.0031724851578474045, 3.189125345670618e-05
16907, 18.36416244506836, 80.76557922363281, -16.017601013183594, 0.0, 0.0, -25.500118255615234, 0.0, 0.0, -1.1476516723632812, 0, 0, 0, 0, 0, 0, 9362.0, 30146.0, 35388.0, 9362.0, 7.576860427856445, -0.1677590161561966, 0.017766844481229782, 0.12142347544431686, 0.9981350898742676, 0.0440530851483345, 0.02732500433921814, -0.048454202711582184, -0.1291980743408203, 1.4853515625, 1.4091796875, 0.04937744140625, 1.48828125, 0.003152251709252596, 3.188923801644705e-05
16917, 18.44498634338379, 80.78780364990234, -16.098411560058594, 0.0, 0.0, -25.51043701171875, 0.0, 0.0, -1.0318756103515625, 0, 0, 0, 0, 0, 0, 9362.0, 30146.0, 35388.0, 9362.0, 7.576860427856445, 0.09042803943157196, 0.27665072679519653, -0.4082708954811096, 0.9957473874092102, 0.04261404275894165, 0.02847694605588913, -0.048454202711582184, -0.1291980743408203, 1.4853515625, 1.43115234375, 0.0766143798828125, 1.48828125, 0.003132148180156946, 3.1887233490124345e-05
16927, 18.487812042236328, 80.80474090576172, -16.141212463378906, 0.0, 0.0, -25.518352508544922, 0.0, 0.0, -0.7915496826171875, 0, 0, 0, 0, 0, 0, 9362.0, 30146.0, 35388.0, 9362.0, 7.576860427856445, -0.11341733485460281, -0.24803754687309265, 0.17863884568214417, 0.9984474778175354, 0.044736430048942566, 0.030856341123580933, -0.048454202711582184, -0.1291980743408203, 1.4853515625, 1.365966796875, 0.017791748046875, 1.4912109375, 0.003112174104899168, 3.188523987773806e-05
16937, 18.56307601928711, 80.82756042480469, -16.21516227722168, 0.0, 0.0, -25.525468826293945, 0.0, 0.0, -0.7116317749023438, 0, 0, 0, 0, 0, 0, 9362.0, 30146.0, 35388.0, 9362.0, 7.576860427856445, -0.013769359327852726, -0.015358268283307552, -0.14542222023010254, 0.9994903802871704, 0.04310908541083336, 0.03325982764363289, -0.048454202711582184, -0.1291980743408203, 1.4853515625, 1.43115234375, 0.0766143798828125, 1.4912109375, 0.003092329017817974, 3.1883260817267e-05
16947, 18.616424560546875, 80.84109497070312, -16.268051147460938, 0.0, 0.0, -25.522842407226562, 0.0, 0.0, 0.26264190673828125, 0, 0, 0, 0, 0, 0, 9362.0, 30146.0, 35388.0, 9362.0, 7.576860427856445, 0.00823457445949316, 0.0946318730711937, -0.23680512607097626, 0.9967449903488159, 0.04539702460169792, 0.03360896185040474, -0.048454202711582184, -0.1291980743408203, 1.4853515625, 1.44873046875, 0.102813720703125, 1.4912109375, 0.0030726115219295025, 3.188129630871117e-05
16957, 18.690265655517578, 80.86390686035156, -16.340959548950195, 0.0, 0.0, -25.520469665527344, 0.0, 0.0, 0.237274169921875, 0, 0, 0, 0, 0, 0, 9362.0, 30146.0, 35388.0, 9362.0, 7.576860427856445, -0.06456074118614197, -0.22352378070354462, -0.1335650533437729, 0.9979697465896606, 0.0428195521235466, 0.03373483568429947, -0.06848298758268356, 0.05000114440917969, 1.5, 1.41064453125, 0.0509490966796875, 1.4912109375, 0.003053021151572466, 3.187934271409176e-05
16967, 18.736482620239258, 80.8803482055664, -16.38701057434082, 0.0, 0.0, -25.509305953979492, 0.0, 0.0, 1.1163711547851562, 0, 0, 0, 0, 0, 0, 9362.0, 30146.0, 35388.0, 9362.0, 7.576860427856445, -0.019351692870259285, -0.16908344626426697, -0.010304264724254608, 0.9990180730819702, 0.042421888560056686, 0.030206358060240746, -0.06848298758268356, 0.05000114440917969, 1.5, 1.34326171875, 0.01605224609375, 1.49267578125, 0.0030335565097630024, 3.187740367138758e-05
16977, 18.810340881347656, 80.90386962890625, -16.460857391357422, 0.0, 0.0, -25.499248504638672, 0.0, 0.0, 1.0057449340820312, 0, 0, 0, 0, 0, 0, 9362.0, 30146.0, 35388.0, 9362.0, 7.576860427856445, -0.04225597903132439, -0.40789923071861267, -0.10258496552705765, 0.9986746311187744, 0.044759102165699005, 0.03369827941060066, -0.06848298758268356, 0.05000114440917969, 1.5, 1.421630859375, 0.0640716552734375, 1.49267578125, 0.0030142171308398247, 3.1875475542619824e-05
16987, 18.863662719726562, 80.91921997070312, -16.513736724853516, 0.0, 0.0, -25.4951114654541, 0.0, 0.0, 0.41370391845703125, 0, 0, 0, 0, 0, 0, 9362.0, 30146.0, 35388.0, 9362.0, 7.576860427856445, 0.10073568671941757, -0.31808388233184814, -0.13207246363162994, 0.9980649948120117, 0.04284638538956642, 0.034029316157102585, -0.06848298758268356, 0.05000114440917969, 1.5, 1.35791015625, 0.015869140625, 1.4912109375, 0.0029950025491416454, 3.187355832778849e-05
16997, 18.928647994995117, 80.94049072265625, -16.577516555786133, 0.0, 0.0, -25.491378784179688, 0.0, 0.0, 0.37326812744140625, 0, 0, 0, 0, 0, 0, 9362.0, 30146.0, 35388.0, 9362.0, 7.576860427856445, 0.008640429005026817, -0.0019542479421943426, 0.10418695211410522, 0.9983097910881042, 0.04333662986755371, 0.03125413879752159, -0.06848298758268356, 0.05000114440917969, 1.5, 1.27001953125, 0.10626220703125, 1.4912109375, 0.0029759113676846027, 3.187165202689357e-05
17007, 18.956573486328125, 80.95303344726562, -16.604297637939453, 0.0, 0.0, -25.49484634399414, 0.0, 0.0, -0.3467559814453125, 0, 0, 0, 0, 0, 0, 9362.0, 30146.0, 35388.0, 9362.0, 7.576860427856445, -0.035436954349279404, 0.5898383259773254, 0.34116131067276, 0.9969892501831055, 0.043838225305080414, 0.028540873900055885, -0.06848298758268356, 0.05000114440917969, 1.5, 1.32568359375, 0.0232086181640625, 1.48974609375, 0.0029569431208074093, 3.186976027791388e-05
17017, 19.040180206298828, 80.97673797607422, -16.68644142150879, 0.0, 0.0, -25.49795913696289, 0.0, 0.0, -0.311279296875, 0, 0, 0, 0, 0, 0, 9362.0, 30146.0, 35388.0, 9362.0, 7.576860427856445, -0.05644965171813965, -0.3836635649204254, -0.21774235367774963, 0.9974879622459412, 0.04342547431588173, 0.029678991064429283, -0.06848298758268356, 0.05000114440917969, 1.5, 1.43994140625, 0.089324951171875, 1.48974609375, 0.0029380968771874905, 3.186787944287062e-05
17027, 19.083572387695312, 80.99051666259766, -16.72931671142578, 0.0, 0.0, -25.505950927734375, 0.0, 0.0, -0.7991790771484375, 0, 0, 0, 0, 0, 0, 9362.0, 30146.0, 35388.0, 9362.0, 7.576860427856445, -0.11357492953538895, 0.2871682643890381, 0.11626599729061127, 0.995801568031311, 0.04450315237045288, 0.03137006610631943, -0.06848298758268356, 0.05000114440917969, 1.5, 1.2978515625, 0.05224609375, 1.49267578125, 0.0029193717055022717, 3.186601315974258e-05
17037, 19.146629333496094, 81.01234436035156, -16.791419982910156, 0.0, 0.0, -25.513137817382812, 0.0, 0.0, -0.71868896484375, 0, 0, 0, 0, 0, 0, 9362.0, 30146.0, 35388.0, 9362.0, 7.576860427856445, -0.15982916951179504, -0.13462164998054504, 0.07584025710821152, 0.9974199533462524, 0.04363938048481941, 0.031853895634412766, -0.06848298758268356, 0.05000114440917969, 1.5, 1.343994140625, 0.015899658203125, 1.49267578125, 0.0029007671400904655, 3.186415779055096e-05
17047, 19.19670295715332, 81.02648162841797, -16.84048843383789, 0.0, 0.0, -25.52315330505371, 0.0, 0.0, -1.0015487670898438, 0, 0, 0, 0, 0, 0, 9362.0, 30146.0, 35388.0, 9362.0, 7.576860427856445, 0.10257391631603241, -0.006821778137236834, -0.04217275232076645, 0.9997017979621887, 0.04480535164475441, 0.0331575833261013, -0.06848298758268356, 0.05000114440917969, 1.5, 1.41650390625, 0.0577545166015625, 1.48974609375, 0.0028822822496294975, 3.1862313335295767e-05
17057, 19.262836456298828, 81.04706573486328, -16.904680252075195, 0.0, 0.0, -25.53215789794922, 0.0, 0.0, -0.9004592895507812, 0, 0, 0, 0, 0, 0, 9362.0, 30146.0, 35388.0, 9362.0, 7.576860427856445, 0.16738998889923096, 0.13448216021060944, 0.004506404511630535, 0.9974731802940369, 0.04316066578030586, 0.03291260823607445, -0.04666733741760254, 0.10376167297363281, 1.50439453125, 1.434814453125, 0.081787109375, 1.48974609375, 0.002863916102796793, 3.186047979397699e-05
17067, 19.302629470825195, 81.06195831298828, -16.944543838500977, 0.0, 0.0, -25.539981842041016, 0.0, 0.0, -0.7823944091796875, 0, 0, 0, 0, 0, 0, 9362.0, 30146.0, 35388.0, 9362.0, 7.576860427856445, -0.1123017966747284, 0.011317092925310135, 0.19604399800300598, 0.9969562888145447, 0.04307139292359352, 0.03303242847323418, -0.04666733741760254, 0.10376167297363281, 1.50439453125, 1.412841796875, 0.0534515380859375, 1.49267578125, 0.0028456677682697773, 3.185865716659464e-05
17077, 19.353214263916016, 81.08008575439453, -16.993913650512695, 0.0, 0.0, -25.547014236450195, 0.0, 0.0, -0.7032394409179688, 0, 0, 0, 0, 0, 0, 9362.0, 30146.0, 35388.0, 9362.0, 7.576860427856445, 0.01057794876396656, 0.5053184032440186, -0.01026034727692604, 0.9988718032836914, 0.04257313162088394, 0.03179151564836502, -0.04666733741760254, 0.10376167297363281, 1.50439453125, 1.395263671875, 0.035675048828125, 1.49267578125, 0.002827536780387163, 3.1856849091127515e-05
17087, 19.39325714111328, 81.09483337402344, -17.034101486206055, 0.0, 0.0, -25.55415916442871, 0.0, 0.0, -0.7144927978515625, 0, 0, 0, 0, 0, 0, 9362.0, 30146.0, 35388.0, 9362.0, 7.576860427856445, -0.07524830847978592, -0.22210949659347534, 0.09255383163690567, 0.9984889626502991, 0.04441962391138077, 0.03219747170805931, -0.04666733741760254, 0.10376167297363281, 1.50439453125, 1.3798828125, 0.0243377685546875, 1.49267578125, 0.0028095226734876633, 3.185505192959681e-05
17097, 19.456501007080078, 81.11561584472656, -17.096446990966797, 0.0, 0.0, -25.560579299926758, 0.0, 0.0, -0.6420135498046875, 0, 0, 0, 0, 0, 0, 9362.0, 30146.0, 35388.0, 9362.0, 7.576860427856445, 0.061542410403490067, -0.29202204942703247, -0.06582138687372208, 0.9994953274726868, 0.04532827064394951, 0.03421039506793022, -0.04666733741760254, 0.10376167297363281, 1.50439453125, 1.36083984375, 0.016387939453125, 1.49267578125, 0.0027916240505874157, 3.185326568200253e-05
17107, 19.508705139160156, 81.1323013305664, -17.148784637451172, 0.0, 0.0, -25.5679931640625, 0.0, 0.0, -0.7413864135742188, 0, 0, 0, 0, 0, 0, 9362.0, 30146.0, 35388.0, 9362.0, 7.576860427856445, -0.02239893563091755, -0.4071146249771118, 0.08161820471286774, 0.9971676468849182, 0.04249820485711098, 0.029244132339954376, -0.04666733741760254, 0.10376167297363281, 1.50439453125, 1.4208984375, 0.063079833984375, 1.494140625, 0.002773840446025133, 3.185149034834467e-05
17117, 19.592578887939453, 81.15673065185547, -17.232723236083984, 0.0, 0.0, -25.574657440185547, 0.0, 0.0, -0.6664276123046875, 0, 0, 0, 0, 0, 0, 9362.0, 30146.0, 35388.0, 9362.0, 7.576860427856445, -0.2561364471912384, -0.3209896385669708, -0.0312252938747406, 0.9970465898513794, 0.04363212734460831, 0.030090393498539925, -0.04666733741760254, 0.10376167297363281, 1.50439453125, 1.437744140625, 0.086029052734375, 1.494140625, 0.0027561713941395283, 3.184972592862323e-05
17127, 19.623964309692383, 81.17037200927734, -17.263992309570312, 0.0, 0.0, -25.586116790771484, 0.0, 0.0, -1.14593505859375, 0, 0, 0, 0, 0, 0, 9362.0, 30146.0, 35388.0, 9362.0, 7.576860427856445, -0.1330588161945343, 0.04118869826197624, 0.21958452463150024, 0.9984133243560791, 0.04263775423169136, 0.0331040620803833, -0.04666733741760254, 0.10376167297363281, 1.50439453125, 1.382080078125, 0.0256195068359375, 1.494140625, 0.002738615497946739, 3.184797242283821e-05
17137, 19.698251724243164, 81.19270324707031, -17.336366653442383, 0.0, 0.0, -25.596424102783203, 0.0, 0.0, -1.030731201171875, 0, 0, 0, 0, 0, 0, 9362.0, 30146.0, 35388.0, 9362.0, 7.576860427856445, 0.1251634955406189, -0.31501489877700806, -0.16698890924453735, 0.9966833591461182, 0.044054824858903885, 0.03298090770840645, -0.04666733741760254, 0.10376167297363281, 1.50439453125, 1.411376953125, 0.05181884765625, 1.494140625, 0.002721172757446766, 3.1846229830989614e-05
17147, 19.737274169921875, 81.20872497558594, -17.3767032623291, 0.0, 0.0, -25.584915161132812, 0.0, 0.0, 1.1508941650390625, 0, 0, 0, 0, 0, 0, 9362.0, 30146.0, 35388.0, 9362.0, 7.576860427856445, -0.29849016666412354, -0.30455562472343445, 0.33498871326446533, 0.9971165657043457, 0.04379668086767197, 0.03321352228522301, -0.04666733741760254, 0.10376167297363281, 1.50439453125, 1.398193359375, 0.03826904296875, 1.49267578125, 0.0027038417756557465, 3.184449815307744e-05
17157, 19.794055938720703, 81.2297134399414, -17.433380126953125, 0.0, 0.0, -25.574552536010742, 0.0, 0.0, 1.0362625122070312, 0, 0, 0, 0, 0, 0, 9362.0, 30146.0, 35388.0, 9362.0, 7.576860427856445, -0.08589179068803787, 0.10970784723758698, 0.16066662967205048, 0.997231125831604, 0.04374309629201889, 0.03268144279718399, -0.05552509054541588, 0.05896186828613281, 1.500732421875, 1.4326171875, 0.0786895751953125, 1.49267578125, 0.0026866220869123936, 3.184278102708049e-05
17167, 19.848798751831055, 81.24308013916016, -17.487693786621094, 0.0, 0.0, -25.557838439941406, 0.0, 0.0, 1.6714096069335938, 0, 0, 0, 0, 0, 0, 9362.0, 30146.0, 35388.0, 9362.0, 7.576860427856445, -0.07286878675222397, 0.03356444835662842, -0.21785405278205872, 0.9993576407432556, 0.04327521100640297, 0.03172175958752632, -0.05552509054541588, 0.05896186828613281, 1.500732421875, 1.3271484375, 0.022308349609375, 1.49267578125, 0.00266951322555542, 3.1841074815019965e-05
17177, 19.93661117553711, 81.26335906982422, -17.575069427490234, 0.0, 0.0, -25.54278564453125, 0.0, 0.0, 1.505279541015625, 0, 0, 0, 0, 0, 0, 9362.0, 30146.0, 35388.0, 9362.0, 7.576860427856445, -0.24214009940624237, -0.2693830728530884, -0.2011123150587082, 0.9979290962219238, 0.04267561808228493, 0.031935423612594604, -0.05552509054541588, 0.05896186828613281, 1.500732421875, 1.435546875, 0.0829315185546875, 1.49267578125, 0.002652514260262251, 3.183937587891705e-05
17187, 19.991392135620117, 81.27735137939453, -17.63043785095215, 0.0, 0.0, -25.53388214111328, 0.0, 0.0, 0.890350341796875, 0, 0, 0, 0, 0, 0, 9362.0, 30146.0, 35388.0, 9362.0, 7.576860427856445, -0.15783946216106415, -0.017279550433158875, -0.16837923228740692, 0.998496949672699, 0.0458698570728302, 0.03127314895391464, -0.05552509054541588, 0.05896186828613281, 1.500732421875, 1.43701171875, 0.085052490234375, 1.4912109375, 0.002635624259710312, 3.183768785675056e-05
17197, 20.071413040161133, 81.29847717285156, -17.709131240844727, 0.0, 0.0, -25.525859832763672, 0.0, 0.0, 0.8022308349609375, 0, 0, 0, 0, 0, 0, 9362.0, 30146.0, 35388.0, 9362.0, 7.576860427856445, 0.19660186767578125, -0.17827485501766205, -0.1756378710269928, 0.9979073405265808, 0.04575544223189354, 0.029669130221009254, -0.05552509054541588, 0.05896186828613281, 1.500732421875, 1.37548828125, 0.021820068359375, 1.4912109375, 0.0026188427582383156, 3.1836010748520494e-05
17207, 20.123483657836914, 81.3110122680664, -17.760286331176758, 0.0, 0.0, -25.512346267700195, 0.0, 0.0, 1.3513565063476562, 0, 0, 0, 0, 0, 0, 9362.0, 30146.0, 35388.0, 9362.0, 7.576860427856445, 0.1779342144727707, 0.0666881576180458, -0.16926729679107666, 0.9979073405265808, 0.04575544223189354, 0.029669130221009254, -0.05552509054541588, 0.05896186828613281, 1.500732421875, 1.400390625, 0.04034423828125, 1.491943359375, 0.0026021688245236874, 3.1834344554226846e-05
17217, 20.192228317260742, 81.3283462524414, -17.82794189453125, 0.0, 0.0, -25.50017547607422, 0.0, 0.0, 1.2170791625976562, 0, 0, 0, 0, 0, 0, 9362.0, 30146.0, 35388.0, 9362.0, 7.576860427856445, -0.02844894304871559, 0.07503263652324677, -0.31521886587142944, 0.9979073405265808, 0.04575544223189354, 0.029669130221009254, -0.05552509054541588, 0.05896186828613281, 1.500732421875, 1.39599609375, 0.0362701416015625, 1.491943359375, 0.0026021688245236874, 3.1834344554226846e-05
17227, 20.227519989013672, 81.34127044677734, -17.862625122070312, 0.0, 0.0, -25.485937118530273, 0.0, 0.0, 1.4238357543945312, 0, 0, 0, 0, 0, 0, 9362.0, 30146.0, 35388.0, 9362.0, 7.576860427856445, -0.02844894304871559, 0.07503263652324677, -0.31521886587142944, 0.9979073405265808, 0.04575544223189354, 0.029669130221009254, -0.05552509054541588, 0.05896186828613281, 1.500732421875, 1.42529296875, 0.0688018798828125, 1.491943359375, 0.0025691413320600986, 3.183104490744881e-05
17237, 20.31686019897461, 81.3631820678711, -17.949926376342773, 0.0, 0.0, -25.473115921020508, 0.0, 0.0, 1.2821197509765625, 0, 0, 0, 0, 0, 0, 9362.0, 30146.0, 35388.0, 9362.0, 7.576860427856445, 0.060748979449272156, -0.3092598021030426, -0.1627141535282135, 0.9979073405265808, 0.04575544223189354, 0.029669130221009254, -0.05552509054541588, 0.05896186828613281, 1.500732421875, 1.412109375, 0.0526123046875, 1.491943359375, 0.0025527863763272762, 3.182941145496443e-05
17247, 20.344480514526367, 81.37554168701172, -17.976978302001953, 0.0, 0.0, -25.45965576171875, 0.0, 0.0, 1.3460159301757812, 0, 0, 0, 0, 0, 0, 9362.0, 30146.0, 35388.0, 9362.0, 7.576860427856445, -0.07884826511144638, 0.29382601380348206, 0.15146557986736298, 0.9974304437637329, 0.04375193640589714, 0.032635949552059174, -0.05552509054541588, 0.05896186828613281, 1.500732421875, 1.322021484375, 0.0257415771484375, 1.493408203125, 0.0025527863763272762, 3.182941145496443e-05
17257, 20.425430297851562, 81.39261627197266, -18.056760787963867, 0.0, 0.0, -25.45965576171875, 0.0, 0.0, 1.3460159301757812, 0, 0, 0, 0, 0, 0, 9362.0, 30146.0, 35388.0, 9362.0, 7.576860427856445, -0.13012728095054626, 0.08190178871154785, -0.24399572610855103, 0.9974304437637329, 0.04375193640589714, 0.032635949552059174, -0.05552509054541588, 0.05896186828613281, 1.500732421875, 1.322021484375, 0.0257415771484375, 1.493408203125, 0.0025527863763272762, 3.182941145496443e-05
17267, 20.475811004638672, 81.40540313720703, -18.10610008239746, 0.0, 0.0, -25.45965576171875, 0.0, 0.0, 1.3460159301757812, 0, 0, 0, 0, 0, 0, 9362.0, 30146.0, 35388.0, 9362.0, 7.576860427856445, -0.13012728095054626, 0.08190178871154785, -0.24399572610855103, 0.9974304437637329, 0.04375193640589714, 0.032635949552059174, -0.05552509054541588, 0.05896186828613281, 1.500732421875, 1.265625, 0.1174468994140625, 1.49560546875, 0.0025043487548828125, 3.1824572943151e-05
17277, 20.540369033813477, 81.42386627197266, -18.171110153198242, 0.0, 0.0, -25.445499420166016, 0.0, 0.0, 0.096893310546875, 0, 0, 0, 0, 0, 0, 9362.0, 30146.0, 35388.0, 9362.0, 7.576860427856445, -0.08319423347711563, -0.24153991043567657, -0.0725216269493103, 0.9987357258796692, 0.04228108376264572, 0.031646765768527985, -0.05552509054541588, 0.05896186828613281, 1.500732421875, 1.400390625, 0.04034423828125, 1.49560546875, 0.002488409634679556, 3.182297950843349e-05
17287, 20.567684173583984, 81.43559265136719, -18.198278427124023, 0.0, 0.0, -25.4487247467041, 0.0, 0.0, -0.32253265380859375, 0, 0, 0, 0, 0, 0, 9362.0, 30146.0, 35388.0, 9362.0, 7.576860427856445, -0.049539219588041306, 0.21664956212043762, 0.25540462136268616, 0.9985660314559937, 0.0429748073220253, 0.0355951152741909, -0.05552509054541588, 0.05896186828613281, 1.500732421875, 1.380615234375, 0.024749755859375, 1.491943359375, 0.0024725724942982197, 3.1821396987652406e-05
17297, 20.64959144592285, 81.45523071289062, -18.27892303466797, 0.0, 0.0, -25.451618194580078, 0.0, 0.0, -0.28934478759765625, 0, 0, 0, 0, 0, 0, 9362.0, 30146.0, 35388.0, 9362.0, 7.576860427856445, 0.09927605092525482, -0.2394486516714096, -0.1765819936990738, 0.9982390403747559, 0.045118942856788635, 0.03315999358892441, -0.05552509054541588, 0.05896186828613281, 1.500732421875, 1.3505859375, 0.0153045654296875, 1.491943359375, 0.002456837333738804, 3.181982538080774e-05
17307, 20.718400955200195, 81.46778869628906, -18.34874153137207, 0.0, 0.0, -25.4473819732666, 0.0, 0.0, 0.42362213134765625, 0, 0, 0, 0, 0, 0, 9362.0, 30146.0, 35388.0, 9362.0, 7.576860427856445, -0.1919485330581665, -0.12514598667621613, -0.3720373809337616, 0.9985963106155396, 0.044344462454319, 0.031692784279584885, -0.05552509054541588, 0.05896186828613281, 1.500732421875, 1.3505859375, 0.0153045654296875, 1.491943359375, 0.0024412027560174465, 3.18182646878995e-05
17317, 20.79447364807129, 81.48725891113281, -18.423437118530273, 0.0, 0.0, -25.443561553955078, 0.0, 0.0, 0.38204193115234375, 0, 0, 0, 0, 0, 0, 9362.0, 30146.0, 35388.0, 9362.0, 7.576860427856445, 0.2037568837404251, 0.10047528147697449, -0.13885416090488434, 0.9972526431083679, 0.04339597001671791, 0.030423646792769432, -0.05552509054541588, 0.05896186828613281, 1.500732421875, 1.40185546875, 0.0417938232421875, 1.491943359375, 0.0024256687611341476, 3.181671127094887e-05
17327, 20.852785110473633, 81.50078582763672, -18.480676651000977, 0.0, 0.0, -25.443561553955078, 0.0, 0.0, 0.38204193115234375, 0, 0, 0, 0, 0, 0, 9362.0, 30146.0, 35388.0, 9362.0, 7.576860427856445, 0.25015154480934143, -0.04211317375302315, -0.1795920431613922, 0.9977712631225586, 0.04348418116569519, 0.030343808233737946, -0.05552509054541588, 0.05896186828613281, 1.500732421875, 1.40771484375, 0.0478363037109375, 1.494140625, 0.0024256687611341476, 3.181671127094887e-05
17347, 20.94659996032715, 81.52993774414062, -18.572660446166992, 0.0, 0.0, -25.43273162841797, 0.0, 0.0, 0.324249267578125, 0, 0, 0, 0, 0, 0, 9362.0, 30146.0, 35388.0, 9362.0, 7.576860427856445, -0.07518630474805832, 0.0738019347190857, 0.02377059869468212, 0.9991226196289062, 0.04484068229794502, 0.03396797552704811, -0.05552509054541588, 0.05896186828613281, 1.500732421875, 1.33740234375, 0.0175323486328125, 1.494140625, 0.0023796609602868557, 3.181211286573671e-05
17357, 21.023120880126953, 81.5488510131836, -18.649694442749023, 0.0, 0.0, -25.429805755615234, 0.0, 0.0, 0.2925872802734375, 0, 0, 0, 0, 0, 0, 9362.0, 30146.0, 35388.0, 9362.0, 7.576860427856445, -0.07518630474805832, 0.0738019347190857, 0.02377059869468212, 0.9980989694595337, 0.042655956000089645, 0.031328167766332626, -0.05552509054541588, 0.05896186828613281, 1.500732421875, 1.346923828125, 0.015472412109375, 1.494140625, 0.0023645213805139065, 3.181059946655296e-05
17367, 21.06340217590332, 81.55956268310547, -18.689104080200195, 0.0, 0.0, -25.429805755615234, 0.0, 0.0, 0.2925872802734375, 0, 0, 0, 0, 0, 0, 9362.0, 30146.0, 35388.0, 9362.0, 7.576860427856445, 0.14234194159507751, 0.39071911573410034, -0.04119173064827919, 0.9978927373886108, 0.042894214391708374, 0.0324225127696991, -0.05552509054541588, 0.05896186828613281, 1.500732421875, 1.313232421875, 0.0333251953125, 1.494873046875, 0.0023645213805139065, 3.181059946655296e-05
17377, 21.146514892578125, 81.58209228515625, -18.773334503173828, 0.0, 0.0, -25.429805755615234, 0.0, 0.0, 0.2925872802734375, 0, 0, 0, 0, 0, 0, 9362.0, 30146.0, 35388.0, 9362.0, 7.576860427856445, -0.1613200455904007, -0.5284019112586975, 0.1847456693649292, 0.9966035485267639, 0.04516815021634102, 0.03083200752735138, -0.05552509054541588, 0.05896186828613281, 1.500732421875, 1.4033203125, 0.043182373046875, 1.494873046875, 0.0023645213805139065, 3.181059946655296e-05
17387, 21.200782775878906, 81.59481811523438, -18.826169967651367, 0.0, 0.0, -25.429805755615234, 0.0, 0.0, 0.2925872802734375, 0, 0, 0, 0, 0, 0, 9362.0, 30146.0, 35388.0, 9362.0, 7.576860427856445, 0.11124160140752792, -0.17026200890541077, -0.0019808667711913586, 0.9979129433631897, 0.04560466110706329, 0.031960926949977875, -0.05552509054541588, 0.05896186828613281, 1.500732421875, 1.35791015625, 0.015869140625, 1.49560546875, 0.0023645213805139065, 3.181059946655296e-05
17397, 21.270248413085938, 81.6124038696289, -18.895082473754883, 0.0, 0.0, -25.429805755615234, 0.0, 0.0, 0.2925872802734375, 0, 0, 0, 0, 0, 0, 9362.0, 30146.0, 35388.0, 9362.0, 7.576860427856445, -0.1664789617061615, -0.06118802726268768, -0.13739916682243347, 1.000543475151062, 0.04594678059220314, 0.03165018931031227, -0.05552509054541588, 0.05896186828613281, 1.500732421875, 1.294921875, 0.0565948486328125, 1.49560546875, 0.0023645213805139065, 3.181059946655296e-05
17407, 21.306371688842773, 81.62274169921875, -18.931867599487305, 0.0, 0.0, -25.429805755615234, 0.0, 0.0, 0.2925872802734375, 0, 0, 0, 0, 0, 0, 9362.0, 30146.0, 35388.0, 9362.0, 7.576860427856445, -0.1196570098400116, 0.3810364007949829, 0.15783828496932983, 1.0001591444015503, 0.04497365280985832, 0.032086316496133804, -0.05552509054541588, 0.05896186828613281, 1.500732421875, 1.36083984375, 0.016387939453125, 1.4912109375, 0.0023645213805139065, 3.181059946655296e-05
17417, 21.400466918945312, 81.64273071289062, -19.025915145874023, 0.0, 0.0, -25.429805755615234, 0.0, 0.0, 0.2925872802734375, 0, 0, 0, 0, 0, 0, 9362.0, 30146.0, 35388.0, 9362.0, 7.576860427856445, 0.10217233002185822, -0.2686800956726074, -0.17290394008159637, 0.998371422290802, 0.04294385761022568, 0.03068651258945465, -0.05552509054541588, 0.05896186828613281, 1.500732421875, 1.34912109375, 0.015380859375, 1.4912109375, 0.0023645213805139065, 3.181059946655296e-05
17427, 21.462238311767578, 81.65579986572266, -19.08777618408203, 0.0, 0.0, -25.441543579101562, 0.0, 0.0, -0.45318603515625, 0, 0, 0, 0, 0, 0, 9362.0, 30146.0, 35388.0, 9362.0, 7.576860427856445, -0.04923662170767784, -0.15648320317268372, -0.4047684073448181, 0.998371422290802, 0.04294385761022568, 0.03068651258945465, -0.05552509054541588, 0.05896186828613281, 1.500732421875, 1.42529296875, 0.0688018798828125, 1.4912109375, 0.0022612251341342926, 3.1800271244719625e-05
17437, 21.542654037475586, 81.67545318603516, -19.167409896850586, 0.0, 0.0, -25.445615768432617, 0.0, 0.0, -0.40721893310546875, 0, 0, 0, 0, 0, 0, 9362.0, 30146.0, 35388.0, 9362.0, 7.576860427856445, 0.01724986545741558, -0.12624357640743256, 0.03658703714609146, 0.998371422290802, 0.04294385761022568, 0.03068651258945465, -0.05552509054541588, 0.05896186828613281, 1.500732421875, 1.399658203125, 0.0396575927734375, 1.4912109375, 0.0022468441165983677, 3.1798830605112016e-05
17447, 21.58072280883789, 81.68621063232422, -19.204761505126953, 0.0, 0.0, -25.44025230407715, 0.0, 0.0, 0.536346435546875, 0, 0, 0, 0, 0, 0, 9362.0, 30146.0, 35388.0, 9362.0, 7.576860427856445, 0.01724986545741558, -0.12624357640743256, 0.03658703714609146, 0.9975040555000305, 0.04446551948785782, 0.03161652013659477, -0.05552509054541588, 0.05896186828613281, 1.500732421875, 1.3359375, 0.01806640625, 1.4912109375, 0.0022325552999973297, 3.179740087944083e-05
17457, 21.641895294189453, 81.70296478271484, -19.26544189453125, 0.0, 0.0, -25.44025230407715, 0.0, 0.0, 0.536346435546875, 0, 0, 0, 0, 0, 0, 9362.0, 30146.0, 35388.0, 9362.0, 7.576860427856445, 0.01724986545741558, -0.12624357640743256, 0.03658703714609146, 0.9979463815689087, 0.04473879560828209, 0.03243480622768402, -0.05552509054541588, 0.05896186828613281, 1.500732421875, 1.304443359375, 0.043182373046875, 1.4912109375, 0.0022325552999973297, 3.179740087944083e-05
17467, 21.679738998413086, 81.71379852294922, -19.302814483642578, 0.0, 0.0, -25.44025230407715, 0.0, 0.0, 0.536346435546875, 0, 0, 0, 0, 0, 0, 9362.0, 30146.0, 35388.0, 9362.0, 7.576860427856445, 0.048493023961782455, 0.1484919935464859, 0.07469566911458969, 0.9979463815689087, 0.04473879560828209, 0.03243480622768402, -0.05552509054541588, 0.05896186828613281, 1.500732421875, 1.3857421875, 0.0280914306640625, 1.494140625, 0.0022325552999973297, 3.179740087944083e-05
17477, 21.76969337463379, 81.73290252685547, -19.391462326049805, 0.0, 0.0, -25.409997940063477, 0.0, 0.0, 1.2044906616210938, 0, 0, 0, 0, 0, 0, 9362.0, 30146.0, 35388.0, 9362.0, 7.576860427856445, 0.02974172681570053, -0.39807841181755066, -0.12758255004882812, 0.9979463815689087, 0.04473879560828209, 0.03243480622768402, -0.05552509054541588, 0.05896186828613281, 1.500732421875, 1.371826171875, 0.02008056640625, 1.494140625, 0.0021902360022068024, 3.179316991008818e-05
17487, 21.82659339904785, 81.74466705322266, -19.447452545166016, 0.0, 0.0, -25.409997940063477, 0.0, 0.0, 1.2044906616210938, 0, 0, 0, 0, 0, 0, 9362.0, 30146.0, 35388.0, 9362.0, 7.576860427856445, 0.045089878141880035, 0.020800471305847168, -0.0035746488720178604, 0.9954315423965454, 0.04459060728549957, 0.03096441552042961, -0.05552509054541588, 0.05896186828613281, 1.500732421875, 1.371826171875, 0.02008056640625, 1.49267578125, 0.0021902360022068024, 3.179316991008818e-05
17507, 21.94749641418457, 81.77277374267578, -19.56646156311035, 0.0, 0.0, -25.39847755432129, 0.0, 0.0, 1.1690139770507812, 0, 0, 0, 0, 0, 0, 9362.0, 30146.0, 35388.0, 9362.0, 7.576860427856445, -0.050936099141836166, 0.22727656364440918, 0.20509016513824463, 0.9991060495376587, 0.043444499373435974, 0.03232088312506676, -0.05552509054541588, 0.05896186828613281, 1.500732421875, 1.36083984375, 0.016387939453125, 1.49267578125, 0.0021487241610884666, 3.178901897626929e-05
17527, 22.08966827392578, 81.8018798828125, -19.708024978637695, 0.0, 0.0, -25.3620662689209, 0.0, 0.0, 2.5882720947265625, 0, 0, 0, 0, 0, 0, 9362.0, 30146.0, 35388.0, 9362.0, 7.576860427856445, 0.09312412142753601, -0.2745502293109894, -0.26645806431770325, 0.9977838397026062, 0.04201556742191315, 0.031284358352422714, -0.05552509054541588, 0.05896186828613281, 1.500732421875, 1.40478515625, 0.0446624755859375, 1.49267578125, 0.002121490426361561, 3.178629049216397e-05
17537, 22.15890121459961, 81.81851196289062, -19.777231216430664, 0.0, 0.0, -25.338764190673828, 0.0, 0.0, 2.3302078247070312, 0, 0, 0, 0, 0, 0, 9362.0, 30146.0, 35388.0, 9362.0, 7.576860427856445, 0.05409001559019089, -0.1343754231929779, 0.11969709396362305, 0.9977838397026062, 0.04201556742191315, 0.031284358352422714, -0.05552509054541588, 0.05896186828613281, 1.500732421875, 1.376220703125, 0.0222930908203125, 1.49267578125, 0.002108003944158554, 3.178494080202654e-05
17547, 22.204017639160156, 81.82852172851562, -19.82168197631836, 0.0, 0.0, -25.338764190673828, 0.0, 0.0, 2.3302078247070312, 0, 0, 0, 0, 0, 0, 9362.0, 30146.0, 35388.0, 9362.0, 7.576860427856445, -0.05821270868182182, -0.006187986116856337, 0.023894479498267174, 0.9984087347984314, 0.044566262513399124, 0.03521353751420975, -0.05552509054541588, 0.05896186828613281, 1.500732421875, 1.30078125, 0.048004150390625, 1.49267578125, 0.002108003944158554, 3.178494080202654e-05
17557, 22.27943229675293, 81.84552764892578, -19.897911071777344, 0.0, 0.0, -25.338764190673828, 0.0, 0.0, 2.3302078247070312, 0, 0, 0, 0, 0, 0, 9362.0, 30146.0, 35388.0, 9362.0, 7.576860427856445, -0.05821270868182182, -0.006187986116856337, 0.023894479498267174, 0.9980410933494568, 0.04459958150982857, 0.0343523807823658, -0.05552509054541588, 0.05896186828613281, 1.500732421875, 1.341796875, 0.0162811279296875, 1.49267578125, 0.002108003944158554, 3.178494080202654e-05
17577, 22.41200065612793, 81.87420654296875, -20.030040740966797, 0.0, 0.0, -25.338764190673828, 0.0, 0.0, 2.3302078247070312, 0, 0, 0, 0, 0, 0, 9362.0, 30146.0, 35388.0, 9362.0, 7.576860427856445, 0.05571456626057625, 0.2824177145957947, -0.06945238262414932, 0.9989401698112488, 0.04629134014248848, 0.03148890659213066, -0.05552509054541588, 0.05896186828613281, 1.500732421875, 1.29345703125, 0.05889892578125, 1.49267578125, 0.002068060915917158, 3.1780942663317546e-05
17587, 22.463720321655273, 81.88557434082031, -20.08128547668457, 0.0, 0.0, -25.338764190673828, 0.0, 0.0, 2.3302078247070312, 0, 0, 0, 0, 0, 0, 9362.0, 30146.0, 35388.0, 9362.0, 7.576860427856445, 0.02837948687374592, -0.16440853476524353, 0.025008151307702065, 0.9989401698112488, 0.04629134014248848, 0.03148890659213066, -0.05552509054541588, 0.05896186828613281, 1.500732421875, 1.436279296875, 0.0838775634765625, 1.49267578125, 0.002068060915917158, 3.1780942663317546e-05
17597, 22.549911499023438, 81.90242767333984, -20.16598129272461, 0.0, 0.0, -25.21681022644043, 0.0, 0.0, 1.8297195434570312, 0, 0, 0, 0, 0, 0, 9362.0, 30146.0, 35388.0, 9362.0, 7.576860427856445, 0.07523532956838608, -0.004059667699038982, -0.08848699927330017, 0.9989401698112488, 0.04629134014248848, 0.03148890659213066, -0.05552509054541588, 0.05896186828613281, 1.500732421875, 1.4091796875, 0.04937744140625, 1.49267578125, 0.002068060915917158, 3.1780942663317546e-05
17607, 22.595706939697266, 81.9114990234375, -20.211681365966797, 0.0, 0.0, -25.198698043823242, 0.0, 0.0, 1.81121826171875, 0, 0, 0, 0, 0, 0, 9362.0, 30146.0, 35388.0, 9362.0, 7.576860427856445, -0.12831169366836548, 0.21748150885105133, -0.11617252230644226, 0.9989401698112488, 0.04629134014248848, 0.03148890659213066, -0.05552509054541588, 0.05896186828613281, 1.500732421875, 1.4150390625, 0.05596923828125, 1.493408203125, 0.002068060915917158, 3.1780942663317546e-05
17617, 22.659273147583008, 81.92634582519531, -20.275747299194336, 0.0, 0.0, -25.182388305664062, 0.0, 0.0, 1.6309738159179688, 0, 0, 0, 0, 0, 0, 9362.0, 30146.0, 35388.0, 9362.0, 7.576860427856445, -0.12831169366836548, 0.21748150885105133, -0.11617252230644226, 0.9990389347076416, 0.04314957559108734, 0.033580802381038666, -0.05552509054541588, 0.05896186828613281, 1.500732421875, 1.39892578125, 0.0390167236328125, 1.493408203125, 0.002003174275159836, 3.177444887114689e-05
17627, 22.72268295288086, 81.93829345703125, -20.33636474609375, 0.0, 0.0, -25.164424896240234, 0.0, 0.0, 1.7963409423828125, 0, 0, 0, 0, 0, 0, 9362.0, 30146.0, 35388.0, 9362.0, 7.576860427856445, 0.35258787870407104, -0.19906648993492126, -0.1308186948299408, 0.9990389347076416, 0.04314957559108734, 0.033580802381038666, -0.05552509054541588, 0.05896186828613281, 1.500732421875, 1.42529296875, 0.0688018798828125, 1.493408203125, 0.0019904449582099915, 3.17731719405856e-05
17637, 22.789487838745117, 81.95479583740234, -20.402870178222656, 0.0, 0.0, -25.148250579833984, 0.0, 0.0, 1.617431640625, 0, 0, 0, 0, 0, 0, 9362.0, 30146.0, 35388.0, 9362.0, 7.576860427856445, -0.10689133405685425, -0.028486676514148712, -0.07946519553661346, 0.9990389347076416, 0.04314957559108734, 0.033580802381038666, -0.05552509054541588, 0.05896186828613281, 1.500732421875, 1.3916015625, 0.0325927734375, 1.493408203125, 0.001977797131985426, 3.177190592396073e-05
17647, 22.813846588134766, 81.96407318115234, -20.426546096801758, 0.0, 0.0, -25.144350051879883, 0.0, 0.0, 0.39005279541015625, 0, 0, 0, 0, 0, 0, 9362.0, 30146.0, 35388.0, 9362.0, 7.576860427856445, -0.10689133405685425, -0.028486676514148712, -0.07946519553661346, 1.0005067586898804, 0.04345105588436127, 0.03162018209695816, -0.05552509054541588, 0.05896186828613281, 1.500732421875, 1.332275390625, 0.019561767578125, 1.493408203125, 0.0019652298651635647, 3.177064718329348e-05
17657, 22.887842178344727, 81.9776611328125, -20.499427795410156, 0.0, 0.0, -25.144350051879883, 0.0, 0.0, 0.39005279541015625, 0, 0, 0, 0, 0, 0, 9362.0, 30146.0, 35388.0, 9362.0, 7.576860427856445, -0.10689133405685425, -0.028486676514148712, -0.07946519553661346, 1.0005067586898804, 0.04345105588436127, 0.03162018209695816, -0.05677347630262375, -0.07543754577636719, 1.48974609375, 1.332275390625, 0.019561767578125, 1.493408203125, 0.0019652298651635647, 3.177064718329348e-05
17667, 22.934154510498047, 81.98706817626953, -20.546106338500977, 0.0, 0.0, -25.15133285522461, 0.0, 0.0, -1.0499954223632812, 0, 0, 0, 0, 0, 0, 9362.0, 30146.0, 35388.0, 9362.0, 7.576860427856445, -0.10689133405685425, -0.028486676514148712, -0.07946519553661346, 0.9991252422332764, 0.04398547485470772, 0.03219401091337204, -0.05677347630262375, -0.07543754577636719, 1.48974609375, 1.332275390625, 0.019561767578125, 1.493408203125, 0.0019403359619900584, 3.176815516781062e-05
17687, 23.054595947265625, 82.01239013671875, -20.66626739501953, 0.0, 0.0, -25.172826766967773, 0.0, 0.0, -1.2050628662109375, 0, 0, 0, 0, 0, 0, 9362.0, 30146.0, 35388.0, 9362.0, 7.576860427856445, -0.2232886254787445, 0.2531694173812866, 0.14424961805343628, 0.9974223375320435, 0.04527141898870468, 0.032049573957920074, -0.05677347630262375, -0.07543754577636719, 1.48974609375, 1.400390625, 0.04034423828125, 1.493408203125, 0.0019157592905685306, 3.1765695894137025e-05
17697, 23.108369827270508, 82.02787017822266, -20.720413208007812, 0.0, 0.0, -25.183664321899414, 0.0, 0.0, -1.0837554931640625, 0, 0, 0, 0, 0, 0, 9362.0, 30146.0, 35388.0, 9362.0, 7.576860427856445, -0.09661667048931122, 0.06520701944828033, 0.18103818595409393, 0.9974223375320435, 0.04527141898870468, 0.032049573957920074, -0.05677347630262375, -0.07543754577636719, 1.48974609375, 1.447265625, 0.1004791259765625, 1.493408203125, 0.0019035887671634555, 3.176447717123665e-05
17707, 23.178977966308594, 82.03941345214844, -20.790218353271484, 0.0, 0.0, -25.183664321899414, 0.0, 0.0, -1.0837554931640625, 0, 0, 0, 0, 0, 0, 9362.0, 30146.0, 35388.0, 9362.0, 7.576860427856445, 0.1269705891609192, -0.3427548110485077, -0.18198105692863464, 0.9974223375320435, 0.04527141898870468, 0.032049573957920074, -0.05677347630262375, -0.07543754577636719, 1.48974609375, 1.4267578125, 0.070709228515625, 1.49267578125, 0.0018914960091933608, 3.176326572429389e-05
17717, 23.253049850463867, 82.0535888671875, -20.86381721496582, 0.0, 0.0, -25.183664321899414, 0.0, 0.0, -1.0837554931640625, 0, 0, 0, 0, 0, 0, 9362.0, 30146.0, 35388.0, 9362.0, 7.576860427856445, 0.07412312924861908, 0.2782433032989502, -0.14252039790153503, 0.9974223375320435, 0.04527141898870468, 0.032049573957920074, -0.05677347630262375, -0.07543754577636719, 1.48974609375, 1.38134765625, 0.025177001953125, 1.49267578125, 0.0018794805509969592, 3.176206155330874e-05
17727, 23.296850204467773, 82.06429290771484, -20.90748405456543, 0.0, 0.0, -25.183664321899414, 0.0, 0.0, -1.0837554931640625, 0, 0, 0, 0, 0, 0, 9362.0, 30146.0, 35388.0, 9362.0, 7.576860427856445, 0.0580042228102684, -0.09442287683486938, 0.12759970128536224, 0.9974223375320435, 0.04527141898870468, 0.032049573957920074, -0.05677347630262375, -0.07543754577636719, 1.48974609375, 1.4033203125, 0.043182373046875, 1.489013671875, 0.0018675416940823197, 3.176086465828121e-05
17737, 23.3431453704834, 82.07796478271484, -20.952733993530273, 0.0, 0.0, -25.224227905273438, 0.0, 0.0, -0.6010055541992188, 0, 0, 0, 0, 0, 0, 9362.0, 30146.0, 35388.0, 9362.0, 7.576860427856445, 0.036518242210149765, 0.2719014585018158, 0.10824473202228546, 0.999146580696106, 0.04378218576312065, 0.03224991261959076, -0.05677347630262375, -0.07543754577636719, 1.48974609375, 1.382080078125, 0.0256195068359375, 1.489013671875, 0.0018675416940823197, 3.176086465828121e-05
17747, 23.37969207763672, 82.08901977539062, -20.989089965820312, 0.0, 0.0, -25.224227905273438, 0.0, 0.0, -0.6010055541992188, 0, 0, 0, 0, 0, 0, 9362.0, 30146.0, 35388.0, 9362.0, 7.576860427856445, -0.13434070348739624, 0.11725746095180511, 0.33141934871673584, 0.9982749223709106, 0.04352862387895584, 0.02979642152786255, -0.05677347630262375, -0.07543754577636719, 1.48974609375, 1.382080078125, 0.0256195068359375, 1.49560546875, 0.0018675416940823197, 3.176086465828121e-05
17757, 23.45517921447754, 82.10493469238281, -21.06319808959961, 0.0, 0.0, -25.224624633789062, 0.0, 0.0, -0.01850128173828125, 0, 0, 0, 0, 0, 0, 9362.0, 30146.0, 35388.0, 9362.0, 7.576860427856445, 0.26968055963516235, 0.08519760519266129, -0.19391898810863495, 0.9982749223709106, 0.04352862387895584, 0.02979642152786255, -0.05256124958395958, -0.14711761474609375, 1.48388671875, 1.382080078125, 0.0256195068359375, 1.49560546875, 0.0018321810057386756, 3.175731762894429e-05
17767, 23.51265525817871, 82.1139144897461, -21.11903953552246, 0.0, 0.0, -25.229162216186523, 0.0, 0.0, -0.45375823974609375, 0, 0, 0, 0, 0, 0, 9362.0, 30146.0, 35388.0, 9362.0, 7.576860427856445, 0.26968055963516235, 0.08519760519266129, -0.19391898810863495, 0.9966734647750854, 0.045086201280355453, 0.03160618245601654, -0.05256124958395958, -0.14711761474609375, 1.48388671875, 1.36083984375, 0.016387939453125, 1.49560546875, 0.0018205443629994988, 3.175615347572602e-05
17777, 23.615018844604492, 82.13048553466797, -21.220949172973633, 0.0, 0.0, -25.229162216186523, 0.0, 0.0, -0.45375823974609375, 0, 0, 0, 0, 0, 0, 9362.0, 30146.0, 35388.0, 9362.0, 7.576860427856445, -0.10981502383947372, -0.40263211727142334, 0.011507201008498669, 0.9966734647750854, 0.045086201280355453, 0.03160618245601654, -0.05256124958395958, -0.14711761474609375, 1.48388671875, 1.43408203125, 0.080810546875, 1.49560546875, 0.0018205443629994988, 3.175615347572602e-05
17787, 23.675594329833984, 82.14136505126953, -21.28083610534668, 0.0, 0.0, -25.241010665893555, 0.0, 0.0, -0.7770538330078125, 0, 0, 0, 0, 0, 0, 9362.0, 30146.0, 35388.0, 9362.0, 7.576860427856445, 0.07100860029459, -0.23387488722801208, 0.011417155154049397, 0.9966734647750854, 0.045086201280355453, 0.03160618245601654, -0.05256124958395958, -0.14711761474609375, 1.48388671875, 1.376220703125, 0.0222930908203125, 1.49560546875, 0.0017974936636164784, 3.175384699716233e-05
17797, 23.756803512573242, 82.1575698852539, -21.361082077026367, 0.0, 0.0, -25.241010665893555, 0.0, 0.0, -0.7770538330078125, 0, 0, 0, 0, 0, 0, 9362.0, 30146.0, 35388.0, 9362.0, 7.576860427856445, 0.07100860029459, -0.23387488722801208, 0.011417155154049397, 0.9986401200294495, 0.04377637431025505, 0.03170158714056015, -0.05256124958395958, -0.14711761474609375, 1.48388671875, 1.355712890625, 0.0155029296875, 1.49560546875, 0.0017860786756500602, 3.17527046718169e-05
17807, 23.803722381591797, 82.16778564453125, -21.40854263305664, 0.0, 0.0, -25.241010665893555, 0.0, 0.0, -0.7770538330078125, 0, 0, 0, 0, 0, 0, 9362.0, 30146.0, 35388.0, 9362.0, 7.576860427856445, -0.16837824881076813, -0.062391433864831924, 0.1718444675207138, 0.9974093437194824, 0.045218147337436676, 0.03207191079854965, -0.05256124958395958, -0.14711761474609375, 1.48388671875, 1.3828125, 0.0261077880859375, 1.494140625, 0.0017860786756500602, 3.17527046718169e-05
17817, 23.876272201538086, 82.18437194824219, -21.480703353881836, 0.0, 0.0, -25.241010665893555, 0.0, 0.0, -0.7770538330078125, 0, 0, 0, 0, 0, 0, 9362.0, 30146.0, 35388.0, 9362.0, 7.576860427856445, -0.0728934109210968, -0.3494168519973755, 0.14381644129753113, 0.9968229532241821, 0.0434069000184536, 0.032554108649492264, -0.05256124958395958, -0.14711761474609375, 1.48388671875, 1.368896484375, 0.01885986328125, 1.494140625, 0.0017860786756500602, 3.17527046718169e-05
17827, 23.91240119934082, 82.19434356689453, -21.516050338745117, 0.0, 0.0, -25.247711181640625, 0.0, 0.0, 1.6382217407226562, 0, 0, 0, 0, 0, 0, 9362.0, 30146.0, 35388.0, 9362.0, 7.576860427856445, 0.01646593026816845, -0.003565336810424924, 0.24874119460582733, 0.9968229532241821, 0.0434069000184536, 0.032554108649492264, -0.05256124958395958, -0.14711761474609375, 1.48388671875, 1.41796875, 0.05950927734375, 1.494140625, 0.0017522691050544381, 3.17493177135475e-05
17837, 23.995506286621094, 82.2085952758789, -21.598115921020508, 0.0, 0.0, -25.23296356201172, 0.0, 0.0, 1.474761962890625, 0, 0, 0, 0, 0, 0, 9362.0, 30146.0, 35388.0, 9362.0, 7.576860427856445, -0.00704717542976141, -0.11049266159534454, -0.2141663134098053, 0.9968229532241821, 0.0434069000184536, 0.032554108649492264, -0.05256124958395958, -0.14711761474609375, 1.48388671875, 1.41796875, 0.05950927734375, 1.494140625, 0.0017411428270861506, 3.174820085405372e-05
17847, 24.043569564819336, 82.21894836425781, -21.64603042602539, 0.0, 0.0, -25.207109451293945, 0.0, 0.0, 2.5854110717773438, 0, 0, 0, 0, 0, 0, 9362.0, 30146.0, 35388.0, 9362.0, 7.576860427856445, -0.09928683936595917, -0.08750367164611816, 0.16237831115722656, 0.9982529282569885, 0.045370832085609436, 0.03377203270792961, -0.05256124958395958, -0.14711761474609375, 1.48388671875, 1.3740234375, 0.0210723876953125, 1.489013671875, 0.0017411428270861506, 3.174820085405372e-05
17857, 24.11712074279785, 82.23213195800781, -21.718318939208984, 0.0, 0.0, -25.183835983276367, 0.0, 0.0, 2.3273468017578125, 0, 0, 0, 0, 0, 0, 9362.0, 30146.0, 35388.0, 9362.0, 7.576860427856445, -0.09928683936595917, -0.08750367164611816, 0.16237831115722656, 0.9986060261726379, 0.04615664482116699, 0.03111668862402439, -0.05256124958395958, -0.14711761474609375, 1.48388671875, 1.34619140625, 0.015594482421875, 1.489013671875, 0.0017191028455272317, 3.174598896293901e-05
17867, 24.17548370361328, 82.2405776977539, -21.77655601501465, 0.0, 0.0, -25.183835983276367, 0.0, 0.0, 2.3273468017578125, 0, 0, 0, 0, 0, 0, 9362.0, 30146.0, 35388.0, 9362.0, 7.576860427856445, 0.03311438858509064, 0.05976299196481705, -0.27204960584640503, 0.9986060261726379, 0.04615664482116699, 0.03111668862402439, -0.05256124958395958, -0.14711761474609375, 1.48388671875, 1.40185546875, 0.0417938232421875, 1.49560546875, 0.0017191028455272317, 3.174598896293901e-05
17877, 24.228981018066406, 82.25247192382812, -21.830059051513672, 0.0, 0.0, -25.141427993774414, 0.0, 0.0, 2.0090103149414062, 0, 0, 0, 0, 0, 0, 9362.0, 30146.0, 35388.0, 9362.0, 7.576860427856445, 0.03311438858509064, 0.05976299196481705, -0.27204960584640503, 0.9961568117141724, 0.044121358543634415, 0.032153379172086716, -0.05256124958395958, -0.14711761474609375, 1.48388671875, 1.34912109375, 0.015380859375, 1.49560546875, 0.0016973434248939157, 3.1743806175654754e-05
17887, 24.280057907104492, 82.2614517211914, -21.881175994873047, 0.0, 0.0, -25.141427993774414, 0.0, 0.0, 2.0090103149414062, 0, 0, 0, 0, 0, 0, 9362.0, 30146.0, 35388.0, 9362.0, 7.576860427856445, -0.07774142920970917, -0.016284147277474403, -0.04365210980176926, 0.9961568117141724, 0.044121358543634415, 0.032153379172086716, -0.05256124958395958, -0.14711761474609375, 1.48388671875, 1.41064453125, 0.0509490966796875, 1.496337890625, 0.0016973434248939157, 3.1743806175654754e-05
17897, 24.353086471557617, 82.27515411376953, -21.95295524597168, 0.0, 0.0, -25.1148624420166, 0.0, 0.0, 1.2584686279296875, 0, 0, 0, 0, 0, 0, 9362.0, 30146.0, 35388.0, 9362.0, 7.576860427856445, 0.10160140693187714, -0.1566040813922882, 0.15250137448310852, 0.9992087483406067, 0.04312124103307724, 0.03127765282988548, -0.05256124958395958, -0.14711761474609375, 1.48388671875, 1.3681640625, 0.0185394287109375, 1.496337890625, 0.0016973434248939157, 3.1743806175654754e-05
17907, 24.38518714904785, 82.28517150878906, -21.98628044128418, 0.0, 0.0, -25.1148624420166, 0.0, 0.0, 1.2584686279296875, 0, 0, 0, 0, 0, 0, 9362.0, 30146.0, 35388.0, 9362.0, 7.576860427856445, -0.14979977905750275, 0.08227216452360153, 0.21020428836345673, 0.9984667897224426, 0.04269284009933472, 0.03214350342750549, -0.05256124958395958, -0.14711761474609375, 1.48388671875, 1.358642578125, 0.0159912109375, 1.4912109375, 0.0016973434248939157, 3.1743806175654754e-05
17917, 24.47798728942871, 82.29928588867188, -22.078433990478516, 0.0, 0.0, -25.1148624420166, 0.0, 0.0, 1.2584686279296875, 0, 0, 0, 0, 0, 0, 9362.0, 30146.0, 35388.0, 9362.0, 7.576860427856445, 0.06739456206560135, -0.12190616875886917, -0.18653331696987152, 0.9985513687133789, 0.04300202801823616, 0.030497176572680473, -0.05256124958395958, -0.14711761474609375, 1.48388671875, 1.3916015625, 0.0325927734375, 1.4912109375, 0.0016973434248939157, 3.1743806175654754e-05
17927, 24.514938354492188, 82.3081283569336, -22.11595344543457, 0.0, 0.0, -25.079792022705078, 0.0, 0.0, 0.2628326416015625, 0, 0, 0, 0, 0, 0, 9362.0, 30146.0, 35388.0, 9362.0, 7.576860427856445, -0.11119919270277023, 0.13779257237911224, 0.15643638372421265, 0.9985513687133789, 0.04300202801823616, 0.030497176572680473, -0.05256124958395958, -0.14711761474609375, 1.48388671875, 1.42822265625, 0.0726470947265625, 1.49267578125, 0.0016973434248939157, 3.1743806175654754e-05
17937, 24.585878372192383, 82.32178497314453, -22.18671226501465, 0.0, 0.0, -25.077423095703125, 0.0, 0.0, 0.2368927001953125, 0, 0, 0, 0, 0, 0, 9362.0, 30146.0, 35388.0, 9362.0, 7.576860427856445, 0.013822106644511223, 0.03264005109667778, -0.027132250368595123, 0.9985513687133789, 0.04300202801823616, 0.030497176572680473, -0.05256124958395958, -0.14711761474609375, 1.48388671875, 1.4326171875, 0.0786895751953125, 1.49267578125, 0.001633712206967175, 3.173742879880592e-05
17947, 24.642566680908203, 82.33048248291016, -22.244224548339844, 0.0, 0.0, -25.07091522216797, 0.0, 0.0, 0.650787353515625, 0, 0, 0, 0, 0, 0, 9362.0, 30146.0, 35388.0, 9362.0, 7.576860427856445, -0.17814843356609344, 0.09817730635404587, -0.06602336466312408, 0.9985513687133789, 0.04300202801823616, 0.030497176572680473, -0.05256124958395958, -0.14711761474609375, 1.48388671875, 1.404052734375, 0.04400634765625, 1.4912109375, 0.001633712206967175, 3.173742879880592e-05
17957, 24.70946502685547, 82.3426284790039, -22.309736251831055, 0.0, 0.0, -25.065052032470703, 0.0, 0.0, 0.5863189697265625, 0, 0, 0, 0, 0, 0, 9362.0, 30146.0, 35388.0, 9362.0, 7.576860427856445, -0.17814843356609344, 0.09817730635404587, -0.06602336466312408, 0.9962682723999023, 0.04489416256546974, 0.03294001519680023, -0.04681723937392235, -0.08439826965332031, 1.489013671875, 1.404052734375, 0.04400634765625, 1.4912109375, 0.001613039174117148, 3.173535515088588e-05
17967, 24.750957489013672, 82.3498306274414, -22.35143280029297, 0.0, 0.0, -25.072349548339844, 0.0, 0.0, -0.7297515869140625, 0, 0, 0, 0, 0, 0, 9362.0, 30146.0, 35388.0, 9362.0, 7.576860427856445, -0.14575383067131042, 0.28811001777648926, 0.07576297968626022, 0.9962682723999023, 0.04489416256546974, 0.03294001519680023, -0.04681723937392235, -0.08439826965332031, 1.489013671875, 1.32568359375, 0.0232086181640625, 1.4912109375, 0.0016028013778850436, 3.173432924086228e-05
17977, 24.831336975097656, 82.3637466430664, -22.431299209594727, 0.0, 0.0, -25.078914642333984, 0.0, 0.0, -0.6565093994140625, 0, 0, 0, 0, 0, 0, 9362.0, 30146.0, 35388.0, 9362.0, 7.576860427856445, -0.03332534059882164, 0.008014079183340073, -0.21139365434646606, 0.9962682723999023, 0.04489416256546974, 0.03294001519680023, -0.04681723937392235, -0.08439826965332031, 1.489013671875, 1.33154296875, 0.0198516845703125, 1.4912109375, 0.0016028013778850436, 3.173432924086228e-05
17987, 24.894424438476562, 82.37326049804688, -22.494447708129883, 0.0, 0.0, -25.08700942993164, 0.0, 0.0, -0.809478759765625, 0, 0, 0, 0, 0, 0, 9362.0, 30146.0, 35388.0, 9362.0, 7.576860427856445, 0.03784722834825516, -0.1394331157207489, -0.09234767407178879, 0.9985002875328064, 0.04396316036581993, 0.032657019793987274, -0.04681723937392235, -0.08439826965332031, 1.489013671875, 1.3916015625, 0.0325927734375, 1.493408203125, 0.0016028013778850436, 3.173432924086228e-05
17997, 24.971099853515625, 82.38652801513672, -22.57183074951172, 0.0, 0.0, -25.094289779663086, 0.0, 0.0, -0.7280349731445312, 0, 0, 0, 0, 0, 0, 9362.0, 30146.0, 35388.0, 9362.0, 7.576860427856445, -0.18427568674087524, -0.062142349779605865, -0.02335735596716404, 0.9985002875328064, 0.04396316036581993, 0.032657019793987274, -0.04681723937392235, -0.08439826965332031, 1.489013671875, 1.41357421875, 0.0542449951171875, 1.493408203125, 0.0015724782133474946, 3.1731284252600744e-05
18007, 25.01095199584961, 82.39485168457031, -22.61180305480957, 0.0, 0.0, -25.09345817565918, 0.0, 0.0, 0.083160400390625, 0, 0, 0, 0, 0, 0, 9362.0, 30146.0, 35388.0, 9362.0, 7.576860427856445, -0.0007868282846175134, -0.08039526641368866, -0.018710855394601822, 0.9985002875328064, 0.04396316036581993, 0.032657019793987274, -0.04681723937392235, -0.08439826965332031, 1.489013671875, 1.43115234375, 0.0766143798828125, 1.49267578125, 0.0015624990919604897, 3.1730283808428794e-05
18017, 25.06565284729004, 82.40673065185547, -22.66604995727539, 0.0, 0.0, -25.092702865600586, 0.0, 0.0, 0.075531005859375, 0, 0, 0, 0, 0, 0, 9362.0, 30146.0, 35388.0, 9362.0, 7.576860427856445, -0.04436595365405083, -0.008626410737633705, 0.09309808164834976, 0.9983369708061218, 0.04371771216392517, 0.03335544466972351, -0.04681723937392235, -0.08439826965332031, 1.489013671875, 1.43115234375, 0.0766143798828125, 1.49267578125, 0.001552583766169846, 3.172929064021446e-05
18027, 25.107519149780273, 82.41539764404297, -22.707460403442383, 0.0, 0.0, -25.087644577026367, 0.0, 0.0, 0.505828857421875, 0, 0, 0, 0, 0, 0, 9362.0, 30146.0, 35388.0, 9362.0, 7.576860427856445, -0.04843497648835182, 0.03158987686038017, 0.11584394425153732, 0.9981764554977417, 0.04432976618409157, 0.03459681198000908, -0.04681723937392235, -0.08439826965332031, 1.489013671875, 1.31982421875, 0.0273590087890625, 1.494140625, 0.001552583766169846, 3.172929064021446e-05
18047, 25.236894607543945, 82.43690490722656, -22.835166931152344, 0.0, 0.0, -25.072423934936523, 0.0, 0.0, 1.06658935546875, 0, 0, 0, 0, 0, 0, 9362.0, 30146.0, 35388.0, 9362.0, 7.576860427856445, 0.06716170907020569, 0.11493317782878876, -0.02784060500562191, 0.9993234872817993, 0.042635511606931686, 0.031977519392967224, -0.04681723937392235, -0.08439826965332031, 1.489013671875, 1.412109375, 0.0526123046875, 1.494140625, 0.001523215207271278, 3.172634751535952e-05
18057, 25.29911994934082, 82.4509506225586, -22.895109176635742, 0.0, 0.0, -25.06281852722168, 0.0, 0.0, 0.960540771484375, 0, 0, 0, 0, 0, 0, 9362.0, 30146.0, 35388.0, 9362.0, 7.576860427856445, 0.024678334593772888, -0.22569403052330017, 0.362689733505249, 0.9993234872817993, 0.042635511606931686, 0.031977519392967224, -0.05652972683310509, 0.03208160400390625, 1.49853515625, 1.412109375, 0.0526123046875, 1.494140625, 0.0015135504072532058, 3.1725379812996835e-05
18067, 25.368141174316406, 82.46044921875, -22.965152740478516, 0.0, 0.0, -25.051437377929688, 0.0, 0.0, 1.1381149291992188, 0, 0, 0, 0, 0, 0, 9362.0, 30146.0, 35388.0, 9362.0, 7.576860427856445, -0.13377001881599426, -0.2269209623336792, -0.21435242891311646, 0.9993234872817993, 0.042635511606931686, 0.031977519392967224, -0.05652972683310509, 0.03208160400390625, 1.49853515625, 1.43408203125, 0.080810546875, 1.494140625, 0.0015039470745250583, 3.1724415748612955e-05
18077, 25.4545955657959, 82.47351837158203, -23.051883697509766, 0.0, 0.0, -25.041189193725586, 0.0, 0.0, 1.0248184204101562, 0, 0, 0, 0, 0, 0, 9362.0, 30146.0, 35388.0, 9362.0, 7.576860427856445, -0.10390744358301163, 0.012305247597396374, -0.2666402757167816, 0.9980299472808838, 0.0415702760219574, 0.03073773719370365, -0.05652972683310509, 0.03208160400390625, 1.49853515625, 1.2802734375, 0.0831756591796875, 1.494140625, 0.0015039470745250583, 3.1724415748612955e-05
