timeTick, roll, pitch, yaw, stateX, stateY, stateZ, stateVX, stateVY, stateVZ, otX0, otY0, otZ0, otRoll0, otPitch0, otYaw0, left wing, pitch motor, yaw motor, right wing, voltage, roll rate, pitch rate, yaw rate, A_x, A_y, A_z, current, i_raw, v_raw, airflow_voltage, airflow_speed, pot_Pitch
8032, -2.156764268875122, -76.73876953125, -1.6922420263290405, 0, 0, 0, 0, 0, 0, 0, 0, 0, 0, 0, 0, 0, 0, 0, 0, 0, 0, 0, 0, 0, 0, 0, 0, 0, 0, 0, 0, 0
8042, -2.1692326068878174, -76.7893295288086, -1.7028840780258179, 0.0, 0.0, -38.89099884033203, 0.0, 0.0, -0.318145751953125, 0, 0, 0, 0, 0, 0, 9362.0, 30146.0, 35388.0, 9362.0, 0, -0.15159808099269867, 0.43462657928466797, 0.09746380895376205, -0.9975183606147766, -0.008349278010427952, 0.03482074290513992, 0, 0, 0, 0, 0, 0
8052, -2.1730871200561523, -76.81871032714844, -1.7057632207870483, 0.0, 0.0, -38.89383316040039, 0.0, 0.0, -0.2834320068359375, 0, 0, 0, 0, 0, 0, 9362.0, 30146.0, 35388.0, 9362.0, 0, -0.13220834732055664, -0.22769683599472046, 0.19745594263076782, -0.9982339143753052, -0.010848588310182095, 0.03640057519078255, 0, 0, 0, 0.0, 0.1270751953125, 0
8062, -2.1994709968566895, -76.86125183105469, -1.7323256731033325, 0.0, 0.0, -38.89554214477539, 0.0, 0.0, -0.1708984375, 0, 0, 0, 0, 0, 0, 9362.0, 30146.0, 35388.0, 9362.0, 0, -0.12292852252721786, -0.40844401717185974, -0.3135474622249603, -0.9988363981246948, -0.010549532249569893, 0.036882657557725906, 0, 0, 0, 0.0, 0.1811065673828125, 1.50146484375
8072, -2.215789318084717, -76.89215850830078, -1.7488760948181152, 0.0, 0.0, -38.89705276489258, 0.0, 0.0, -0.15106201171875, 0, 0, 0, 0, 0, 0, 9362.0, 30146.0, 35388.0, 9362.0, 0, 0.07772926986217499, 0.14251965284347534, -0.3020528554916382, -0.9959959983825684, -0.008680853992700577, 0.03614766150712967, 0, 0, 0, 0.0, 0.1825714111328125, 1.50146484375
8082, -2.2278788089752197, -76.9377670288086, -1.7605801820755005, 0.0, 0.0, -38.89702606201172, 0.0, 0.0, 0.0026702880859375, 0, 0, 0, 0, 0, 0, 9362.0, 30146.0, 35388.0, 9362.0, 0, 0.11003672331571579, -0.15119369328022003, -0.031167417764663696, -0.9966349005699158, -0.009397927671670914, 0.03443087637424469, 0, 0, 0, 0.0, 0.236236572265625, 1.5029296875
8092, -2.2405858039855957, -76.96958923339844, -1.773063063621521, 0.0, 0.0, -38.896976470947266, 0.0, 0.0, 0.0049591064453125, 0, 0, 0, 0, 0, 0, 9362.0, 30146.0, 35388.0, 9362.0, 0, -0.03610530495643616, 0.15055201947689056, -0.20990736782550812, -0.9990434646606445, -0.009570036083459854, 0.03372581675648689, 0, 0, 0, 0.0, 0.1246185302734375, 1.5029296875
8102, -2.25024151802063, -77.01789855957031, -1.7829735279083252, 0.0, 0.0, -38.898826599121094, 0.0, 0.0, -0.1850128173828125, 0, 0, 0, 0, 0, 0, 9362.0, 30146.0, 35388.0, 9362.0, 0, 0.10643179714679718, 0.5472374558448792, -0.09664136916399002, -0.9979534149169922, -0.008958827704191208, 0.033074554055929184, 0, 0, 0, 0.0, 0.069732666015625, 1.49560546875
8112, -2.2583351135253906, -77.05013275146484, -1.790345549583435, 0.0, 0.0, -38.90046310424805, 0.0, 0.0, -0.1636505126953125, 0, 0, 0, 0, 0, 0, 9362.0, 30146.0, 35388.0, 9362.0, 0, -0.18141521513462067, 0.2995913326740265, 0.00911055225878954, -0.99904865026474, -0.00841402355581522, 0.03474150598049164, 0, 0, 0, 0.0, 0.10870361328125, 1.49560546875
8122, -2.2614641189575195, -77.09623718261719, -1.7938284873962402, 0.0, 0.0, -38.910667419433594, 0.0, 0.0, -1.0204315185546875, 0, 0, 0, 0, 0, 0, 9362.0, 30146.0, 35388.0, 9362.0, 0, 0.10028599947690964, -0.046191394329071045, 0.056205473840236664, -0.9998120665550232, -0.007902408950030804, 0.034648433327674866, 0, 0, 0, 0.0, 0.1883087158203125, 1.50146484375
8132, -2.2686188220977783, -77.12460327148438, -1.801412582397461, 0.0, 0.0, -38.91981887817383, 0.0, 0.0, -0.9151458740234375, 0, 0, 0, 0, 0, 0, 9362.0, 30146.0, 35388.0, 9362.0, 8.152067184448242, 0.0558757483959198, -0.29466044902801514, -0.07090043276548386, -0.9979835152626038, -0.009950687177479267, 0.03460996598005295, -0.09314138442277908, -0.14711761474609375, 1.48388671875, 0.0, 0.2346954345703125, 1.50146484375
8142, -2.286952018737793, -77.17024230957031, -1.8204281330108643, 0.0, 0.0, -38.92338943481445, 0.0, 0.0, -0.3570556640625, 0, 0, 0, 0, 0, 0, 9362.0, 30146.0, 35388.0, 9362.0, 8.152067184448242, 0.11715120077133179, 0.026934435591101646, -0.126220241189003, -0.9967973232269287, -0.008287840522825718, 0.035038478672504425, -0.09314138442277908, -0.14711761474609375, 1.48388671875, 0.0, 0.107452392578125, 1.49853515625
8152, -2.3013317584991455, -77.19731140136719, -1.8350399732589722, 0.0, 0.0, -38.92657470703125, 0.0, 0.0, -0.3185272216796875, 0, 0, 0, 0, 0, 0, 9362.0, 30146.0, 35388.0, 9362.0, 8.152067184448242, -0.03290664032101631, -0.4821111559867859, -0.23913656175136566, -0.9952822327613831, -0.007386608514934778, 0.03702361509203911, -0.09314138442277908, -0.14711761474609375, 1.48388671875, 0.0, 0.1532745361328125, 1.49853515625
8162, -2.3178951740264893, -77.24243927001953, -1.8524638414382935, 0.0, 0.0, -38.9283332824707, 0.0, 0.0, -0.1758575439453125, 0, 0, 0, 0, 0, 0, 9362.0, 30146.0, 35388.0, 9362.0, 8.152067184448242, 0.17197570204734802, -0.02304389886558056, -0.19636768102645874, -0.9954983592033386, -0.008802307769656181, 0.03503675013780594, -0.09314138442277908, -0.14711761474609375, 1.48388671875, 0.0, 0.1184234619140625, 1.500732421875
8172, -2.320115327835083, -77.27201080322266, -1.8543814420700073, 0.0, 0.0, -38.929893493652344, 0.0, 0.0, -0.1560211181640625, 0, 0, 0, 0, 0, 0, 9362.0, 30146.0, 35388.0, 9362.0, 8.152067184448242, 0.02016022801399231, -0.11936105042695999, 0.17070144414901733, -0.9988700151443481, -0.00789049081504345, 0.03487636521458626, -0.09314138442277908, -0.14711761474609375, 1.48388671875, 0.0, 0.157379150390625, 1.500732421875
8182, -2.330545425415039, -77.31533813476562, -1.8641455173492432, 0.0, 0.0, -38.93674850463867, 0.0, 0.0, -0.6855010986328125, 0, 0, 0, 0, 0, 0, 9362.0, 30146.0, 35388.0, 9362.0, 8.152067184448242, 0.0069692558608949184, -0.17734023928642273, 0.08461453765630722, -0.9974653720855713, -0.008182216435670853, 0.035895947366952896, -0.09314138442277908, -0.14711761474609375, 1.48388671875, 0.0, 0.147857666015625, 1.49853515625
8192, -2.3435394763946533, -77.34761810302734, -1.8782085180282593, 0.0, 0.0, -38.94289016723633, 0.0, 0.0, -0.614166259765625, 0, 0, 0, 0, 0, 0, 9362.0, 30146.0, 35388.0, 9362.0, 8.152067184448242, 0.14336059987545013, 0.5457665324211121, -0.16503208875656128, -0.9985113739967346, -0.009305632673203945, 0.03812336549162865, -0.09314138442277908, -0.14711761474609375, 1.48388671875, 0.0, 0.1147003173828125, 1.49853515625
8202, -2.353933095932007, -77.3908462524414, -1.8879001140594482, 0.0, 0.0, -38.94375228881836, 0.0, 0.0, -0.086212158203125, 0, 0, 0, 0, 0, 0, 9362.0, 30146.0, 35388.0, 9362.0, 8.152067184448242, -0.10207520425319672, 0.1999179571866989, 0.29751670360565186, -0.9970122575759888, -0.008678598329424858, 0.03629734367132187, -0.09314138442277908, -0.14711761474609375, 1.48388671875, 0.0, 0.2502899169921875, 1.49560546875
8212, -2.361760139465332, -77.41980743408203, -1.8954204320907593, 0.0, 0.0, -38.94449996948242, 0.0, 0.0, -0.07476806640625, 0, 0, 0, 0, 0, 0, 9362.0, 30146.0, 35388.0, 9362.0, 8.152067184448242, 0.06027407571673393, 0.02204180508852005, 0.05514160916209221, -0.9974846243858337, -0.008974861353635788, 0.034553080797195435, -0.09314138442277908, -0.14711761474609375, 1.48388671875, 0.0, 0.157379150390625, 1.49560546875
8222, -2.3736371994018555, -77.46540832519531, -1.9083611965179443, 0.0, 0.0, -38.942970275878906, 0.0, 0.0, 0.1529693603515625, 0, 0, 0, 0, 0, 0, 9362.0, 30146.0, 35388.0, 9362.0, 8.152067184448242, 0.1542961299419403, 0.3965747356414795, 0.10748568177223206, -0.9944241642951965, -0.008388825692236423, 0.03531350940465927, -0.09314138442277908, -0.14711761474609375, 1.48388671875, 0.0, 0.1811065673828125, 1.494873046875
8232, -2.384840250015259, -77.49444580078125, -1.920445203781128, 0.0, 0.0, -38.94157028198242, 0.0, 0.0, 0.1399993896484375, 0, 0, 0, 0, 0, 0, 9362.0, 30146.0, 35388.0, 9362.0, 8.152067184448242, 0.17599773406982422, 0.0982452780008316, -0.144298255443573, -0.9972500205039978, -0.009732737205922604, 0.03647027164697647, -0.07378602027893066, -0.09335899353027344, 1.48828125, 0.0, 0.172576904296875, 1.494873046875
8242, -2.4039270877838135, -77.53418731689453, -1.937740445137024, 0.0, 0.0, -38.93428039550781, 0.0, 0.0, 0.7289886474609375, 0, 0, 0, 0, 0, 0, 9362.0, 30146.0, 35388.0, 9362.0, 8.152067184448242, -0.10106297582387924, -0.3876737654209137, -0.21493032574653625, -0.9972918033599854, -0.009333495981991291, 0.03656092658638954, -0.07378602027893066, -0.09335899353027344, 1.48828125, 0.0, 0.12200927734375, 1.493408203125
8252, -2.4110748767852783, -77.56515502929688, -1.9444681406021118, 0.0, 0.0, -38.927696228027344, 0.0, 0.0, 0.658416748046875, 0, 0, 0, 0, 0, 0, 9362.0, 30146.0, 35388.0, 9362.0, 8.152067184448242, -0.031580179929733276, 0.349780797958374, -0.014833859167993069, -0.9969944953918457, -0.008239032700657845, 0.03614822030067444, -0.07378602027893066, -0.09335899353027344, 1.48828125, 0.0, 0.1712188720703125, 1.493408203125
8262, -2.4121620655059814, -77.60858154296875, -1.9443153142929077, 0.0, 0.0, -38.92503356933594, 0.0, 0.0, 0.266265869140625, 0, 0, 0, 0, 0, 0, 9362.0, 30146.0, 35388.0, 9362.0, 8.152067184448242, 0.04360261932015419, -0.002940297359600663, 0.009990851394832134, -0.9986624121665955, -0.009614208713173866, 0.035711441189050674, -0.07378602027893066, -0.09335899353027344, 1.48828125, 0.0, 0.2548828125, 1.500732421875
8272, -2.414095163345337, -77.6387710571289, -1.9455503225326538, 0.0, 0.0, -38.92261505126953, 0.0, 0.0, 0.241851806640625, 0, 0, 0, 0, 0, 0, 9362.0, 30146.0, 35388.0, 9362.0, 8.152067184448242, -0.11042612791061401, 0.16548146307468414, 0.06774112582206726, -0.9978116750717163, -0.006504029966890812, 0.03357432782649994, -0.07378602027893066, -0.09335899353027344, 1.48828125, 0.0, 0.1642303466796875, 1.500732421875
8282, -2.418771982192993, -77.68500518798828, -1.950567364692688, 0.0, 0.0, -38.92178726196289, 0.0, 0.0, 0.0827789306640625, 0, 0, 0, 0, 0, 0, 9362.0, 30146.0, 35388.0, 9362.0, 8.152067184448242, 0.11600415408611298, 0.2011880874633789, -0.1134648397564888, -0.9985814094543457, -0.006336618214845657, 0.03263498470187187, -0.07378602027893066, -0.09335899353027344, 1.48828125, 0.0, 0.155975341796875, 1.500732421875
8292, -2.4220292568206787, -77.71466064453125, -1.9528898000717163, 0.0, 0.0, -38.921016693115234, 0.0, 0.0, 0.077056884765625, 0, 0, 0, 0, 0, 0, 9362.0, 30146.0, 35388.0, 9362.0, 8.152067184448242, -0.13943403959274292, 0.018691137433052063, 0.14986783266067505, -0.999440610408783, -0.007910304702818394, 0.03227418288588524, -0.07378602027893066, -0.09335899353027344, 1.48828125, 0.0, 0.1656646728515625, 1.500732421875
8302, -2.4401023387908936, -77.75621795654297, -1.9714106321334839, 0.0, 0.0, -38.926048278808594, 0.0, 0.0, -0.5031585693359375, 0, 0, 0, 0, 0, 0, 9362.0, 30146.0, 35388.0, 9362.0, 8.152067184448242, 0.05277324840426445, 0.05516275018453598, -0.1300959438085556, -0.996168851852417, -0.008444844745099545, 0.033736541867256165, -0.07378602027893066, -0.09335899353027344, 1.48828125, 0.0, 0.16845703125, 1.497802734375
8312, -2.443732976913452, -77.7826156616211, -1.9755218029022217, 0.0, 0.0, -38.9305534362793, 0.0, 0.0, -0.4505157470703125, 0, 0, 0, 0, 0, 0, 9362.0, 30146.0, 35388.0, 9362.0, 8.152067184448242, 0.11215650290250778, -0.3149688243865967, 0.001164378714747727, -0.995779812335968, -0.009509647265076637, 0.03648446127772331, -0.07378602027893066, -0.09335899353027344, 1.48828125, 0.0, 0.178253173828125, 1.497802734375
8322, -2.452166795730591, -77.82635498046875, -1.9826115369796753, 0.0, 0.0, -38.93760299682617, 0.0, 0.0, -0.7049560546875, 0, 0, 0, 0, 0, 0, 9362.0, 30146.0, 35388.0, 9362.0, 8.152067184448242, -0.14197753369808197, 0.09578295052051544, 0.11705797910690308, -0.9950202107429504, -0.009218843653798103, 0.035755597054958344, -0.07378602027893066, -0.09335899353027344, 1.48828125, 0.0, 0.1283111572265625, 1.49560546875
8332, -2.4612739086151123, -77.85308837890625, -1.9920010566711426, 0.0, 0.0, -38.94392395019531, 0.0, 0.0, -0.6320953369140625, 0, 0, 0, 0, 0, 0, 9362.0, 30146.0, 35388.0, 9362.0, 8.152067184448242, 0.07161830365657806, -0.26231738924980164, -0.11341344565153122, -0.997505784034729, -0.010350054129958153, 0.036440409719944, -0.09316739439964294, -0.13815879821777344, 1.484619140625, 0.0, 0.231689453125, 1.49560546875
8342, -2.4674477577209473, -77.89342498779297, -1.9972712993621826, 0.0, 0.0, -38.94084930419922, 0.0, 0.0, 0.307464599609375, 0, 0, 0, 0, 0, 0, 9362.0, 30146.0, 35388.0, 9362.0, 8.152067184448242, 0.028206629678606987, -0.23674006760120392, 0.013362433761358261, -0.9989762902259827, -0.009492495097219944, 0.03414152190089226, -0.09316739439964294, -0.13815879821777344, 1.484619140625, 0.0, 0.1811065673828125, 1.49853515625
8352, -2.4651167392730713, -77.92035675048828, -1.994978904724121, 0.0, 0.0, -38.93805694580078, 0.0, 0.0, 0.27923583984375, 0, 0, 0, 0, 0, 0, 9362.0, 30146.0, 35388.0, 9362.0, 8.152067184448242, 0.09242315590381622, -0.12184534966945648, 0.23851190507411957, -0.9965969920158386, -0.007583884987980127, 0.03353385254740715, -0.09316739439964294, -0.13815879821777344, 1.484619140625, 0.0, 0.1492767333984375, 1.49853515625
8362, -2.4696743488311768, -77.96367645263672, -1.9987068176269531, 0.0, 0.0, -38.93006134033203, 0.0, 0.0, 0.799560546875, 0, 0, 0, 0, 0, 0, 9362.0, 30146.0, 35388.0, 9362.0, 8.152067184448242, -0.23440687358379364, 0.24979792535305023, 0.0903889462351799, -0.997260570526123, -0.007632573135197163, 0.03439083322882652, -0.09316739439964294, -0.13815879821777344, 1.484619140625, 0.0, 0.0726470947265625, 1.499267578125
8372, -2.486150026321411, -77.98967742919922, -2.0155956745147705, 0.0, 0.0, -38.92284393310547, 0.0, 0.0, 0.72174072265625, 0, 0, 0, 0, 0, 0, 9362.0, 30146.0, 35388.0, 9362.0, 8.152067184448242, 0.06297622621059418, -0.054174844175577164, -0.3267781436443329, -0.9959542751312256, -0.008282164111733437, 0.03625575825572014, -0.09316739439964294, -0.13815879821777344, 1.484619140625, 0.0, 0.18975830078125, 1.499267578125
8382, -2.4999825954437256, -78.02749633789062, -2.029557704925537, 0.0, 0.0, -38.92234802246094, 0.0, 0.0, 0.049591064453125, 0, 0, 0, 0, 0, 0, 9362.0, 30146.0, 35388.0, 9362.0, 8.152067184448242, -0.15941357612609863, -0.28750932216644287, -0.019146911799907684, -0.9992536902427673, -0.010380763560533524, 0.03871847316622734, -0.09316739439964294, -0.13815879821777344, 1.484619140625, 0.0, 0.14129638671875, 1.500732421875
8392, -2.514559507369995, -78.05475616455078, -2.0436549186706543, 0.0, 0.0, -38.921878814697266, 0.0, 0.0, 0.0469207763671875, 0, 0, 0, 0, 0, 0, 9362.0, 30146.0, 35388.0, 9362.0, 8.152067184448242, -0.1423470675945282, 0.17658767104148865, -0.10018616169691086, -0.9988468885421753, -0.012017965316772461, 0.03882058709859848, -0.09316739439964294, -0.13815879821777344, 1.484619140625, 0.0, 0.14654541015625, 1.500732421875
8402, -2.5295422077178955, -78.09725189208984, -2.0590944290161133, 0.0, 0.0, -38.921714782714844, 0.0, 0.0, 0.0164031982421875, 0, 0, 0, 0, 0, 0, 9362.0, 30146.0, 35388.0, 9362.0, 8.152067184448242, 0.1987249255180359, 0.4282320439815521, -0.07612763345241547, -0.9964408278465271, -0.012596971355378628, 0.03568603843450546, -0.09316739439964294, -0.13815879821777344, 1.484619140625, 0.0, 0.1452178955078125, 1.49560546875
8412, -2.534440279006958, -78.124755859375, -2.0636911392211914, 0.0, 0.0, -38.92154312133789, 0.0, 0.0, 0.0171661376953125, 0, 0, 0, 0, 0, 0, 9362.0, 30146.0, 35388.0, 9362.0, 8.152067184448242, -0.06397390365600586, 0.1200949177145958, 0.10763175040483475, -0.9985632300376892, -0.010060745291411877, 0.03694825991988182, -0.09316739439964294, -0.13815879821777344, 1.484619140625, 0.0, 0.1985626220703125, 1.49560546875
8422, -2.538891553878784, -78.16349029541016, -2.067141532897949, 0.0, 0.0, -38.9249267578125, 0.0, 0.0, -0.3383636474609375, 0, 0, 0, 0, 0, 0, 9362.0, 30146.0, 35388.0, 9362.0, 8.152067184448242, -0.23966091871261597, -0.33493301272392273, 0.1657492071390152, -0.9970048069953918, -0.009614599868655205, 0.03533629700541496, -0.09316739439964294, -0.13815879821777344, 1.484619140625, 0.0, 0.1532745361328125, 1.49853515625
8432, -2.5341153144836426, -78.19107818603516, -2.062239170074463, 0.0, 0.0, -38.927947998046875, 0.0, 0.0, -0.3021240234375, 0, 0, 0, 0, 0, 0, 9362.0, 30146.0, 35388.0, 9362.0, 8.152067184448242, 0.039049990475177765, 0.1064688116312027, 0.3524169921875, -0.9959556460380554, -0.010615275241434574, 0.03463827818632126, -0.1054338589310646, -0.13815879821777344, 1.484619140625, 0.0, 0.2270050048828125, 1.49853515625
8442, -2.553551435470581, -78.23206329345703, -2.080063581466675, 0.0, 0.0, -38.92901611328125, 0.0, 0.0, -0.1068115234375, 0, 0, 0, 0, 0, 0, 9362.0, 30146.0, 35388.0, 9362.0, 8.152067184448242, -0.13928183913230896, -0.033083535730838776, -0.10675982385873795, -0.994702935218811, -0.011962911114096642, 0.03402169421315193, -0.1054338589310646, -0.13815879821777344, 1.484619140625, 0.0, 0.12200927734375, 1.5
8452, -2.5495903491973877, -78.25889587402344, -2.0765068531036377, 0.0, 0.0, -38.92995834350586, 0.0, 0.0, -0.0942230224609375, 0, 0, 0, 0, 0, 0, 9362.0, 30146.0, 35388.0, 9362.0, 8.152067184448242, 0.17123013734817505, 0.11324814707040787, 0.3191901743412018, -0.9975535273551941, -0.008422252722084522, 0.03645222634077072, -0.1054338589310646, -0.13815879821777344, 1.484619140625, 0.0, 0.2286224365234375, 1.5
8462, -2.5579073429107666, -78.29481506347656, -2.0844738483428955, 0.0, 0.0, -38.92942428588867, 0.0, 0.0, 0.05340576171875, 0, 0, 0, 0, 0, 0, 9362.0, 30146.0, 35388.0, 9362.0, 8.152067184448242, 0.13133355975151062, -0.2791908085346222, 0.045477643609046936, -0.9976365566253662, -0.0076342998072505, 0.03797086700797081, -0.1054338589310646, -0.13815879821777344, 1.484619140625, 0.0, 0.1985626220703125, 1.5
8472, -2.5699050426483154, -78.31884765625, -2.096048355102539, 0.0, 0.0, -38.928924560546875, 0.0, 0.0, 0.0499725341796875, 0, 0, 0, 0, 0, 0, 9362.0, 30146.0, 35388.0, 9362.0, 8.152067184448242, -0.050689928233623505, -0.24277587234973907, -0.14814876019954681, -0.996187150478363, -0.00823085755109787, 0.03599083051085472, -0.1054338589310646, -0.13815879821777344, 1.484619140625, 0.0, 0.102813720703125, 1.5
8482, -2.5747029781341553, -78.35857391357422, -2.099301815032959, 0.0, 0.0, -38.9240837097168, 0.0, 0.0, 0.4840850830078125, 0, 0, 0, 0, 0, 0, 9362.0, 30146.0, 35388.0, 9362.0, 8.152067184448242, -0.11721615493297577, 0.1481516808271408, 0.24869683384895325, -0.9967896342277527, -0.007023935206234455, 0.03683756664395332, -0.1054338589310646, -0.13815879821777344, 1.484619140625, 0.0, 0.1600799560546875, 1.49560546875
8492, -2.578909397125244, -78.3841552734375, -2.104619026184082, 0.0, 0.0, -38.919708251953125, 0.0, 0.0, 0.4375457763671875, 0, 0, 0, 0, 0, 0, 9362.0, 30146.0, 35388.0, 9362.0, 8.152067184448242, 0.23525650799274445, 0.06906069070100784, 0.2748156189918518, -0.996698260307312, -0.00993918813765049, 0.035412102937698364, -0.1054338589310646, -0.13815879821777344, 1.484619140625, 0.0, 0.2408599853515625, 1.49560546875
8502, -2.5912961959838867, -78.42272186279297, -2.1174654960632324, 0.0, 0.0, -38.90946960449219, 0.0, 0.0, 1.02386474609375, 0, 0, 0, 0, 0, 0, 9362.0, 30146.0, 35388.0, 9362.0, 8.152067184448242, 0.2663264274597168, -0.025437131524086, 0.1291464865207672, -0.9975865483283997, -0.009720539674162865, 0.03631587326526642, -0.1054338589310646, -0.13815879821777344, 1.484619140625, 0.0, 0.1642303466796875, 1.49560546875
8512, -2.594977378845215, -78.4477767944336, -2.119684934616089, 0.0, 0.0, -38.90023422241211, 0.0, 0.0, 0.9235382080078125, 0, 0, 0, 0, 0, 0, 9362.0, 30146.0, 35388.0, 9362.0, 8.152067184448242, -0.2098292112350464, -0.098683200776577, 0.13183072209358215, -0.9953587651252747, -0.00790449045598507, 0.03355283662676811, -0.1054338589310646, -0.13815879821777344, 1.484619140625, 0.0, 0.157379150390625, 1.49560546875
8522, -2.610564708709717, -78.48596954345703, -2.134108781814575, 0.0, 0.0, -38.89601135253906, 0.0, 0.0, 0.4222869873046875, 0, 0, 0, 0, 0, 0, 9362.0, 30146.0, 35388.0, 9362.0, 8.152067184448242, -0.1196361631155014, -0.10676872730255127, -0.03579655662178993, -0.9991890788078308, -0.008967215195298195, 0.0361357219517231, -0.1054338589310646, -0.13815879821777344, 1.484619140625, 0.0, 0.205902099609375, 1.4970703125
8532, -2.6191482543945312, -78.5113296508789, -2.14264178276062, 0.0, 0.0, -38.892189025878906, 0.0, 0.0, 0.382232666015625, 0, 0, 0, 0, 0, 0, 9362.0, 30146.0, 35388.0, 9362.0, 8.152067184448242, 0.0562392957508564, -0.05234524607658386, -0.04595331847667694, -0.9982770681381226, -0.008990862406790257, 0.03562472015619278, -0.08282966166734695, -0.12023735046386719, 1.486083984375, 0.0, 0.1347198486328125, 1.4970703125
8542, -2.6229398250579834, -78.55030822753906, -2.1452083587646484, 0.0, 0.0, -38.889827728271484, 0.0, 0.0, 0.2361297607421875, 0, 0, 0, 0, 0, 0, 9362.0, 30146.0, 35388.0, 9362.0, 8.152067184448242, -0.0797211080789566, 0.170071080327034, 0.11092805117368698, -0.9985278248786926, -0.008855782449245453, 0.035288240760564804, -0.08282966166734695, -0.12023735046386719, 1.486083984375, 0.0, 0.2164154052734375, 1.49853515625
8552, -2.6330950260162354, -78.57728576660156, -2.156367540359497, 0.0, 0.0, -38.8876838684082, 0.0, 0.0, 0.214385986328125, 0, 0, 0, 0, 0, 0, 9362.0, 30146.0, 35388.0, 9362.0, 8.152067184448242, 0.22397162020206451, 0.2798103988170624, -0.1359895020723343, -1.0001307725906372, -0.006913212593644857, 0.03609473630785942, -0.08282966166734695, -0.12023735046386719, 1.486083984375, 0.0, 0.13604736328125, 1.49853515625
8562, -2.651581048965454, -78.61434173583984, -2.17514967918396, 0.0, 0.0, -38.88519287109375, 0.0, 0.0, 0.2490997314453125, 0, 0, 0, 0, 0, 0, 9362.0, 30146.0, 35388.0, 9362.0, 8.152067184448242, 0.05930284038186073, -0.04784072935581207, -0.2563116252422333, -1.000787615776062, -0.008976686745882034, 0.03679468482732773, -0.08282966166734695, -0.12023735046386719, 1.486083984375, 0.0, 0.081787109375, 1.49560546875
8572, -2.659990072250366, -78.63794708251953, -2.184135675430298, 0.0, 0.0, -38.88292694091797, 0.0, 0.0, 0.226593017578125, 0, 0, 0, 0, 0, 0, 9362.0, 30146.0, 35388.0, 9362.0, 8.152067184448242, 0.014277107082307339, -0.17413653433322906, -0.06507661938667297, -0.9982554912567139, -0.009748365730047226, 0.03960303217172623, -0.08282966166734695, -0.12023735046386719, 1.486083984375, 0.0, 0.19561767578125, 1.49560546875
8582, -2.6780011653900146, -78.67681884765625, -2.204226493835449, 0.0, 0.0, -38.87759017944336, 0.0, 0.0, 0.5336761474609375, 0, 0, 0, 0, 0, 0, 9362.0, 30146.0, 35388.0, 9362.0, 8.152067184448242, 0.20547327399253845, 0.21341179311275482, -0.10874301940202713, -0.9970813393592834, -0.00987908523529768, 0.03667588531970978, -0.08282966166734695, -0.12023735046386719, 1.486083984375, 0.0, 0.2148895263671875, 1.494140625
8592, -2.6847660541534424, -78.69857025146484, -2.211625099182129, 0.0, 0.0, -38.87276840209961, 0.0, 0.0, 0.482177734375, 0, 0, 0, 0, 0, 0, 9362.0, 30146.0, 35388.0, 9362.0, 8.152067184448242, 0.17496542632579803, -0.463523268699646, 0.0893746092915535, -0.9995166659355164, -0.010756894014775753, 0.03497224301099777, -0.08282966166734695, -0.12023735046386719, 1.486083984375, 0.0, 0.14129638671875, 1.494140625
8602, -2.711578607559204, -78.7353744506836, -2.237565755844116, 0.0, 0.0, -38.861305236816406, 0.0, 0.0, 1.1463165283203125, 0, 0, 0, 0, 0, 0, 9362.0, 30146.0, 35388.0, 9362.0, 8.152067184448242, 0.040449611842632294, 0.02118278481066227, -0.2207629680633545, -0.998867392539978, -0.010395504534244537, 0.032410044223070145, -0.08282966166734695, -0.12023735046386719, 1.486083984375, 0.0, 0.2148895263671875, 1.49853515625
8612, -2.7070536613464355, -78.7619400024414, -2.2337939739227295, 0.0, 0.0, -38.85097122192383, 0.0, 0.0, 1.0334014892578125, 0, 0, 0, 0, 0, 0, 9362.0, 30146.0, 35388.0, 9362.0, 8.152067184448242, 0.12790511548519135, 0.2886981964111328, 0.293424516916275, -0.9973263740539551, -0.008789066225290298, 0.03370142728090286, -0.08282966166734695, -0.12023735046386719, 1.486083984375, 0.0, 0.147857666015625, 1.49853515625
8622, -2.706286668777466, -78.79923248291016, -2.2320799827575684, 0.0, 0.0, -38.84794616699219, 0.0, 0.0, 0.3025054931640625, 0, 0, 0, 0, 0, 0, 9362.0, 30146.0, 35388.0, 9362.0, 8.152067184448242, -0.07011948525905609, 0.03083875961601734, 0.23464611172676086, -0.9993683695793152, -0.00904481578618288, 0.035405661910772324, -0.08282966166734695, -0.12023735046386719, 1.486083984375, 0.0, 0.1825714111328125, 1.494140625
8632, -2.7172369956970215, -78.8236083984375, -2.243264675140381, 0.0, 0.0, -38.84519958496094, 0.0, 0.0, 0.274658203125, 0, 0, 0, 0, 0, 0, 9362.0, 30146.0, 35388.0, 9362.0, 8.152067184448242, 0.09464102238416672, 0.010379819199442863, -0.12295810133218765, -0.9979279637336731, -0.010806777514517307, 0.03705373406410217, -0.0517113097012043, 0.014162063598632812, 1.4970703125, 0.0, 0.19122314453125, 1.494140625
8642, -2.752227783203125, -78.85833740234375, -2.2775094509124756, 0.0, 0.0, -38.844905853271484, 0.0, 0.0, 0.0293731689453125, 0, 0, 0, 0, 0, 0, 9362.0, 30146.0, 35388.0, 9362.0, 8.152067184448242, 0.04251335933804512, 0.07080219686031342, -0.4940255880355835, -0.9995357394218445, -0.008761836215853691, 0.03762209042906761, -0.0517113097012043, 0.014162063598632812, 1.4970703125, 0.0, 0.1755218505859375, 1.4970703125
8652, -2.759458303451538, -78.88398742675781, -2.2855098247528076, 0.0, 0.0, -38.8446159362793, 0.0, 0.0, 0.02899169921875, 0, 0, 0, 0, 0, 0, 9362.0, 30146.0, 35388.0, 9362.0, 8.152067184448242, 0.28912097215652466, 0.4289461374282837, 0.08846887201070786, -0.9990352392196655, -0.006081270985305309, 0.03711142763495445, -0.0517113097012043, 0.014162063598632812, 1.4970703125, 0.0, 0.1600799560546875, 1.4970703125
8662, -2.8019986152648926, -78.91646575927734, -2.3286828994750977, 0.0, 0.0, -38.84379959106445, 0.0, 0.0, 0.081634521484375, 0, 0, 0, 0, 0, 0, 9362.0, 30146.0, 35388.0, 9362.0, 8.152067184448242, 0.40528735518455505, -0.5615966320037842, -0.1998138576745987, -0.9985984563827515, -0.00963430106639862, 0.037093181163072586, -0.0517113097012043, 0.014162063598632812, 1.4970703125, 0.0, 0.1669921875, 1.496337890625
8672, -2.7938601970672607, -78.9453353881836, -2.32051157951355, 0.0, 0.0, -38.84304428100586, 0.0, 0.0, 0.075531005859375, 0, 0, 0, 0, 0, 0, 9362.0, 30146.0, 35388.0, 9362.0, 8.152067184448242, 0.2321443110704422, 0.9514971375465393, 0.8034016489982605, -0.9978463649749756, -0.006180369295179844, 0.035932544618844986, -0.0517113097012043, 0.014162063598632812, 1.4970703125, 0.0, 0.1883087158203125, 1.496337890625
8682, -2.8225836753845215, -78.97615814208984, -2.3483216762542725, 0.0, 0.0, -38.84864044189453, 0.0, 0.0, -0.5596160888671875, 0, 0, 0, 0, 0, 0, 9362.0, 30146.0, 35388.0, 9362.0, 8.152067184448242, 0.1531664878129959, -0.35280925035476685, 0.839872419834137, -0.9998121857643127, -0.006480126176029444, 0.04143558442592621, -0.0517113097012043, 0.014162063598632812, 1.4970703125, 0.0, 0.1712188720703125, 1.50146484375
8692, -2.7782342433929443, -78.998291015625, -2.303563117980957, 0.0, 0.0, -38.853660583496094, 0.0, 0.0, -0.50201416015625, 0, 0, 0, 0, 0, 0, 9362.0, 30146.0, 35388.0, 9362.0, 8.152067184448242, 0.1140449270606041, -0.31390345096588135, 2.2049975395202637, -0.9990906119346619, -0.007135218009352684, 0.03393228352069855, -0.0517113097012043, 0.014162063598632812, 1.4970703125, 0.0, 0.2439727783203125, 1.50146484375
8702, -2.800111770629883, -79.03450012207031, -2.3248789310455322, 0.0, 0.0, -38.860897064208984, 0.0, 0.0, -0.7236480712890625, 0, 0, 0, 0, 0, 0, 9362.0, 30146.0, 35388.0, 9362.0, 8.152067184448242, -0.13534051179885864, -0.12332849204540253, 0.6949405670166016, -0.9985336065292358, -0.01805092766880989, 0.03465218096971512, -0.0517113097012043, 0.014162063598632812, 1.4970703125, 0.0, 0.178253173828125, 1.496337890625
8712, -2.820814847946167, -79.05732727050781, -2.3447015285491943, 0.0, 0.0, -38.86738967895508, 0.0, 0.0, -0.649261474609375, 0, 0, 0, 0, 0, 0, 9362.0, 30146.0, 35388.0, 9362.0, 8.152067184448242, -0.21995839476585388, -0.1884879618883133, -0.6077668070793152, -0.9961552023887634, -0.018861297518014908, 0.03470275178551674, -0.0517113097012043, 0.014162063598632812, 1.4970703125, 0.0, 0.21942138671875, 1.496337890625
8722, -2.8579509258270264, -79.09269714355469, -2.3817830085754395, 0.0, 0.0, -38.86857223510742, 0.0, 0.0, -0.118255615234375, 0, 0, 0, 0, 0, 0, 9362.0, 30146.0, 35388.0, 9362.0, 8.152067184448242, -0.23878884315490723, 0.29710227251052856, -2.1639842987060547, -0.9975794553756714, -0.008747996762394905, 0.0337405726313591, -0.0517113097012043, 0.014162063598632812, 1.4970703125, 0.0, 0.2044219970703125, 1.49560546875
8732, -2.885169267654419, -79.11475372314453, -2.410269021987915, 0.0, 0.0, -38.8696174621582, 0.0, 0.0, -0.104522705078125, 0, 0, 0, 0, 0, 0, 9362.0, 30146.0, 35388.0, 9362.0, 8.152067184448242, 0.09310542047023773, -0.05288791283965111, -0.7788953185081482, -0.9991127848625183, -0.01032736711204052, 0.034669339656829834, -0.08591663092374802, -0.09335899353027344, 1.48828125, 0.0, 0.2628021240234375, 1.49560546875
8742, -2.916344404220581, -79.14978790283203, -2.4416725635528564, 0.0, 0.0, -38.87273406982422, 0.0, 0.0, -0.3116607666015625, 0, 0, 0, 0, 0, 0, 9362.0, 30146.0, 35388.0, 9362.0, 8.152067184448242, 0.21794022619724274, 0.4653579890727997, -0.4185374081134796, -0.9959822297096252, -0.004105499945580959, 0.0378599688410759, -0.08591663092374802, -0.09335899353027344, 1.48828125, 0.0, 0.21942138671875, 1.499267578125
8752, -2.8951117992401123, -79.17194366455078, -2.420922040939331, 0.0, 0.0, -38.875526428222656, 0.0, 0.0, -0.27923583984375, 0, 0, 0, 0, 0, 0, 9362.0, 30146.0, 35388.0, 9362.0, 8.152067184448242, 0.14946934580802917, -0.007950442843139172, 1.3233006000518799, -0.9982843995094299, -0.0076587083749473095, 0.038770873099565506, -0.08591663092374802, -0.09335899353027344, 1.48828125, 0.0, 0.1295928955078125, 1.499267578125
8762, -2.9158968925476074, -79.20613861083984, -2.4410223960876465, 0.0, 0.0, -38.88732147216797, 0.0, 0.0, -1.17950439453125, 0, 0, 0, 0, 0, 0, 9362.0, 30146.0, 35388.0, 9362.0, 8.152067184448242, 0.22016794979572296, 0.057885318994522095, 1.9106255769729614, -0.9982843995094299, -0.0076587083749473095, 0.038770873099565506, -0.08591663092374802, -0.09335899353027344, 1.48828125, 0.0, 0.115966796875, 1.499267578125
8772, -2.8960866928100586, -79.22796630859375, -2.419034242630005, 0.0, 0.0, -38.897918701171875, 0.0, 0.0, -1.059722900390625, 0, 0, 0, 0, 0, 0, 9362.0, 30146.0, 35388.0, 9362.0, 8.152067184448242, -0.24880057573318481, -0.17973126471042633, 1.5392793416976929, -0.9982843995094299, -0.0076587083749473095, 0.038770873099565506, -0.08591663092374802, -0.09335899353027344, 1.48828125, 0.0, 0.211883544921875, 1.499267578125
8782, -2.8899893760681152, -79.25907135009766, -2.412489891052246, 0.0, 0.0, -38.90525817871094, 0.0, 0.0, -0.73394775390625, 0, 0, 0, 0, 0, 0, 9362.0, 30146.0, 35388.0, 9362.0, 8.152067184448242, -0.19930307567119598, -0.6794692277908325, -0.7192862629890442, -0.9982843995094299, -0.0076587083749473095, 0.038770873099565506, -0.08591663092374802, -0.09335899353027344, 1.48828125, 0.0, 0.137359619140625, 1.499267578125
8792, -2.9575352668762207, -79.28174591064453, -2.478938102722168, 0.0, 0.0, -38.911842346191406, 0.0, 0.0, -0.658416748046875, 0, 0, 0, 0, 0, 0, 9362.0, 30146.0, 35388.0, 9362.0, 8.152067184448242, -0.39981499314308167, 0.1490829586982727, -2.1779751777648926, -0.9982843995094299, -0.0076587083749473095, 0.038770873099565506, -0.08591663092374802, -0.09335899353027344, 1.48828125, 0.0, 0.11224365234375, 1.499267578125
8802, -2.9777204990386963, -79.3135986328125, -2.4992096424102783, 0.0, 0.0, -38.91447830200195, 0.0, 0.0, -0.2635955810546875, 0, 0, 0, 0, 0, 0, 9362.0, 30146.0, 35388.0, 9362.0, 8.152067184448242, 0.1475232094526291, 0.23041854798793793, -0.9225913286209106, -0.9982843995094299, -0.0076587083749473095, 0.038770873099565506, -0.08591663092374802, -0.09335899353027344, 1.48828125, 0.0, 0.1134796142578125, 1.499267578125
8812, -2.9527382850646973, -79.33837890625, -2.475013494491577, 0.0, 0.0, -38.91683578491211, 0.0, 0.0, -0.235748291015625, 0, 0, 0, 0, 0, 0, 9362.0, 30146.0, 35388.0, 9362.0, 8.152067184448242, 0.1475232094526291, 0.23041854798793793, -0.9225913286209106, -0.9992585778236389, -0.00048338653868995607, 0.03571949899196625, -0.08591663092374802, -0.09335899353027344, 1.48828125, 0.0, 0.0756378173828125, 1.499267578125
8822, -2.973116636276245, -79.37007904052734, -2.4948995113372803, 0.0, 0.0, -38.917579650878906, 0.0, 0.0, -0.0743865966796875, 0, 0, 0, 0, 0, 0, 9362.0, 30146.0, 35388.0, 9362.0, 8.152067184448242, 0.14370961487293243, -0.29660484194755554, 1.6572719812393188, -0.998843252658844, -0.01050686277449131, 0.03578539937734604, -0.08591663092374802, -0.09335899353027344, 1.48828125, 0.0, 0.0756378173828125, 1.499267578125
8842, -2.984308958053589, -79.423828125, -2.503169536590576, 0.0, 0.0, -38.91822814941406, 0.0, 0.0, -0.064849853515625, 0, 0, 0, 0, 0, 0, 9362.0, 30146.0, 35388.0, 9362.0, 8.152067184448242, -0.4613761901855469, -0.38747474551200867, -1.6908657550811768, -0.9950230121612549, -0.01844347082078457, 0.035985659807920456, -0.06084638461470604, -0.09335899353027344, 1.48828125, 0.0, 0.0756378173828125, 1.5029296875
8852, -3.029576539993286, -79.448974609375, -2.547933578491211, 0.0, 0.0, -38.92606735229492, 0.0, 0.0, -0.37078857421875, 0, 0, 0, 0, 0, 0, 9362.0, 30146.0, 35388.0, 9362.0, 8.152067184448242, -0.4613761901855469, -0.38747474551200867, -1.6908657550811768, -0.9935526251792908, -0.009998820722103119, 0.03552938252687454, -0.06084638461470604, -0.09335899353027344, 1.48828125, 0.0, 0.1755218505859375, 1.5029296875
8862, -3.034684896469116, -79.48361206054688, -2.5540690422058105, 0.0, 0.0, -38.93212890625, 0.0, 0.0, -0.6061553955078125, 0, 0, 0, 0, 0, 0, 9362.0, 30146.0, 35388.0, 9362.0, 8.152067184448242, 0.08951718360185623, 0.45340338349342346, -0.7324641346931458, -0.9935526251792908, -0.009998820722103119, 0.03552938252687454, -0.06084638461470604, -0.09335899353027344, 1.48828125, 0.0, 0.1755218505859375, 1.5029296875
8872, -3.0195693969726562, -79.50646209716797, -2.5406265258789062, 0.0, 0.0, -38.93756866455078, 0.0, 0.0, -0.543975830078125, 0, 0, 0, 0, 0, 0, 9362.0, 30146.0, 35388.0, 9362.0, 8.152067184448242, 0.08951718360185623, 0.45340338349342346, -0.7324641346931458, -0.9997122883796692, -0.002240442903712392, 0.0377151295542717, -0.06084638461470604, -0.09335899353027344, 1.48828125, 0.0, 0.18975830078125, 1.5029296875
8882, -3.048511028289795, -79.54109954833984, -2.5696728229522705, 0.0, 0.0, -38.94682693481445, 0.0, 0.0, -0.9258270263671875, 0, 0, 0, 0, 0, 0, 9362.0, 30146.0, 35388.0, 9362.0, 8.152067184448242, 0.08951718360185623, 0.45340338349342346, -0.7324641346931458, -0.9988425970077515, -0.00821591541171074, 0.037767183035612106, -0.06084638461470604, -0.09335899353027344, 1.48828125, 0.0, 0.18975830078125, 1.497802734375
8892, -3.036139488220215, -79.56086730957031, -2.55781626701355, 0.0, 0.0, -38.955142974853516, 0.0, 0.0, -0.83160400390625, 0, 0, 0, 0, 0, 0, 9362.0, 30146.0, 35388.0, 9362.0, 8.152067184448242, 0.08951718360185623, 0.45340338349342346, -0.7324641346931458, -0.9972790479660034, -0.015481785871088505, 0.0403631329536438, -0.06084638461470604, -0.09335899353027344, 1.48828125, 0.0, 0.1600799560546875, 1.497802734375
8902, -3.0809993743896484, -79.58692932128906, -2.6030120849609375, 0.0, 0.0, -38.95906448364258, 0.0, 0.0, -0.39215087890625, 0, 0, 0, 0, 0, 0, 9362.0, 30146.0, 35388.0, 9362.0, 8.152067184448242, -0.2371591180562973, -0.7383519411087036, -0.7155039310455322, -0.9961272478103638, -0.021655641496181488, 0.036275506019592285, -0.06084638461470604, -0.09335899353027344, 1.48828125, 0.0, 0.1600799560546875, 1.50146484375
8912, -3.150590658187866, -79.60769653320312, -2.6706044673919678, 0.0, 0.0, -38.96257781982422, 0.0, 0.0, -0.3513336181640625, 0, 0, 0, 0, 0, 0, 9362.0, 30146.0, 35388.0, 9362.0, 8.152067184448242, -0.5674518346786499, 0.002654256299138069, -2.147210121154785, -0.9963701367378235, -0.0204452071338892, 0.034581203013658524, -0.06084638461470604, -0.09335899353027344, 1.48828125, 0.0, 0.1600799560546875, 1.50146484375
8922, -3.171760082244873, -79.64141845703125, -2.692566394805908, 0.0, 0.0, -38.96682357788086, 0.0, 0.0, -0.4245758056640625, 0, 0, 0, 0, 0, 0, 9362.0, 30146.0, 35388.0, 9362.0, 8.152067184448242, 0.17027346789836884, 0.3681926727294922, -1.6898127794265747, -0.996470034122467, -0.009419876150786877, 0.03412103280425072, -0.06084638461470604, -0.09335899353027344, 1.48828125, 0.0, 0.1600799560546875, 1.49853515625
8932, -3.1604013442993164, -79.66548919677734, -2.681191921234131, 0.0, 0.0, -38.97063064575195, 0.0, 0.0, -0.380706787109375, 0, 0, 0, 0, 0, 0, 9362.0, 30146.0, 35388.0, 9362.0, 8.152067184448242, 0.22468577325344086, 0.6804627776145935, 0.7175479531288147, -0.9981892704963684, -0.0024729971773922443, 0.03719696030020714, -0.04758536070585251, 0.1396007537841797, 1.50732421875, 0.0, 0.1600799560546875, 1.49853515625
8942, -3.161799907684326, -79.69904327392578, -2.681957483291626, 0.0, 0.0, -38.97049331665039, 0.0, 0.0, 0.01373291015625, 0, 0, 0, 0, 0, 0, 9362.0, 30146.0, 35388.0, 9362.0, 8.152067184448242, 0.15292395651340485, 0.33300912380218506, 2.117067813873291, -0.9972037672996521, -0.00709184817969799, 0.037491511553525925, -0.04758536070585251, 0.1396007537841797, 1.50732421875, 0.0, 0.1600799560546875, 1.496337890625
8952, -3.15022349357605, -79.7214126586914, -2.668884754180908, 0.0, 0.0, -38.97035598754883, 0.0, 0.0, 0.01373291015625, 0, 0, 0, 0, 0, 0, 9362.0, 30146.0, 35388.0, 9362.0, 8.152067184448242, -0.027555063366889954, 0.19688847661018372, 0.9301820993423462, -0.9965054392814636, -0.01573864370584488, 0.03544740006327629, -0.04758536070585251, 0.1396007537841797, 1.50732421875, 0.0, 0.142547607421875, 1.496337890625
8962, -3.1661674976348877, -79.75286865234375, -2.6857550144195557, 0.0, 0.0, -38.96311569213867, 0.0, 0.0, 0.724029541015625, 0, 0, 0, 0, 0, 0, 9362.0, 30146.0, 35388.0, 9362.0, 8.152067184448242, -0.20414187014102936, -0.2024887055158615, -1.649284839630127, -0.9958515167236328, -0.016501232981681824, 0.031729359179735184, -0.04758536070585251, 0.1396007537841797, 1.50732421875, 0.0, 0.179656982421875, 1.4970703125
8972, -3.225098133087158, -79.77201080322266, -2.743342161178589, 0.0, 0.0, -38.95658493041992, 0.0, 0.0, 0.653076171875, 0, 0, 0, 0, 0, 0, 9362.0, 30146.0, 35388.0, 9362.0, 8.152067184448242, -0.3422386348247528, -0.2104566991329193, -1.9569014310836792, -0.9984692931175232, -0.006943682674318552, 0.03194253146648407, -0.04758536070585251, 0.1396007537841797, 1.50732421875, 0.0, 0.13604736328125, 1.4970703125
8982, -3.2353062629699707, -79.80320739746094, -2.752197742462158, 0.0, 0.0, -38.94960403442383, 0.0, 0.0, 0.698089599609375, 0, 0, 0, 0, 0, 0, 9362.0, 30146.0, 35388.0, 9362.0, 8.152067184448242, -0.11535214632749557, 0.07926631718873978, 0.45638129115104675, -1.0010062456130981, -0.0026572756469249725, 0.03567007556557655, -0.04758536070585251, 0.1396007537841797, 1.50732421875, 0.0, 0.1587677001953125, 1.4970703125
8992, -3.1887168884277344, -79.82073974609375, -2.7061281204223633, 0.0, 0.0, -38.94330596923828, 0.0, 0.0, 0.6298065185546875, 0, 0, 0, 0, 0, 0, 9362.0, 30146.0, 35388.0, 9362.0, 8.152067184448242, 0.23739270865917206, -0.6856223344802856, 2.081270694732666, -0.9995996952056885, -0.007882918231189251, 0.036159448325634, -0.04758536070585251, 0.1396007537841797, 1.50732421875, 0.0, 0.1546478271484375, 1.4970703125
9002, -3.2210400104522705, -79.85163116455078, -2.73974871635437, 0.0, 0.0, -38.939266204833984, 0.0, 0.0, 0.4039764404296875, 0, 0, 0, 0, 0, 0, 9362.0, 30146.0, 35388.0, 9362.0, 8.152067184448242, 0.2564193606376648, 0.12848079204559326, 1.045459270477295, -0.9983900785446167, -0.01670972816646099, 0.03646758571267128, -0.04758536070585251, 0.1396007537841797, 1.50732421875, 0.0, 0.1519775390625, 1.4970703125
9012, -3.2677109241485596, -79.87052917480469, -2.785402297973633, 0.0, 0.0, -38.93561553955078, 0.0, 0.0, 0.3650665283203125, 0, 0, 0, 0, 0, 0, 9362.0, 30146.0, 35388.0, 9362.0, 8.152067184448242, -0.33659446239471436, -0.2780682444572449, -1.065044641494751, -0.9965315461158752, -0.022878631949424744, 0.036203913390636444, -0.04758536070585251, 0.1396007537841797, 1.50732421875, 0.0, 0.1532745361328125, 1.4970703125
9022, -3.295323610305786, -79.90082550048828, -2.811547040939331, 0.0, 0.0, -38.939971923828125, 0.0, 0.0, -0.435638427734375, 0, 0, 0, 0, 0, 0, 9362.0, 30146.0, 35388.0, 9362.0, 8.152067184448242, -0.31470057368278503, -0.02404899336397648, -2.3746845722198486, -0.9975507855415344, -0.01598268188536167, 0.03588549792766571, -0.04758536070585251, 0.1396007537841797, 1.50732421875, 0.0, 0.2439727783203125, 1.49560546875
9032, -3.323221206665039, -79.92156982421875, -2.840332269668579, 0.0, 0.0, -38.943878173828125, 0.0, 0.0, -0.390625, 0, 0, 0, 0, 0, 0, 9362.0, 30146.0, 35388.0, 9362.0, 8.132232666015625, 0.14088985323905945, 0.2774687707424164, -0.9870539903640747, -0.9987203478813171, -0.0046540978364646435, 0.036718230694532394, -0.061450857669115067, -0.08439826965332031, 1.489013671875, 0.0, 0.278778076171875, 1.49560546875
9042, -3.3353779315948486, -79.95256805419922, -2.851025342941284, 0.0, 0.0, -38.94218826293945, 0.0, 0.0, 0.1689910888671875, 0, 0, 0, 0, 0, 0, 9362.0, 30146.0, 35388.0, 9362.0, 8.132232666015625, 0.20952847599983215, 0.2969570755958557, 1.460644006729126, -1.0012751817703247, -0.0028931533452123404, 0.03500405326485634, -0.061450857669115067, -0.08439826965332031, 1.489013671875, 0.0, 0.161529541015625, 1.49560546875
9052, -3.2921881675720215, -79.97419738769531, -2.807602643966675, 0.0, 0.0, -38.940650939941406, 0.0, 0.0, 0.1537322998046875, 0, 0, 0, 0, 0, 0, 9362.0, 30146.0, 35388.0, 9362.0, 8.132232666015625, 0.20952847599983215, 0.2969570755958557, 1.460644006729126, -1.0012751817703247, -0.0028931533452123404, 0.03500405326485634, -0.061450857669115067, -0.08439826965332031, 1.489013671875, 0.0, 0.161529541015625, 1.49560546875
9062, -3.312546730041504, -80.00409698486328, -2.828974485397339, 0.0, 0.0, -38.93898391723633, 0.0, 0.0, 0.1667022705078125, 0, 0, 0, 0, 0, 0, 9362.0, 30146.0, 35388.0, 9362.0, 8.132232666015625, 0.4090754985809326, -0.2347632795572281, 0.7548407912254333, -1.0012751817703247, -0.0028931533452123404, 0.03500405326485634, -0.061450857669115067, -0.08439826965332031, 1.489013671875, 0.0, 0.155975341796875, 1.49267578125
9072, -3.383134603500366, -80.02075958251953, -2.898110866546631, 0.0, 0.0, -38.93747329711914, 0.0, 0.0, 0.15106201171875, 0, 0, 0, 0, 0, 0, 9362.0, 30146.0, 35388.0, 9362.0, 8.132232666015625, -0.3432197868824005, -0.4511518180370331, -1.7453771829605103, -0.9963091015815735, -0.015537763014435768, 0.03458813950419426, -0.061450857669115067, -0.08439826965332031, 1.489013671875, 0.0, 0.1452178955078125, 1.49267578125
9082, -3.413041591644287, -80.0458984375, -2.9264309406280518, 0.0, 0.0, -38.93911361694336, 0.0, 0.0, -0.164031982421875, 0, 0, 0, 0, 0, 0, 9362.0, 30146.0, 35388.0, 9362.0, 8.132232666015625, -0.28074485063552856, -0.301766961812973, -1.7895585298538208, -0.9963091015815735, -0.015537763014435768, 0.03458813950419426, -0.061450857669115067, -0.08439826965332031, 1.489013671875, 0.0, 0.1452178955078125, 1.49853515625
9092, -3.403014659881592, -80.06719970703125, -2.917003631591797, 0.0, 0.0, -38.940574645996094, 0.0, 0.0, -0.1461029052734375, 0, 0, 0, 0, 0, 0, 9362.0, 30146.0, 35388.0, 9362.0, 8.132232666015625, 0.2777107357978821, 0.4470249116420746, 0.719894289970398, -1.0011907815933228, -0.004381722770631313, 0.0352838933467865, -0.061450857669115067, -0.08439826965332031, 1.489013671875, 0.0, 0.231689453125, 1.49853515625
9102, -3.4037017822265625, -80.0975570678711, -2.9161176681518555, 0.0, 0.0, -38.94324493408203, 0.0, 0.0, -0.26702880859375, 0, 0, 0, 0, 0, 0, 9362.0, 30146.0, 35388.0, 9362.0, 8.132232666015625, 0.2777107357978821, 0.4470249116420746, 0.719894289970398, -0.9977973699569702, -0.010764076374471188, 0.036084000021219254, -0.061450857669115067, -0.08439826965332031, 1.489013671875, 0.0, 0.231689453125, 1.497802734375
9112, -3.3973183631896973, -80.11699676513672, -2.910128593444824, 0.0, 0.0, -38.94563674926758, 0.0, 0.0, -0.2391815185546875, 0, 0, 0, 0, 0, 0, 9362.0, 30146.0, 35388.0, 9362.0, 8.132232666015625, 0.2777107357978821, 0.4470249116420746, 0.719894289970398, -0.9957603812217712, -0.01812526397407055, 0.035902928560972214, -0.061450857669115067, -0.08439826965332031, 1.489013671875, 0.0, 0.1519775390625, 1.497802734375
9122, -3.430424690246582, -80.14321899414062, -2.941633939743042, 0.0, 0.0, -38.95652770996094, 0.0, 0.0, -1.0890960693359375, 0, 0, 0, 0, 0, 0, 9362.0, 30146.0, 35388.0, 9362.0, 8.132232666015625, -0.5580466985702515, -0.4017442464828491, -1.8669060468673706, -0.9961861968040466, -0.016115838661789894, 0.035670310258865356, -0.061450857669115067, -0.08439826965332031, 1.489013671875, 0.0, 0.130889892578125, 1.497802734375
9142, -3.4839110374450684, -80.19197082519531, -2.9958205223083496, 0.0, 0.0, -38.972110748291016, 0.0, 0.0, -0.5794525146484375, 0, 0, 0, 0, 0, 0, 9362.0, 30146.0, 35388.0, 9362.0, 8.132232666015625, 0.18691182136535645, 0.4147914946079254, 1.1852906942367554, -0.9961861968040466, -0.016115838661789894, 0.035670310258865356, -0.022521689534187317, 0.06792068481445312, 1.50146484375, 0.0, 0.130889892578125, 1.5029296875
9152, -3.4439902305603027, -80.20886993408203, -2.95695161819458, 0.0, 0.0, -38.97731399536133, 0.0, 0.0, -0.52032470703125, 0, 0, 0, 0, 0, 0, 9362.0, 30146.0, 35388.0, 9362.0, 8.132232666015625, 0.18691182136535645, 0.4147914946079254, 1.1852906942367554, -0.9983788132667542, -0.009760456159710884, 0.03676912933588028, -0.022521689534187317, 0.06792068481445312, 1.50146484375, 0.0, 0.1755218505859375, 1.5029296875
9162, -3.451514482498169, -80.23837280273438, -2.9633865356445312, 0.0, 0.0, -38.97731399536133, 0.0, 0.0, -0.52032470703125, 0, 0, 0, 0, 0, 0, 9362.0, 30146.0, 35388.0, 9362.0, 8.132232666015625, 0.001913217594847083, -0.08146276324987411, 0.28474128246307373, -0.9983788132667542, -0.009760456159710884, 0.03676912933588028, -0.022521689534187317, 0.06792068481445312, 1.50146484375, 0.0, 0.1755218505859375, 1.497802734375
9172, -3.518913745880127, -80.2567367553711, -3.030228614807129, 0.0, 0.0, -38.996055603027344, 0.0, 0.0, -0.887298583984375, 0, 0, 0, 0, 0, 0, 9362.0, 30146.0, 35388.0, 9362.0, 8.132232666015625, -0.28173255920410156, 0.035736240446567535, -1.9149894714355469, -0.9963617920875549, -0.019883276894688606, 0.03464337810873985, -0.022521689534187317, 0.06792068481445312, 1.50146484375, 0.0, 0.1755218505859375, 1.497802734375
9182, -3.5544095039367676, -80.28395080566406, -3.065498113632202, 0.0, 0.0, -39.00375747680664, 0.0, 0.0, -0.7701873779296875, 0, 0, 0, 0, 0, 0, 9362.0, 30146.0, 35388.0, 9362.0, 8.132232666015625, -0.16304107010364532, 0.4267297387123108, -1.999183177947998, -0.9963617920875549, -0.019883276894688606, 0.03464337810873985, -0.022521689534187317, 0.06792068481445312, 1.50146484375, 0.0, 0.1755218505859375, 1.497802734375
9192, -3.558195114135742, -80.30267333984375, -3.0700643062591553, 0.0, 0.0, -39.010677337646484, 0.0, 0.0, -0.691986083984375, 0, 0, 0, 0, 0, 0, 9362.0, 30146.0, 35388.0, 9362.0, 8.132232666015625, 0.2214859277009964, 0.0496189221739769, 0.25580769777297974, -0.9963617920875549, -0.019883276894688606, 0.03464337810873985, -0.022521689534187317, 0.06792068481445312, 1.50146484375, 0.0, 0.1452178955078125, 1.497802734375
9202, -3.5760841369628906, -80.33077239990234, -3.088256597518921, 0.0, 0.0, -39.00869369506836, 0.0, 0.0, 0.1983642578125, 0, 0, 0, 0, 0, 0, 9362.0, 30146.0, 35388.0, 9362.0, 8.132232666015625, 0.2214859277009964, 0.0496189221739769, 0.25580769777297974, -0.9973095655441284, -0.009783215820789337, 0.036111243069171906, -0.022521689534187317, 0.06792068481445312, 1.50146484375, 0.0, 0.179656982421875, 1.497802734375
9212, -3.5718178749084473, -80.34978485107422, -3.0838139057159424, 0.0, 0.0, -39.00689697265625, 0.0, 0.0, 0.1796722412109375, 0, 0, 0, 0, 0, 0, 9362.0, 30146.0, 35388.0, 9362.0, 8.132232666015625, 0.09808780252933502, -0.10296252369880676, 0.7626221776008606, -0.9973095655441284, -0.009783215820789337, 0.036111243069171906, -0.022521689534187317, 0.06792068481445312, 1.50146484375, 0.0, 0.179656982421875, 1.497802734375
9222, -3.584066152572632, -80.3802261352539, -3.0968236923217773, 0.0, 0.0, -39.00718688964844, 0.0, 0.0, -0.02899169921875, 0, 0, 0, 0, 0, 0, 9362.0, 30146.0, 35388.0, 9362.0, 8.132232666015625, -0.24867647886276245, -0.18323591351509094, -1.5345412492752075, -0.9957395792007446, -0.017956282943487167, 0.031019393354654312, -0.022521689534187317, 0.06792068481445312, 1.50146484375, 0.0, 0.2286224365234375, 1.497802734375
9242, -3.6623809337615967, -80.42935180664062, -3.1746580600738525, 0.0, 0.0, -39.0074348449707, 0.0, 0.0, -0.0247955322265625, 0, 0, 0, 0, 0, 0, 9362.0, 30146.0, 35388.0, 9362.0, 8.132232666015625, -0.24867647886276245, -0.18323591351509094, -1.5345412492752075, -1.001889705657959, -0.0019186560530215502, 0.03528629615902901, -0.03241154924035072, -0.10231781005859375, 1.487548828125, 0.0, 0.157379150390625, 1.50146484375
9252, -3.601435422897339, -80.44740295410156, -3.1141610145568848, 0.0, 0.0, -38.98497009277344, 0.0, 0.0, 1.0646820068359375, 0, 0, 0, 0, 0, 0, 9362.0, 30146.0, 35388.0, 9362.0, 8.132232666015625, -0.24867647886276245, -0.18323591351509094, -1.5345412492752075, -1.001155972480774, -0.009661097079515457, 0.03789093717932701, -0.03241154924035072, -0.10231781005859375, 1.487548828125, 0.0, 0.157379150390625, 1.50146484375
9262, -3.6565003395080566, -80.47267150878906, -3.1703362464904785, 0.0, 0.0, -38.977291107177734, 0.0, 0.0, 0.7678985595703125, 0, 0, 0, 0, 0, 0, 9362.0, 30146.0, 35388.0, 9362.0, 8.132232666015625, 0.32084402441978455, -0.10421840101480484, 0.11061830818653107, -1.001155972480774, -0.009661097079515457, 0.03789093717932701, -0.03241154924035072, -0.10231781005859375, 1.487548828125, 0.0, 0.157379150390625, 1.50146484375
9272, -3.720233917236328, -80.48944091796875, -3.2318575382232666, 0.0, 0.0, -38.97036361694336, 0.0, 0.0, 0.6927490234375, 0, 0, 0, 0, 0, 0, 9362.0, 30146.0, 35388.0, 9362.0, 8.132232666015625, 0.32084402441978455, -0.10421840101480484, 0.11061830818653107, -1.001155972480774, -0.009661097079515457, 0.03789093717932701, -0.03241154924035072, -0.10231781005859375, 1.487548828125, 0.0, 0.1698150634765625, 1.50146484375
9282, -3.732095956802368, -80.51387786865234, -3.2438409328460693, 0.0, 0.0, -38.965213775634766, 0.0, 0.0, 0.514984130859375, 0, 0, 0, 0, 0, 0, 9362.0, 30146.0, 35388.0, 9362.0, 8.132232666015625, -0.15983490645885468, 0.08995963633060455, -1.506709098815918, -1.001155972480774, -0.009661097079515457, 0.03789093717932701, -0.03241154924035072, -0.10231781005859375, 1.487548828125, 0.0, 0.1642303466796875, 1.50146484375
9292, -3.723159074783325, -80.53190612792969, -3.235198736190796, 0.0, 0.0, -38.960567474365234, 0.0, 0.0, 0.464630126953125, 0, 0, 0, 0, 0, 0, 9362.0, 30146.0, 35388.0, 9362.0, 8.132232666015625, 0.01923525147140026, 0.14104492962360382, 0.6778704524040222, -1.0000832080841064, -0.0044703008607029915, 0.03799155354499817, -0.03241154924035072, -0.10231781005859375, 1.487548828125, 0.0, 0.1698150634765625, 1.50146484375
9302, -3.723355770111084, -80.55841064453125, -3.2344608306884766, 0.0, 0.0, -38.96458053588867, 0.0, 0.0, -0.40130615234375, 0, 0, 0, 0, 0, 0, 9362.0, 30146.0, 35388.0, 9362.0, 8.132232666015625, 0.2918526828289032, -0.24690212309360504, 2.3416495323181152, -1.0000832080841064, -0.0044703008607029915, 0.03799155354499817, -0.03241154924035072, -0.10231781005859375, 1.487548828125, 0.0, 0.1698150634765625, 1.50146484375
9312, -3.7051093578338623, -80.57635498046875, -3.2161660194396973, 0.0, 0.0, -38.96818161010742, 0.0, 0.0, -0.360107421875, 0, 0, 0, 0, 0, 0, 9362.0, 30146.0, 35388.0, 9362.0, 8.132232666015625, 0.2918526828289032, -0.24690212309360504, 2.3416495323181152, -0.9975298047065735, -0.01709330454468727, 0.03433309867978096, -0.03241154924035072, -0.10231781005859375, 1.487548828125, 0.0, 0.172576904296875, 1.50146484375
9322, -3.7164599895477295, -80.60352325439453, -3.226196050643921, 0.0, 0.0, -38.96818161010742, 0.0, 0.0, -0.360107421875, 0, 0, 0, 0, 0, 0, 9362.0, 30146.0, 35388.0, 9362.0, 8.132232666015625, -0.3144068121910095, -0.031328924000263214, -1.1670116186141968, -0.9975298047065735, -0.01709330454468727, 0.03433309867978096, -0.03241154924035072, -0.10231781005859375, 1.487548828125, 0.0, 0.172576904296875, 1.4970703125
9332, -3.7742855548858643, -80.6246109008789, -3.2839250564575195, 0.0, 0.0, -38.973793029785156, 0.0, 0.0, -0.2651214599609375, 0, 0, 0, 0, 0, 0, 9362.0, 30146.0, 35388.0, 9362.0, 8.132232666015625, -0.3144068121910095, -0.031328924000263214, -1.1670116186141968, -0.9975298047065735, -0.01709330454468727, 0.03433309867978096, -0.06550681591033936, -0.030637741088867188, 1.493408203125, 0.0, 0.1642303466796875, 1.4970703125
9342, -3.8027665615081787, -80.64936065673828, -3.312908887863159, 0.0, 0.0, -38.96824645996094, 0.0, 0.0, 0.554656982421875, 0, 0, 0, 0, 0, 0, 9362.0, 30146.0, 35388.0, 9362.0, 8.132232666015625, 0.16043910384178162, 0.04666557163000107, 0.35240620374679565, -0.9975298047065735, -0.01709330454468727, 0.03433309867978096, -0.06550681591033936, -0.030637741088867188, 1.493408203125, 0.0, 0.1642303466796875, 1.4970703125
9352, -3.7498056888580322, -80.66616821289062, -3.2598862648010254, 0.0, 0.0, -38.96324157714844, 0.0, 0.0, 0.50048828125, 0, 0, 0, 0, 0, 0, 9362.0, 30146.0, 35388.0, 9362.0, 8.132232666015625, 0.10481616109609604, -0.16298063099384308, 2.0938055515289307, -0.9999152421951294, -0.007618157658725977, 0.0363895520567894, -0.06550681591033936, -0.030637741088867188, 1.493408203125, 0.0, 0.1970977783203125, 1.4970703125
9362, -3.770846366882324, -80.69024658203125, -3.2809629440307617, 0.0, 0.0, -38.95736312866211, 0.0, 0.0, 0.5878448486328125, 0, 0, 0, 0, 0, 0, 9362.0, 30146.0, 35388.0, 9362.0, 8.132232666015625, -0.18171270191669464, -0.4015098214149475, 0.23324008285999298, -0.9966561198234558, -0.013940517790615559, 0.03682466223835945, -0.06550681591033936, -0.030637741088867188, 1.493408203125, 0.0, 0.1970977783203125, 1.502197265625
9372, -3.8290913105010986, -80.70543670654297, -3.33833646774292, 0.0, 0.0, -38.95206069946289, 0.0, 0.0, 0.530242919921875, 0, 0, 0, 0, 0, 0, 9362.0, 30146.0, 35388.0, 9362.0, 8.132232666015625, -0.19651192426681519, -0.2022508978843689, -1.7690597772598267, -0.9966561198234558, -0.013940517790615559, 0.03682466223835945, -0.06550681591033936, -0.030637741088867188, 1.493408203125, 0.0, 0.1970977783203125, 1.502197265625
9382, -3.8291826248168945, -80.7306137084961, -3.33931303024292, 0.0, 0.0, -38.95165252685547, 0.0, 0.0, 0.0408172607421875, 0, 0, 0, 0, 0, 0, 9362.0, 30146.0, 35388.0, 9362.0, 8.132232666015625, -0.13900859653949738, 0.26413118839263916, -1.6135503053665161, -0.9963059425354004, -0.009083348326385021, 0.036356836557388306, -0.06550681591033936, -0.030637741088867188, 1.493408203125, 0.0, 0.1970977783203125, 1.500732421875
9392, -3.821528673171997, -80.75006103515625, -3.331639528274536, 0.0, 0.0, -38.95127487182617, 0.0, 0.0, 0.0377655029296875, 0, 0, 0, 0, 0, 0, 9362.0, 30146.0, 35388.0, 9362.0, 8.132232666015625, 0.0015665049431845546, 0.45696723461151123, 0.10518700629472733, -0.9963059425354004, -0.009083348326385021, 0.036356836557388306, -0.06550681591033936, -0.030637741088867188, 1.493408203125, 0.0, 0.1970977783203125, 1.500732421875
9402, -3.851959466934204, -80.77611541748047, -3.3605339527130127, 0.0, 0.0, -38.95147705078125, 0.0, 0.0, -0.0202178955078125, 0, 0, 0, 0, 0, 0, 9362.0, 30146.0, 35388.0, 9362.0, 8.132232666015625, 0.0015665049431845546, 0.45696723461151123, 0.10518700629472733, -0.9986733198165894, -0.005167233757674694, 0.03396252170205116, -0.06550681591033936, -0.030637741088867188, 1.493408203125, 0.0, 0.179656982421875, 1.500732421875
9412, -3.7945637702941895, -80.79454040527344, -3.30316162109375, 0.0, 0.0, -38.9516487121582, 0.0, 0.0, -0.0171661376953125, 0, 0, 0, 0, 0, 0, 9362.0, 30146.0, 35388.0, 9362.0, 8.132232666015625, 0.32824623584747314, 0.23075896501541138, 1.8551863431930542, -0.9986733198165894, -0.005167233757674694, 0.03396252170205116, -0.06550681591033936, -0.030637741088867188, 1.493408203125, 0.0, 0.179656982421875, 1.500732421875
9422, -3.818143606185913, -80.81957244873047, -3.3264212608337402, 0.0, 0.0, -38.94496154785156, 0.0, 0.0, 0.6687164306640625, 0, 0, 0, 0, 0, 0, 9362.0, 30146.0, 35388.0, 9362.0, 8.132232666015625, 0.20963016152381897, -0.004461232572793961, 1.8118199110031128, -1.0001956224441528, -0.007699157111346722, 0.03627677634358406, -0.06550681591033936, -0.030637741088867188, 1.493408203125, 0.0, 0.179656982421875, 1.5
9432, -3.822706460952759, -80.83570861816406, -3.3310437202453613, 0.0, 0.0, -38.93893051147461, 0.0, 0.0, 0.6031036376953125, 0, 0, 0, 0, 0, 0, 9362.0, 30146.0, 35388.0, 9362.0, 8.132232666015625, 0.023439357057213783, -0.10220801830291748, 0.6072679758071899, -1.0001956224441528, -0.007699157111346722, 0.03627677634358406, -0.06370003521442413, -0.09335899353027344, 1.48828125, 0.0, 0.179656982421875, 1.5
9442, -3.8655476570129395, -80.85700988769531, -3.375624418258667, 0.0, 0.0, -38.93431854248047, 0.0, 0.0, 0.4611968994140625, 0, 0, 0, 0, 0, 0, 9362.0, 30146.0, 35388.0, 9362.0, 8.132232666015625, -0.11775187402963638, -0.7451922297477722, -2.224093437194824, -0.9977422952651978, -0.01636464148759842, 0.03479151055216789, -0.06370003521442413, -0.09335899353027344, 1.48828125, 0.0, 0.179656982421875, 1.5
9452, -3.968369483947754, -80.8714599609375, -3.4784841537475586, 0.0, 0.0, -38.930152893066406, 0.0, 0.0, 0.41656494140625, 0, 0, 0, 0, 0, 0, 9362.0, 30146.0, 35388.0, 9362.0, 8.132232666015625, -0.25788119435310364, -0.10712749511003494, -2.6231493949890137, -0.9977422952651978, -0.01636464148759842, 0.03479151055216789, -0.06370003521442413, -0.09335899353027344, 1.48828125, 0.0, 0.179656982421875, 1.5
9462, -4.001744747161865, -80.89676666259766, -3.513259172439575, 0.0, 0.0, -38.91792297363281, 0.0, 0.0, 1.222991943359375, 0, 0, 0, 0, 0, 0, 9362.0, 30146.0, 35388.0, 9362.0, 8.132232666015625, 0.12669780850410461, 0.5159608721733093, 0.27058759331703186, -0.9977422952651978, -0.01636464148759842, 0.03479151055216789, -0.06370003521442413, -0.09335899353027344, 1.48828125, 0.0, 0.1492767333984375, 1.5
9472, -3.95021653175354, -80.91402435302734, -3.461864471435547, 0.0, 0.0, -38.90690612792969, 0.0, 0.0, 1.1016845703125, 0, 0, 0, 0, 0, 0, 9362.0, 30146.0, 35388.0, 9362.0, 8.132232666015625, 0.2269081324338913, 0.21666079759597778, 2.063370943069458, -0.9954244494438171, -0.009266939014196396, 0.03795270249247551, -0.06370003521442413, -0.09335899353027344, 1.48828125, 0.0, 0.1492767333984375, 1.5
9482, -3.9520514011383057, -80.94084167480469, -3.4616336822509766, 0.0, 0.0, -38.898902893066406, 0.0, 0.0, 0.800323486328125, 0, 0, 0, 0, 0, 0, 9362.0, 30146.0, 35388.0, 9362.0, 8.132232666015625, -0.023420119658112526, 0.16528759896755219, 1.9799818992614746, -0.9954244494438171, -0.009266939014196396, 0.03795270249247551, -0.06370003521442413, -0.09335899353027344, 1.48828125, 0.0, 0.1492767333984375, 1.494140625
