timeTick, roll, pitch, yaw, stateX, stateY, stateZ, stateVX, stateVY, stateVZ, otX0, otY0, otZ0, otRoll0, otPitch0, otYaw0, left wing, pitch motor, yaw motor, right wing, voltage, roll rate, pitch rate, yaw rate, A_x, A_y, A_z, current, i_raw, v_raw, airflow_voltage, airflow_speed, pot_Pitch, voltage_KF
11371, 6.8639631271362305, 69.94410705566406, -4.883894920349121, 0, 0, 0, 0, 0, 0, 0, 0, 0, 0, 0, 0, 0, 0, 0, 0, 0, 0, 0, 0, 0, 0, 0, 0, 0, 0, 0, 0, 0, 0
11381, 6.8862528800964355, 69.998291015625, -4.9058661460876465, 0.0, 0.0, -26.482872009277344, 0.0, 0.0, 0.34389495849609375, 0, 0, 0, 0, 0, 0, 9362.0, 30146.0, 35388.0, 9362.0, 0, -0.09298285841941833, -0.13991698622703552, 0.03807951882481575, 0, 0, 0, 0, 0, 0, 0, 0, 0, 0
11391, 6.927069187164307, 70.07777404785156, -4.9446821212768555, 0.0, 0.0, -26.479703903198242, 0.0, 0.0, 0.31681060791015625, 0, 0, 0, 0, 0, 0, 9362.0, 30146.0, 35388.0, 9362.0, 0, -0.03979933634400368, -0.07203761488199234, -0.2598721981048584, 0.9999300241470337, 0.04277026280760765, 0.033695757389068604, 0, 0, 0, 1.41796875, 0.05950927734375, 0, 0.01887405849993229
11401, 6.947856903076172, 70.13201904296875, -4.964515209197998, 0.0, 0.0, -26.475162506103516, 0.0, 0.0, 0.45413970947265625, 0, 0, 0, 0, 0, 0, 9362.0, 30146.0, 35388.0, 9362.0, 0, -0.11300216615200043, 0.30551400780677795, 0.11204976588487625, 1.0019257068634033, 0.04272572696208954, 0.03251064941287041, 0, 0, 0, 1.41064453125, 0.0509490966796875, 1.49560546875, 0.018747961148619652
11411, 6.980452060699463, 70.2109603881836, -4.997326374053955, 0.0, 0.0, -26.471004486083984, 0.0, 0.0, 0.415802001953125, 0, 0, 0, 0, 0, 0, 9362.0, 30146.0, 35388.0, 9362.0, 0, -0.2677903473377228, -0.14299209415912628, -0.26372504234313965, 0.9993730187416077, 0.0428234338760376, 0.030775045976042747, 0, 0, 0, 1.3505859375, 0.0153045654296875, 1.49560546875, 0.01862275041639805
11421, 6.99928617477417, 70.26299285888672, -5.015173435211182, 0.0, 0.0, -26.468036651611328, 0.0, 0.0, 0.296783447265625, 0, 0, 0, 0, 0, 0, 9362.0, 30146.0, 35388.0, 9362.0, 0, 0.017854105681180954, 0.21519066393375397, 0.4332781434059143, 0.9985278844833374, 0.043216075748205185, 0.029705379158258438, 0, 0, 0, 1.423828125, 0.066802978515625, 1.506591796875, 0.018498418852686882
11431, 7.035714149475098, 70.3449478149414, -5.049788475036621, 0.0, 0.0, -26.465295791625977, 0.0, 0.0, 0.27408599853515625, 0, 0, 0, 0, 0, 0, 9362.0, 30146.0, 35388.0, 9362.0, 0, -0.08224089443683624, -0.16358062624931335, -0.4289539158344269, 1.0009121894836426, 0.04595710709691048, 0.02873801440000534, 0, 0, 0, 1.39013671875, 0.0314483642578125, 1.506591796875, 0.018374962732195854
11441, 7.053683757781982, 70.4004135131836, -5.066093921661377, 0.0, 0.0, -26.452669143676758, 0.0, 0.0, 1.262664794921875, 0, 0, 0, 0, 0, 0, 9362.0, 30146.0, 35388.0, 9362.0, 0, -0.055756036192178726, 0.08318976312875748, 0.4097592532634735, 0.9979599714279175, 0.0440252386033535, 0.024886930361390114, 0, 0, 0, 1.42236328125, 0.0649566650390625, 1.49560546875, 0.018252374604344368
11451, 7.081611156463623, 70.47946166992188, -5.093105792999268, 0.0, 0.0, -26.441240310668945, 0.0, 0.0, 1.14288330078125, 0, 0, 0, 0, 0, 0, 9362.0, 30146.0, 35388.0, 9362.0, 0, 0.014347551390528679, 0.22266177833080292, 0.0025103178340941668, 0.9969943761825562, 0.04238366708159447, 0.02293327823281288, 0, 0, 0, 1.35791015625, 0.015869140625, 1.49560546875, 0.018130643293261528
11461, 7.10657262802124, 70.53186798095703, -5.11741304397583, 0.0, 0.0, -26.42653465270996, 0.0, 0.0, 1.4705657958984375, 0, 0, 0, 0, 0, 0, 9362.0, 30146.0, 35388.0, 9362.0, 0, -0.0975884273648262, -0.06945554912090302, -0.24943792819976807, 0.9995979070663452, 0.0396285206079483, 0.026208961382508278, 0, 0, 0, 1.324951171875, 0.0236663818359375, 1.48974609375, 0.018009768798947334
11471, 7.1446638107299805, 70.60811614990234, -5.1550164222717285, 0.0, 0.0, -26.413232803344727, 0.0, 0.0, 1.3301849365234375, 0, 0, 0, 0, 0, 0, 9362.0, 30146.0, 35388.0, 9362.0, 7.5966949462890625, -0.11603473871946335, -0.060787517577409744, -0.026735171675682068, 1.0000959634780884, 0.04203054681420326, 0.03295236453413963, 0, 0, 0, 1.38427734375, 0.027099609375, 1.48974609375, 0.01788973994553089
11481, 7.177798748016357, 70.65719604492188, -5.186672687530518, 0.0, 0.0, -26.403676986694336, 0.0, 0.0, 0.9555816650390625, 0, 0, 0, 0, 0, 0, 9362.0, 30146.0, 35388.0, 9362.0, 7.5966949462890625, 0.14603830873966217, -0.4288429319858551, -0.38322269916534424, 0.9973835349082947, 0.04637584090232849, 0.038953252136707306, -0.07257052510976791, 0.08584022521972656, 1.5029296875, 1.41357421875, 0.0542449951171875, 1.49560546875, 0.017770549282431602
11491, 7.206563949584961, 70.73239135742188, -5.212569713592529, 0.0, 0.0, -26.395008087158203, 0.0, 0.0, 0.8668899536132812, 0, 0, 0, 0, 0, 0, 9362.0, 30146.0, 35388.0, 9362.0, 7.5966949462890625, 0.04955018311738968, 0.1795293688774109, 0.30266645550727844, 0.9960417747497559, 0.04532470554113388, 0.041394926607608795, -0.07257052510976791, 0.08584022521972656, 1.5029296875, 1.34326171875, 0.01605224609375, 1.49560546875, 0.01765219308435917
11501, 7.219692707061768, 70.78327178955078, -5.225653648376465, 0.0, 0.0, -26.390987396240234, 0.0, 0.0, 0.402069091796875, 0, 0, 0, 0, 0, 0, 9362.0, 30146.0, 35388.0, 9362.0, 7.5966949462890625, -0.128787562251091, 0.05119161680340767, 0.4644703269004822, 0.9994663000106812, 0.04584246501326561, 0.03780005872249603, -0.07257052510976791, 0.08584022521972656, 1.5029296875, 1.3330078125, 0.0191650390625, 1.494140625, 0.017534667626023293
11511, 7.239657878875732, 70.86090850830078, -5.243023872375488, 0.0, 0.0, -26.38730239868164, 0.0, 0.0, 0.368499755859375, 0, 0, 0, 0, 0, 0, 9362.0, 30146.0, 35388.0, 9362.0, 7.5966949462890625, 0.02649458684027195, -0.04947952553629875, 0.2667541205883026, 0.9998283982276917, 0.043736666440963745, 0.03148665651679039, -0.07257052510976791, 0.08584022521972656, 1.5029296875, 1.2919921875, 0.0613250732421875, 1.494140625, 0.017417961731553078
11521, 7.264369964599609, 70.91291046142578, -5.26723575592041, 0.0, 0.0, -26.390504837036133, 0.0, 0.0, -0.32024383544921875, 0, 0, 0, 0, 0, 0, 9362.0, 30146.0, 35388.0, 9362.0, 7.5966949462890625, -0.044430602341890335, -0.3433458209037781, -0.09797273576259613, 0.9993293881416321, 0.040755532681941986, 0.023655103519558907, -0.07257052510976791, 0.08584022521972656, 1.5029296875, 1.388671875, 0.03033447265625, 1.49267578125, 0.017302071675658226
11531, 7.301523208618164, 70.99260711669922, -5.303994655609131, 0.0, 0.0, -26.39332389831543, 0.0, 0.0, -0.2819061279296875, 0, 0, 0, 0, 0, 0, 9362.0, 30146.0, 35388.0, 9362.0, 7.5966949462890625, -0.14984774589538574, 0.21912330389022827, -0.08161342144012451, 0.9995751976966858, 0.04066856950521469, 0.02140389010310173, -0.07257052510976791, 0.08584022521972656, 1.5029296875, 1.3388671875, 0.017120361328125, 1.49267578125, 0.01718699000775814
11541, 7.328500747680664, 71.04415893554688, -5.32987642288208, 0.0, 0.0, -26.396095275878906, 0.0, 0.0, -0.27713775634765625, 0, 0, 0, 0, 0, 0, 9362.0, 30146.0, 35388.0, 9362.0, 7.5966949462890625, -0.1879376620054245, -0.30926716327667236, 0.11060316115617752, 0.9990348815917969, 0.0426802933216095, 0.022455839440226555, -0.07257052510976791, 0.08584022521972656, 1.5029296875, 1.36962890625, 0.01910400390625, 1.496337890625, 0.017072713002562523
11551, 7.352700710296631, 71.11946105957031, -5.3531494140625, 0.0, 0.0, -26.398523330688477, 0.0, 0.0, -0.24280548095703125, 0, 0, 0, 0, 0, 0, 9362.0, 30146.0, 35388.0, 9362.0, 7.5966949462890625, -0.0938437432050705, 0.2873903810977936, 0.09378596395254135, 1.0026198625564575, 0.04597455635666847, 0.02698608487844467, -0.07257052510976791, 0.08584022521972656, 1.5029296875, 1.338134765625, 0.01727294921875, 1.496337890625, 0.016959233209490776
11561, 7.373456001281738, 71.17030334472656, -5.373656749725342, 0.0, 0.0, -26.40531349182129, 0.0, 0.0, -0.67901611328125, 0, 0, 0, 0, 0, 0, 9362.0, 30146.0, 35388.0, 9362.0, 7.5966949462890625, -0.19906538724899292, -0.1465783268213272, 0.18093444406986237, 0.9988774061203003, 0.041430335491895676, 0.028635820373892784, -0.07257052510976791, 0.08584022521972656, 1.5029296875, 1.388671875, 0.03033447265625, 1.49560546875, 0.016846543177962303
11571, 7.400641918182373, 71.2416000366211, -5.399088382720947, 0.0, 0.0, -26.411361694335938, 0.0, 0.0, -0.6048202514648438, 0, 0, 0, 0, 0, 0, 9362.0, 30146.0, 35388.0, 9362.0, 7.5966949462890625, 0.035944677889347076, 0.40398019552230835, 0.14140425622463226, 0.9990310072898865, 0.04228919371962547, 0.0349804051220417, -0.07257052510976791, 0.08584022521972656, 1.5029296875, 1.39599609375, 0.0362701416015625, 1.49560546875, 0.016734635457396507
11581, 7.4259867668151855, 71.29100036621094, -5.422301292419434, 0.0, 0.0, -26.414573669433594, 0.0, 0.0, -0.321197509765625, 0, 0, 0, 0, 0, 0, 9362.0, 30146.0, 35388.0, 9362.0, 7.5966949462890625, 0.08292976766824722, -0.08497264236211777, 0.041683875024318695, 0.9990320205688477, 0.04432960972189903, 0.04049612954258919, -0.08368650823831558, -0.07543754577636719, 1.48974609375, 1.32275390625, 0.0251312255859375, 1.494140625, 0.01662351004779339
11591, 7.461460113525391, 71.36211395263672, -5.45741081237793, 0.0, 0.0, -26.417400360107422, 0.0, 0.0, -0.2826690673828125, 0, 0, 0, 0, 0, 0, 9362.0, 30146.0, 35388.0, 9362.0, 7.5966949462890625, -0.1371331363916397, 0.1541426181793213, -0.11346366256475449, 0.9980759024620056, 0.044641558080911636, 0.037044867873191833, -0.08368650823831558, -0.07543754577636719, 1.48974609375, 1.37255859375, 0.02044677734375, 1.494140625, 0.01651315577328205
11601, 7.484264373779297, 71.41018676757812, -5.479248523712158, 0.0, 0.0, -26.417444229125977, 0.0, 0.0, -0.00438690185546875, 0, 0, 0, 0, 0, 0, 9362.0, 30146.0, 35388.0, 9362.0, 7.5966949462890625, 0.008866309188306332, 0.050138894468545914, 0.43846261501312256, 0.995003342628479, 0.04389207065105438, 0.033665768802165985, -0.08368650823831558, -0.07543754577636719, 1.48974609375, 1.4150390625, 0.05596923828125, 1.494140625, 0.016403568908572197
11611, 7.518789291381836, 71.48418426513672, -5.511209487915039, 0.0, 0.0, -26.417423248291016, 0.0, 0.0, 0.00209808349609375, 0, 0, 0, 0, 0, 0, 9362.0, 30146.0, 35388.0, 9362.0, 7.5966949462890625, 0.11700312048196793, -0.02819211781024933, -0.378105491399765, 0.9972983002662659, 0.04191729053854942, 0.029856879264116287, -0.08368650823831558, -0.07543754577636719, 1.48974609375, 1.3564453125, 0.0156707763671875, 1.494140625, 0.01629474200308323
11621, 7.544100761413574, 71.53102111816406, -5.535519599914551, 0.0, 0.0, -26.422012329101562, 0.0, 0.0, -0.4589080810546875, 0, 0, 0, 0, 0, 0, 9362.0, 30146.0, 35388.0, 9362.0, 7.5966949462890625, -0.11336901783943176, 0.39541658759117126, 0.24092380702495575, 1.0013946294784546, 0.04160196706652641, 0.026013953611254692, -0.08368650823831558, -0.07543754577636719, 1.48974609375, 1.294921875, 0.0565948486328125, 1.491943359375, 0.01618667133152485
11631, 7.587322235107422, 71.60371398925781, -5.5772905349731445, 0.0, 0.0, -26.426082611083984, 0.0, 0.0, -0.4070281982421875, 0, 0, 0, 0, 0, 0, 9362.0, 30146.0, 35388.0, 9362.0, 7.5966949462890625, 0.030917786061763763, 0.026128193363547325, -0.27009761333465576, 0.9993143677711487, 0.04364039748907089, 0.02586280182003975, -0.08368650823831558, -0.07543754577636719, 1.48974609375, 1.33447265625, 0.0186309814453125, 1.491943359375, 0.016079353168606758
11641, 7.610323905944824, 71.65438079833984, -5.600468635559082, 0.0, 0.0, -26.431346893310547, 0.0, 0.0, -0.52642822265625, 0, 0, 0, 0, 0, 0, 9362.0, 30146.0, 35388.0, 9362.0, 7.5966949462890625, 0.0149310864508152, -0.13215288519859314, 0.011618983931839466, 0.9970056414604187, 0.04357649385929108, 0.027877850458025932, -0.08368650823831558, -0.07543754577636719, 1.48974609375, 1.415771484375, 0.0568695068359375, 1.4912109375, 0.01597277633845806
11651, 7.642672061920166, 71.72621154785156, -5.630215644836426, 0.0, 0.0, -26.43602752685547, 0.0, 0.0, -0.4680633544921875, 0, 0, 0, 0, 0, 0, 9362.0, 30146.0, 35388.0, 9362.0, 7.5966949462890625, -0.00024533155374228954, -0.18389374017715454, 0.33981338143348694, 0.998245120048523, 0.04630397632718086, 0.0287630632519722, -0.08368650823831558, -0.07543754577636719, 1.48974609375, 1.39892578125, 0.0390167236328125, 1.4912109375, 0.015866940841078758
11661, 7.664096355438232, 71.7740478515625, -5.6503987312316895, 0.0, 0.0, -26.43992805480957, 0.0, 0.0, -0.39005279541015625, 0, 0, 0, 0, 0, 0, 9362.0, 30146.0, 35388.0, 9362.0, 7.5966949462890625, 0.1329459398984909, -0.1263820081949234, -0.030641425400972366, 0.9990929961204529, 0.04456086456775665, 0.03338291496038437, -0.08368650823831558, -0.07543754577636719, 1.48974609375, 1.306640625, 0.040557861328125, 1.49267578125, 0.015761835500597954
11671, 7.701950550079346, 71.8459701538086, -5.687033176422119, 0.0, 0.0, -26.443376541137695, 0.0, 0.0, -0.3448486328125, 0, 0, 0, 0, 0, 0, 9362.0, 30146.0, 35388.0, 9362.0, 7.5966949462890625, 0.06585954874753952, -0.011415231972932816, -0.2106897234916687, 0.9994252324104309, 0.043895989656448364, 0.03421742469072342, -0.08368650823831558, -0.07543754577636719, 1.48974609375, 1.26416015625, 0.121337890625, 1.49267578125, 0.015657460317015648
11681, 7.734127044677734, 71.89318084716797, -5.7178826332092285, 0.0, 0.0, -26.450815200805664, 0.0, 0.0, -0.743865966796875, 0, 0, 0, 0, 0, 0, 9362.0, 30146.0, 35388.0, 9362.0, 7.5966949462890625, 0.10479170083999634, -0.04771238565444946, -0.47523999214172363, 0.999850869178772, 0.04485666751861572, 0.035762228071689606, -0.05477762594819069, -0.14711761474609375, 1.48388671875, 1.421630859375, 0.0640716552734375, 1.4970703125, 0.015553805977106094
11691, 7.7776198387146, 71.96463775634766, -5.759148120880127, 0.0, 0.0, -26.457448959350586, 0.0, 0.0, -0.6633758544921875, 0, 0, 0, 0, 0, 0, 9362.0, 30146.0, 35388.0, 9362.0, 7.5966949462890625, 0.0066369520500302315, -0.02437106892466545, -0.17842034995555878, 0.9987923502922058, 0.04437778890132904, 0.03256438672542572, -0.05477762594819069, -0.14711761474609375, 1.48388671875, 1.411376953125, 0.05181884765625, 1.4970703125, 0.015450868755578995
11701, 7.7995524406433105, 72.01493835449219, -5.781404495239258, 0.0, 0.0, -26.45900535583496, 0.0, 0.0, -0.1556396484375, 0, 0, 0, 0, 0, 0, 9362.0, 30146.0, 35388.0, 9362.0, 7.5966949462890625, -0.2216029018163681, -0.14091339707374573, 0.21402770280838013, 0.9990621209144592, 0.04293522611260414, 0.027075212448835373, -0.05477762594819069, -0.14711761474609375, 1.48388671875, 1.41064453125, 0.0509490966796875, 1.4912109375, 0.015348643064498901
11711, 7.829193592071533, 72.08467864990234, -5.808836936950684, 0.0, 0.0, -26.460351943969727, 0.0, 0.0, -0.1346588134765625, 0, 0, 0, 0, 0, 0, 9362.0, 30146.0, 35388.0, 9362.0, 7.5966949462890625, -0.05277462676167488, -0.0004174406931269914, -0.24621038138866425, 0.9985681176185608, 0.04432385787367821, 0.02540610171854496, -0.05477762594819069, -0.14711761474609375, 1.48388671875, 1.34033203125, 0.0166168212890625, 1.4912109375, 0.015247123315930367
11721, 7.859265327453613, 72.1313247680664, -5.837124824523926, 0.0, 0.0, -26.4650821685791, 0.0, 0.0, -0.4730224609375, 0, 0, 0, 0, 0, 0, 9362.0, 30146.0, 35388.0, 9362.0, 7.5966949462890625, -0.0012786152074113488, -0.03624020516872406, -0.0220904853194952, 0.9984827637672424, 0.04402857646346092, 0.025174424052238464, -0.05477762594819069, -0.14711761474609375, 1.48388671875, 1.42236328125, 0.0649566650390625, 1.493408203125, 0.015146305784583092
11731, 7.905580520629883, 72.20207214355469, -5.883466720581055, 0.0, 0.0, -26.46928596496582, 0.0, 0.0, -0.420379638671875, 0, 0, 0, 0, 0, 0, 9362.0, 30146.0, 35388.0, 9362.0, 7.5966949462890625, 0.06546176224946976, -0.23885346949100494, -0.37783917784690857, 0.998155415058136, 0.04448789730668068, 0.026714324951171875, -0.05477762594819069, -0.14711761474609375, 1.48388671875, 1.39453125, 0.035003662109375, 1.493408203125, 0.01504618301987648
11741, 7.934865951538086, 72.25001525878906, -5.911006927490234, 0.0, 0.0, -26.47193717956543, 0.0, 0.0, -0.2651214599609375, 0, 0, 0, 0, 0, 0, 9362.0, 30146.0, 35388.0, 9362.0, 7.5966949462890625, 0.27143675088882446, -0.004932424519211054, -0.1109321266412735, 0.9992324113845825, 0.04566332697868347, 0.031071286648511887, -0.05477762594819069, -0.14711761474609375, 1.48388671875, 1.31396484375, 0.0325469970703125, 1.49267578125, 0.014946751296520233
11751, 7.969504356384277, 72.31497955322266, -5.94337797164917, 0.0, 0.0, -26.474266052246094, 0.0, 0.0, -0.23288726806640625, 0, 0, 0, 0, 0, 0, 9362.0, 30146.0, 35388.0, 9362.0, 7.5966949462890625, 0.10303939878940582, 0.12949566543102264, 0.1281926929950714, 1.0003217458724976, 0.0447247177362442, 0.033109355717897415, -0.05477762594819069, -0.14711761474609375, 1.48388671875, 1.359375, 0.0160980224609375, 1.49267578125, 0.014848005026578903
11761, 7.988088607788086, 72.35910034179688, -5.960212707519531, 0.0, 0.0, -26.466753005981445, 0.0, 0.0, 0.7513046264648438, 0, 0, 0, 0, 0, 0, 9362.0, 30146.0, 35388.0, 9362.0, 7.5966949462890625, 0.022782938554883003, 0.027812689542770386, 0.09780946373939514, 0.9993793368339539, 0.04413590580224991, 0.03456070274114609, -0.05477762594819069, -0.14711761474609375, 1.48388671875, 1.359375, 0.0160980224609375, 1.494140625, 0.014749938622117043
11771, 8.02097225189209, 72.42750549316406, -5.991531848907471, 0.0, 0.0, -26.459936141967773, 0.0, 0.0, 0.6816864013671875, 0, 0, 0, 0, 0, 0, 9362.0, 30146.0, 35388.0, 9362.0, 7.5966949462890625, 0.07768432796001434, 0.16860298812389374, 0.2703406512737274, 0.9977296590805054, 0.043206918984651566, 0.033531997352838516, -0.05477762594819069, -0.14711761474609375, 1.48388671875, 1.308837890625, 0.0379486083984375, 1.494140625, 0.014652548357844353
11781, 8.048484802246094, 72.47352600097656, -6.018333435058594, 0.0, 0.0, -26.463333129882812, 0.0, 0.0, -0.33969879150390625, 0, 0, 0, 0, 0, 0, 9362.0, 30146.0, 35388.0, 9362.0, 7.5966949462890625, 8.436819189228117e-05, -0.12072190642356873, -0.4511393904685974, 0.9975895881652832, 0.04142758622765541, 0.03275170549750328, -0.04936913773417473, -0.14711761474609375, 1.48388671875, 1.379150390625, 0.0238189697265625, 1.49267578125, 0.014555828645825386
11791, 8.087021827697754, 72.54047393798828, -6.0559539794921875, 0.0, 0.0, -26.466339111328125, 0.0, 0.0, -0.30059814453125, 0, 0, 0, 0, 0, 0, 9362.0, 30146.0, 35388.0, 9362.0, 7.5966949462890625, 0.01936820149421692, 0.1744370460510254, 0.04752369970083237, 0.9973558783531189, 0.0393633097410202, 0.03045591711997986, -0.04936913773417473, -0.14711761474609375, 1.48388671875, 1.32861328125, 0.0214385986328125, 1.49267578125, 0.014459773898124695
11841, 8.254855155944824, 72.81315612792969, -6.220519542694092, 0.0, 0.0, -26.489931106567383, 0.0, 0.0, -0.4100799560546875, 0, 0, 0, 0, 0, 0, 9362.0, 30146.0, 35388.0, 9362.0, 7.5966949462890625, 0.06153621897101402, -0.14200696349143982, 0.166245236992836, 0.9968616962432861, 0.039903007447719574, 0.02946273609995842, -0.04936913773417473, -0.14711761474609375, 1.48388671875, 1.3740234375, 0.0210723876953125, 1.493408203125, 0.014082107692956924
11851, 8.28652572631836, 72.87886047363281, -6.2501220703125, 0.0, 0.0, -26.49357032775879, 0.0, 0.0, -0.363922119140625, 0, 0, 0, 0, 0, 0, 9362.0, 30146.0, 35388.0, 9362.0, 7.5966949462890625, -0.05194876715540886, 0.08367162197828293, -0.06030406802892685, 0.9968616962432861, 0.039903007447719574, 0.02946273609995842, -0.04936913773417473, -0.14711761474609375, 1.48388671875, 1.4150390625, 0.05596923828125, 1.493408203125, 0.014082107692956924
11861, 8.311101913452148, 72.92301177978516, -6.273768424987793, 0.0, 0.0, -26.49435043334961, 0.0, 0.0, -0.07801055908203125, 0, 0, 0, 0, 0, 0, 9362.0, 30146.0, 35388.0, 9362.0, 7.5966949462890625, -0.021820373833179474, -0.13758260011672974, 0.14081823825836182, 0.9968616962432861, 0.039903007447719574, 0.02946273609995842, -0.04936913773417473, -0.14711761474609375, 1.48388671875, 1.40185546875, 0.0417938232421875, 1.48974609375, 0.014082107692956924
11871, 8.349096298217773, 72.99051666259766, -6.312103271484375, 0.0, 0.0, -26.495004653930664, 0.0, 0.0, -0.06542205810546875, 0, 0, 0, 0, 0, 0, 9362.0, 30146.0, 35388.0, 9362.0, 7.5966949462890625, -0.021820373833179474, -0.13758260011672974, 0.14081823825836182, 0.9968616962432861, 0.039903007447719574, 0.02946273609995842, -0.04936913773417473, -0.14711761474609375, 1.48388671875, 1.400390625, 0.04034423828125, 1.48974609375, 0.014082107692956924
11901, 8.430825233459473, 73.14393615722656, -6.3906965255737305, 0.0, 0.0, -26.48484230041504, 0.0, 0.0, 0.07801055908203125, 0, 0, 0, 0, 0, 0, 9362.0, 30146.0, 35388.0, 9362.0, 7.5966949462890625, 0.1251157522201538, 0.081840880215168, 0.03634968027472496, 0.9968616962432861, 0.039903007447719574, 0.02946273609995842, -0.04697816073894501, -0.05751800537109375, 1.4912109375, 1.3857421875, 0.0280914306640625, 1.4912109375, 0.013534748926758766
11911, 8.449604034423828, 73.20559692382812, -6.407288551330566, 0.0, 0.0, -26.48409080505371, 0.0, 0.0, 0.0751495361328125, 0, 0, 0, 0, 0, 0, 9362.0, 30146.0, 35388.0, 9362.0, 7.5966949462890625, -0.036458488553762436, 0.2850743234157562, 0.5374008417129517, 0.9968616962432861, 0.039903007447719574, 0.02946273609995842, -0.04697816073894501, -0.05751800537109375, 1.4912109375, 1.395263671875, 0.035675048828125, 1.4912109375, 0.013534748926758766
11941, 8.547645568847656, 73.35721588134766, -6.50211238861084, 0.0, 0.0, -26.503421783447266, 0.0, 0.0, -0.6696701049804688, 0, 0, 0, 0, 0, 0, 9362.0, 30146.0, 35388.0, 9362.0, 7.5966949462890625, -0.02831239439547062, 0.22624501585960388, 0.00852799229323864, 0.9993703961372375, 0.04330025985836983, 0.030055217444896698, -0.04697816073894501, -0.05751800537109375, 1.4912109375, 1.31396484375, 0.0325469970703125, 1.4970703125, 0.013182172551751137
11961, 8.618850708007812, 73.46660614013672, -6.572037696838379, 0.0, 0.0, -26.510372161865234, 0.0, 0.0, -0.0972747802734375, 0, 0, 0, 0, 0, 0, 9362.0, 30146.0, 35388.0, 9362.0, 7.5966949462890625, -0.0375797338783741, 0.07329637557268143, 0.20684005320072174, 0.9993703961372375, 0.04330025985836983, 0.030055217444896698, -0.04697816073894501, -0.05751800537109375, 1.4912109375, 1.34765625, 0.0154571533203125, 1.493408203125, 0.012924009934067726
11971, 8.655224800109863, 73.53111267089844, -6.606062412261963, 0.0, 0.0, -26.511201858520508, 0.0, 0.0, -0.08296966552734375, 0, 0, 0, 0, 0, 0, 9362.0, 30146.0, 35388.0, 9362.0, 7.5966949462890625, -0.0375797338783741, 0.07329637557268143, 0.20684005320072174, 0.9993703961372375, 0.04330025985836983, 0.030055217444896698, -0.04697816073894501, -0.05751800537109375, 1.4912109375, 1.4033203125, 0.043182373046875, 1.493408203125, 0.012924009934067726
11991, 8.735262870788574, 73.63745880126953, -6.683547496795654, 0.0, 0.0, -26.51199722290039, 0.0, 0.0, -0.03528594970703125, 0, 0, 0, 0, 0, 0, 9362.0, 30146.0, 35388.0, 9362.0, 7.5966949462890625, 0.06187086179852486, -0.124372199177742, -0.04632645100355148, 0.9993703961372375, 0.04330025985836983, 0.030055217444896698, -0.045070748776197433, -0.021678924560546875, 1.494140625, 1.3740234375, 0.0210723876953125, 1.493408203125, 0.01267109252512455
12001, 8.76938247680664, 73.6783218383789, -6.716299057006836, 0.0, 0.0, -26.51119041442871, 0.0, 0.0, 0.08068084716796875, 0, 0, 0, 0, 0, 0, 9362.0, 30146.0, 35388.0, 9362.0, 7.5966949462890625, 0.12853869795799255, 0.242031991481781, -0.15351612865924835, 0.9993703961372375, 0.04330025985836983, 0.030055217444896698, -0.045070748776197433, -0.021678924560546875, 1.494140625, 1.400390625, 0.04034423828125, 1.49267578125, 0.01267109252512455
12021, 8.845427513122559, 73.78118896484375, -6.789613246917725, 0.0, 0.0, -26.51679801940918, 0.0, 0.0, -0.6381988525390625, 0, 0, 0, 0, 0, 0, 9362.0, 30146.0, 35388.0, 9362.0, 7.5966949462890625, -0.02019267901778221, -0.10885933041572571, 0.07212267816066742, 0.9993703961372375, 0.04330025985836983, 0.030055217444896698, -0.045070748776197433, -0.021678924560546875, 1.494140625, 1.34912109375, 0.015380859375, 1.4912109375, 0.012423304840922356
12041, 8.919703483581543, 73.8823471069336, -6.86220645904541, 0.0, 0.0, -26.531421661376953, 0.0, 0.0, -0.89263916015625, 0, 0, 0, 0, 0, 0, 9362.0, 30146.0, 35388.0, 9362.0, 7.5966949462890625, -0.03741723299026489, 0.2675285041332245, -0.17672176659107208, 0.9993703961372375, 0.04330025985836983, 0.030055217444896698, -0.045070748776197433, -0.021678924560546875, 1.494140625, 1.36083984375, 0.016387939453125, 1.493408203125, 0.012260908260941505
12051, 8.959338188171387, 73.94358825683594, -6.899926662445068, 0.0, 0.0, -26.539411544799805, 0.0, 0.0, -0.7989883422851562, 0, 0, 0, 0, 0, 0, 9362.0, 30146.0, 35388.0, 9362.0, 7.5966949462890625, 0.02715492621064186, -0.13317403197288513, 0.1257251650094986, 0.9993703961372375, 0.04330025985836983, 0.030055217444896698, -0.045070748776197433, -0.021678924560546875, 1.494140625, 1.37841796875, 0.023406982421875, 1.493408203125, 0.012260908260941505
12101, 9.113057136535645, 74.19342803955078, -7.048073768615723, 0.0, 0.0, -26.55762481689453, 0.0, 0.0, 0.759124755859375, 0, 0, 0, 0, 0, 0, 9362.0, 30146.0, 35388.0, 9362.0, 7.5966949462890625, 0.02764781191945076, -0.020054634660482407, -0.08901240676641464, 0.9993703961372375, 0.04330025985836983, 0.030055217444896698, -0.06369950622320175, -0.2546367645263672, 1.47509765625, 1.354248046875, 0.0154266357421875, 1.48974609375, 0.011864466592669487
12121, 9.183998107910156, 74.2912368774414, -7.1172661781311035, 0.0, 0.0, -26.549449920654297, 0.0, 0.0, 0.12989044189453125, 0, 0, 0, 0, 0, 0, 9362.0, 30146.0, 35388.0, 9362.0, 7.5966949462890625, -0.05316045507788658, 0.29061341285705566, 0.04456070810556412, 0.9993703961372375, 0.04330025985836983, 0.030055217444896698, -0.06369950622320175, -0.2546367645263672, 1.47509765625, 1.4208984375, 0.063079833984375, 1.4970703125, 0.011709626764059067
12141, 9.261252403259277, 74.38532257080078, -7.191798686981201, 0.0, 0.0, -26.55121612548828, 0.0, 0.0, -0.2979278564453125, 0, 0, 0, 0, 0, 0, 9362.0, 30146.0, 35388.0, 9362.0, 7.5966949462890625, -0.0931008979678154, -0.1496051698923111, -0.3735679090023041, 0.9993703961372375, 0.04330025985836983, 0.030055217444896698, -0.06369950622320175, -0.2546367645263672, 1.47509765625, 1.31982421875, 0.0273590087890625, 1.4970703125, 0.011481275781989098
12151, 9.301812171936035, 74.44572448730469, -7.231149196624756, 0.0, 0.0, -26.55385398864746, 0.0, 0.0, -0.26378631591796875, 0, 0, 0, 0, 0, 0, 9362.0, 30146.0, 35388.0, 9362.0, 7.5966949462890625, 0.009863507933914661, 0.0866592526435852, 0.04795951768755913, 0.9993703961372375, 0.04330025985836983, 0.030055217444896698, -0.06369950622320175, -0.2546367645263672, 1.47509765625, 1.41650390625, 0.0577545166015625, 1.4970703125, 0.011481275781989098
12161, 9.327323913574219, 74.48566436767578, -7.25623893737793, 0.0, 0.0, -26.558115005493164, 0.0, 0.0, -0.4261016845703125, 0, 0, 0, 0, 0, 0, 9362.0, 30146.0, 35388.0, 9362.0, 7.5966949462890625, 0.09850461781024933, 0.07350081205368042, 0.13942644000053406, 0.9993703961372375, 0.04330025985836983, 0.030055217444896698, -0.06369950622320175, -0.2546367645263672, 1.47509765625, 1.43115234375, 0.0766143798828125, 1.48681640625, 0.011481275781989098
12171, 9.357784271240234, 74.54403686523438, -7.282790660858154, 0.0, 0.0, -26.561904907226562, 0.0, 0.0, -0.37899017333984375, 0, 0, 0, 0, 0, 0, 9362.0, 30146.0, 35388.0, 9362.0, 7.5966949462890625, 0.09850461781024933, 0.07350081205368042, 0.13942644000053406, 0.9993703961372375, 0.04330025985836983, 0.030055217444896698, -0.06369950622320175, -0.2546367645263672, 1.47509765625, 1.40478515625, 0.0446624755859375, 1.48681640625, 0.011481275781989098
12181, 9.394153594970703, 74.58518981933594, -7.318110466003418, 0.0, 0.0, -26.55982208251953, 0.0, 0.0, 0.208282470703125, 0, 0, 0, 0, 0, 0, 9362.0, 30146.0, 35388.0, 9362.0, 7.5966949462890625, 0.09850461781024933, 0.07350081205368042, 0.13942644000053406, 0.9993703961372375, 0.04330025985836983, 0.030055217444896698, -0.05055241286754608, 0.09480094909667969, 1.503662109375, 1.40478515625, 0.0446624755859375, 1.491943359375, 0.011183951050043106
12201, 9.469094276428223, 74.68085479736328, -7.392642021179199, 0.0, 0.0, -26.55861473083496, 0.0, 0.0, -0.070953369140625, 0, 0, 0, 0, 0, 0, 9362.0, 30146.0, 35388.0, 9362.0, 7.5966949462890625, 0.09850461781024933, 0.07350081205368042, 0.13942644000053406, 0.9993703961372375, 0.04330025985836983, 0.030055217444896698, -0.05055241286754608, 0.09480094909667969, 1.503662109375, 1.42236328125, 0.0649566650390625, 1.494140625, 0.011038282886147499
12211, 9.515408515930176, 74.7371826171875, -7.4371256828308105, 0.0, 0.0, -26.55921173095703, 0.0, 0.0, -0.05970001220703125, 0, 0, 0, 0, 0, 0, 9362.0, 30146.0, 35388.0, 9362.0, 7.5966949462890625, 0.04268045723438263, 0.09182385355234146, -0.0024778032675385475, 0.9993703961372375, 0.04330025985836983, 0.030055217444896698, -0.05055241286754608, 0.09480094909667969, 1.503662109375, 1.4150390625, 0.05596923828125, 1.494140625, 0.011038282886147499
12231, 9.582622528076172, 74.83184051513672, -7.500903129577637, 0.0, 0.0, -26.564298629760742, 0.0, 0.0, -0.238800048828125, 0, 0, 0, 0, 0, 0, 9362.0, 30146.0, 35388.0, 9362.0, 7.5966949462890625, 0.19395610690116882, 0.0003176938043907285, -0.3041202425956726, 0.9993703961372375, 0.04330025985836983, 0.030055217444896698, -0.05055241286754608, 0.09480094909667969, 1.503662109375, 1.39892578125, 0.0390167236328125, 1.494140625, 0.0108234453946352
12241, 9.618861198425293, 74.86798095703125, -7.535781383514404, 0.0, 0.0, -26.562593460083008, 0.0, 0.0, 0.1705169677734375, 0, 0, 0, 0, 0, 0, 9362.0, 30146.0, 35388.0, 9362.0, 7.5966949462890625, 0.10564210265874863, 0.4801834225654602, -0.03887835517525673, 0.9993703961372375, 0.04330025985836983, 0.030055217444896698, -0.05055241286754608, 0.09480094909667969, 1.503662109375, 1.41650390625, 0.0577545166015625, 1.48974609375, 0.0108234453946352
12271, 9.726778984069824, 75.01982116699219, -7.641302108764648, 0.0, 0.0, -26.564992904663086, 0.0, 0.0, -0.1861572265625, 0, 0, 0, 0, 0, 0, 9362.0, 30146.0, 35388.0, 9362.0, 7.5966949462890625, -0.4144226014614105, -0.0668521448969841, 0.40007445216178894, 0.9993703961372375, 0.04330025985836983, 0.030055217444896698, -0.05055241286754608, 0.09480094909667969, 1.503662109375, 1.383544921875, 0.026611328125, 1.48974609375, 0.010543689131736755
12281, 9.754233360290527, 75.05451965332031, -7.667017459869385, 0.0, 0.0, -26.564992904663086, 0.0, 0.0, -0.1861572265625, 0, 0, 0, 0, 0, 0, 9362.0, 30146.0, 35388.0, 9362.0, 7.5966949462890625, 0.15121138095855713, 0.3044610023498535, 0.04205924645066261, 0.9993703961372375, 0.04330025985836983, 0.030055217444896698, -0.05339379236102104, 0.06792068481445312, 1.50146484375, 1.28759765625, 0.068939208984375, 1.494873046875, 0.010543689131736755
12291, 9.801544189453125, 75.10734558105469, -7.713960647583008, 0.0, 0.0, -26.571725845336914, 0.0, 0.0, -0.31681060791015625, 0, 0, 0, 0, 0, 0, 9362.0, 30146.0, 35388.0, 9362.0, 7.5966949462890625, -0.14099089801311493, -0.016230227425694466, 0.05576040968298912, 0.9993703961372375, 0.04330025985836983, 0.030055217444896698, -0.05339379236102104, 0.06792068481445312, 1.50146484375, 1.39013671875, 0.0314483642578125, 1.494873046875, 0.010406618937849998
12301, 9.826601028442383, 75.14324188232422, -7.738833427429199, 0.0, 0.0, -26.57455062866211, 0.0, 0.0, -0.28247833251953125, 0, 0, 0, 0, 0, 0, 9362.0, 30146.0, 35388.0, 9362.0, 7.5966949462890625, -0.11930084228515625, 0.3337477445602417, 0.11049781739711761, 0.9993703961372375, 0.04330025985836983, 0.030055217444896698, -0.05339379236102104, 0.06792068481445312, 1.50146484375, 1.40771484375, 0.0478363037109375, 1.48828125, 0.010406618937849998
12311, 9.859898567199707, 75.19778442382812, -7.772130489349365, 0.0, 0.0, -26.577054977416992, 0.0, 0.0, -0.25043487548828125, 0, 0, 0, 0, 0, 0, 9362.0, 30146.0, 35388.0, 9362.0, 7.5966949462890625, -0.11583715677261353, -0.3869175314903259, 0.33669808506965637, 0.9993703961372375, 0.04330025985836983, 0.030055217444896698, -0.05339379236102104, 0.06792068481445312, 1.50146484375, 1.39892578125, 0.0390167236328125, 1.48828125, 0.010406618937849998
12351, 10.013548851013184, 75.3764877319336, -7.921422481536865, 0.0, 0.0, -26.605836868286133, 0.0, 0.0, -0.6458282470703125, 0, 0, 0, 0, 0, 0, 9362.0, 30146.0, 35388.0, 9362.0, 7.5966949462890625, 0.007205356378108263, 0.08952366560697556, -0.051967114210128784, 0.9993703961372375, 0.04330025985836983, 0.030055217444896698, -0.05339379236102104, 0.06792068481445312, 1.50146484375, 1.440673828125, 0.090423583984375, 1.48974609375, 0.010071922093629837
12361, 10.040637969970703, 75.41080474853516, -7.9479265213012695, 0.0, 0.0, -26.610258102416992, 0.0, 0.0, -0.4421234130859375, 0, 0, 0, 0, 0, 0, 9362.0, 30146.0, 35388.0, 9362.0, 7.5966949462890625, 0.022032829001545906, 0.1562759131193161, 0.07877586036920547, 0.9993703961372375, 0.04330025985836983, 0.030055217444896698, -0.05339379236102104, 0.06792068481445312, 1.50146484375, 1.42822265625, 0.0726470947265625, 1.4912109375, 0.010071922093629837
12411, 10.255077362060547, 75.6396255493164, -8.155531883239746, 0.0, 0.0, -26.599557876586914, 0.0, 0.0, 0.5189895629882812, 0, 0, 0, 0, 0, 0, 9362.0, 30146.0, 35388.0, 9362.0, 7.5966949462890625, -0.13801713287830353, -0.04167312756180763, 0.36197081208229065, 0.9993703961372375, 0.04330025985836983, 0.030055217444896698, -0.04035293310880661, -0.11127853393554688, 1.48681640625, 1.43994140625, 0.089324951171875, 1.49267578125, 0.00968487374484539
12421, 10.28982925415039, 75.67491149902344, -8.188383102416992, 0.0, 0.0, -26.598417282104492, 0.0, 0.0, 0.1140594482421875, 0, 0, 0, 0, 0, 0, 9362.0, 30146.0, 35388.0, 9362.0, 7.5966949462890625, 0.10819349437952042, -0.007966761477291584, -0.13978447020053864, 0.9993703961372375, 0.04330025985836983, 0.030055217444896698, -0.04035293310880661, -0.11127853393554688, 1.48681640625, 1.428955078125, 0.073577880859375, 1.4970703125, 0.00968487374484539
12461, 10.42022705078125, 75.84648895263672, -8.31538200378418, 0.0, 0.0, -26.59805679321289, 0.0, 0.0, -0.03147125244140625, 0, 0, 0, 0, 0, 0, 9362.0, 30146.0, 35388.0, 9362.0, 7.5966949462890625, 0.004440653137862682, 0.31308653950691223, -0.6319369673728943, 0.9993703961372375, 0.04330025985836983, 0.030055217444896698, -0.04035293310880661, -0.11127853393554688, 1.48681640625, 1.43994140625, 0.089324951171875, 1.49267578125, 0.009313113987445831
12471, 10.45864486694336, 75.89727783203125, -8.352455139160156, 0.0, 0.0, -26.59903907775879, 0.0, 0.0, -0.04482269287109375, 0, 0, 0, 0, 0, 0, 9362.0, 30146.0, 35388.0, 9362.0, 7.5966949462890625, 0.004440653137862682, 0.31308653950691223, -0.6319369673728943, 0.9993703961372375, 0.04330025985836983, 0.030055217444896698, -0.04035293310880661, -0.11127853393554688, 1.48681640625, 1.376953125, 0.0225982666015625, 1.49267578125, 0.009313113987445831
12491, 10.543540000915527, 75.98245239257812, -8.436029434204102, 0.0, 0.0, -26.598161697387695, 0.0, 0.0, 0.043487548828125, 0, 0, 0, 0, 0, 0, 9362.0, 30146.0, 35388.0, 9362.0, 7.5966949462890625, 0.13022397458553314, -0.2866198718547821, 0.5984373092651367, 0.9993703961372375, 0.04330025985836983, 0.030055217444896698, -0.03792953863739967, -0.03959846496582031, 1.49267578125, 1.35498046875, 0.01556396484375, 1.49267578125, 0.009192479774355888
12511, 10.61250114440918, 76.06310272216797, -8.503328323364258, 0.0, 0.0, -26.608257293701172, 0.0, 0.0, -0.47664642333984375, 0, 0, 0, 0, 0, 0, 9362.0, 30146.0, 35388.0, 9362.0, 7.5966949462890625, -0.07257628440856934, -0.04121088981628418, 0.02443362958729267, 0.9993703961372375, 0.04330025985836983, 0.030055217444896698, -0.03792953863739967, -0.03959846496582031, 1.49267578125, 1.353515625, 0.0154571533203125, 1.49267578125, 0.009014533832669258
12571, 10.826176643371582, 76.31549072265625, -8.71319580078125, 0.0, 0.0, -26.633092880249023, 0.0, 0.0, -0.45604705810546875, 0, 0, 0, 0, 0, 0, 9362.0, 30146.0, 35388.0, 9362.0, 7.5966949462890625, -0.11034974455833435, 0.1742904931306839, 0.07423552870750427, 0.9993703961372375, 0.04330025985836983, 0.030055217444896698, -0.03792953863739967, -0.03959846496582031, 1.49267578125, 1.435546875, 0.0829315185546875, 1.487548828125, 0.008725779131054878
12581, 10.859349250793457, 76.34780883789062, -8.744956016540527, 0.0, 0.0, -26.633075714111328, 0.0, 0.0, 0.00171661376953125, 0, 0, 0, 0, 0, 0, 9362.0, 30146.0, 35388.0, 9362.0, 7.5966949462890625, 0.0889800488948822, 0.1604829579591751, -0.43757858872413635, 0.9993703961372375, 0.04330025985836983, 0.030055217444896698, -0.05852363631129265, 0.15752029418945312, 1.5087890625, 1.435546875, 0.0829315185546875, 1.494873046875, 0.008725779131054878
12591, 10.899499893188477, 76.39395141601562, -8.783733367919922, 0.0, 0.0, -26.633028030395508, 0.0, 0.0, 0.00476837158203125, 0, 0, 0, 0, 0, 0, 9362.0, 30146.0, 35388.0, 9362.0, 7.5966949462890625, -0.18057526648044586, -0.020011059939861298, 0.3526937663555145, 0.9993703961372375, 0.04330025985836983, 0.030055217444896698, -0.05852363631129265, 0.15752029418945312, 1.5087890625, 1.37841796875, 0.023406982421875, 1.494873046875, 0.008725779131054878
12641, 11.117696762084961, 76.58712768554688, -8.997481346130371, 0.0, 0.0, -26.61783218383789, 0.0, 0.0, 0.5176544189453125, 0, 0, 0, 0, 0, 0, 9362.0, 30146.0, 35388.0, 9362.0, 7.5966949462890625, -0.0254529919475317, 0.009687548503279686, -0.14859850704669952, 0.9993703961372375, 0.04330025985836983, 0.030055217444896698, -0.05852363631129265, 0.15752029418945312, 1.5087890625, 1.3681640625, 0.0185394287109375, 1.49560546875, 0.008283359929919243
12671, 11.245943069458008, 76.71392059326172, -9.123157501220703, 0.0, 0.0, -26.60921287536621, 0.0, 0.0, 0.18787384033203125, 0, 0, 0, 0, 0, 0, 9362.0, 30146.0, 35388.0, 9362.0, 7.5966949462890625, 0.0987279936671257, -0.059083592146635056, -0.16636978089809418, 0.9993703961372375, 0.04330025985836983, 0.030055217444896698, -0.05852363631129265, 0.15752029418945312, 1.5087890625, 1.4208984375, 0.063079833984375, 1.48828125, 0.008123442530632019
12691, 11.318544387817383, 76.78868865966797, -9.193554878234863, 0.0, 0.0, -26.589832305908203, 0.0, 0.0, 0.9195327758789062, 0, 0, 0, 0, 0, 0, 9362.0, 30146.0, 35388.0, 9362.0, 7.5966949462890625, 0.21500611305236816, 0.19000542163848877, -0.061177756637334824, 0.9982390403747559, 0.04422861337661743, 0.03745508939027786, -0.05852363631129265, 0.15752029418945312, 1.5087890625, 1.42822265625, 0.0726470947265625, 1.48828125, 0.008070843294262886
12701, 11.34623908996582, 76.82050323486328, -9.220918655395508, 0.0, 0.0, -26.57743263244629, 0.0, 0.0, 1.2399673461914062, 0, 0, 0, 0, 0, 0, 9362.0, 30146.0, 35388.0, 9362.0, 7.5966949462890625, -0.23368771374225616, 0.05930595472455025, 0.44066667556762695, 0.9982390403747559, 0.04422861337661743, 0.03745508939027786, -0.05852363631129265, 0.15752029418945312, 1.5087890625, 1.41650390625, 0.0577545166015625, 1.48828125, 0.008070843294262886
12711, 11.389713287353516, 76.86591339111328, -9.262194633483887, 0.0, 0.0, -26.56624412536621, 0.0, 0.0, 1.1188507080078125, 0, 0, 0, 0, 0, 0, 9362.0, 30146.0, 35388.0, 9362.0, 7.5966949462890625, 0.07810092717409134, -0.018239330500364304, -0.32696154713630676, 0.9982390403747559, 0.04422861337661743, 0.03745508939027786, -0.05852363631129265, 0.15752029418945312, 1.5087890625, 1.41650390625, 0.0577545166015625, 1.48828125, 0.008070843294262886
12751, 11.56242561340332, 77.02003479003906, -9.432973861694336, 0.0, 0.0, -26.54144287109375, 0.0, 0.0, 0.4886627197265625, 0, 0, 0, 0, 0, 0, 9362.0, 30146.0, 35388.0, 9362.0, 7.5966949462890625, 0.17024928331375122, 0.11672526597976685, -0.1558302789926529, 0.9982390403747559, 0.04422861337661743, 0.03745508939027786, -0.05852363631129265, 0.15752029418945312, 1.5087890625, 1.43115234375, 0.0766143798828125, 1.487548828125, 0.007762486115098
12761, 11.613032341003418, 77.05226135253906, -9.482874870300293, 0.0, 0.0, -26.541126251220703, 0.0, 0.0, 0.0316619873046875, 0, 0, 0, 0, 0, 0, 9362.0, 30146.0, 35388.0, 9362.0, 7.5966949462890625, -0.019427942112088203, -0.43209707736968994, -0.5148606300354004, 0.9982390403747559, 0.04422861337661743, 0.03745508939027786, -0.05852363631129265, 0.15752029418945312, 1.5087890625, 1.40478515625, 0.0446624755859375, 1.49267578125, 0.007762486115098
12771, 11.660470962524414, 77.09637451171875, -9.529302597045898, 0.0, 0.0, -26.540815353393555, 0.0, 0.0, 0.03108978271484375, 0, 0, 0, 0, 0, 0, 9362.0, 30146.0, 35388.0, 9362.0, 7.5966949462890625, -0.019427942112088203, -0.43209707736968994, -0.5148606300354004, 0.9982390403747559, 0.04422861337661743, 0.03745508939027786, -0.05852363631129265, 0.15752029418945312, 1.5087890625, 1.44140625, 0.0914459228515625, 1.49267578125, 0.007762486115098
12781, 11.689724922180176, 77.12210845947266, -9.556506156921387, 0.0, 0.0, -26.543251037597656, 0.0, 0.0, -0.24356842041015625, 0, 0, 0, 0, 0, 0, 9362.0, 30146.0, 35388.0, 9362.0, 7.5966949462890625, -0.019427942112088203, -0.43209707736968994, -0.5148606300354004, 0.9982390403747559, 0.04422861337661743, 0.03745508939027786, -0.050594329833984375, -0.2098369598388672, 1.478759765625, 1.44140625, 0.0914459228515625, 1.493408203125, 0.007563638500869274
12791, 11.739500999450684, 77.16658782958984, -9.606420516967773, 0.0, 0.0, -26.5454158782959, 0.0, 0.0, -0.21648406982421875, 0, 0, 0, 0, 0, 0, 9362.0, 30146.0, 35388.0, 9362.0, 7.5966949462890625, -0.16041283309459686, -0.06305260211229324, 0.17059986293315887, 0.9982390403747559, 0.04422861337661743, 0.03745508939027786, -0.050594329833984375, -0.2098369598388672, 1.478759765625, 1.405517578125, 0.0454254150390625, 1.493408203125, 0.007563638500869274
12801, 11.761126518249512, 77.19248962402344, -9.626802444458008, 0.0, 0.0, -26.546524047851562, 0.0, 0.0, -0.11081695556640625, 0, 0, 0, 0, 0, 0, 9362.0, 30146.0, 35388.0, 9362.0, 7.5966949462890625, 0.14853627979755402, 0.196773499250412, -0.13319489359855652, 0.9982390403747559, 0.04422861337661743, 0.03745508939027786, -0.050594329833984375, -0.2098369598388672, 1.478759765625, 1.40478515625, 0.0446624755859375, 1.49853515625, 0.007563638500869274
12811, 11.819165229797363, 77.2365493774414, -9.682670593261719, 0.0, 0.0, -26.547494888305664, 0.0, 0.0, -0.09708404541015625, 0, 0, 0, 0, 0, 0, 9362.0, 30146.0, 35388.0, 9362.0, 7.5966949462890625, 0.05190562084317207, -0.03215232491493225, -0.09677764028310776, 0.9982390403747559, 0.04422861337661743, 0.03745508939027786, -0.050594329833984375, -0.2098369598388672, 1.478759765625, 1.39013671875, 0.0314483642578125, 1.49853515625, 0.0074179284274578094
12821, 11.845179557800293, 77.26679992675781, -9.707386016845703, 0.0, 0.0, -26.54862403869629, 0.0, 0.0, -0.1129150390625, 0, 0, 0, 0, 0, 0, 9362.0, 30146.0, 35388.0, 9362.0, 7.5966949462890625, 0.24752846360206604, 0.03792069852352142, 0.12519243359565735, 0.9982390403747559, 0.04422861337661743, 0.03745508939027786, -0.050594329833984375, -0.2098369598388672, 1.478759765625, 1.42822265625, 0.0726470947265625, 1.48974609375, 0.0074179284274578094
12831, 11.892396926879883, 77.31100463867188, -9.753522872924805, 0.0, 0.0, -26.549617767333984, 0.0, 0.0, -0.09937286376953125, 0, 0, 0, 0, 0, 0, 9362.0, 30146.0, 35388.0, 9362.0, 7.5966949462890625, -0.1560238152742386, 0.07114643603563309, 0.020970938727259636, 0.9982390403747559, 0.04422861337661743, 0.03745508939027786, -0.050594329833984375, -0.2098369598388672, 1.478759765625, 1.453125, 0.1099090576171875, 1.48974609375, 0.0074179284274578094
12851, 11.971853256225586, 77.38626861572266, -9.832128524780273, 0.0, 0.0, -26.543466567993164, 0.0, 0.0, 0.2925872802734375, 0, 0, 0, 0, 0, 0, 9362.0, 30146.0, 35388.0, 9362.0, 7.5966949462890625, -0.19616656005382538, -0.1425863802433014, 0.2770276963710785, 0.9982390403747559, 0.04422861337661743, 0.03745508939027786, -0.050594329833984375, -0.2098369598388672, 1.478759765625, 1.32861328125, 0.0214385986328125, 1.48974609375, 0.00727508682757616
12861, 12.011595726013184, 77.41456604003906, -9.870909690856934, 0.0, 0.0, -26.539722442626953, 0.0, 0.0, 0.37441253662109375, 0, 0, 0, 0, 0, 0, 9362.0, 30146.0, 35388.0, 9362.0, 7.5966949462890625, -0.03883112967014313, 0.01668439619243145, -0.30724021792411804, 0.9982390403747559, 0.04422861337661743, 0.03745508939027786, -0.050594329833984375, -0.2098369598388672, 1.478759765625, 1.40771484375, 0.0478363037109375, 1.49560546875, 0.00727508682757616
12941, 12.367138862609863, 77.69393157958984, -10.219717025756836, 0.0, 0.0, -26.52617645263672, 0.0, 0.0, 0.7589340209960938, 0, 0, 0, 0, 0, 0, 9362.0, 30146.0, 35388.0, 9362.0, 7.5966949462890625, 0.05091768130660057, 0.23818136751651764, -0.22221730649471283, 0.9982390403747559, 0.04422861337661743, 0.03745508939027786, -0.047862567007541656, -0.15607833862304688, 1.483154296875, 1.46044921875, 0.12200927734375, 1.4912109375, 0.0068631963804364204
12991, 12.608506202697754, 77.86988830566406, -10.45567798614502, 0.0, 0.0, -26.4846248626709, 0.0, 0.0, 1.0377883911132812, 0, 0, 0, 0, 0, 0, 9362.0, 30146.0, 35388.0, 9362.0, 7.5966949462890625, -0.2694050967693329, -0.32230910658836365, 0.19155359268188477, 0.9982390403747559, 0.04422861337661743, 0.03745508939027786, -0.03282439708709717, 0.11272048950195312, 1.505126953125, 1.361572265625, 0.016571044921875, 1.494140625, 0.006644736044108868
13041, 12.845041275024414, 78.03253936767578, -10.68901252746582, 0.0, 0.0, -26.462299346923828, 0.0, 0.0, 0.07038116455078125, 0, 0, 0, 0, 0, 0, 9362.0, 30146.0, 35388.0, 9362.0, 7.5966949462890625, -0.08497674763202667, 0.0578036904335022, 0.05295760557055473, 0.9982390403747559, 0.04422861337661743, 0.03745508939027786, -0.03282439708709717, 0.11272048950195312, 1.505126953125, 1.38720703125, 0.0291900634765625, 1.48828125, 0.006391922011971474
13071, 12.969711303710938, 78.13533020019531, -10.810439109802246, 0.0, 0.0, -26.45579719543457, 0.0, 0.0, 0.2780914306640625, 0, 0, 0, 0, 0, 0, 9362.0, 30146.0, 35388.0, 9362.0, 7.5966949462890625, 0.09295515716075897, 0.005232857074588537, -0.16348455846309662, 0.9982390403747559, 0.04422861337661743, 0.03745508939027786, -0.03282439708709717, 0.11272048950195312, 1.505126953125, 1.41943359375, 0.0612945556640625, 1.49267578125, 0.006269214674830437
13081, 13.006603240966797, 78.1607437133789, -10.846137046813965, 0.0, 0.0, -26.450271606445312, 0.0, 0.0, 0.5525588989257812, 0, 0, 0, 0, 0, 0, 9362.0, 30146.0, 35388.0, 9362.0, 7.5966949462890625, 0.08472425490617752, 0.123647540807724, -0.02457726001739502, 0.9982390403747559, 0.04422861337661743, 0.03745508939027786, -0.03367163985967636, -0.15607833862304688, 1.483154296875, 1.41943359375, 0.0612945556640625, 1.49560546875, 0.006269214674830437
13091, 13.064175605773926, 78.19768524169922, -10.903644561767578, 0.0, 0.0, -26.445276260375977, 0.0, 0.0, 0.49953460693359375, 0, 0, 0, 0, 0, 0, 9362.0, 30146.0, 35388.0, 9362.0, 7.5966949462890625, -0.10909160226583481, 0.2244039624929428, -0.23503273725509644, 0.9982390403747559, 0.04422861337661743, 0.03745508939027786, -0.03367163985967636, -0.15607833862304688, 1.483154296875, 1.412109375, 0.0526123046875, 1.49560546875, 0.006269214674830437
13131, 13.246310234069824, 78.3265609741211, -11.084344863891602, 0.0, 0.0, -26.431320190429688, 0.0, 0.0, 0.23097991943359375, 0, 0, 0, 0, 0, 0, 9362.0, 30146.0, 35388.0, 9362.0, 7.5966949462890625, -0.1262226551771164, 0.052871763706207275, -0.13526499271392822, 0.9982390403747559, 0.04422861337661743, 0.03745508939027786, -0.03367163985967636, -0.15607833862304688, 1.483154296875, 1.388671875, 0.03033447265625, 1.493408203125, 0.006070013158023357
13141, 13.28826904296875, 78.35237884521484, -11.126617431640625, 0.0, 0.0, -26.435514450073242, 0.0, 0.0, -0.41942596435546875, 0, 0, 0, 0, 0, 0, 9362.0, 30146.0, 35388.0, 9362.0, 7.5966949462890625, 0.03441722318530083, -0.018709834665060043, -0.004298595245927572, 0.9982390403747559, 0.04422861337661743, 0.03745508939027786, -0.03367163985967636, -0.15607833862304688, 1.483154296875, 1.32275390625, 0.0251312255859375, 1.490478515625, 0.005992148071527481
13151, 13.342062950134277, 78.39012908935547, -11.18017292022705, 0.0, 0.0, -26.439268112182617, 0.0, 0.0, -0.3753662109375, 0, 0, 0, 0, 0, 0, 9362.0, 30146.0, 35388.0, 9362.0, 7.5966949462890625, -0.08978069573640823, 0.16611318290233612, 0.238046333193779, 0.9982390403747559, 0.04422861337661743, 0.03745508939027786, -0.03367163985967636, -0.15607833862304688, 1.483154296875, 1.43701171875, 0.085052490234375, 1.490478515625, 0.005953597836196423
13161, 13.38669204711914, 78.41583251953125, -11.225643157958984, 0.0, 0.0, -26.440719604492188, 0.0, 0.0, -0.14514923095703125, 0, 0, 0, 0, 0, 0, 9362.0, 30146.0, 35388.0, 9362.0, 7.5966949462890625, -0.053944509476423264, -0.16660477221012115, -0.1647258698940277, 0.9982390403747559, 0.04422861337661743, 0.03745508939027786, -0.03367163985967636, -0.15607833862304688, 1.483154296875, 1.39013671875, 0.0314483642578125, 1.494140625, 0.005915299989283085
13171, 13.433526992797852, 78.4518814086914, -11.271794319152832, 0.0, 0.0, -26.442007064819336, 0.0, 0.0, -0.12874603271484375, 0, 0, 0, 0, 0, 0, 9362.0, 30146.0, 35388.0, 9362.0, 7.5966949462890625, -0.053944509476423264, -0.16660477221012115, -0.1647258698940277, 0.9982390403747559, 0.04422861337661743, 0.03745508939027786, -0.03367163985967636, -0.15607833862304688, 1.483154296875, 1.43408203125, 0.080810546875, 1.494140625, 0.005877253599464893
13181, 13.473960876464844, 78.47492218017578, -11.311253547668457, 0.0, 0.0, -26.449440002441406, 0.0, 0.0, -0.7432937622070312, 0, 0, 0, 0, 0, 0, 9362.0, 30146.0, 35388.0, 9362.0, 7.5966949462890625, -0.04865894094109535, 0.02014380693435669, -0.20170174539089203, 0.9982390403747559, 0.04422861337661743, 0.03745508939027786, -0.06440011411905289, -0.18295860290527344, 1.48095703125, 1.39599609375, 0.0362701416015625, 1.491943359375, 0.005877253599464893
13191, 13.533089637756348, 78.51349639892578, -11.3699369430542, 0.0, 0.0, -26.45610809326172, 0.0, 0.0, -0.66680908203125, 0, 0, 0, 0, 0, 0, 9362.0, 30146.0, 35388.0, 9362.0, 7.5966949462890625, -0.02654523402452469, -0.48500293493270874, 0.005457979626953602, 0.9982390403747559, 0.04422861337661743, 0.03745508939027786, -0.06440011411905289, -0.18295860290527344, 1.48095703125, 1.306640625, 0.040557861328125, 1.491943359375, 0.005801905877888203
13201, 13.572744369506836, 78.53907775878906, -11.409344673156738, 0.0, 0.0, -26.451435089111328, 0.0, 0.0, 0.4673004150390625, 0, 0, 0, 0, 0, 0, 9362.0, 30146.0, 35388.0, 9362.0, 7.5966949462890625, -0.31714746356010437, -0.02830253168940544, 0.1992914229631424, 0.9982390403747559, 0.04422861337661743, 0.03745508939027786, -0.06440011411905289, -0.18295860290527344, 1.48095703125, 1.3037109375, 0.04412841796875, 1.48681640625, 0.00576460175216198
13231, 13.713812828063965, 78.64325714111328, -11.552168846130371, 0.0, 0.0, -26.439428329467773, 0.0, 0.0, 0.36945343017578125, 0, 0, 0, 0, 0, 0, 9362.0, 30146.0, 35388.0, 9362.0, 7.5966949462890625, -0.0957120805978775, -0.45415613055229187, -0.15088342130184174, 0.9982390403747559, 0.04422861337661743, 0.03745508939027786, -0.06440011411905289, -0.18295860290527344, 1.48095703125, 1.35205078125, 0.015380859375, 1.494140625, 0.005654146894812584
13241, 13.758143424987793, 78.66698455810547, -11.59605884552002, 0.0, 0.0, -26.434724807739258, 0.0, 0.0, 0.4703521728515625, 0, 0, 0, 0, 0, 0, 9362.0, 30146.0, 35388.0, 9362.0, 7.5966949462890625, 0.17846465110778809, 0.30110856890678406, -0.2604370415210724, 0.9982390403747559, 0.04422861337661743, 0.03745508939027786, -0.06440011411905289, -0.18295860290527344, 1.48095703125, 1.41357421875, 0.0542449951171875, 1.494140625, 0.005617808550596237
13251, 13.820418357849121, 78.70272064208984, -11.65687370300293, 0.0, 0.0, -26.430471420288086, 0.0, 0.0, 0.4253387451171875, 0, 0, 0, 0, 0, 0, 9362.0, 30146.0, 35388.0, 9362.0, 7.5966949462890625, -0.1446343958377838, -0.21373246610164642, -0.10386963188648224, 0.9982390403747559, 0.04422861337661743, 0.03745508939027786, -0.06440011411905289, -0.18295860290527344, 1.48095703125, 1.433349609375, 0.0797576904296875, 1.494140625, 0.005617808550596237
13261, 13.868894577026367, 78.72689056396484, -11.704039573669434, 0.0, 0.0, -26.42362403869629, 0.0, 0.0, 0.6847381591796875, 0, 0, 0, 0, 0, 0, 9362.0, 30146.0, 35388.0, 9362.0, 7.5966949462890625, -0.0433478020131588, -0.31194496154785156, -0.23208297789096832, 0.9982390403747559, 0.04422861337661743, 0.03745508939027786, -0.06440011411905289, -0.18295860290527344, 1.48095703125, 1.42822265625, 0.0726470947265625, 1.48974609375, 0.005617808550596237
13281, 13.954132080078125, 78.78265380859375, -11.788589477539062, 0.0, 0.0, -26.419517517089844, 0.0, 0.0, -0.20771026611328125, 0, 0, 0, 0, 0, 0, 9362.0, 30146.0, 35388.0, 9362.0, 7.5966949462890625, -0.12030664086341858, -0.0714113861322403, -0.2771765887737274, 0.9982390403747559, 0.04422861337661743, 0.03745508939027786, -0.032774027436971664, -0.1650371551513672, 1.482421875, 1.40771484375, 0.0478363037109375, 1.493408203125, 0.005510212853550911
13291, 14.001046180725098, 78.81745910644531, -11.835023880004883, 0.0, 0.0, -26.421369552612305, 0.0, 0.0, -0.18520355224609375, 0, 0, 0, 0, 0, 0, 9362.0, 30146.0, 35388.0, 9362.0, 7.5966949462890625, -0.12030664086341858, -0.0714113861322403, -0.2771765887737274, 0.9982390403747559, 0.04422861337661743, 0.03745508939027786, -0.032774027436971664, -0.1650371551513672, 1.482421875, 1.335205078125, 0.018280029296875, 1.493408203125, 0.00543964933604002
13311, 14.085243225097656, 78.8761978149414, -11.915993690490723, 0.0, 0.0, -26.41202735900879, 0.0, 0.0, 0.443267822265625, 0, 0, 0, 0, 0, 0, 9362.0, 30146.0, 35388.0, 9362.0, 7.5966949462890625, 0.17061756551265717, 0.09401486814022064, 0.05986542999744415, 0.9982390403747559, 0.04422861337661743, 0.03745508939027786, -0.032774027436971664, -0.1650371551513672, 1.482421875, 1.41064453125, 0.0509490966796875, 1.490478515625, 0.00543964933604002
13341, 14.211369514465332, 78.95677947998047, -12.042678833007812, 0.0, 0.0, -26.410062789916992, 0.0, 0.0, 0.213623046875, 0, 0, 0, 0, 0, 0, 9362.0, 30146.0, 35388.0, 9362.0, 7.5966949462890625, -0.0413709320127964, 0.3788071274757385, -0.18200522661209106, 0.9982390403747559, 0.04422861337661743, 0.03745508939027786, -0.032774027436971664, -0.1650371551513672, 1.482421875, 1.38427734375, 0.027099609375, 1.48974609375, 0.005301265046000481
13351, 14.279620170593262, 78.98854064941406, -12.110627174377441, 0.0, 0.0, -26.408123016357422, 0.0, 0.0, 0.19397735595703125, 0, 0, 0, 0, 0, 0, 9362.0, 30146.0, 35388.0, 9362.0, 7.5966949462890625, 0.01661333069205284, 0.12230021506547928, -0.21554505825042725, 0.9982390403747559, 0.04422861337661743, 0.03745508939027786, -0.032774027436971664, -0.1650371551513672, 1.482421875, 1.396728515625, 0.0370025634765625, 1.48974609375, 0.005301265046000481
13371, 14.367374420166016, 79.0444107055664, -12.19664478302002, 0.0, 0.0, -26.411516189575195, 0.0, 0.0, -0.15964508056640625, 0, 0, 0, 0, 0, 0, 9362.0, 30146.0, 35388.0, 9362.0, 7.5966949462890625, -0.06207537278532982, 0.06414782255887985, 0.48595526814460754, 0.9982390403747559, 0.04422861337661743, 0.03745508939027786, -0.032774027436971664, -0.1650371551513672, 1.482421875, 1.261962890625, 0.127288818359375, 1.4912109375, 0.005199829116463661
13381, 14.407781600952148, 79.06845092773438, -12.236259460449219, 0.0, 0.0, -26.414583206176758, 0.0, 0.0, -0.30670166015625, 0, 0, 0, 0, 0, 0, 9362.0, 30146.0, 35388.0, 9362.0, 7.5966949462890625, -0.023218592628836632, -0.29469072818756104, -0.051249682903289795, 0.9982390403747559, 0.04422861337661743, 0.03745508939027786, -0.02296461910009384, 0.1396007537841797, 1.50732421875, 1.261962890625, 0.127288818359375, 1.493408203125, 0.005199829116463661
13391, 14.467676162719727, 79.10169219970703, -12.296309471130371, 0.0, 0.0, -26.417325973510742, 0.0, 0.0, -0.2742767333984375, 0, 0, 0, 0, 0, 0, 9362.0, 30146.0, 35388.0, 9362.0, 7.5966949462890625, -0.0975022241473198, 0.13307297229766846, 0.15855546295642853, 0.9982390403747559, 0.04422861337661743, 0.03745508939027786, -0.02296461910009384, 0.1396007537841797, 1.50732421875, 1.399658203125, 0.0396575927734375, 1.493408203125, 0.005199829116463661
13401, 14.515685081481934, 79.12384033203125, -12.344078063964844, 0.0, 0.0, -26.40993881225586, 0.0, 0.0, 0.7387161254882812, 0, 0, 0, 0, 0, 0, 9362.0, 30146.0, 35388.0, 9362.0, 7.5966949462890625, -0.017647502943873405, 0.09492760896682739, -0.1202717050909996, 0.9982390403747559, 0.04422861337661743, 0.03745508939027786, -0.02296461910009384, 0.1396007537841797, 1.50732421875, 1.38134765625, 0.025177001953125, 1.49560546875, 0.005199829116463661
13441, 14.710238456726074, 79.2341079711914, -12.537934303283691, 0.0, 0.0, -26.39290428161621, 0.0, 0.0, 0.8287429809570312, 0, 0, 0, 0, 0, 0, 9362.0, 30146.0, 35388.0, 9362.0, 7.5966949462890625, 0.12253547459840775, 0.1895878165960312, 0.08556930720806122, 0.9982390403747559, 0.04422861337661743, 0.03745508939027786, -0.02296461910009384, 0.1396007537841797, 1.50732421875, 1.31982421875, 0.0273590087890625, 1.4912109375, 0.004938865080475807
13461, 14.804780960083008, 79.28773498535156, -12.631263732910156, 0.0, 0.0, -26.374313354492188, 0.0, 0.0, 1.1114120483398438, 0, 0, 0, 0, 0, 0, 9362.0, 30146.0, 35388.0, 9362.0, 7.5966949462890625, 0.03790430724620819, -0.09645732492208481, -0.37474000453948975, 0.9982390403747559, 0.04422861337661743, 0.03745508939027786, -0.02296461910009384, 0.1396007537841797, 1.50732421875, 1.412109375, 0.0526123046875, 1.4912109375, 0.004907193593680859
13471, 14.871306419372559, 79.3203353881836, -12.696751594543457, 0.0, 0.0, -26.364294052124023, 0.0, 0.0, 1.0019302368164062, 0, 0, 0, 0, 0, 0, 9362.0, 30146.0, 35388.0, 9362.0, 7.5966949462890625, -0.04223886504769325, -0.05600101128220558, -0.03671489655971527, 0.9982390403747559, 0.04422861337661743, 0.03745508939027786, -0.02296461910009384, 0.1396007537841797, 1.50732421875, 1.388671875, 0.03033447265625, 1.4912109375, 0.004844467155635357
13491, 14.973868370056152, 79.37452697753906, -12.79809856414795, 0.0, 0.0, -26.359594345092773, 0.0, 0.0, 0.223541259765625, 0, 0, 0, 0, 0, 0, 9362.0, 30146.0, 35388.0, 9362.0, 7.5966949462890625, -0.014445786364376545, 0.02644714154303074, -0.09056512266397476, 0.9982390403747559, 0.04422861337661743, 0.03745508939027786, -0.05728431046009064, -0.021678924560546875, 1.494140625, 1.348388671875, 0.0154571533203125, 1.49267578125, 0.004782554693520069
13531, 15.17383861541748, 79.47933197021484, -12.994295120239258, 0.0, 0.0, -26.360584259033203, 0.0, 0.0, -0.154876708984375, 0, 0, 0, 0, 0, 0, 9362.0, 30146.0, 35388.0, 9362.0, 7.5966949462890625, 0.009940334595739841, -0.18346253037452698, -0.17500686645507812, 0.9982390403747559, 0.04422861337661743, 0.03745508939027786, -0.05728431046009064, -0.021678924560546875, 1.494140625, 1.3974609375, 0.03759765625, 1.48974609375, 0.004691188223659992
13541, 15.212646484375, 79.49821472167969, -13.032280921936035, 0.0, 0.0, -26.361419677734375, 0.0, 0.0, -0.0835418701171875, 0, 0, 0, 0, 0, 0, 9362.0, 30146.0, 35388.0, 9362.0, 7.5966949462890625, 0.18777476251125336, 0.07653219252824783, -0.28939273953437805, 0.9982390403747559, 0.04422861337661743, 0.03745508939027786, -0.05728431046009064, -0.021678924560546875, 1.494140625, 1.37548828125, 0.021820068359375, 1.496337890625, 0.004691188223659992
13551, 15.28987979888916, 79.52729797363281, -13.108363151550293, 0.0, 0.0, -26.362157821655273, 0.0, 0.0, -0.07381439208984375, 0, 0, 0, 0, 0, 0, 9362.0, 30146.0, 35388.0, 9362.0, 7.5966949462890625, 0.24457968771457672, 0.15907366573810577, -0.14803147315979004, 0.9982390403747559, 0.04422861337661743, 0.03745508939027786, -0.05728431046009064, -0.021678924560546875, 1.494140625, 1.39013671875, 0.0314483642578125, 1.496337890625, 0.004691188223659992
