timeTick, roll, pitch, yaw, stateX, stateY, stateZ, stateVX, stateVY, stateVZ, otX0, otY0, otZ0, otRoll0, otPitch0, otYaw0, left wing, pitch motor, yaw motor, right wing, voltage, roll rate, pitch rate, yaw rate, A_x, A_y, A_z, current, i_raw, v_raw, airflow_voltage, airflow_speed, pot_Pitch, voltage_KF, pkk
30433, 58.25972366333008, 84.53549194335938, -55.57697296142578, 0, 0, 0, 0, 0, 0, 0, 0, 0, 0, 0, 0, 0, 0, 0, 0, 0, 0, 0, 0, 0, 0, 0, 0, 0, 0, 0, 0, 0, 0, 0
30443, 58.289161682128906, 84.53535461425781, -55.607086181640625, 0.0, 0.0, -24.167144775390625, 0.0, 0.0, -0.8636474609375, 0, 0, 0, 0, 0, 0, 9362.0, 30146.0, 35388.0, 9362.0, 0, -0.06311264634132385, -0.33152270317077637, -0.11407022923231125, 0.998816728591919, 0.040382083505392075, 0.0317731536924839, 0, 0, 0, 0, 0, 0, 0, 0
30453, 58.26204299926758, 84.53560638427734, -55.57887268066406, 0.0, 0.0, -24.174100875854492, 0.0, 0.0, -0.6956100463867188, 0, 0, 0, 0, 0, 0, 9362.0, 30146.0, 35388.0, 9362.0, 0, 0.10953547805547714, 0.0136522576212883, 0.055556148290634155, 1.0011574029922485, 0.03853696957230568, 0.03397666662931442, 0, 0, 0, 1.343994140625, 0.015899658203125, 0, 0.00018729150178842247, 3.1573268643114716e-05
30463, 58.23726272583008, 84.53538513183594, -55.5546989440918, 0.0, 0.0, -24.18035888671875, 0.0, 0.0, -0.6258010864257812, 0, 0, 0, 0, 0, 0, 9362.0, 30146.0, 35388.0, 9362.0, 0, -0.08137102425098419, 0.1582573801279068, -0.05953944846987724, 0.9991782307624817, 0.037727613002061844, 0.033019836992025375, 0, 0, 0, 1.3330078125, 0.0191650390625, 1.487548828125, 0.00018670015560928732, 3.1573268643114716e-05
30473, 58.19337463378906, 84.53642272949219, -55.50944900512695, 0.0, 0.0, -24.18407440185547, 0.0, 0.0, -0.371551513671875, 0, 0, 0, 0, 0, 0, 9362.0, 30146.0, 35388.0, 9362.0, 0, 0.04773586243391037, 0.11281316727399826, 0.14156973361968994, 0.9991852641105652, 0.03818029537796974, 0.029509007930755615, 0, 0, 0, 1.392333984375, 0.03314208984375, 1.487548828125, 0.00018611068662721664, 3.1573268643114716e-05
30483, 58.255252838134766, 84.537353515625, -55.57111740112305, 0.0, 0.0, -24.187421798706055, 0.0, 0.0, -0.33473968505859375, 0, 0, 0, 0, 0, 0, 9362.0, 30146.0, 35388.0, 9362.0, 0, -0.01671740598976612, -0.35278069972991943, -0.12094739824533463, 0.9991937279701233, 0.03873110190033913, 0.028392592445015907, 0, 0, 0, 1.400390625, 0.04034423828125, 1.4912109375, 0.00018552308029029518, 3.1573268643114716e-05
30493, 58.23179244995117, 84.53789520263672, -55.547142028808594, 0.0, 0.0, -24.187973022460938, 0.0, 0.0, -0.05512237548828125, 0, 0, 0, 0, 0, 0, 9362.0, 30146.0, 35388.0, 9362.0, 0, 0.009470125660300255, 0.15101729333400726, 0.053009673953056335, 0.9977201819419861, 0.037598710507154465, 0.029588570818305016, 0, 0, 0, 1.2685546875, 0.1099395751953125, 1.4912109375, 0.00018493732204660773, 3.1573268643114716e-05
30503, 58.2242317199707, 84.53792572021484, -55.53962707519531, 0.0, 0.0, -24.18846893310547, 0.0, 0.0, -0.049591064453125, 0, 0, 0, 0, 0, 0, 9362.0, 30146.0, 35388.0, 9362.0, 0, 0.011936207301914692, 0.1855171173810959, 0.11713484674692154, 0.9964212775230408, 0.041264891624450684, 0.028709297999739647, 0, 0, 0, 1.34619140625, 0.015594482421875, 1.494140625, 0.00018435341189615428, 3.1573268643114716e-05
30513, 58.243221282958984, 84.53760528564453, -55.55867004394531, 0.0, 0.0, -24.178255081176758, 0.0, 0.0, 1.0213851928710938, 0, 0, 0, 0, 0, 0, 9362.0, 30146.0, 35388.0, 9362.0, 0, 0.03380381688475609, 0.10416188836097717, -0.2556816637516022, 0.9987288117408752, 0.03950301930308342, 0.029645022004842758, 0, 0, 0, 1.4326171875, 0.0786895751953125, 1.494140625, 0.00018377134983893484, 3.1573268643114716e-05
30523, 58.23996353149414, 84.53703308105469, -55.55521011352539, 0.0, 0.0, -24.169063568115234, 0.0, 0.0, 0.9191513061523438, 0, 0, 0, 0, 0, 0, 9362.0, 30146.0, 35388.0, 9362.0, 0, 0.20110200345516205, 0.17155717313289642, -0.23817847669124603, 0.9991331100463867, 0.041419193148612976, 0.03119247406721115, 0, 0, 0, 1.298583984375, 0.051055908203125, 1.49560546875, 0.00018319112132303417, 3.1573268643114716e-05
30533, 58.2761116027832, 84.53646087646484, -55.591705322265625, 0.0, 0.0, -24.164892196655273, 0.0, 0.0, 0.41713714599609375, 0, 0, 0, 0, 0, 0, 9362.0, 30146.0, 35388.0, 9362.0, 7.576860427856445, -0.11364687979221344, 0.1674651801586151, -0.2968435287475586, 1.0007060766220093, 0.04206632450222969, 0.033607933670282364, -0.05135173723101616, 0.0052013397216796875, 1.496337890625, 1.3623046875, 0.0167999267578125, 1.49560546875, 0.00018261272634845227, 3.1573268643114716e-05
30543, 58.250038146972656, 84.53620910644531, -55.56562423706055, 0.0, 0.0, -24.1611385345459, 0.0, 0.0, 0.3753662109375, 0, 0, 0, 0, 0, 0, 9362.0, 30146.0, 35388.0, 9362.0, 7.576860427856445, 0.0584736242890358, 0.22868762910366058, 0.09332162141799927, 0.9984844326972961, 0.04181668162345886, 0.034096185117959976, -0.05135173723101616, 0.0052013397216796875, 1.496337890625, 1.30517578125, 0.0422515869140625, 1.493408203125, 0.00018203616491518915, 3.1573268643114716e-05
30553, 58.26612854003906, 84.535888671875, -55.58206558227539, 0.0, 0.0, -24.157211303710938, 0.0, 0.0, 0.39272308349609375, 0, 0, 0, 0, 0, 0, 9362.0, 30146.0, 35388.0, 9362.0, 7.576860427856445, 0.029029972851276398, 0.1436854749917984, -0.03249853849411011, 0.9987707138061523, 0.04393308609724045, 0.032492220401763916, -0.05135173723101616, 0.0052013397216796875, 1.496337890625, 1.41943359375, 0.0612945556640625, 1.493408203125, 0.00018146142247132957, 3.1573268643114716e-05
30563, 58.23807907104492, 84.53656768798828, -55.553165435791016, 0.0, 0.0, -24.15367889404297, 0.0, 0.0, 0.353240966796875, 0, 0, 0, 0, 0, 0, 9362.0, 30146.0, 35388.0, 9362.0, 7.576860427856445, 0.18976058065891266, 0.11156362295150757, 0.29239320755004883, 1.0008141994476318, 0.04073626175522804, 0.033302534371614456, -0.05135173723101616, 0.0052013397216796875, 1.496337890625, 1.38134765625, 0.025177001953125, 1.49267578125, 0.0001808884844649583, 3.1573268643114716e-05
30573, 58.20889663696289, 84.5364990234375, -55.52537536621094, 0.0, 0.0, -24.148311614990234, 0.0, 0.0, 0.5367279052734375, 0, 0, 0, 0, 0, 0, 9362.0, 30146.0, 35388.0, 9362.0, 7.576860427856445, -0.16630059480667114, 0.130045086145401, 0.17311614751815796, 0.9999877214431763, 0.039737895131111145, 0.03282646834850311, -0.05135173723101616, 0.0052013397216796875, 1.496337890625, 1.423828125, 0.066802978515625, 1.49267578125, 0.0001803173654479906, 3.1573268643114716e-05
30583, 58.196414947509766, 84.5374984741211, -55.51241683959961, 0.0, 0.0, -24.143478393554688, 0.0, 0.0, 0.4833221435546875, 0, 0, 0, 0, 0, 0, 9362.0, 30146.0, 35388.0, 9362.0, 7.576860427856445, 0.028368480503559113, -0.08007927238941193, 0.3083063066005707, 1.0017586946487427, 0.03617691993713379, 0.02970738895237446, -0.05135173723101616, 0.0052013397216796875, 1.496337890625, 1.40478515625, 0.0446624755859375, 1.4912109375, 0.0001797480508685112, 3.1573268643114716e-05
30593, 58.2169189453125, 84.5379638671875, -55.53412628173828, 0.0, 0.0, -24.136119842529297, 0.0, 0.0, 0.7358551025390625, 0, 0, 0, 0, 0, 0, 9362.0, 30146.0, 35388.0, 9362.0, 7.576860427856445, -0.06643183529376984, -0.06001701578497887, -0.28034859895706177, 0.999554455280304, 0.037923652678728104, 0.029969971626996994, -0.05135173723101616, 0.0052013397216796875, 1.496337890625, 1.365234375, 0.0175933837890625, 1.4912109375, 0.0001791805261746049, 3.1573268643114716e-05
30603, 58.19568634033203, 84.53699493408203, -55.51154708862305, 0.0, 0.0, -24.129497528076172, 0.0, 0.0, 0.6622314453125, 0, 0, 0, 0, 0, 0, 9362.0, 30146.0, 35388.0, 9362.0, 7.576860427856445, 0.18823520839214325, 0.4198838770389557, -0.24005062878131866, 0.9967571496963501, 0.03952810913324356, 0.029863152652978897, -0.05135173723101616, 0.0052013397216796875, 1.496337890625, 1.3857421875, 0.0280914306640625, 1.4912109375, 0.00017861479136627167, 3.1573268643114716e-05
30613, 58.22895812988281, 84.53684997558594, -55.54340744018555, 0.0, 0.0, -24.124631881713867, 0.0, 0.0, 0.48656463623046875, 0, 0, 0, 0, 0, 0, 9362.0, 30146.0, 35388.0, 9362.0, 7.576860427856445, -0.03457043319940567, -0.08759510517120361, -0.20580482482910156, 0.995398998260498, 0.0391509123146534, 0.029426993802189827, -0.05135173723101616, 0.0052013397216796875, 1.496337890625, 1.4267578125, 0.070709228515625, 1.4912109375, 0.00017805084644351155, 3.1573268643114716e-05
30623, 58.259727478027344, 84.53581237792969, -55.57354736328125, 0.0, 0.0, -24.120254516601562, 0.0, 0.0, 0.43773651123046875, 0, 0, 0, 0, 0, 0, 9362.0, 30146.0, 35388.0, 9362.0, 7.576860427856445, 0.08574457466602325, -0.04865584522485733, -0.49865132570266724, 0.9959952235221863, 0.03930297866463661, 0.03134381026029587, -0.05135173723101616, 0.0052013397216796875, 1.496337890625, 1.383544921875, 0.026611328125, 1.489013671875, 0.00017748867685440928, 3.1573268643114716e-05
30633, 58.2618408203125, 84.53401947021484, -55.57350158691406, 0.0, 0.0, -24.110851287841797, 0.0, 0.0, 0.9403228759765625, 0, 0, 0, 0, 0, 0, 9362.0, 30146.0, 35388.0, 9362.0, 7.576860427856445, 0.21404847502708435, -0.012258369475603104, -0.3039564788341522, 1.0018473863601685, 0.04364500194787979, 0.03284275904297829, -0.020753959193825722, -0.2098369598388672, 1.478759765625, 1.31396484375, 0.0325469970703125, 1.489013671875, 0.00017692828259896487, 3.1573268643114716e-05
30643, 58.234622955322266, 84.5326919555664, -55.545345306396484, 0.0, 0.0, -24.102388381958008, 0.0, 0.0, 0.8462905883789062, 0, 0, 0, 0, 0, 0, 9362.0, 30146.0, 35388.0, 9362.0, 7.576860427856445, 0.1466226428747177, 0.23707936704158783, -0.13156378269195557, 1.0002856254577637, 0.04422257840633392, 0.03459661826491356, -0.020753959193825722, -0.2098369598388672, 1.478759765625, 1.335205078125, 0.018280029296875, 1.493408203125, 0.00017636966367717832, 3.1573268643114716e-05
30653, 58.201107025146484, 84.5322265625, -55.51199722290039, 0.0, 0.0, -24.09804916381836, 0.0, 0.0, 0.43392181396484375, 0, 0, 0, 0, 0, 0, 9362.0, 30146.0, 35388.0, 9362.0, 7.576860427856445, -0.09667352586984634, -0.0005948998732492328, 0.16713233292102814, 0.9976785182952881, 0.04227074235677719, 0.03450080379843712, -0.020753959193825722, -0.2098369598388672, 1.478759765625, 1.294921875, 0.0565948486328125, 1.493408203125, 0.0001758128055371344, 3.1573268643114716e-05
30663, 58.176639556884766, 84.53211975097656, -55.4876823425293, 0.0, 0.0, -24.094144821166992, 0.0, 0.0, 0.39043426513671875, 0, 0, 0, 0, 0, 0, 9362.0, 30146.0, 35388.0, 9362.0, 7.576860427856445, -0.10909059643745422, 0.16033369302749634, 0.02030722238123417, 0.9967727065086365, 0.038263242691755295, 0.029708009213209152, -0.020753959193825722, -0.2098369598388672, 1.478759765625, 1.2626953125, 0.1252593994140625, 1.49267578125, 0.00017525770817883313, 3.1573268643114716e-05
30673, 58.24650955200195, 84.53348541259766, -55.55842590332031, 0.0, 0.0, -24.084617614746094, 0.0, 0.0, 0.9527206420898438, 0, 0, 0, 0, 0, 0, 9362.0, 30146.0, 35388.0, 9362.0, 7.576860427856445, -0.07404706627130508, -0.33394601941108704, 0.09260381013154984, 1.0009994506835938, 0.04299898445606232, 0.03069545142352581, -0.020753959193825722, -0.2098369598388672, 1.478759765625, 1.2919921875, 0.0613250732421875, 1.49267578125, 0.00017470435705035925, 3.1573268643114716e-05
30683, 58.30029296875, 84.53355407714844, -55.6124267578125, 0.0, 0.0, -24.0760440826416, 0.0, 0.0, 0.8573532104492188, 0, 0, 0, 0, 0, 0, 9362.0, 30146.0, 35388.0, 9362.0, 7.576860427856445, 0.05248035117983818, -0.20592708885669708, -0.12125873565673828, 1.0011786222457886, 0.043683502823114395, 0.03186171501874924, -0.020753959193825722, -0.2098369598388672, 1.478759765625, 1.2890625, 0.0663909912109375, 1.49267578125, 0.00017415275215171278, 3.1573268643114716e-05
30693, 58.303470611572266, 84.53326416015625, -55.613525390625, 0.0, 0.0, -24.07570457458496, 0.0, 0.0, 0.0339508056640625, 0, 0, 0, 0, 0, 0, 9362.0, 30146.0, 35388.0, 9362.0, 7.576860427856445, 0.28192323446273804, 0.2330741435289383, -0.01906108669936657, 0.9991098642349243, 0.04027019068598747, 0.031148597598075867, -0.020753959193825722, -0.2098369598388672, 1.478759765625, 1.40625, 0.04620361328125, 1.49267578125, 0.0001736028934828937, 3.1573268643114716e-05
30703, 58.26382064819336, 84.53262329101562, -55.57240295410156, 0.0, 0.0, -24.07539939880371, 0.0, 0.0, 0.030517578125, 0, 0, 0, 0, 0, 0, 9362.0, 30146.0, 35388.0, 9362.0, 7.576860427856445, 0.28616777062416077, 0.4135812819004059, -0.10650674253702164, 0.9987891316413879, 0.037724848836660385, 0.029597245156764984, -0.020753959193825722, -0.2098369598388672, 1.478759765625, 1.43408203125, 0.080810546875, 1.4912109375, 0.0001730547664919868, 3.1573268643114716e-05
30713, 58.244140625, 84.53187561035156, -55.55184555053711, 0.0, 0.0, -24.081140518188477, 0.0, 0.0, -0.5741119384765625, 0, 0, 0, 0, 0, 0, 9362.0, 30146.0, 35388.0, 9362.0, 7.576860427856445, 0.11563919484615326, 0.12533292174339294, -0.08300898224115372, 0.9998038411140442, 0.039399463683366776, 0.031403250992298126, -0.020753959193825722, -0.2098369598388672, 1.478759765625, 1.376953125, 0.0225982666015625, 1.4912109375, 0.0001725083711789921, 3.1573268643114716e-05
30723, 58.24015426635742, 84.53251647949219, -55.54881286621094, 0.0, 0.0, -24.086307525634766, 0.0, 0.0, -0.5167007446289062, 0, 0, 0, 0, 0, 0, 9362.0, 30146.0, 35388.0, 9362.0, 7.576860427856445, -0.22020049393177032, -0.1744161695241928, 0.18856725096702576, 0.9997287392616272, 0.040618617087602615, 0.03441018611192703, -0.020753959193825722, -0.2098369598388672, 1.478759765625, 1.3154296875, 0.03118896484375, 1.494873046875, 0.00017196370754390955, 3.1573268643114716e-05
30733, 58.260868072509766, 84.53230285644531, -55.568241119384766, 0.0, 0.0, -24.091777801513672, 0.0, 0.0, -0.547027587890625, 0, 0, 0, 0, 0, 0, 9362.0, 30146.0, 35388.0, 9362.0, 7.576860427856445, 0.13783995807170868, -0.0412636324763298, -0.07489002496004105, 0.9991075396537781, 0.040460869669914246, 0.032562948763370514, -0.042879167944192886, -0.20087814331054688, 1.4794921875, 1.43408203125, 0.080810546875, 1.494873046875, 0.00017142076103482395, 3.1573268643114716e-05
30743, 58.245628356933594, 84.53073120117188, -55.552345275878906, 0.0, 0.0, -24.096698760986328, 0.0, 0.0, -0.492095947265625, 0, 0, 0, 0, 0, 0, 9362.0, 30146.0, 35388.0, 9362.0, 7.576860427856445, 0.096919946372509, 0.33765873312950134, -0.35195907950401306, 0.999201238155365, 0.04104852303862572, 0.03295865282416344, -0.042879167944192886, -0.20087814331054688, 1.4794921875, 1.288330078125, 0.0676116943359375, 1.48974609375, 0.0001708795316517353, 3.1573268643114716e-05
30753, 58.239158630371094, 84.53041076660156, -55.5456657409668, 0.0, 0.0, -24.103042602539062, 0.0, 0.0, -0.6343841552734375, 0, 0, 0, 0, 0, 0, 9362.0, 30146.0, 35388.0, 9362.0, 7.576860427856445, 0.008420586585998535, 0.004720072261989117, -0.006367555819451809, 0.999478280544281, 0.042594943195581436, 0.03135881572961807, -0.042879167944192886, -0.20087814331054688, 1.4794921875, 1.3974609375, 0.03759765625, 1.48974609375, 0.00017034000484272838, 3.1573268643114716e-05
30763, 58.23347473144531, 84.5299301147461, -55.53978729248047, 0.0, 0.0, -24.108753204345703, 0.0, 0.0, -0.5710601806640625, 0, 0, 0, 0, 0, 0, 9362.0, 30146.0, 35388.0, 9362.0, 7.576860427856445, 0.11874441057443619, 0.0753362625837326, -0.007309620268642902, 0.99872887134552, 0.04313879460096359, 0.02917591482400894, -0.042879167944192886, -0.20087814331054688, 1.4794921875, 1.400390625, 0.04034423828125, 1.494140625, 0.00016980218060780317, 3.1573268643114716e-05
30773, 58.296424865722656, 84.52978515625, -55.60200881958008, 0.0, 0.0, -24.114164352416992, 0.0, 0.0, -0.5411148071289062, 0, 0, 0, 0, 0, 0, 9362.0, 30146.0, 35388.0, 9362.0, 7.576860427856445, 0.07324442267417908, -0.15179550647735596, 4.936600089422427e-05, 0.9987229108810425, 0.04273398220539093, 0.029801126569509506, -0.042879167944192886, -0.20087814331054688, 1.4794921875, 1.38134765625, 0.025177001953125, 1.494140625, 0.00016926605894695967, 3.1573268643114716e-05
30783, 58.33675765991211, 84.52986145019531, -55.64377975463867, 0.0, 0.0, -24.119033813476562, 0.0, 0.0, -0.48694610595703125, 0, 0, 0, 0, 0, 0, 9362.0, 30146.0, 35388.0, 9362.0, 7.576860427856445, -0.24312518537044525, -0.23102809488773346, -0.017363468185067177, 0.9988473057746887, 0.04243014007806778, 0.032622624188661575, -0.042879167944192886, -0.20087814331054688, 1.4794921875, 1.34326171875, 0.01605224609375, 1.4912109375, 0.00016873162530828267, 3.1573268643114716e-05
30793, 58.35100173950195, 84.53001403808594, -55.65898513793945, 0.0, 0.0, -24.130250930786133, 0.0, 0.0, -1.1217117309570312, 0, 0, 0, 0, 0, 0, 9362.0, 30146.0, 35388.0, 9362.0, 7.576860427856445, -0.10555986315011978, -0.3484550714492798, 0.14484046399593353, 0.9996436238288879, 0.04227855056524277, 0.03285827860236168, -0.042879167944192886, -0.20087814331054688, 1.4794921875, 1.39013671875, 0.0314483642578125, 1.4912109375, 0.00016819887969177216, 3.1573268643114716e-05
30803, 58.3189582824707, 84.52879333496094, -55.62562561035156, 0.0, 0.0, -24.14034652709961, 0.0, 0.0, -1.0095596313476562, 0, 0, 0, 0, 0, 0, 9362.0, 30146.0, 35388.0, 9362.0, 7.576860427856445, 0.28309521079063416, 0.4278677701950073, -0.20246100425720215, 0.9986286163330078, 0.040932804346084595, 0.029423505067825317, -0.042879167944192886, -0.20087814331054688, 1.4794921875, 1.379150390625, 0.0238189697265625, 1.49267578125, 0.00016766782209742814, 3.1573268643114716e-05
30813, 58.427764892578125, 84.52814483642578, -55.735069274902344, 0.0, 0.0, -24.15134620666504, 0.0, 0.0, -1.0999679565429688, 0, 0, 0, 0, 0, 0, 9362.0, 30146.0, 35388.0, 9362.0, 7.576860427856445, 0.07359883189201355, -0.14358322322368622, -0.2837722599506378, 0.9974365234375, 0.03927232697606087, 0.029189694672822952, -0.042879167944192886, -0.20087814331054688, 1.4794921875, 1.28759765625, 0.068939208984375, 1.49267578125, 0.00016713843797333539, 3.1573268643114716e-05
30823, 58.46860885620117, 84.52796936035156, -55.775367736816406, 0.0, 0.0, -24.1612491607666, 0.0, 0.0, -0.99029541015625, 0, 0, 0, 0, 0, 0, 9362.0, 30146.0, 35388.0, 9362.0, 7.576860427856445, 0.08472289890050888, -0.18104973435401917, -0.12405373901128769, 0.9972072243690491, 0.038966111838817596, 0.031808286905288696, -0.042879167944192886, -0.20087814331054688, 1.4794921875, 1.42529296875, 0.0688018798828125, 1.49560546875, 0.0001666107273194939, 3.1573268643114716e-05
30833, 58.39964294433594, 84.5289306640625, -55.70755386352539, 0.0, 0.0, -24.165788650512695, 0.0, 0.0, -0.453948974609375, 0, 0, 0, 0, 0, 0, 9362.0, 30146.0, 35388.0, 9362.0, 7.576860427856445, -0.04763060435652733, 0.12825101613998413, 0.17008870840072632, 0.9985517859458923, 0.038737162947654724, 0.03176604583859444, -0.0502827949821949, -0.11127853393554688, 1.48681640625, 1.414306640625, 0.05517578125, 1.49560546875, 0.00016608467558398843, 3.1573268643114716e-05
30843, 58.36864471435547, 84.52943420410156, -55.67684555053711, 0.0, 0.0, -24.169876098632812, 0.0, 0.0, -0.40874481201171875, 0, 0, 0, 0, 0, 0, 9362.0, 30146.0, 35388.0, 9362.0, 7.576860427856445, -0.1489645391702652, -0.0011632166570052505, 0.16497072577476501, 0.9984438419342041, 0.04145374894142151, 0.031663548201322556, -0.0502827949821949, -0.11127853393554688, 1.48681640625, 1.42822265625, 0.0726470947265625, 1.49560546875, 0.00016556029731873423, 3.1573268643114716e-05
30853, 58.3871955871582, 84.52975463867188, -55.69520950317383, 0.0, 0.0, -24.178203582763672, 0.0, 0.0, -0.8327484130859375, 0, 0, 0, 0, 0, 0, 9362.0, 30146.0, 35388.0, 9362.0, 7.576860427856445, 0.04492512717843056, -0.013452436774969101, -0.10761048644781113, 0.9976905584335327, 0.041029974818229675, 0.02987387590110302, -0.0502827949821949, -0.11127853393554688, 1.48681640625, 1.43994140625, 0.089324951171875, 1.49560546875, 0.00016503756341990083, 3.1573268643114716e-05
30863, 58.41508483886719, 84.5299072265625, -55.724090576171875, 0.0, 0.0, -24.185697555541992, 0.0, 0.0, -0.7493972778320312, 0, 0, 0, 0, 0, 0, 9362.0, 30146.0, 35388.0, 9362.0, 7.576860427856445, 0.04492512717843056, -0.013452436774969101, -0.10761048644781113, 0.9986525177955627, 0.041031643748283386, 0.03340887278318405, -0.0502827949821949, -0.11127853393554688, 1.48681640625, 1.43994140625, 0.089324951171875, 1.48828125, 0.00016503756341990083, 3.1573268643114716e-05
30873, 58.417083740234375, 84.5293197631836, -55.725215911865234, 0.0, 0.0, -24.188343048095703, 0.0, 0.0, -0.26454925537109375, 0, 0, 0, 0, 0, 0, 9362.0, 30146.0, 35388.0, 9362.0, 7.576860427856445, 0.06315644830465317, -0.20731237530708313, -0.15939615666866302, 0.9975133538246155, 0.04036754369735718, 0.03140402212738991, -0.0502827949821949, -0.11127853393554688, 1.48681640625, 1.43994140625, 0.089324951171875, 1.48828125, 0.00016399705782532692, 3.1573268643114716e-05
30883, 58.4222526550293, 84.53050994873047, -55.730491638183594, 0.0, 0.0, -24.190723419189453, 0.0, 0.0, -0.238037109375, 0, 0, 0, 0, 0, 0, 9362.0, 30146.0, 35388.0, 9362.0, 7.576860427856445, 0.026253795251250267, -0.280143141746521, 0.22713705897331238, 0.9985911846160889, 0.03854554519057274, 0.031525928527116776, -0.0502827949821949, -0.11127853393554688, 1.48681640625, 1.43994140625, 0.089324951171875, 1.4912109375, 0.00016399705782532692, 3.1573268643114716e-05
30893, 58.406558990478516, 84.53069305419922, -55.71268081665039, 0.0, 0.0, -24.19614601135254, 0.0, 0.0, -0.5422592163085938, 0, 0, 0, 0, 0, 0, 9362.0, 30146.0, 35388.0, 9362.0, 7.576860427856445, 0.3217658996582031, 0.23993125557899475, -0.023406388238072395, 0.9979055523872375, 0.03969242051243782, 0.032008711248636246, -0.0502827949821949, -0.11127853393554688, 1.48681640625, 1.43994140625, 0.089324951171875, 1.4912109375, 0.000162963115144521, 3.1573268643114716e-05
30903, 58.38002014160156, 84.53197479248047, -55.68605041503906, 0.0, 0.0, -24.20102882385254, 0.0, 0.0, -0.48828125, 0, 0, 0, 0, 0, 0, 9362.0, 30146.0, 35388.0, 9362.0, 7.576860427856445, -0.1530710905790329, 0.02799932472407818, 0.49296557903289795, 0.9980763792991638, 0.04094237834215164, 0.032313164323568344, -0.0502827949821949, -0.11127853393554688, 1.48681640625, 1.43994140625, 0.089324951171875, 1.4912109375, 0.000162963115144521, 3.1573268643114716e-05
30913, 58.38444900512695, 84.5323715209961, -55.690711975097656, 0.0, 0.0, -24.201322555541992, 0.0, 0.0, -0.0293731689453125, 0, 0, 0, 0, 0, 0, 9362.0, 30146.0, 35388.0, 9362.0, 7.576860427856445, -0.007096482440829277, 0.20736277103424072, 0.1089676171541214, 0.9994971752166748, 0.041491955518722534, 0.03340591862797737, -0.0502827949821949, -0.11127853393554688, 1.48681640625, 1.43994140625, 0.089324951171875, 1.4912109375, 0.00016193569172173738, 3.1573268643114716e-05
30923, 58.38193130493164, 84.53176879882812, -55.68659210205078, 0.0, 0.0, -24.201587677001953, 0.0, 0.0, -0.02651214599609375, 0, 0, 0, 0, 0, 0, 9362.0, 30146.0, 35388.0, 9362.0, 7.576860427856445, 0.24781465530395508, 0.2013748437166214, -0.058102283626794815, 0.9981954097747803, 0.04146193340420723, 0.033692389726638794, -0.0502827949821949, -0.11127853393554688, 1.48681640625, 1.43994140625, 0.089324951171875, 1.489013671875, 0.00016193569172173738, 3.1573268643114716e-05
30953, 58.45301055908203, 84.53033447265625, -55.75698471069336, 0.0, 0.0, -24.19974136352539, 0.0, 0.0, 0.07419586181640625, 0, 0, 0, 0, 0, 0, 9362.0, 30146.0, 35388.0, 9362.0, 7.576860427856445, -0.09729483723640442, -0.2654120922088623, -0.3302386701107025, 0.9977034330368042, 0.04216056317090988, 0.034443777054548264, -0.048136014491319656, -0.2546367645263672, 1.47509765625, 1.38134765625, 0.025177001953125, 1.494140625, 0.0001609147439012304, 3.1573268643114716e-05
30963, 58.41584777832031, 84.53022766113281, -55.719581604003906, 0.0, 0.0, -24.199071884155273, 0.0, 0.0, 0.06694793701171875, 0, 0, 0, 0, 0, 0, 9362.0, 30146.0, 35388.0, 9362.0, 7.576860427856445, -0.027901912108063698, 0.04271950572729111, 0.052296750247478485, 0.9973863959312439, 0.038346145302057266, 0.032500166445970535, -0.048136014491319656, -0.2546367645263672, 1.47509765625, 1.38134765625, 0.025177001953125, 1.487548828125, 0.0001609147439012304, 3.1573268643114716e-05
30973, 58.35554122924805, 84.53050994873047, -55.6596794128418, 0.0, 0.0, -24.20475959777832, 0.0, 0.0, -0.5687713623046875, 0, 0, 0, 0, 0, 0, 9362.0, 30146.0, 35388.0, 9362.0, 7.576860427856445, -0.014829222112894058, 0.11485734581947327, 0.28984397649765015, 0.9973863959312439, 0.038346145302057266, 0.032500166445970535, -0.048136014491319656, -0.2546367645263672, 1.47509765625, 1.38134765625, 0.025177001953125, 1.487548828125, 0.00015889210044406354, 3.1573268643114716e-05
30983, 58.38334655761719, 84.53086853027344, -55.688045501708984, 0.0, 0.0, -24.20987892150879, 0.0, 0.0, -0.511932373046875, 0, 0, 0, 0, 0, 0, 9362.0, 30146.0, 35388.0, 9362.0, 7.576860427856445, 0.005950869992375374, -0.26126787066459656, 0.027330243960022926, 0.9973863959312439, 0.038346145302057266, 0.032500166445970535, -0.048136014491319656, -0.2546367645263672, 1.47509765625, 1.29931640625, 0.0500640869140625, 1.487548828125, 0.00015889210044406354, 3.1573268643114716e-05
30993, 58.360877990722656, 84.5306167602539, -55.66499328613281, 0.0, 0.0, -24.22214126586914, 0.0, 0.0, -1.2262344360351562, 0, 0, 0, 0, 0, 0, 9362.0, 30146.0, 35388.0, 9362.0, 7.576860427856445, 0.07978884875774384, 0.021349752321839333, -0.04236336424946785, 0.9979982972145081, 0.039770130068063736, 0.029552092775702477, -0.048136014491319656, -0.2546367645263672, 1.47509765625, 1.29931640625, 0.0500640869140625, 1.487548828125, 0.00015889210044406354, 3.1573268643114716e-05
31023, 58.503334045410156, 84.52975463867188, -55.80681228637695, 0.0, 0.0, -24.249454498291016, 0.0, 0.0, -0.7711410522460938, 0, 0, 0, 0, 0, 0, 9362.0, 30146.0, 35388.0, 9362.0, 7.576860427856445, -0.2895415425300598, -0.17072421312332153, -0.15149249136447906, 1.0004384517669678, 0.040878333151340485, 0.03314166143536568, -0.048136014491319656, -0.2546367645263672, 1.47509765625, 1.33154296875, 0.0198516845703125, 1.49267578125, 0.00015889210044406354, 3.1573268643114716e-05
31043, 58.517494201660156, 84.53108215332031, -55.82052993774414, 0.0, 0.0, -24.26782989501953, 0.0, 0.0, -0.8703231811523438, 0, 0, 0, 0, 0, 0, 9362.0, 30146.0, 35388.0, 9362.0, 7.576860427856445, 0.06854858249425888, 0.04069734364748001, -0.22846198081970215, 0.9987767934799194, 0.04019058495759964, 0.0312778539955616, -0.02343117631971836, -0.11127853393554688, 1.48681640625, 1.40771484375, 0.0478363037109375, 1.493408203125, 0.00015590572729706764, 3.1573268643114716e-05
31053, 58.56938171386719, 84.53187561035156, -55.87213134765625, 0.0, 0.0, -24.278398513793945, 0.0, 0.0, -1.0568618774414062, 0, 0, 0, 0, 0, 0, 9362.0, 30146.0, 35388.0, 9362.0, 7.576860427856445, 0.04291239753365517, -0.20041638612747192, 0.005282999482005835, 0.9988802671432495, 0.040500789880752563, 0.030948026105761528, -0.02343117631971836, -0.11127853393554688, 1.48681640625, 1.36669921875, 0.01806640625, 1.493408203125, 0.00015492278907913715, 3.1573268643114716e-05
31063, 58.555355072021484, 84.53279876708984, -55.8590202331543, 0.0, 0.0, -24.28791046142578, 0.0, 0.0, -0.9511947631835938, 0, 0, 0, 0, 0, 0, 9362.0, 30146.0, 35388.0, 9362.0, 7.576860427856445, -0.09291210025548935, 0.08950117230415344, 0.22505146265029907, 0.9990307688713074, 0.041087064892053604, 0.029057113453745842, -0.02343117631971836, -0.11127853393554688, 1.48681640625, 1.37109375, 0.0197906494140625, 1.494140625, 0.00015443364100065082, 3.1573268643114716e-05
31073, 58.570072174072266, 84.53406524658203, -55.87351989746094, 0.0, 0.0, -24.29018211364746, 0.0, 0.0, -0.22716522216796875, 0, 0, 0, 0, 0, 0, 9362.0, 30146.0, 35388.0, 9362.0, 7.576860427856445, 0.03344598785042763, -0.1940404176712036, 0.23995937407016754, 1.0015358924865723, 0.039140164852142334, 0.028532540425658226, -0.02343117631971836, -0.11127853393554688, 1.48681640625, 1.399658203125, 0.0396575927734375, 1.494140625, 0.00015394604997709394, 3.1573268643114716e-05
31083, 58.56686019897461, 84.53438568115234, -55.86940002441406, 0.0, 0.0, -24.292224884033203, 0.0, 0.0, -0.20427703857421875, 0, 0, 0, 0, 0, 0, 9362.0, 30146.0, 35388.0, 9362.0, 7.576860427856445, 0.009970505721867085, 0.06889022886753082, 0.01782890409231186, 1.0018327236175537, 0.03947486728429794, 0.028812823817133904, -0.02343117631971836, -0.11127853393554688, 1.48681640625, 1.355712890625, 0.0155029296875, 1.48974609375, 0.00015345998690463603, 3.1573268643114716e-05
31093, 58.51475524902344, 84.53459930419922, -55.81710433959961, 0.0, 0.0, -24.295429229736328, 0.0, 0.0, -0.3204345703125, 0, 0, 0, 0, 0, 0, 9362.0, 30146.0, 35388.0, 9362.0, 7.576860427856445, -0.07571575790643692, 0.15932808816432953, 0.22061848640441895, 0.9993841648101807, 0.0412057563662529, 0.02951117232441902, -0.02343117631971836, -0.11127853393554688, 1.48681640625, 1.42529296875, 0.0688018798828125, 1.48974609375, 0.00015297546633519232, 3.1573268643114716e-05
31103, 58.55140686035156, 84.53431701660156, -55.853580474853516, 0.0, 0.0, -24.298311233520508, 0.0, 0.0, -0.28820037841796875, 0, 0, 0, 0, 0, 0, 9362.0, 30146.0, 35388.0, 9362.0, 7.576860427856445, -0.04477021098136902, -0.1719825118780136, -0.0996379405260086, 0.9995446801185608, 0.04191950336098671, 0.031499579548835754, -0.02343117631971836, -0.11127853393554688, 1.48681640625, 1.31396484375, 0.0325469970703125, 1.48974609375, 0.00015297546633519232, 3.1573268643114716e-05
31113, 58.550987243652344, 84.53510284423828, -55.85085678100586, 0.0, 0.0, -24.30254554748535, 0.0, 0.0, -0.423431396484375, 0, 0, 0, 0, 0, 0, 9362.0, 30146.0, 35388.0, 9362.0, 7.576860427856445, 0.23645025491714478, -0.06382154673337936, 0.4161474406719208, 0.9985661506652832, 0.04095088690519333, 0.031777169555425644, -0.02343117631971836, -0.11127853393554688, 1.48681640625, 1.31396484375, 0.0325469970703125, 1.48974609375, 0.00015201100904960185, 3.1573268643114716e-05
31123, 58.48601531982422, 84.53351593017578, -55.785701751708984, 0.0, 0.0, -24.30635643005371, 0.0, 0.0, -0.3810882568359375, 0, 0, 0, 0, 0, 0, 9362.0, 30146.0, 35388.0, 9362.0, 7.576860427856445, -0.12423776835203171, 0.45146968960762024, -0.12801726162433624, 0.9975225329399109, 0.04016125947237015, 0.03372988849878311, -0.02343117631971836, -0.11127853393554688, 1.48681640625, 1.31396484375, 0.0325469970703125, 1.49267578125, 0.00015201100904960185, 3.1573268643114716e-05
31143, 58.48078918457031, 84.5338363647461, -55.78178405761719, 0.0, 0.0, -24.313915252685547, 0.0, 0.0, -0.35800933837890625, 0, 0, 0, 0, 0, 0, 9362.0, 30146.0, 35388.0, 9362.0, 7.576860427856445, 0.03732208535075188, -0.17355266213417053, -0.2946251630783081, 1.0003219842910767, 0.04226197674870491, 0.030260832980275154, -0.0637458935379982, -0.20087814331054688, 1.4794921875, 1.31396484375, 0.0325469970703125, 1.48974609375, 0.0001510526199126616, 3.1573268643114716e-05
31153, 58.508766174316406, 84.53323364257812, -55.8096923828125, 0.0, 0.0, -24.318504333496094, 0.0, 0.0, -0.4589080810546875, 0, 0, 0, 0, 0, 0, 9362.0, 30146.0, 35388.0, 9362.0, 7.576860427856445, 0.028825195506215096, 0.23577217757701874, -0.09614646434783936, 1.0006591081619263, 0.04460601881146431, 0.028843607753515244, -0.0637458935379982, -0.20087814331054688, 1.4794921875, 1.31396484375, 0.0325469970703125, 1.48974609375, 0.00015010028437245637, 3.1573268643114716e-05
31163, 58.49666213989258, 84.5326919555664, -55.798614501953125, 0.0, 0.0, -24.3226318359375, 0.0, 0.0, -0.412750244140625, 0, 0, 0, 0, 0, 0, 9362.0, 30146.0, 35388.0, 9362.0, 7.576860427856445, -0.09802494943141937, 0.12048620730638504, -0.07629480957984924, 0.9982945919036865, 0.041776031255722046, 0.03150046244263649, -0.0637458935379982, -0.20087814331054688, 1.4794921875, 1.31396484375, 0.0325469970703125, 1.494140625, 0.00015010028437245637, 3.1573268643114716e-05
31173, 58.46921920776367, 84.53334045410156, -55.77020263671875, 0.0, 0.0, -24.318418502807617, 0.0, 0.0, 0.42133331298828125, 0, 0, 0, 0, 0, 0, 9362.0, 30146.0, 35388.0, 9362.0, 7.576860427856445, 0.11161725223064423, 0.22147145867347717, 0.17003130912780762, 1.0006349086761475, 0.04341152682900429, 0.031262677162885666, -0.0637458935379982, -0.20087814331054688, 1.4794921875, 1.31396484375, 0.0325469970703125, 1.494140625, 0.00014915395877324045, 3.1573268643114716e-05
31183, 58.5041618347168, 84.53276824951172, -55.803924560546875, 0.0, 0.0, -24.314626693725586, 0.0, 0.0, 0.379180908203125, 0, 0, 0, 0, 0, 0, 9362.0, 30146.0, 35388.0, 9362.0, 7.576860427856445, 0.18008241057395935, -0.12770356237888336, -0.5299805998802185, 1.0002754926681519, 0.04153125733137131, 0.028201015666127205, -0.0637458935379982, -0.20087814331054688, 1.4794921875, 1.31396484375, 0.0325469970703125, 1.4912109375, 0.00014915395877324045, 3.1573268643114716e-05
31193, 58.43696594238281, 84.53230285644531, -55.7374153137207, 0.0, 0.0, -24.311758041381836, 0.0, 0.0, 0.286865234375, 0, 0, 0, 0, 0, 0, 9362.0, 30146.0, 35388.0, 9362.0, 7.576860427856445, -0.27277666330337524, 0.5984864830970764, 0.11570587754249573, 0.9978945255279541, 0.03676944226026535, 0.031026864424347878, -0.0637458935379982, -0.20087814331054688, 1.4794921875, 1.31396484375, 0.0325469970703125, 1.4912109375, 0.00014821358490735292, 3.1573268643114716e-05
31203, 58.41116714477539, 84.53291320800781, -55.71154022216797, 0.0, 0.0, -24.30917739868164, 0.0, 0.0, 0.25806427001953125, 0, 0, 0, 0, 0, 0, 9362.0, 30146.0, 35388.0, 9362.0, 7.576860427856445, 0.06023310869932175, -0.038212280720472336, 0.20834198594093323, 0.9991012215614319, 0.03806518018245697, 0.03330628201365471, -0.0637458935379982, -0.20087814331054688, 1.4794921875, 1.31396484375, 0.0325469970703125, 1.49560546875, 0.00014821358490735292, 3.1573268643114716e-05
31213, 58.40132522583008, 84.53266143798828, -55.70344161987305, 0.0, 0.0, -24.30084228515625, 0.0, 0.0, 0.8335113525390625, 0, 0, 0, 0, 0, 0, 9362.0, 30146.0, 35388.0, 9362.0, 7.576860427856445, -0.19780530035495758, -0.09257390350103378, -0.06848398596048355, 1.0004364252090454, 0.04075489193201065, 0.03370797634124756, -0.0637458935379982, -0.20087814331054688, 1.4794921875, 1.31396484375, 0.0325469970703125, 1.49560546875, 0.00014727914822287858, 3.1573268643114716e-05
31223, 58.35610580444336, 84.53147888183594, -55.65833282470703, 0.0, 0.0, -24.293338775634766, 0.0, 0.0, 0.7503509521484375, 0, 0, 0, 0, 0, 0, 9362.0, 30146.0, 35388.0, 9362.0, 7.576860427856445, -0.010292227379977703, 0.36014553904533386, -0.22700649499893188, 0.9981819987297058, 0.0424480140209198, 0.0323462188243866, -0.0637458935379982, -0.20087814331054688, 1.4794921875, 1.31396484375, 0.0325469970703125, 1.494873046875, 0.00014727914822287858, 3.1573268643114716e-05
31243, 58.372806549072266, 84.53197479248047, -55.67635726928711, 0.0, 0.0, -24.280506134033203, 0.0, 0.0, 0.6078720092773438, 0, 0, 0, 0, 0, 0, 9362.0, 30146.0, 35388.0, 9362.0, 7.576860427856445, -0.06072201207280159, -0.08612195402383804, -0.022094545885920525, 0.9981819987297058, 0.0424480140209198, 0.0323462188243866, -0.0637458935379982, -0.20087814331054688, 1.4794921875, 1.300048828125, 0.0489654541015625, 1.494873046875, 0.00014727914822287858, 3.1573268643114716e-05
31253, 58.42639923095703, 84.53230285644531, -55.729713439941406, 0.0, 0.0, -24.275035858154297, 0.0, 0.0, 0.547027587890625, 0, 0, 0, 0, 0, 0, 9362.0, 30146.0, 35388.0, 9362.0, 7.576860427856445, 0.07931672036647797, 0.040529582649469376, -0.24271324276924133, 0.9980847239494324, 0.04140258952975273, 0.027587102726101875, -0.0637458935379982, -0.20087814331054688, 1.4794921875, 1.3828125, 0.0261077880859375, 1.494873046875, 0.00014542791177518666, 3.1573268643114716e-05
31263, 58.42342758178711, 84.53205108642578, -55.72578430175781, 0.0, 0.0, -24.270112991333008, 0.0, 0.0, 0.49228668212890625, 0, 0, 0, 0, 0, 0, 9362.0, 30146.0, 35388.0, 9362.0, 7.576860427856445, 0.09674831479787827, 0.16136601567268372, -0.14503547549247742, 0.9969760179519653, 0.039527371525764465, 0.030708612874150276, -0.0637458935379982, -0.20087814331054688, 1.4794921875, 1.373291015625, 0.0207366943359375, 1.494873046875, 0.00014542791177518666, 3.1573268643114716e-05
31273, 58.44770812988281, 84.53273010253906, -55.750144958496094, 0.0, 0.0, -24.25556755065918, 0.0, 0.0, 1.4545440673828125, 0, 0, 0, 0, 0, 0, 9362.0, 30146.0, 35388.0, 9362.0, 7.576860427856445, -0.17492249608039856, 0.01659967005252838, 0.20113688707351685, 0.9969760179519653, 0.039527371525764465, 0.030708612874150276, -0.0637458935379982, -0.20087814331054688, 1.4794921875, 1.305908203125, 0.0413360595703125, 1.494873046875, 0.00014542791177518666, 3.1573268643114716e-05
31283, 58.42131042480469, 84.5328369140625, -55.72398376464844, 0.0, 0.0, -24.24247932434082, 0.0, 0.0, 1.3088226318359375, 0, 0, 0, 0, 0, 0, 9362.0, 30146.0, 35388.0, 9362.0, 7.576860427856445, -0.07799136638641357, 0.17973311245441437, 0.08151348680257797, 1.000687837600708, 0.042317476123571396, 0.03362053632736206, -0.0637458935379982, -0.20087814331054688, 1.4794921875, 1.3828125, 0.0261077880859375, 1.494873046875, 0.00014542791177518666, 3.1573268643114716e-05
31293, 58.3958854675293, 84.5323715209961, -55.698177337646484, 0.0, 0.0, -24.224409103393555, 0.0, 0.0, 1.8070220947265625, 0, 0, 0, 0, 0, 0, 9362.0, 30146.0, 35388.0, 9362.0, 7.576860427856445, 0.14925630390644073, 0.007842624559998512, -0.19205674529075623, 1.0004444122314453, 0.04065454751253128, 0.033660147339105606, -0.0637458935379982, -0.20087814331054688, 1.4794921875, 1.3828125, 0.0261077880859375, 1.494873046875, 0.00014359992928802967, 3.1573268643114716e-05
31303, 58.373565673828125, 84.53240966796875, -55.67536926269531, 0.0, 0.0, -24.208145141601562, 0.0, 0.0, 1.6263961791992188, 0, 0, 0, 0, 0, 0, 9362.0, 30146.0, 35388.0, 9362.0, 7.576860427856445, -0.03445187583565712, -0.019163139164447784, -0.024737775325775146, 1.0004444122314453, 0.04065454751253128, 0.033660147339105606, -0.0637458935379982, -0.20087814331054688, 1.4794921875, 1.27880859375, 0.086212158203125, 1.494873046875, 0.00014314653526525944, 3.1573268643114716e-05
31313, 58.408226013183594, 84.53226470947266, -55.71040725708008, 0.0, 0.0, -24.192960739135742, 0.0, 0.0, 1.5184402465820312, 0, 0, 0, 0, 0, 0, 9362.0, 30146.0, 35388.0, 9362.0, 7.576860427856445, -0.03445187583565712, -0.019163139164447784, -0.024737775325775146, 0.9998423457145691, 0.03810073807835579, 0.034643929451704025, -0.0637458935379982, -0.20087814331054688, 1.4794921875, 1.36962890625, 0.01910400390625, 1.494873046875, 0.00014269458188209683, 3.1573268643114716e-05
31323, 58.38892364501953, 84.5323715209961, -55.690452575683594, 0.0, 0.0, -24.17929458618164, 0.0, 0.0, 1.3666152954101562, 0, 0, 0, 0, 0, 0, 9362.0, 30146.0, 35388.0, 9362.0, 7.576860427856445, -0.03445187583565712, -0.019163139164447784, -0.024737775325775146, 0.9998173713684082, 0.04122732952237129, 0.030228665098547935, -0.0637458935379982, -0.20087814331054688, 1.4794921875, 1.43408203125, 0.080810546875, 1.494873046875, 0.00014269458188209683, 3.1573268643114716e-05
31333, 58.443031311035156, 84.53305053710938, -55.74384689331055, 0.0, 0.0, -24.173280715942383, 0.0, 0.0, 0.6013870239257812, 0, 0, 0, 0, 0, 0, 9362.0, 30146.0, 35388.0, 9362.0, 7.576860427856445, -0.03445187583565712, -0.019163139164447784, -0.024737775325775146, 0.9998173713684082, 0.04122732952237129, 0.030228665098547935, -0.09599059075117111, -0.1650371551513672, 1.482421875, 1.43408203125, 0.080810546875, 1.494873046875, 0.0001417949388269335, 3.1573268643114716e-05
31343, 58.47307586669922, 84.53316497802734, -55.773712158203125, 0.0, 0.0, -24.16786766052246, 0.0, 0.0, 0.5413055419921875, 0, 0, 0, 0, 0, 0, 9362.0, 30146.0, 35388.0, 9362.0, 7.576860427856445, -0.08524192124605179, -0.09077577292919159, -0.08799485117197037, 0.9998173713684082, 0.04122732952237129, 0.030228665098547935, -0.09599059075117111, -0.1650371551513672, 1.482421875, 1.43408203125, 0.080810546875, 1.494140625, 0.0001417949388269335, 3.1573268643114716e-05
31353, 58.51759719848633, 84.53316497802734, -55.818729400634766, 0.0, 0.0, -24.16819190979004, 0.0, 0.0, -0.0324249267578125, 0, 0, 0, 0, 0, 0, 9362.0, 30146.0, 35388.0, 9362.0, 7.576860427856445, -0.09502619504928589, -0.12691673636436462, -0.32875362038612366, 0.9998173713684082, 0.04122732952237129, 0.030228665098547935, -0.09599059075117111, -0.1650371551513672, 1.482421875, 1.34326171875, 0.01605224609375, 1.494140625, 0.0001417949388269335, 3.1573268643114716e-05
31363, 58.49839782714844, 84.53276824951172, -55.79893493652344, 0.0, 0.0, -24.168481826782227, 0.0, 0.0, -0.02899169921875, 0, 0, 0, 0, 0, 0, 9362.0, 30146.0, 35388.0, 9362.0, 7.576860427856445, 0.07400958240032196, 0.2694630026817322, -0.11779911816120148, 1.0010114908218384, 0.04120973125100136, 0.029258908703923225, -0.09599059075117111, -0.1650371551513672, 1.482421875, 1.34326171875, 0.01605224609375, 1.494873046875, 0.0001417949388269335, 3.1573268643114716e-05
31403, 58.488746643066406, 84.53208923339844, -55.788551330566406, 0.0, 0.0, -24.180301666259766, 0.0, 0.0, -0.41351318359375, 0, 0, 0, 0, 0, 0, 9362.0, 30146.0, 35388.0, 9362.0, 7.576860427856445, -0.08065704256296158, 0.048680875450372696, -0.30688753724098206, 1.0012062788009644, 0.0394555926322937, 0.03269889950752258, -0.09599059075117111, -0.1650371551513672, 1.482421875, 1.310302734375, 0.036285400390625, 1.49267578125, 0.00013912988652009517, 3.1573268643114716e-05
31413, 58.50306701660156, 84.53202056884766, -55.80331039428711, 0.0, 0.0, -24.18976402282715, 0.0, 0.0, -0.9462356567382812, 0, 0, 0, 0, 0, 0, 9362.0, 30146.0, 35388.0, 9362.0, 7.576860427856445, -0.08065704256296158, 0.048680875450372696, -0.30688753724098206, 0.9999821186065674, 0.03914446383714676, 0.03376869484782219, -0.09599059075117111, -0.1650371551513672, 1.482421875, 1.310302734375, 0.036285400390625, 1.49267578125, 0.00013825271162204444, 3.1573268643114716e-05
31423, 58.529258728027344, 84.53208923339844, -55.82977294921875, 0.0, 0.0, -24.198280334472656, 0.0, 0.0, -0.8516311645507812, 0, 0, 0, 0, 0, 0, 9362.0, 30146.0, 35388.0, 9362.0, 7.576860427856445, -0.029363540932536125, -0.2933488190174103, -0.0939558893442154, 0.9991228580474854, 0.040005847811698914, 0.0345536544919014, -0.09599059075117111, -0.1650371551513672, 1.482421875, 1.310302734375, 0.036285400390625, 1.49560546875, 0.00013825271162204444, 3.1573268643114716e-05
31443, 58.55352783203125, 84.53240966796875, -55.85270690917969, 0.0, 0.0, -24.204530715942383, 0.0, 0.0, -0.2960205078125, 0, 0, 0, 0, 0, 0, 9362.0, 30146.0, 35388.0, 9362.0, 7.576860427856445, -0.15644226968288422, 0.2361999899148941, 0.026725325733423233, 0.9991228580474854, 0.040005847811698914, 0.0345536544919014, -0.0629444345831871, 0.06792068481445312, 1.50146484375, 1.361572265625, 0.016571044921875, 1.49560546875, 0.0001373810664517805, 3.1573268643114716e-05
31453, 58.60169219970703, 84.53319549560547, -55.901580810546875, 0.0, 0.0, -24.201452255249023, 0.0, 0.0, 0.3078460693359375, 0, 0, 0, 0, 0, 0, 9362.0, 30146.0, 35388.0, 9362.0, 7.576860427856445, -0.09489882737398148, -0.2565859258174896, -0.07683592289686203, 0.9987493753433228, 0.03926122933626175, 0.02855522185564041, -0.0629444345831871, 0.06792068481445312, 1.50146484375, 1.39599609375, 0.0362701416015625, 1.49560546875, 0.0001373810664517805, 3.1573268643114716e-05
31463, 58.60618209838867, 84.53262329101562, -55.905120849609375, 0.0, 0.0, -24.198680877685547, 0.0, 0.0, 0.27713775634765625, 0, 0, 0, 0, 0, 0, 9362.0, 30146.0, 35388.0, 9362.0, 7.576860427856445, 0.1671268343925476, 0.19437895715236664, -0.11053993552923203, 0.9992520213127136, 0.04012502357363701, 0.03275546804070473, -0.0629444345831871, 0.06792068481445312, 1.50146484375, 1.39599609375, 0.0362701416015625, 1.494140625, 0.0001373810664517805, 3.1573268643114716e-05
31473, 58.609344482421875, 84.5325927734375, -55.867313385009766, 0.0, 0.0, -24.193180084228516, 0.0, 0.0, 0.550079345703125, 0, 0, 0, 0, 0, 0, 9362.0, 30146.0, 35388.0, 9362.0, 7.576860427856445, -0.15462498366832733, 0.06711327284574509, 0.22796685993671417, 0.9995410442352295, 0.0401071235537529, 0.03413793444633484, -0.0629444345831871, 0.06792068481445312, 1.50146484375, 1.39599609375, 0.0362701416015625, 1.494140625, 0.0001356542343273759, 3.1573268643114716e-05
31483, 58.57316589355469, 84.53187561035156, -55.871826171875, 0.0, 0.0, -24.188228607177734, 0.0, 0.0, 0.495147705078125, 0, 0, 0, 0, 0, 0, 9362.0, 30146.0, 35388.0, 9362.0, 7.576860427856445, 0.050724491477012634, -0.006933459546416998, -0.24862082302570343, 0.9978398680686951, 0.041061535477638245, 0.03341374918818474, -0.0629444345831871, 0.06792068481445312, 1.50146484375, 1.39599609375, 0.0362701416015625, 1.49560546875, 0.0001356542343273759, 3.1573268643114716e-05
31493, 58.580352783203125, 84.53179931640625, -55.87947463989258, 0.0, 0.0, -24.188228607177734, 0.0, 0.0, 0.495147705078125, 0, 0, 0, 0, 0, 0, 9362.0, 30146.0, 35388.0, 9362.0, 7.576860427856445, -0.05967463552951813, -0.05351148173213005, -0.12655022740364075, 0.9978398680686951, 0.041061535477638245, 0.03341374918818474, -0.0629444345831871, 0.06792068481445312, 1.50146484375, 1.39599609375, 0.0362701416015625, 1.49560546875, 0.00013479897461365908, 3.1573268643114716e-05
31503, 58.62120056152344, 84.5326919555664, -55.91956329345703, 0.0, 0.0, -24.17093276977539, 0.0, 0.0, 0.8192062377929688, 0, 0, 0, 0, 0, 0, 9362.0, 30146.0, 35388.0, 9362.0, 7.576860427856445, -0.08262358605861664, -0.475151389837265, -0.06808646768331528, 1.0001403093338013, 0.042791396379470825, 0.03311895206570625, -0.0629444345831871, 0.06792068481445312, 1.50146484375, 1.36962890625, 0.01910400390625, 1.49560546875, 0.00013437337474897504, 3.1573268643114716e-05
31513, 58.613346099853516, 84.5315170288086, -55.910423278808594, 0.0, 0.0, -24.163833618164062, 0.0, 0.0, 0.7099151611328125, 0, 0, 0, 0, 0, 0, 9362.0, 30146.0, 35388.0, 9362.0, 7.576860427856445, 0.052633970975875854, 0.5433308482170105, -0.20706923305988312, 0.9979400038719177, 0.041386108845472336, 0.03378891572356224, -0.0629444345831871, 0.06792068481445312, 1.50146484375, 1.36962890625, 0.01910400390625, 1.49560546875, 0.000133949113660492, 3.1573268643114716e-05
31523, 58.60198211669922, 84.53158569335938, -55.89948654174805, 0.0, 0.0, -24.15744400024414, 0.0, 0.0, 0.6389617919921875, 0, 0, 0, 0, 0, 0, 9362.0, 30146.0, 35388.0, 9362.0, 7.576860427856445, -0.13552741706371307, -0.22384697198867798, 0.08337640017271042, 0.9973705410957336, 0.04116571322083473, 0.03066154196858406, -0.0629444345831871, 0.06792068481445312, 1.50146484375, 1.36962890625, 0.01910400390625, 1.494140625, 0.000133949113660492, 3.1573268643114716e-05
31543, 58.663917541503906, 84.53208923339844, -55.960906982421875, 0.0, 0.0, -24.15015983581543, 0.0, 0.0, 0.34503936767578125, 0, 0, 0, 0, 0, 0, 9362.0, 30146.0, 35388.0, 9362.0, 7.576860427856445, -0.11326012015342712, -0.12027837336063385, -0.019107718020677567, 0.9998094439506531, 0.04174258932471275, 0.02928398735821247, -0.040285997092723846, 0.08584022521972656, 1.5029296875, 1.31689453125, 0.0298919677734375, 1.494140625, 0.00013310460781212896, 3.1573268643114716e-05
31553, 58.667598724365234, 84.53251647949219, -55.9642219543457, 0.0, 0.0, -24.151153564453125, 0.0, 0.0, -0.09937286376953125, 0, 0, 0, 0, 0, 0, 9362.0, 30146.0, 35388.0, 9362.0, 7.576860427856445, 0.02164710871875286, 0.1507948935031891, 0.1309869885444641, 0.9998094439506531, 0.04174258932471275, 0.02928398735821247, -0.040285997092723846, 0.08584022521972656, 1.5029296875, 1.33154296875, 0.0198516845703125, 1.494140625, 0.00013310460781212896, 3.1573268643114716e-05
31583, 58.58058166503906, 84.53474426269531, -55.875370025634766, 0.0, 0.0, -24.152538299560547, 0.0, 0.0, -0.0232696533203125, 0, 0, 0, 0, 0, 0, 9362.0, 30146.0, 35388.0, 9362.0, 7.576860427856445, 0.13309738039970398, 0.47585529088974, 0.321444571018219, 0.9987323880195618, 0.040302202105522156, 0.03231867402791977, -0.040285997092723846, 0.08584022521972656, 1.5029296875, 1.37255859375, 0.02044677734375, 1.494140625, 0.0001314315159106627, 3.1573268643114716e-05
31593, 58.549903869628906, 84.53485107421875, -55.84492111206055, 0.0, 0.0, -24.1535701751709, 0.0, 0.0, -0.10318756103515625, 0, 0, 0, 0, 0, 0, 9362.0, 30146.0, 35388.0, 9362.0, 7.576860427856445, -0.025686882436275482, 0.3445211350917816, -0.05376403033733368, 0.9987323880195618, 0.040302202105522156, 0.03231867402791977, -0.040285997092723846, 0.08584022521972656, 1.5029296875, 1.38134765625, 0.025177001953125, 1.494140625, 0.0001314315159106627, 3.1573268643114716e-05
31603, 58.57682418823242, 84.5357437133789, -55.87134552001953, 0.0, 0.0, -24.15450096130371, 0.0, 0.0, -0.09307861328125, 0, 0, 0, 0, 0, 0, 9362.0, 30146.0, 35388.0, 9362.0, 7.576860427856445, -0.025686882436275482, 0.3445211350917816, -0.05376403033733368, 0.996293306350708, 0.04093093052506447, 0.03289482370018959, -0.040285997092723846, 0.08584022521972656, 1.5029296875, 1.31689453125, 0.0298919677734375, 1.494140625, 0.0001314315159106627, 3.1573268643114716e-05
31613, 58.6136589050293, 84.53455352783203, -55.9085693359375, 0.0, 0.0, -24.154794692993164, 0.0, 0.0, -0.0293731689453125, 0, 0, 0, 0, 0, 0, 9362.0, 30146.0, 35388.0, 9362.0, 7.576860427856445, -0.010163228027522564, -0.257868230342865, -0.39017969369888306, 0.9979183673858643, 0.04335659742355347, 0.03217287361621857, -0.040285997092723846, 0.08584022521972656, 1.5029296875, 1.31689453125, 0.0298919677734375, 1.494140625, 0.00012977946607861668, 3.1573268643114716e-05
31623, 58.60692596435547, 84.5333023071289, -55.90050506591797, 0.0, 0.0, -24.154794692993164, 0.0, 0.0, -0.0293731689453125, 0, 0, 0, 0, 0, 0, 9362.0, 30146.0, 35388.0, 9362.0, 7.576860427856445, 0.14222531020641327, 0.014144336804747581, -0.23097573220729828, 0.9979183673858643, 0.04335659742355347, 0.03217287361621857, -0.040285997092723846, 0.08584022521972656, 1.5029296875, 1.31689453125, 0.0298919677734375, 1.493408203125, 0.00012977946607861668, 3.1573268643114716e-05
31643, 58.61450958251953, 84.5329818725586, -55.908447265625, 0.0, 0.0, -24.178363800048828, 0.0, 0.0, -1.1037826538085938, 0, 0, 0, 0, 0, 0, 9362.0, 30146.0, 35388.0, 9362.0, 7.576860427856445, 0.13606590032577515, -0.35334619879722595, -0.5436567664146423, 0.9979183673858643, 0.04335659742355347, 0.03217287361621857, -0.03480541333556175, 0.06792068481445312, 1.50146484375, 1.33154296875, 0.0198516845703125, 1.493408203125, 0.00012977946607861668, 3.1573268643114716e-05
31653, 58.54911804199219, 84.53279876708984, -55.84247970581055, 0.0, 0.0, -24.19049072265625, 0.0, 0.0, -1.2126922607421875, 0, 0, 0, 0, 0, 0, 9362.0, 30146.0, 35388.0, 9362.0, 7.576860427856445, 0.011796833015978336, 0.26879364252090454, 0.29413408041000366, 0.9979183673858643, 0.04335659742355347, 0.03217287361621857, -0.03480541333556175, 0.06792068481445312, 1.50146484375, 1.36376953125, 0.017181396484375, 1.493408203125, 0.00012977946607861668, 3.1573268643114716e-05
31663, 58.52437210083008, 84.53108215332031, -55.81774139404297, 0.0, 0.0, -24.19049072265625, 0.0, 0.0, -1.2126922607421875, 0, 0, 0, 0, 0, 0, 9362.0, 30146.0, 35388.0, 9362.0, 7.576860427856445, -0.08131697028875351, 0.1997757852077484, -0.030317984521389008, 0.9981738924980164, 0.040552955120801926, 0.03319723159074783, -0.03480541333556175, 0.06792068481445312, 1.50146484375, 1.34326171875, 0.01605224609375, 1.493408203125, 0.00012977946607861668, 3.1573268643114716e-05
31673, 58.565025329589844, 84.529541015625, -55.857872009277344, 0.0, 0.0, -24.215057373046875, 0.0, 0.0, -1.3650894165039062, 0, 0, 0, 0, 0, 0, 9362.0, 30146.0, 35388.0, 9362.0, 7.576860427856445, 0.03050384297966957, -0.25381284952163696, -0.7458045482635498, 0.9981738924980164, 0.040552955120801926, 0.03319723159074783, -0.03480541333556175, 0.06792068481445312, 1.50146484375, 1.34326171875, 0.01605224609375, 1.493408203125, 0.00012977946607861668, 3.1573268643114716e-05
31683, 58.60417556762695, 84.5299301147461, -55.89735794067383, 0.0, 0.0, -24.227344512939453, 0.0, 0.0, -1.2287139892578125, 0, 0, 0, 0, 0, 0, 9362.0, 30146.0, 35388.0, 9362.0, 7.576860427856445, -0.05229658633470535, -0.3276992440223694, -0.03549732267856598, 0.9981738924980164, 0.040552955120801926, 0.03319723159074783, -0.03480541333556175, 0.06792068481445312, 1.50146484375, 1.358642578125, 0.0159912109375, 1.497802734375, 0.00012977946607861668, 3.1573268643114716e-05
31693, 58.59254455566406, 84.53012084960938, -55.88555908203125, 0.0, 0.0, -24.2373104095459, 0.0, 0.0, -0.9965896606445312, 0, 0, 0, 0, 0, 0, 9362.0, 30146.0, 35388.0, 9362.0, 7.576860427856445, -0.04517318680882454, 0.13750387728214264, 0.015730679035186768, 0.9994374513626099, 0.0417884886264801, 0.03115595318377018, -0.03480541333556175, 0.06792068481445312, 1.50146484375, 1.398193359375, 0.03826904296875, 1.497802734375, 0.00012653741578105837, 3.1573268643114716e-05
31703, 58.62586975097656, 84.52896881103516, -55.91933822631836, 0.0, 0.0, -24.246278762817383, 0.0, 0.0, -0.8968353271484375, 0, 0, 0, 0, 0, 0, 9362.0, 30146.0, 35388.0, 9362.0, 7.576860427856445, -0.04517318680882454, 0.13750387728214264, 0.015730679035186768, 1.0013391971588135, 0.043671637773513794, 0.029878292232751846, -0.03480541333556175, 0.06792068481445312, 1.50146484375, 1.398193359375, 0.03826904296875, 1.4970703125, 0.00012653741578105837, 3.1573268643114716e-05
31713, 58.66152572631836, 84.53026580810547, -55.95501708984375, 0.0, 0.0, -24.24970054626465, 0.0, 0.0, -0.3421783447265625, 0, 0, 0, 0, 0, 0, 9362.0, 30146.0, 35388.0, 9362.0, 7.576860427856445, -0.04517318680882454, 0.13750387728214264, 0.015730679035186768, 0.9969496726989746, 0.041368789970874786, 0.0296283308416605, -0.03480541333556175, 0.06792068481445312, 1.50146484375, 1.398193359375, 0.03826904296875, 1.4970703125, 0.00012573963613249362, 3.1573268643114716e-05
31723, 58.64900588989258, 84.5306167602539, -55.94432067871094, 0.0, 0.0, -24.25278091430664, 0.0, 0.0, -0.30803680419921875, 0, 0, 0, 0, 0, 0, 9362.0, 30146.0, 35388.0, 9362.0, 7.576860427856445, -0.014868504367768764, -0.013588626869022846, -0.0054320539347827435, 0.9969496726989746, 0.041368789970874786, 0.0296283308416605, -0.03480541333556175, 0.06792068481445312, 1.50146484375, 1.34619140625, 0.015594482421875, 1.4970703125, 0.00012573963613249362, 3.1573268643114716e-05
31733, 58.67808532714844, 84.53205108642578, -55.97379684448242, 0.0, 0.0, -24.261295318603516, 0.0, 0.0, -0.8514404296875, 0, 0, 0, 0, 0, 0, 9362.0, 30146.0, 35388.0, 9362.0, 7.576860427856445, -0.014868504367768764, -0.013588626869022846, -0.0054320539347827435, 0.9969496726989746, 0.041368789970874786, 0.0296283308416605, -0.05684098228812218, -0.07543754577636719, 1.48974609375, 1.401123046875, 0.041015625, 1.4970703125, 0.00012494687689468265, 3.1573268643114716e-05
31743, 58.64046859741211, 84.53086853027344, -55.93547058105469, 0.0, 0.0, -24.268959045410156, 0.0, 0.0, -0.7663726806640625, 0, 0, 0, 0, 0, 0, 9362.0, 30146.0, 35388.0, 9362.0, 7.576860427856445, -0.03861413896083832, 0.30964604020118713, -0.16936734318733215, 0.9969496726989746, 0.041368789970874786, 0.0296283308416605, -0.05684098228812218, -0.07543754577636719, 1.48974609375, 1.401123046875, 0.041015625, 1.494140625, 0.00012494687689468265, 3.1573268643114716e-05
31753, 58.631404876708984, 84.53065490722656, -55.9255256652832, 0.0, 0.0, -24.274494171142578, 0.0, 0.0, -0.5535125732421875, 0, 0, 0, 0, 0, 0, 9362.0, 30146.0, 35388.0, 9362.0, 7.576860427856445, 0.16239601373672485, -0.13437791168689728, 0.1651516556739807, 0.9969496726989746, 0.041368789970874786, 0.0296283308416605, -0.05684098228812218, -0.07543754577636719, 1.48974609375, 1.401123046875, 0.041015625, 1.494140625, 0.00012415912351571023, 3.1573268643114716e-05
31773, 58.56670379638672, 84.53079986572266, -55.85944366455078, 0.0, 0.0, -24.279579162597656, 0.0, 0.0, -0.01068115234375, 0, 0, 0, 0, 0, 0, 9362.0, 30146.0, 35388.0, 9362.0, 7.576860427856445, -0.03735953941941261, -0.0327581986784935, 0.4753464162349701, 0.9974086284637451, 0.03851469233632088, 0.03376082330942154, -0.05684098228812218, -0.07543754577636719, 1.48974609375, 1.40478515625, 0.0446624755859375, 1.494140625, 0.00012415912351571023, 3.1573268643114716e-05
31783, 58.532135009765625, 84.53041076660156, -55.82468795776367, 0.0, 0.0, -24.279674530029297, 0.0, 0.0, -0.0095367431640625, 0, 0, 0, 0, 0, 0, 9362.0, 30146.0, 35388.0, 9362.0, 7.576860427856445, 0.01690654270350933, 0.06993987411260605, -0.25382792949676514, 0.9991544485092163, 0.039098531007766724, 0.03305935859680176, -0.05684098228812218, -0.07543754577636719, 1.48974609375, 1.29638671875, 0.0542755126953125, 1.494140625, 0.00012415912351571023, 3.1573268643114716e-05
31793, 58.516048431396484, 84.53101348876953, -55.808372497558594, 0.0, 0.0, -24.276206970214844, 0.0, 0.0, 0.3467559814453125, 0, 0, 0, 0, 0, 0, 9362.0, 30146.0, 35388.0, 9362.0, 7.576860427856445, 0.01690654270350933, 0.06993987411260605, -0.25382792949676514, 1.001036524772644, 0.039383791387081146, 0.032441385090351105, -0.05684098228812218, -0.07543754577636719, 1.48974609375, 1.29638671875, 0.0542755126953125, 1.494140625, 0.0001225984888151288, 3.1573268643114716e-05
31803, 58.50511932373047, 84.53202056884766, -55.79822540283203, 0.0, 0.0, -24.27308464050293, 0.0, 0.0, 0.31223297119140625, 0, 0, 0, 0, 0, 0, 9362.0, 30146.0, 35388.0, 9362.0, 7.576860427856445, -0.021925482898950577, 0.09639760106801987, 0.23818901181221008, 0.9989314079284668, 0.040800902992486954, 0.03162965923547745, -0.05684098228812218, -0.07543754577636719, 1.48974609375, 1.29638671875, 0.0542755126953125, 1.49267578125, 0.0001225984888151288, 3.1573268643114716e-05
31813, 58.51523971557617, 84.53112030029297, -55.80660629272461, 0.0, 0.0, -24.2713680267334, 0.0, 0.0, 0.171661376953125, 0, 0, 0, 0, 0, 0, 9362.0, 30146.0, 35388.0, 9362.0, 7.576860427856445, 0.18313133716583252, 0.0430053174495697, 0.0055543831549584866, 0.9989314079284668, 0.040800902992486954, 0.03162965923547745, -0.05684098228812218, -0.07543754577636719, 1.48974609375, 1.29638671875, 0.0542755126953125, 1.49267578125, 0.0001225984888151288, 3.1573268643114716e-05
31823, 58.474369049072266, 84.53105163574219, -55.765804290771484, 0.0, 0.0, -24.269821166992188, 0.0, 0.0, 0.15468597412109375, 0, 0, 0, 0, 0, 0, 9362.0, 30146.0, 35388.0, 9362.0, 7.576860427856445, 0.06083999574184418, 0.06438371539115906, 0.06152326613664627, 0.996789276599884, 0.04119729623198509, 0.03314052149653435, -0.05684098228812218, -0.07543754577636719, 1.48974609375, 1.29638671875, 0.0542755126953125, 1.48974609375, 0.0001225984888151288, 3.1573268643114716e-05
31843, 58.390506744384766, 84.53035736083984, -55.683082580566406, 0.0, 0.0, -24.26706314086914, 0.0, 0.0, 0.2758026123046875, 0, 0, 0, 0, 0, 0, 9362.0, 30146.0, 35388.0, 9362.0, 7.576860427856445, -0.16250646114349365, 0.23574739694595337, 0.036557164043188095, 0.9999369382858276, 0.04051540791988373, 0.03368092700839043, -0.05935255065560341, -0.10231781005859375, 1.487548828125, 1.29638671875, 0.0542755126953125, 1.49560546875, 0.00012105747737223282, 3.1573268643114716e-05
31853, 58.3646354675293, 84.52996826171875, -55.65766525268555, 0.0, 0.0, -24.260160446166992, 0.0, 0.0, 0.4421234130859375, 0, 0, 0, 0, 0, 0, 9362.0, 30146.0, 35388.0, 9362.0, 7.576860427856445, -0.280387818813324, 0.3470189869403839, 0.18009428679943085, 0.9999369382858276, 0.04051540791988373, 0.03368092700839043, -0.05935255065560341, -0.10231781005859375, 1.487548828125, 1.34912109375, 0.015380859375, 1.49560546875, 0.00012105747737223282, 3.1573268643114716e-05
31863, 58.311885833740234, 84.52996826171875, -55.604496002197266, 0.0, 0.0, -24.256183624267578, 0.0, 0.0, 0.39768218994140625, 0, 0, 0, 0, 0, 0, 9362.0, 30146.0, 35388.0, 9362.0, 7.576860427856445, 0.10281352698802948, 0.07314160466194153, 0.22401770949363708, 0.9978196620941162, 0.040863037109375, 0.030945243313908577, -0.05935255065560341, -0.10231781005859375, 1.487548828125, 1.32275390625, 0.0251312255859375, 1.49560546875, 0.00012105747737223282, 3.1573268643114716e-05
