timeTick, roll, pitch, yaw, stateX, stateY, stateZ, stateVX, stateVY, stateVZ, otX0, otY0, otZ0, otRoll0, otPitch0, otYaw0, left wing, pitch motor, yaw motor, right wing, voltage, roll rate, pitch rate, yaw rate, A_x, A_y, A_z, current, i_raw, v_raw, airflow_voltage, airflow_speed, pot_Pitch, voltage_KF, pkk, non_kf
100919, 1.5449763536453247, -85.02960205078125, 0.46483880281448364, 0, 0, 0, 0, 0, 0, 0, 0, 0, 0, 0, 0, 0, 0, 0, 0, 0, 0, 0, 0, 0, 0, 0, 0, 0, 0, 0, 0, 0, 0, 0, 0
100929, 1.5564851760864258, -85.02940368652344, 0.4760865867137909, 0.0, 0.0, -23.218046188354492, 0.0, 0.0, 0.342559814453125, 0, 0, 0, 0, 0, 0, 9362.0, 30146.0, 35388.0, 9362.0, 0, 0.12936051189899445, 0.022411545738577843, 0.0901639312505722, -0.9984096884727478, 0.002862021792680025, 0.03271516039967537, 0, 0, 0, 0, 0, 0, 0, 0, 0
100939, 1.4735904932022095, -85.0291748046875, 0.39395660161972046, 0.0, 0.0, -23.2149658203125, 0.0, 0.0, 0.30803680419921875, 0, 0, 0, 0, 0, 0, 9362.0, 30146.0, 35388.0, 9362.0, 0, 0.05514244735240936, -0.062000300735235214, -0.30972355604171753, -1.0001848936080933, 0.001694816630333662, 0.03296637535095215, 0, 0, 0, 1.420166015625, 0.0621337890625, 0, 0, 0, 0
100949, 1.4821161031723022, -85.02948760986328, 0.4016098082065582, 0.0, 0.0, -23.218481063842773, 0.0, 0.0, -0.35152435302734375, 0, 0, 0, 0, 0, 0, 9362.0, 30146.0, 35388.0, 9362.0, 0, 0.25686952471733093, 0.08176176249980927, 0.043691396713256836, -0.999927818775177, -0.0011088023893535137, 0.03276723623275757, 0, 0, 0, 1.18798828125, 0.455841064453125, 1.49267578125, 0, 0, 0
100959, 1.5960190296173096, -85.02952575683594, 0.51664799451828, 0.0, 0.0, -23.22164535522461, 0.0, 0.0, -0.31642913818359375, 0, 0, 0, 0, 0, 0, 9362.0, 30146.0, 35388.0, 9362.0, 0, -0.14924487471580505, 0.04110676050186157, 0.5092094540596008, -1.0015827417373657, -0.00022989582794252783, 0.03227362036705017, 0, 0, 0, 1.39892578125, 0.0390167236328125, 1.49267578125, 0, 0, 0
100969, 1.6179802417755127, -85.02995300292969, 0.5371763110160828, 0.0, 0.0, -23.216289520263672, 0.0, 0.0, 0.53558349609375, 0, 0, 0, 0, 0, 0, 9362.0, 30146.0, 35388.0, 9362.0, 0, 0.14974470436573029, 0.22977738082408905, 0.10837344825267792, -0.9992857575416565, -0.001126229064539075, 0.03116874024271965, 0, 0, 0, 1.4033203125, 0.043182373046875, 1.49560546875, 0, 0, 0
100979, 1.5976035594940186, -85.02980041503906, 0.5162814855575562, 0.0, 0.0, -23.211469650268555, 0.0, 0.0, 0.48198699951171875, 0, 0, 0, 0, 0, 0, 9362.0, 30146.0, 35388.0, 9362.0, 0, -0.16634643077850342, -0.21929970383644104, -0.20399338006973267, -0.9991269707679749, -0.00015075859846547246, 0.03535427898168564, 0, 0, 0, 1.42529296875, 0.0688018798828125, 1.49560546875, 0, 0, 0
100989, 1.6053065061569214, -85.03023529052734, 0.5237085819244385, 0.0, 0.0, -23.2074031829834, 0.0, 0.0, 0.406646728515625, 0, 0, 0, 0, 0, 0, 9362.0, 30146.0, 35388.0, 9362.0, 0, 0.05828849971294403, 0.3189382553100586, 0.11236215382814407, -1.0010510683059692, 0.0003088506928179413, 0.03393266350030899, 0, 0, 0, 1.29052734375, 0.06378173828125, 1.48828125, 0, 0, 0
100999, 1.5621938705444336, -85.03004455566406, 0.48025527596473694, 0.0, 0.0, -23.20374298095703, 0.0, 0.0, 0.36602020263671875, 0, 0, 0, 0, 0, 0, 9362.0, 30146.0, 35388.0, 9362.0, 0, 0.07581422477960587, 0.09088341146707535, -0.04990703985095024, -1.0011537075042725, 0.00228982069529593, 0.03346943110227585, 0, 0, 0, 1.329345703125, 0.02105712890625, 1.48828125, 0, 0, 0
101009, 1.58535635471344, -85.0302734375, 0.5034828186035156, 0.0, 0.0, -23.200721740722656, 0.0, 0.0, 0.3021240234375, 0, 0, 0, 0, 0, 0, 9362.0, 30146.0, 35388.0, 9362.0, 0, 0.016977831721305847, 0.04034878686070442, 0.1063646748661995, -0.9975740909576416, 0.0018795622745528817, 0.03244667872786522, 0, 0, 0, 1.3330078125, 0.0191650390625, 1.49267578125, 0, 0, 0
101019, 1.516908884048462, -85.03034973144531, 0.43463003635406494, 0.0, 0.0, -23.198001861572266, 0.0, 0.0, 0.2719879150390625, 0, 0, 0, 0, 0, 0, 9362.0, 30146.0, 35388.0, 9362.0, 8.350414276123047, 0.2231389433145523, 0.007087362464517355, -0.13697539269924164, -0.9977359771728516, 0.00010298134293407202, 0.03350793570280075, -0.10994638502597809, -0.021678924560546875, 1.494140625, 1.417236328125, 0.058624267578125, 1.49267578125, 0, 0, 0
101029, 1.55316162109375, -85.03043365478516, 0.4711303114891052, 0.0, 0.0, -23.19993019104004, 0.0, 0.0, -0.19283294677734375, 0, 0, 0, 0, 0, 0, 9362.0, 30146.0, 35388.0, 9362.0, 8.350414276123047, -0.04219435900449753, 0.20125223696231842, 0.12231341004371643, -0.9985890984535217, 0.0005059570539742708, 0.03473741188645363, -0.10994638502597809, -0.021678924560546875, 1.494140625, 1.452392578125, 0.10870361328125, 1.4912109375, 0, 0, 0
101039, 1.5017421245574951, -85.03019714355469, 0.4202030897140503, 0.0, 0.0, -23.20166778564453, 0.0, 0.0, -0.17375946044921875, 0, 0, 0, 0, 0, 0, 9362.0, 30146.0, 35388.0, 9362.0, 8.350414276123047, 0.06730668246746063, -0.27490440011024475, -0.25048819184303284, -0.9996519088745117, -0.000805332267191261, 0.03354751318693161, -0.10994638502597809, -0.021678924560546875, 1.494140625, 1.418701171875, 0.0603485107421875, 1.4912109375, 0, 0, 0
101049, 1.5057607889175415, -85.0302734375, 0.4242834150791168, 0.0, 0.0, -23.204872131347656, 0.0, 0.0, -0.3204345703125, 0, 0, 0, 0, 0, 0, 9362.0, 30146.0, 35388.0, 9362.0, 8.350414276123047, 0.003417316824197769, 0.035562723875045776, 0.14148017764091492, -0.9994964003562927, -0.002181360963732004, 0.03405773639678955, -0.10994638502597809, -0.021678924560546875, 1.494140625, 1.446533203125, 0.09930419921875, 1.491943359375, 0, 0, 0
101059, 1.5078765153884888, -85.03070831298828, 0.42560747265815735, 0.0, 0.0, -23.20775604248047, 0.0, 0.0, -0.28839111328125, 0, 0, 0, 0, 0, 0, 9362.0, 30146.0, 35388.0, 9362.0, 8.350414276123047, 0.093112051486969, 0.2288006842136383, 0.23566170036792755, -1.0012366771697998, -0.00041443551890552044, 0.033370036631822586, -0.10994638502597809, -0.021678924560546875, 1.494140625, 1.355712890625, 0.0155029296875, 1.491943359375, 0, 0, 0
101069, 1.5231742858886719, -85.03094482421875, 0.4413643777370453, 0.0, 0.0, -23.2021484375, 0.0, 0.0, 0.560760498046875, 0, 0, 0, 0, 0, 0, 9362.0, 30146.0, 35388.0, 9362.0, 8.350414276123047, -0.021405640989542007, 0.21172240376472473, 0.13073797523975372, -0.9999757409095764, -6.399843550752848e-05, 0.031382739543914795, -0.10994638502597809, -0.021678924560546875, 1.494140625, 1.47509765625, 0.147857666015625, 1.494140625, 0, 0, 0
101079, 1.5704439878463745, -85.03165435791016, 0.48923003673553467, 0.0, 0.0, -23.197101593017578, 0.0, 0.0, 0.5046844482421875, 0, 0, 0, 0, 0, 0, 9362.0, 30146.0, 35388.0, 9362.0, 8.350414276123047, -0.039393745362758636, 0.35808902978897095, 0.180308535695076, -1.000301480293274, 0.00016286587924696505, 0.03294012323021889, -0.10994638502597809, -0.021678924560546875, 1.494140625, 1.41943359375, 0.0612945556640625, 1.494140625, 0, 0, 0
101089, 1.5474272966384888, -85.03111267089844, 0.4670228362083435, 0.0, 0.0, -23.192285537719727, 0.0, 0.0, 0.48160552978515625, 0, 0, 0, 0, 0, 0, 9362.0, 30146.0, 35388.0, 9362.0, 8.350414276123047, -0.11327441036701202, -0.0205234382301569, -0.12552370131015778, -1.000399112701416, 0.0026457759086042643, 0.035576578229665756, -0.10994638502597809, -0.021678924560546875, 1.494140625, 1.310302734375, 0.036285400390625, 1.4912109375, 0, 0, 0
101099, 1.5464787483215332, -85.03062438964844, 0.4642674922943115, 0.0, 0.0, -23.187950134277344, 0.0, 0.0, 0.43354034423828125, 0, 0, 0, 0, 0, 0, 9362.0, 30146.0, 35388.0, 9362.0, 8.350414276123047, 0.07949765026569366, -0.07708311080932617, 0.22231151163578033, -0.9999642372131348, 0.0008128989720717072, 0.03618843853473663, -0.10994638502597809, -0.021678924560546875, 1.494140625, 1.3125, 0.034027099609375, 1.4912109375, 0, 0, 0
101109, 1.498604655265808, -85.03031158447266, 0.4172719120979309, 0.0, 0.0, -23.189241409301758, 0.0, 0.0, -0.12912750244140625, 0, 0, 0, 0, 0, 0, 9362.0, 30146.0, 35388.0, 9362.0, 8.350414276123047, -0.07028616219758987, -0.20187754929065704, -0.06699097901582718, -0.9973064661026001, -0.0005143854068592191, 0.03446882963180542, -0.10994638502597809, -0.021678924560546875, 1.494140625, 1.449462890625, 0.103973388671875, 1.493408203125, 0, 0, 0
101119, 1.4858852624893188, -85.03031158447266, 0.4045275151729584, 0.0, 0.0, -23.190406799316406, 0.0, 0.0, -0.11653900146484375, 0, 0, 0, 0, 0, 0, 9362.0, 30146.0, 35388.0, 9362.0, 8.350414276123047, 0.020992616191506386, 0.1596451997756958, 0.0027725864201784134, -0.9995669722557068, -0.0011756033636629581, 0.034511830657720566, -0.09855068475008011, -0.1291980743408203, 1.4853515625, 1.47802734375, 0.1532745361328125, 1.493408203125, 0, 0, 0
101129, 1.4198663234710693, -85.03079223632812, 0.33911746740341187, 0.0, 0.0, -23.194461822509766, 0.0, 0.0, -0.4055023193359375, 0, 0, 0, 0, 0, 0, 9362.0, 30146.0, 35388.0, 9362.0, 8.350414276123047, -0.05562811344861984, 0.17545881867408752, -0.2904880940914154, -0.9991519451141357, 0.001176071004010737, 0.03258160874247551, -0.09855068475008011, -0.1291980743408203, 1.4853515625, 1.530029296875, 0.2581329345703125, 1.48828125, 0, 0, 0
101139, 1.4870460033416748, -85.03113555908203, 0.4061189889907837, 0.0, 0.0, -23.19811248779297, 0.0, 0.0, -0.3650665283203125, 0, 0, 0, 0, 0, 0, 9362.0, 30146.0, 35388.0, 9362.0, 8.350414276123047, 0.18871904909610748, 0.2575008273124695, 0.14572128653526306, -0.9999387860298157, 0.00180305284447968, 0.032134804874658585, -0.09855068475008011, -0.1291980743408203, 1.4853515625, 1.371826171875, 0.02008056640625, 1.48828125, 0, 0, 0
101149, 1.4670352935791016, -85.03043365478516, 0.3855113983154297, 0.0, 0.0, -23.200031280517578, 0.0, 0.0, -0.1918792724609375, 0, 0, 0, 0, 0, 0, 9362.0, 30146.0, 35388.0, 9362.0, 8.350414276123047, 0.12437120079994202, -0.31318894028663635, -0.06105686351656914, -0.9989028573036194, 0.002801270456984639, 0.02983097918331623, -0.09855068475008011, -0.1291980743408203, 1.4853515625, 1.288330078125, 0.0676116943359375, 1.4912109375, 0, 0, 0
101159, 1.4596227407455444, -85.03055572509766, 0.3785110116004944, 0.0, 0.0, -23.201757431030273, 0.0, 0.0, -0.17261505126953125, 0, 0, 0, 0, 0, 0, 9362.0, 30146.0, 35388.0, 9362.0, 8.350414276123047, 0.004432239104062319, -0.04618468135595322, -0.14611698687076569, -0.9994661808013916, 0.0006814484368078411, 0.030631426721811295, -0.09855068475008011, -0.1291980743408203, 1.4853515625, 1.50439453125, 0.2044219970703125, 1.4912109375, 0, 0, 0
101169, 1.3382742404937744, -85.02967834472656, 0.2565840482711792, 0.0, 0.0, -23.209054946899414, 0.0, 0.0, -0.7297515869140625, 0, 0, 0, 0, 0, 0, 9362.0, 30146.0, 35388.0, 9362.0, 8.350414276123047, -0.042372461408376694, -0.46291112899780273, -0.32775387167930603, -0.9994484782218933, -0.0009386950405314565, 0.03342681750655174, -0.09855068475008011, -0.1291980743408203, 1.4853515625, 1.45166015625, 0.107452392578125, 1.49267578125, 0, 0, 0
101179, 1.2094420194625854, -85.02924346923828, 0.12658868730068207, 0.0, 0.0, -23.215620040893555, 0.0, 0.0, -0.6565093994140625, 0, 0, 0, 0, 0, 0, 9362.0, 30146.0, 35388.0, 9362.0, 8.350414276123047, 0.0798385888338089, -0.2270939201116562, -0.09541696310043335, -0.9986356496810913, -0.000645960564725101, 0.03316685929894447, -0.09855068475008011, -0.1291980743408203, 1.4853515625, 1.318359375, 0.028656005859375, 1.49267578125, 0, 0, 0
101189, 1.2032946348190308, -85.029296875, 0.11975210160017014, 0.0, 0.0, -23.225902557373047, 0.0, 0.0, -1.0282516479492188, 0, 0, 0, 0, 0, 0, 9362.0, 30146.0, 35388.0, 9362.0, 8.350414276123047, 0.2269267439842224, 0.1311502754688263, -0.0020759787876158953, -0.9996963739395142, -0.00035591991036199033, 0.031782783567905426, -0.09855068475008011, -0.1291980743408203, 1.4853515625, 1.464111328125, 0.1283111572265625, 1.493408203125, 0, 0, 0
101199, 1.257558822631836, -85.029052734375, 0.1736684888601303, 0.0, 0.0, -23.235158920288086, 0.0, 0.0, -0.9256362915039062, 0, 0, 0, 0, 0, 0, 9362.0, 30146.0, 35388.0, 9362.0, 8.350414276123047, 0.04538041353225708, -0.13698658347129822, 0.15451957285404205, -1.001735806465149, 0.0010735377436503768, 0.03349298611283302, -0.09855068475008011, -0.1291980743408203, 1.4853515625, 1.462646484375, 0.125823974609375, 1.493408203125, 0, 0, 0
101209, 1.303709864616394, -85.02924346923828, 0.2194046825170517, 0.0, 0.0, -23.24458122253418, 0.0, 0.0, -0.942230224609375, 0, 0, 0, 0, 0, 0, 9362.0, 30146.0, 35388.0, 9362.0, 8.350414276123047, 0.019535643979907036, -0.0320463702082634, 0.18232394754886627, -1.0006530284881592, 0.001954374136403203, 0.031871650367975235, -0.09855068475008011, -0.1291980743408203, 1.4853515625, 1.4091796875, 0.04937744140625, 1.494873046875, 0, 0, 0
101219, 1.2407786846160889, -85.02909088134766, 0.15517720580101013, 0.0, 0.0, -23.25305938720703, 0.0, 0.0, -0.8478164672851562, 0, 0, 0, 0, 0, 0, 9362.0, 30146.0, 35388.0, 9362.0, 8.350414276123047, 0.195111945271492, 0.08931276202201843, -0.11213511228561401, -0.9998363256454468, 0.0006798876565881073, 0.031815703958272934, -0.1282040923833847, -0.1291980743408203, 1.4853515625, 1.497802734375, 0.19122314453125, 1.494873046875, 0, 0, 0
101229, 1.3273571729660034, -85.02952575683594, 0.24202710390090942, 0.0, 0.0, -23.254674911499023, 0.0, 0.0, -0.16155242919921875, 0, 0, 0, 0, 0, 0, 9362.0, 30146.0, 35388.0, 9362.0, 8.350414276123047, -0.144248366355896, 0.22596417367458344, 0.35608160495758057, -0.9984142780303955, 0.002594855148345232, 0.03019011579453945, -0.1282040923833847, -0.1291980743408203, 1.4853515625, 1.50439453125, 0.2044219970703125, 1.4912109375, 0, 0, 0
101239, 1.4297739267349243, -85.02967834472656, 0.34447458386421204, 0.0, 0.0, -23.25613021850586, 0.0, 0.0, -0.14553070068359375, 0, 0, 0, 0, 0, 0, 9362.0, 30146.0, 35388.0, 9362.0, 8.350414276123047, -0.19131968915462494, -0.04598775878548622, 0.2714325189590454, -0.9997289776802063, 0.0020778656471520662, 0.031861696392297745, -0.1282040923833847, -0.1291980743408203, 1.4853515625, 1.36376953125, 0.017181396484375, 1.4912109375, 0, 0, 0
101249, 1.4520007371902466, -85.02933502197266, 0.3670699894428253, 0.0, 0.0, -23.247596740722656, 0.0, 0.0, 0.8533477783203125, 0, 0, 0, 0, 0, 0, 9362.0, 30146.0, 35388.0, 9362.0, 8.350414276123047, -0.125015527009964, -0.11357837915420532, 0.0992797464132309, -1.0005266666412354, 0.0018132064724341035, 0.03301791474223137, -0.1282040923833847, -0.1291980743408203, 1.4853515625, 1.462646484375, 0.125823974609375, 1.4912109375, 0, 0, 0
101259, 1.3539011478424072, -85.02853393554688, 0.26758790016174316, 0.0, 0.0, -23.23991584777832, 0.0, 0.0, 0.7680892944335938, 0, 0, 0, 0, 0, 0, 9362.0, 30146.0, 35388.0, 9362.0, 8.350414276123047, 0.030311711132526398, -0.2316315770149231, -0.2406844198703766, -1.0010071992874146, 0.0008657551370561123, 0.03450066223740578, -0.1282040923833847, -0.1291980743408203, 1.4853515625, 1.5146484375, 0.225494384765625, 1.4912109375, 0, 0, 0
101269, 1.3492393493652344, -85.02791595458984, 0.26242461800575256, 0.0, 0.0, -23.231090545654297, 0.0, 0.0, 0.8825302124023438, 0, 0, 0, 0, 0, 0, 9362.0, 30146.0, 35388.0, 9362.0, 8.350414276123047, 0.0988406091928482, -0.18250930309295654, 0.05832533538341522, -0.9994723200798035, 0.0007641524425707757, 0.033168427646160126, -0.1282040923833847, -0.1291980743408203, 1.4853515625, 1.200439453125, 0.3812713623046875, 1.49267578125, 0, 0, 0
101279, 1.2692067623138428, -85.02881622314453, 0.18280646204948425, 0.0, 0.0, -23.22314453125, 0.0, 0.0, 0.7946014404296875, 0, 0, 0, 0, 0, 0, 9362.0, 30146.0, 35388.0, 9362.0, 8.350414276123047, 0.07328519225120544, 0.4026644825935364, 0.001435508718714118, -0.9998660087585449, -0.0023931851610541344, 0.031074462458491325, -0.1282040923833847, -0.1291980743408203, 1.4853515625, 1.237060546875, 0.2089996337890625, 1.49267578125, 0, 0, 0
101289, 1.2233163118362427, -85.0282211303711, 0.135406956076622, 0.0, 0.0, -23.22228240966797, 0.0, 0.0, 0.086212158203125, 0, 0, 0, 0, 0, 0, 9362.0, 30146.0, 35388.0, 9362.0, 8.350414276123047, 0.258596807718277, -0.2667507827281952, -0.23995190858840942, -0.9985560774803162, -0.0010922584915533662, 0.03393247723579407, -0.1282040923833847, -0.1291980743408203, 1.4853515625, 1.5029296875, 0.201446533203125, 1.496337890625, 0, 0, 0
101299, 1.2558269500732422, -85.02716827392578, 0.16833245754241943, 0.0, 0.0, -23.221508026123047, 0.0, 0.0, 0.0774383544921875, 0, 0, 0, 0, 0, 0, 9362.0, 30146.0, 35388.0, 9362.0, 8.350414276123047, 0.08642905205488205, -0.35528454184532166, 0.11447785794734955, -1.0002315044403076, 0.0014130331110209227, 0.03276251628994942, -0.1282040923833847, -0.1291980743408203, 1.4853515625, 1.446533203125, 0.09930419921875, 1.496337890625, 0, 0, 0
101309, 1.2445870637893677, -85.02743530273438, 0.15673083066940308, 0.0, 0.0, -23.21561622619629, 0.0, 0.0, 0.5891799926757812, 0, 0, 0, 0, 0, 0, 9362.0, 30146.0, 35388.0, 9362.0, 8.350414276123047, 0.11283358931541443, 0.15265081822872162, -0.0630263090133667, -1.000707745552063, -3.9420879716089985e-07, 0.03332620486617088, -0.1282040923833847, -0.1291980743408203, 1.4853515625, 1.177001953125, 0.52899169921875, 1.48974609375, 0, 0, 0
101319, 1.2429379224777222, -85.02783966064453, 0.1554040014743805, 0.0, 0.0, -23.210311889648438, 0.0, 0.0, 0.5304336547851562, 0, 0, 0, 0, 0, 0, 9362.0, 30146.0, 35388.0, 9362.0, 8.350414276123047, -0.09815748035907745, 0.04449286311864853, 0.0014429703587666154, -1.0004603862762451, 0.0004910799325443804, 0.032919347286224365, -0.10708983987569809, -0.13815879821777344, 1.484619140625, 1.4619140625, 0.1246185302734375, 1.48974609375, 0, 0, 0
101329, 1.2997225522994995, -85.02853393554688, 0.21149525046348572, 0.0, 0.0, -23.210458755493164, 0.0, 0.0, -0.01468658447265625, 0, 0, 0, 0, 0, 0, 9362.0, 30146.0, 35388.0, 9362.0, 8.350414276123047, 0.12947528064250946, 0.2713356018066406, 0.277620404958725, -0.9979164004325867, -0.0008078336250036955, 0.03202267363667488, -0.10708983987569809, -0.13815879821777344, 1.484619140625, 1.471435546875, 0.14129638671875, 1.48828125, 0, 0, 0
101339, 1.2309235334396362, -85.0279541015625, 0.14250516891479492, 0.0, 0.0, -23.21059226989746, 0.0, 0.0, -0.0133514404296875, 0, 0, 0, 0, 0, 0, 9362.0, 30146.0, 35388.0, 9362.0, 8.350414276123047, 0.06217734515666962, -0.2702711224555969, -0.1344841569662094, -1.0006169080734253, -0.0010027993703261018, 0.03292549401521683, -0.10708983987569809, -0.13815879821777344, 1.484619140625, 1.516845703125, 0.23004150390625, 1.48828125, 0, 0, 0
101349, 1.1982651948928833, -85.0282211303711, 0.10890256613492966, 0.0, 0.0, -23.215633392333984, 0.0, 0.0, -0.5041122436523438, 0, 0, 0, 0, 0, 0, 9362.0, 30146.0, 35388.0, 9362.0, 8.350414276123047, 0.19480080902576447, 0.12658530473709106, -0.14728237688541412, -0.9983422756195068, 0.0033122918102890253, 0.03438350558280945, -0.10708983987569809, -0.13815879821777344, 1.484619140625, 1.365966796875, 0.017791748046875, 1.493408203125, 0, 0, 0
101359, 1.1719653606414795, -85.02850341796875, 0.08231913298368454, 0.0, 0.0, -23.220169067382812, 0.0, 0.0, -0.4535675048828125, 0, 0, 0, 0, 0, 0, 9362.0, 30146.0, 35388.0, 9362.0, 8.350414276123047, 0.021974116563796997, -0.03646107390522957, -0.14729264378547668, -0.9995347857475281, 0.0013025229563936591, 0.035205841064453125, -0.10708983987569809, -0.13815879821777344, 1.484619140625, 1.462646484375, 0.125823974609375, 1.493408203125, 0, 0, 0
101369, 1.140151023864746, -85.02869415283203, 0.05068785697221756, 0.0, 0.0, -23.229175567626953, 0.0, 0.0, -0.9006500244140625, 0, 0, 0, 0, 0, 0, 9362.0, 30146.0, 35388.0, 9362.0, 8.350414276123047, -0.04823247715830803, 0.08018609881401062, -0.11825839430093765, -0.9997957348823547, 0.0008605383336544037, 0.03285367786884308, -0.10708983987569809, -0.13815879821777344, 1.484619140625, 1.44287109375, 0.0936279296875, 1.487548828125, 0, 0, 0
101379, 1.1357548236846924, -85.029296875, 0.04481281712651253, 0.0, 0.0, -23.237281799316406, 0.0, 0.0, -0.8106231689453125, 0, 0, 0, 0, 0, 0, 9362.0, 30146.0, 35388.0, 9362.0, 8.350414276123047, 0.24505552649497986, 0.22347460687160492, -0.05784052982926369, -0.9966010451316833, -6.335139914881438e-05, 0.03567521274089813, -0.10708983987569809, -0.13815879821777344, 1.484619140625, 1.257568359375, 0.1398162841796875, 1.487548828125, 0, 0, 0
101389, 1.0666295289993286, -85.0289306640625, -0.024304945021867752, 0.0, 0.0, -23.25113868713379, 0.0, 0.0, -1.3856887817382812, 0, 0, 0, 0, 0, 0, 9362.0, 30146.0, 35388.0, 9362.0, 8.350414276123047, 0.04309522360563278, -0.19408930838108063, -0.30677416920661926, -0.9983198046684265, 0.00016190156748052686, 0.03409826382994652, -0.10708983987569809, -0.13815879821777344, 1.484619140625, 1.4794921875, 0.155975341796875, 1.493408203125, 0, 0, 0
101399, 1.1029363870620728, -85.02973175048828, 0.012045152485370636, 0.0, 0.0, -23.263612747192383, 0.0, 0.0, -1.247406005859375, 0, 0, 0, 0, 0, 0, 9362.0, 30146.0, 35388.0, 9362.0, 8.350414276123047, 0.05631573498249054, 0.2495010644197464, 0.06960657238960266, -0.9984474778175354, -0.00219534058123827, 0.034896597266197205, -0.10708983987569809, -0.13815879821777344, 1.484619140625, 1.439208984375, 0.0882415771484375, 1.493408203125, 0, 0, 0
101409, 1.1559133529663086, -85.03019714355469, 0.06484106928110123, 0.0, 0.0, -23.274566650390625, 0.0, 0.0, -1.0953903198242188, 0, 0, 0, 0, 0, 0, 9362.0, 30146.0, 35388.0, 9362.0, 8.350414276123047, -0.03717714920639992, 0.2670882046222687, 0.250607967376709, -0.9968274235725403, 0.00028652907349169254, 0.03430241718888283, -0.10708983987569809, -0.13815879821777344, 1.484619140625, 1.412841796875, 0.0534515380859375, 1.48681640625, 0, 0, 0
101419, 1.141754388809204, -85.03015899658203, 0.05022117868065834, 0.0, 0.0, -23.284427642822266, 0.0, 0.0, -0.9860992431640625, 0, 0, 0, 0, 0, 0, 9362.0, 30146.0, 35388.0, 9362.0, 8.350414276123047, 0.050846729427576065, -0.018986724317073822, -0.07809104025363922, -0.998735249042511, 0.002192974090576172, 0.032736338675022125, -0.10586205124855042, -0.27255821228027344, 1.4736328125, 1.370361328125, 0.0194549560546875, 1.48681640625, 0, 0, 0
101429, 1.2416019439697266, -85.03055572509766, 0.14931370317935944, 0.0, 0.0, -23.290842056274414, 0.0, 0.0, -0.6414413452148438, 0, 0, 0, 0, 0, 0, 9362.0, 30146.0, 35388.0, 9362.0, 8.350414276123047, 0.14723293483257294, 0.360750287771225, 0.4411279559135437, -0.998548686504364, 0.0014703517081215978, 0.031442709267139435, -0.10586205124855042, -0.27255821228027344, 1.4736328125, 1.452392578125, 0.10870361328125, 1.494140625, 0, 0, 0
101439, 1.259782075881958, -85.03031158447266, 0.1681559830904007, 0.0, 0.0, -23.29661750793457, 0.0, 0.0, -0.577545166015625, 0, 0, 0, 0, 0, 0, 9362.0, 30146.0, 35388.0, 9362.0, 8.350414276123047, 0.12899814546108246, 0.06637854129076004, 0.11444635689258575, -0.997566819190979, -0.0007620440446771681, 0.03282088413834572, -0.10586205124855042, -0.27255821228027344, 1.4736328125, 1.36376953125, 0.017181396484375, 1.494140625, 0, 0, 0
101449, 1.2310067415237427, -85.0296401977539, 0.140282541513443, 0.0, 0.0, -23.297714233398438, 0.0, 0.0, -0.10967254638671875, 0, 0, 0, 0, 0, 0, 9362.0, 30146.0, 35388.0, 9362.0, 8.350414276123047, 0.020568354055285454, -0.22476603090763092, -0.08536215871572495, -0.9996026158332825, 0.0008665610803291202, 0.03293399140238762, -0.10586205124855042, -0.27255821228027344, 1.4736328125, 1.475830078125, 0.1492767333984375, 1.494873046875, 0, 0, 0
101459, 1.2316782474517822, -85.02940368652344, 0.14151158928871155, 0.0, 0.0, -23.298704147338867, 0.0, 0.0, -0.09899139404296875, 0, 0, 0, 0, 0, 0, 9362.0, 30146.0, 35388.0, 9362.0, 8.350414276123047, -0.012009263969957829, 0.11082175374031067, 0.035714197903871536, -1.000422477722168, 0.0009488280629739165, 0.034994132816791534, -0.10586205124855042, -0.27255821228027344, 1.4736328125, 1.3154296875, 0.03118896484375, 1.494873046875, 0, 0, 0
101469, 1.2750670909881592, -85.02901458740234, 0.18557247519493103, 0.0, 0.0, -23.294397354125977, 0.0, 0.0, 0.4306793212890625, 0, 0, 0, 0, 0, 0, 9362.0, 30146.0, 35388.0, 9362.0, 8.350414276123047, -0.08587730675935745, -0.00775377731770277, 0.3047342896461487, -0.9983541369438171, -0.000520356057677418, 0.03637845814228058, -0.10586205124855042, -0.27255821228027344, 1.4736328125, 1.225341796875, 0.25689697265625, 1.48974609375, 0, 0, 0
101479, 1.232900619506836, -85.02786254882812, 0.14350949227809906, 0.0, 0.0, -23.290523529052734, 0.0, 0.0, 0.38738250732421875, 0, 0, 0, 0, 0, 0, 9362.0, 30146.0, 35388.0, 9362.0, 8.350414276123047, -0.014886200428009033, -0.3347625434398651, -0.4198778569698334, -1.0007935762405396, -0.0005213817930780351, 0.03668747469782829, -0.10586205124855042, -0.27255821228027344, 1.4736328125, 1.481689453125, 0.1600799560546875, 1.48974609375, 0, 0, 0
101489, 1.2585022449493408, -85.02838134765625, 0.1688826084136963, 0.0, 0.0, -23.27965545654297, 0.0, 0.0, 1.0868072509765625, 0, 0, 0, 0, 0, 0, 9362.0, 30146.0, 35388.0, 9362.0, 8.350414276123047, 0.08516693115234375, 0.30890706181526184, 0.04720579460263252, -1.0001254081726074, -0.0006606918759644032, 0.03459623083472252, -0.10586205124855042, -0.27255821228027344, 1.4736328125, 1.2978515625, 0.05224609375, 1.493408203125, 0, 0, 0
101499, 1.1944851875305176, -85.02774810791016, 0.10618563741445541, 0.0, 0.0, -23.269872665405273, 0.0, 0.0, 0.9782791137695312, 0, 0, 0, 0, 0, 0, 9362.0, 30146.0, 35388.0, 9362.0, 8.350414276123047, -0.06754247844219208, -0.10956193506717682, -0.005031345412135124, -0.9980503916740417, -0.0015925482148304582, 0.034943342208862305, -0.10586205124855042, -0.27255821228027344, 1.4736328125, 1.493408203125, 0.1825714111328125, 1.493408203125, 0, 0, 0
101509, 1.1756714582443237, -85.0277099609375, 0.08575190603733063, 0.0, 0.0, -23.26106834411621, 0.0, 0.0, 0.88043212890625, 0, 0, 0, 0, 0, 0, 9362.0, 30146.0, 35388.0, 9362.0, 8.350414276123047, 0.3635847568511963, 0.1702977865934372, -0.0363929383456707, -1.0001887083053589, -0.00019837409490719438, 0.0348181314766407, -0.10586205124855042, -0.27255821228027344, 1.4736328125, 1.475830078125, 0.1492767333984375, 1.487548828125, 0, 0, 0
101519, 1.1458485126495361, -85.02743530273438, 0.05564037337899208, 0.0, 0.0, -23.25314712524414, 0.0, 0.0, 0.7921218872070312, 0, 0, 0, 0, 0, 0, 9362.0, 30146.0, 35388.0, 9362.0, 8.350414276123047, 0.045093901455402374, -0.2821241021156311, 0.060318198055028915, -0.9992516040802002, -0.001968221040442586, 0.032761599868535995, -0.1180771142244339, -0.030637741088867188, 1.493408203125, 1.4326171875, 0.0786895751953125, 1.487548828125, 0, 0, 0
101529, 1.1456972360610962, -85.02853393554688, 0.055607181042432785, 0.0, 0.0, -23.234806060791016, 0.0, 0.0, 1.8341064453125, 0, 0, 0, 0, 0, 0, 9362.0, 30146.0, 35388.0, 9362.0, 8.350414276123047, 0.0209958478808403, 0.4624684453010559, 0.03967677801847458, -0.9977502226829529, 0.0006341795087791979, 0.03190455213189125, -0.1180771142244339, -0.030637741088867188, 1.493408203125, 1.3359375, 0.01806640625, 1.49267578125, 0, 0, 0
101539, 1.1310369968414307, -85.02818298339844, 0.04051141440868378, 0.0, 0.0, -23.218299865722656, 0.0, 0.0, 1.6506195068359375, 0, 0, 0, 0, 0, 0, 9362.0, 30146.0, 35388.0, 9362.0, 8.350414276123047, -0.0999927893280983, -0.1900063455104828, -0.08309225738048553, -0.9992423057556152, 0.003292050212621689, 0.03205646201968193, -0.1180771142244339, -0.030637741088867188, 1.493408203125, 1.289794921875, 0.065032958984375, 1.49267578125, 0, 0, 0
101549, 1.1557186841964722, -85.02830505371094, 0.0651746466755867, 0.0, 0.0, -23.21109962463379, 0.0, 0.0, 0.7200241088867188, 0, 0, 0, 0, 0, 0, 9362.0, 30146.0, 35388.0, 9362.0, 8.350414276123047, 0.10872910171747208, 0.0056342086754739285, 0.04403742402791977, -0.9975995421409607, 0.0019908042158931494, 0.0345243364572525, -0.1180771142244339, -0.030637741088867188, 1.493408203125, 1.289794921875, 0.065032958984375, 1.494873046875, 0, 0, 0
101559, 1.1598525047302246, -85.02818298339844, 0.06862097978591919, 0.0, 0.0, -23.204622268676758, 0.0, 0.0, 0.647735595703125, 0, 0, 0, 0, 0, 0, 9362.0, 30146.0, 35388.0, 9362.0, 8.350414276123047, 0.027749735862016678, 0.08197949081659317, -0.043004926294088364, -0.9991514086723328, -0.0010498330229893327, 0.0361466221511364, -0.1180771142244339, -0.030637741088867188, 1.493408203125, 1.289794921875, 0.065032958984375, 1.494873046875, 0, 0, 0
101569, 1.1266138553619385, -85.02774810791016, 0.034774888306856155, 0.0, 0.0, -23.196332931518555, 0.0, 0.0, 0.8289337158203125, 0, 0, 0, 0, 0, 0, 9362.0, 30146.0, 35388.0, 9362.0, 8.350414276123047, 0.09117987751960754, -0.22666007280349731, 0.020633118227124214, -0.9993035197257996, -0.002572587924078107, 0.03302765637636185, -0.1180771142244339, -0.030637741088867188, 1.493408203125, 1.289794921875, 0.065032958984375, 1.494873046875, 0, 0, 0
101579, 1.1692827939987183, -85.02853393554688, 0.07799673080444336, 0.0, 0.0, -23.188873291015625, 0.0, 0.0, 0.7459640502929688, 0, 0, 0, 0, 0, 0, 9362.0, 30146.0, 35388.0, 9362.0, 8.350414276123047, -0.0664055347442627, 0.31451746821403503, 0.19587160646915436, -0.9985217452049255, -0.0015362135600298643, 0.03282523527741432, -0.1180771142244339, -0.030637741088867188, 1.493408203125, 1.28759765625, 0.068939208984375, 1.494873046875, 0, 0, 0
101589, 1.185104489326477, -85.02885437011719, 0.09426256269216537, 0.0, 0.0, -23.18598747253418, 0.0, 0.0, 0.28858184814453125, 0, 0, 0, 0, 0, 0, 9362.0, 30146.0, 35388.0, 9362.0, 8.350414276123047, -0.07806062698364258, 0.2542954981327057, 0.06343968212604523, -1.0003466606140137, 0.0008684481726959348, 0.033570319414138794, -0.1180771142244339, -0.030637741088867188, 1.493408203125, 1.341796875, 0.0162811279296875, 1.491943359375, 0, 0, 0
101599, 1.201980471611023, -85.02889251708984, 0.11096996814012527, 0.0, 0.0, -23.18338966369629, 0.0, 0.0, 0.2597808837890625, 0, 0, 0, 0, 0, 0, 9362.0, 30146.0, 35388.0, 9362.0, 8.350414276123047, -0.062299102544784546, 0.23642805218696594, 0.10022734850645065, -1.0023618936538696, 0.001236720709130168, 0.03298423811793327, -0.1180771142244339, -0.030637741088867188, 1.493408203125, 1.37548828125, 0.021820068359375, 1.491943359375, 0, 0, 0
101609, 1.1969246864318848, -85.02948760986328, 0.10675549507141113, 0.0, 0.0, -23.185972213745117, 0.0, 0.0, -0.2582550048828125, 0, 0, 0, 0, 0, 0, 9362.0, 30146.0, 35388.0, 9362.0, 8.350414276123047, -0.10336005687713623, 0.4061872065067291, -0.05983146280050278, -0.9993878602981567, 0.001952537102624774, 0.0331328883767128, -0.1180771142244339, -0.030637741088867188, 1.493408203125, 1.489013671875, 0.174041748046875, 1.494140625, 0, 0, 0
101619, 1.298413634300232, -85.02885437011719, 0.20856204628944397, 0.0, 0.0, -23.18829345703125, 0.0, 0.0, -0.23212432861328125, 0, 0, 0, 0, 0, 0, 9362.0, 30146.0, 35388.0, 9362.0, 8.350414276123047, -0.07488543540239334, -0.04586181417107582, 0.5775012373924255, -1.001038670539856, 0.000462972151581198, 0.0328829362988472, -0.09455970674753189, 0.014162063598632812, 1.4970703125, 1.3564453125, 0.0156707763671875, 1.494140625, 0, 0, 0
101629, 1.2590157985687256, -85.02924346923828, 0.16867414116859436, 0.0, 0.0, -23.18829345703125, 0.0, 0.0, -0.23212432861328125, 0, 0, 0, 0, 0, 0, 9362.0, 30146.0, 35388.0, 9362.0, 8.350414276123047, 0.004768797196447849, 0.33190953731536865, -0.10267926752567291, -0.9987257122993469, 0.0009190801647491753, 0.030799083411693573, -0.09455970674753189, 0.014162063598632812, 1.4970703125, 1.3564453125, 0.0156707763671875, 1.494140625, 0, 0, 0
101639, 1.2520451545715332, -85.02937316894531, 0.1610729843378067, 0.0, 0.0, -23.182912826538086, 0.0, 0.0, 0.25482177734375, 0, 0, 0, 0, 0, 0, 9362.0, 30146.0, 35388.0, 9362.0, 8.350414276123047, -0.029014501720666885, -0.1430450975894928, -0.026357319205999374, -0.999751627445221, 6.855208630440757e-05, 0.032404977828264236, -0.09455970674753189, 0.014162063598632812, 1.4970703125, 1.19091796875, 0.4375, 1.494140625, 0, 0, 0
101649, 1.240208625793457, -85.02924346923828, 0.14907991886138916, 0.0, 0.0, -23.185813903808594, 0.0, 0.0, -0.29010772705078125, 0, 0, 0, 0, 0, 0, 9362.0, 30146.0, 35388.0, 9362.0, 8.350414276123047, -0.07488065212965012, -0.011852161958813667, -0.013346433639526367, -1.0015316009521484, -0.0003073801635764539, 0.03492201864719391, -0.09455970674753189, 0.014162063598632812, 1.4970703125, 1.294189453125, 0.0578155517578125, 1.4912109375, 0, 0, 0
101659, 1.2583765983581543, -85.02967834472656, 0.1673911213874817, 0.0, 0.0, -23.18842315673828, 0.0, 0.0, -0.26092529296875, 0, 0, 0, 0, 0, 0, 9362.0, 30146.0, 35388.0, 9362.0, 8.350414276123047, -0.0932832807302475, 0.08299795538187027, 0.03655729815363884, -1.0019251108169556, 0.001343070063740015, 0.03442332521080971, -0.09455970674753189, 0.014162063598632812, 1.4970703125, 1.376220703125, 0.0222930908203125, 1.4912109375, 0, 0, 0
101669, 1.3157477378845215, -85.0295639038086, 0.22399063408374786, 0.0, 0.0, -23.187761306762695, 0.0, 0.0, 0.06618499755859375, 0, 0, 0, 0, 0, 0, 9362.0, 30146.0, 35388.0, 9362.0, 8.350414276123047, 0.1311550736427307, -0.13032282888889313, 0.2486393004655838, -0.9987351894378662, 0.001412783982232213, 0.03155914694070816, -0.09455970674753189, 0.014162063598632812, 1.4970703125, 1.376953125, 0.0225982666015625, 1.4912109375, 0, 0, 0
101679, 1.3033292293548584, -85.0297622680664, 0.21209122240543365, 0.0, 0.0, -23.187166213989258, 0.0, 0.0, 0.05950927734375, 0, 0, 0, 0, 0, 0, 9362.0, 30146.0, 35388.0, 9362.0, 8.350414276123047, -0.11065128445625305, -0.03367634490132332, 0.0795060321688652, -1.0015604496002197, 0.001014207722619176, 0.03444289416074753, -0.09455970674753189, 0.014162063598632812, 1.4970703125, 1.253173828125, 0.15313720703125, 1.4912109375, 0, 0, 0
101689, 1.371774673461914, -85.03006744384766, 0.28079649806022644, 0.0, 0.0, -23.200298309326172, 0.0, 0.0, -1.3132095336914062, 0, 0, 0, 0, 0, 0, 9362.0, 30146.0, 35388.0, 9362.0, 8.350414276123047, -0.001996425911784172, 0.30510345101356506, 0.3373090624809265, -0.9999260306358337, -0.0011163773015141487, 0.03341662511229515, -0.09455970674753189, 0.014162063598632812, 1.4970703125, 1.3857421875, 0.0280914306640625, 1.48974609375, 0, 0, 0
101699, 1.449589490890503, -85.03086853027344, 0.3593277931213379, 0.0, 0.0, -23.21211814880371, 0.0, 0.0, -1.1819839477539062, 0, 0, 0, 0, 0, 0, 9362.0, 30146.0, 35388.0, 9362.0, 8.350414276123047, -0.02705352008342743, 0.16958965361118317, 0.23596587777137756, -0.9985256791114807, -0.0010327579220756888, 0.031874995678663254, -0.09455970674753189, 0.014162063598632812, 1.4970703125, 1.461181640625, 0.1233062744140625, 1.48974609375, 0, 0, 0
101709, 1.4804503917694092, -85.03102111816406, 0.3896271884441376, 0.0, 0.0, -23.203889846801758, 0.0, 0.0, 0.8228302001953125, 0, 0, 0, 0, 0, 0, 9362.0, 30146.0, 35388.0, 9362.0, 8.350414276123047, 0.11519309133291245, -0.07927852869033813, 0.1487313210964203, -1.0003249645233154, -0.00030157918808981776, 0.03152383491396904, -0.09455970674753189, 0.014162063598632812, 1.4970703125, 1.458251953125, 0.1184234619140625, 1.49267578125, 0, 0, 0
101719, 1.4619784355163574, -85.0309829711914, 0.3710234463214874, 0.0, 0.0, -23.19648551940918, 0.0, 0.0, 0.7404327392578125, 0, 0, 0, 0, 0, 0, 9362.0, 30146.0, 35388.0, 9362.0, 8.350414276123047, -0.0007467286777682602, 0.09245402365922928, -0.06199009343981743, -0.9990993142127991, -0.0010449218098074198, 0.030142826959490776, -0.08574745059013367, -0.10231781005859375, 1.487548828125, 1.458251953125, 0.1184234619140625, 1.49267578125, 0, 0, 0
101729, 1.5617119073867798, -85.03137969970703, 0.4693625867366791, 0.0, 0.0, -23.19648551940918, 0.0, 0.0, 0.7404327392578125, 0, 0, 0, 0, 0, 0, 9362.0, 30146.0, 35388.0, 9362.0, 8.350414276123047, 0.23961970210075378, 0.2542993128299713, 0.499410480260849, -0.9996743202209473, 0.0003399047127459198, 0.032133735716342926, -0.08574745059013367, -0.10231781005859375, 1.487548828125, 1.458251953125, 0.1184234619140625, 1.49560546875, 0, 0, 0
101739, 1.5150443315505981, -85.0309066772461, 0.4218861758708954, 0.0, 0.0, -23.207719802856445, 0.0, 0.0, -0.5321502685546875, 0, 0, 0, 0, 0, 0, 9362.0, 30146.0, 35388.0, 9362.0, 8.350414276123047, -0.08476368337869644, -0.03755233436822891, -0.17038030922412872, -1.0001052618026733, -0.0005846956046298146, 0.03446882218122482, -0.08574745059013367, -0.10231781005859375, 1.487548828125, 1.3330078125, 0.0191650390625, 1.49560546875, 0, 0, 0
101749, 1.445070505142212, -85.03067016601562, 0.3526598811149597, 0.0, 0.0, -23.206220626831055, 0.0, 0.0, 0.1499176025390625, 0, 0, 0, 0, 0, 0, 9362.0, 30146.0, 35388.0, 9362.0, 8.350414276123047, -0.12618495523929596, -0.025157485157251358, -0.16571331024169922, -1.0003052949905396, -0.0009717441280372441, 0.033760085701942444, -0.08574745059013367, -0.10231781005859375, 1.487548828125, 1.45458984375, 0.11224365234375, 1.494873046875, 0, 0, 0
101759, 1.4431097507476807, -85.03019714355469, 0.3502899706363678, 0.0, 0.0, -23.20486831665039, 0.0, 0.0, 0.13523101806640625, 0, 0, 0, 0, 0, 0, 9362.0, 30146.0, 35388.0, 9362.0, 8.350414276123047, 0.1930861622095108, -0.11068569123744965, 0.13213934004306793, -0.999624490737915, -3.19764694722835e-05, 0.031937096267938614, -0.08574745059013367, -0.10231781005859375, 1.487548828125, 1.439208984375, 0.0882415771484375, 1.494873046875, 0, 0, 0
101769, 1.4165675640106201, -85.02948760986328, 0.323051780462265, 0.0, 0.0, -23.21021270751953, 0.0, 0.0, -0.5344390869140625, 0, 0, 0, 0, 0, 0, 9362.0, 30146.0, 35388.0, 9362.0, 8.350414276123047, 0.2217271775007248, -0.25372713804244995, -0.08896005153656006, -1.0005220174789429, -0.0008949351031333208, 0.0352981872856617, -0.08574745059013367, -0.10231781005859375, 1.487548828125, 1.439208984375, 0.0882415771484375, 1.491943359375, 0, 0, 0
101779, 1.478850245475769, -85.02952575683594, 0.3849729001522064, 0.0, 0.0, -23.215023040771484, 0.0, 0.0, -0.4810333251953125, 0, 0, 0, 0, 0, 0, 9362.0, 30146.0, 35388.0, 9362.0, 8.350414276123047, 0.06753325462341309, 0.1491197645664215, 0.35634270310401917, -1.0017675161361694, 0.00029383355285972357, 0.036087311804294586, -0.08574745059013367, -0.10231781005859375, 1.487548828125, 1.439208984375, 0.0882415771484375, 1.491943359375, 0, 0, 0
101789, 1.5414137840270996, -85.02940368652344, 0.4471034109592438, 0.0, 0.0, -23.218530654907227, 0.0, 0.0, -0.35076141357421875, 0, 0, 0, 0, 0, 0, 9362.0, 30146.0, 35388.0, 9362.0, 8.350414276123047, 0.019857637584209442, -0.127568319439888, 0.25363948941230774, -0.99934321641922, 0.00011946015729336068, 0.03402213752269745, -0.08574745059013367, -0.10231781005859375, 1.487548828125, 1.439208984375, 0.0882415771484375, 1.49267578125, 0, 0, 0
101799, 1.598578691482544, -85.02984619140625, 0.5045574903488159, 0.0, 0.0, -23.22168731689453, 0.0, 0.0, -0.31566619873046875, 0, 0, 0, 0, 0, 0, 9362.0, 30146.0, 35388.0, 9362.0, 8.350414276123047, -0.020932774990797043, 0.3783717155456543, 0.16338525712490082, -0.9976358413696289, 0.0009892464149743319, 0.03314713016152382, -0.08574745059013367, -0.10231781005859375, 1.487548828125, 1.439208984375, 0.0882415771484375, 1.49267578125, 0, 0, 0
101809, 1.5592069625854492, -85.03004455566406, 0.46494659781455994, 0.0, 0.0, -23.22097396850586, 0.0, 0.0, 0.0713348388671875, 0, 0, 0, 0, 0, 0, 9362.0, 30146.0, 35388.0, 9362.0, 8.350414276123047, 0.10323287546634674, 0.16320599615573883, -0.1844266653060913, -0.997575581073761, 0.0029357715975493193, 0.03532318025827408, -0.08574745059013367, -0.10231781005859375, 1.487548828125, 1.383544921875, 0.026611328125, 1.48974609375, 0, 0, 0
101819, 1.5957818031311035, -85.02889251708984, 0.500023365020752, 0.0, 0.0, -23.220335006713867, 0.0, 0.0, 0.06389617919921875, 0, 0, 0, 0, 0, 0, 9362.0, 30146.0, 35388.0, 9362.0, 8.350414276123047, 0.1885814070701599, -0.5262865424156189, -0.052792347967624664, -1.0005452632904053, 0.002270398661494255, 0.03435167670249939, -0.09070230275392532, -0.2187976837158203, 1.47802734375, 1.48095703125, 0.1587677001953125, 1.48974609375, 0, 0, 0
101829, 1.6154100894927979, -85.02885437011719, 0.5199249982833862, 0.0, 0.0, -23.220335006713867, 0.0, 0.0, 0.06389617919921875, 0, 0, 0, 0, 0, 0, 9362.0, 30146.0, 35388.0, 9362.0, 8.350414276123047, -0.040892306715250015, 0.055880434811115265, 0.07082244008779526, -1.000069260597229, 0.0015047620981931686, 0.03333039954304695, -0.09070230275392532, -0.2187976837158203, 1.47802734375, 1.48095703125, 0.1587677001953125, 1.497802734375, 0, 0, 0
101839, 1.5498102903366089, -85.02818298339844, 0.45288214087486267, 0.0, 0.0, -23.207294464111328, 0.0, 0.0, 0.6177902221679688, 0, 0, 0, 0, 0, 0, 9362.0, 30146.0, 35388.0, 9362.0, 8.350414276123047, 0.19320803880691528, -0.29113441705703735, -0.23916751146316528, -0.9982812404632568, -0.0011487172450870275, 0.03437524661421776, -0.09070230275392532, -0.2187976837158203, 1.47802734375, 1.48095703125, 0.1587677001953125, 1.497802734375, 0, 0, 0
101849, 1.4884570837020874, -85.02814483642578, 0.39118507504463196, 0.0, 0.0, -23.19927406311035, 0.0, 0.0, 0.8020401000976562, 0, 0, 0, 0, 0, 0, 9362.0, 30146.0, 35388.0, 9362.0, 8.350414276123047, 0.001474688178859651, 0.036208800971508026, -0.21923184394836426, -0.9986808896064758, 0.00035311971441842616, 0.03342175483703613, -0.09070230275392532, -0.2187976837158203, 1.47802734375, 1.48095703125, 0.1587677001953125, 1.48974609375, 0, 0, 0
101859, 1.4633344411849976, -85.02692413330078, 0.36528703570365906, 0.0, 0.0, -23.19205665588379, 0.0, 0.0, 0.72174072265625, 0, 0, 0, 0, 0, 0, 9362.0, 30146.0, 35388.0, 9362.0, 8.350414276123047, -0.04366400092840195, -0.325526624917984, 0.024939848110079765, -0.9996211528778076, 0.00044441927457228303, 0.0343770794570446, -0.09070230275392532, -0.2187976837158203, 1.47802734375, 1.48095703125, 0.1587677001953125, 1.48974609375, 0, 0, 0
101869, 1.4398982524871826, -85.0273208618164, 0.3406757116317749, 0.0, 0.0, -23.182554244995117, 0.0, 0.0, 0.9502410888671875, 0, 0, 0, 0, 0, 0, 9362.0, 30146.0, 35388.0, 9362.0, 8.350414276123047, 0.1926412284374237, 0.43980345129966736, -0.09565730392932892, -1.0001287460327148, 0.0014675770653411746, 0.0355062372982502, -0.09070230275392532, -0.2187976837158203, 1.47802734375, 1.48095703125, 0.1587677001953125, 1.49267578125, 0, 0, 0
101879, 1.3922884464263916, -85.02755737304688, 0.29332226514816284, 0.0, 0.0, -23.174001693725586, 0.0, 0.0, 0.855255126953125, 0, 0, 0, 0, 0, 0, 9362.0, 30146.0, 35388.0, 9362.0, 8.350414276123047, 0.11565995216369629, 0.24045084416866302, 0.10889381915330887, -0.9985558390617371, 0.001011575455777347, 0.03353073075413704, -0.09070230275392532, -0.2187976837158203, 1.47802734375, 1.48095703125, 0.1587677001953125, 1.49267578125, 0, 0, 0
101889, 1.4386532306671143, -85.02791595458984, 0.3401060104370117, 0.0, 0.0, -23.165485382080078, 0.0, 0.0, 0.8516311645507812, 0, 0, 0, 0, 0, 0, 9362.0, 30146.0, 35388.0, 9362.0, 8.350414276123047, -0.098685622215271, 0.13349656760692596, 0.15902289748191833, -0.9983226656913757, 0.0004161984834354371, 0.03426751121878624, -0.09070230275392532, -0.2187976837158203, 1.47802734375, 1.244384765625, 0.18212890625, 1.49267578125, 0, 0, 0
101899, 1.5051813125610352, -85.02747344970703, 0.4065491557121277, 0.0, 0.0, -23.157821655273438, 0.0, 0.0, 0.7663726806640625, 0, 0, 0, 0, 0, 0, 9362.0, 30146.0, 35388.0, 9362.0, 8.350414276123047, -0.029748154804110527, -0.2044876515865326, 0.15656037628650665, -1.001670241355896, -0.0016029728576540947, 0.032633356750011444, -0.09070230275392532, -0.2187976837158203, 1.47802734375, 1.353515625, 0.0154571533203125, 1.49267578125, 0, 0, 0
101909, 1.4943479299545288, -85.02713012695312, 0.395205557346344, 0.0, 0.0, -23.149009704589844, 0.0, 0.0, 0.881195068359375, 0, 0, 0, 0, 0, 0, 9362.0, 30146.0, 35388.0, 9362.0, 8.350414276123047, 0.07346680015325546, -0.08077393472194672, -0.12359797209501266, -1.0007925033569336, 0.0004692729271482676, 0.03352579101920128, -0.09070230275392532, -0.2187976837158203, 1.47802734375, 1.336669921875, 0.0177764892578125, 1.49267578125, 0, 0, 0
101919, 1.5459480285644531, -85.02767944335938, 0.44674140214920044, 0.0, 0.0, -23.141077041625977, 0.0, 0.0, 0.7932662963867188, 0, 0, 0, 0, 0, 0, 9362.0, 30146.0, 35388.0, 9362.0, 8.350414276123047, 0.07346680015325546, -0.08077393472194672, -0.12359797209501266, -0.9986546635627747, 0.002250911667943001, 0.03240884467959404, -0.09787344187498093, -0.06647872924804688, 1.490478515625, 1.3388671875, 0.017120361328125, 1.49267578125, 0, 0, 0
101929, 1.5675928592681885, -85.0270767211914, 0.4691009521484375, 0.0, 0.0, -23.125736236572266, 0.0, 0.0, 1.5340805053710938, 0, 0, 0, 0, 0, 0, 9362.0, 30146.0, 35388.0, 9362.0, 8.350414276123047, -0.12708166241645813, -0.2269488424062729, 0.07811397314071655, -0.999468207359314, 0.0013496042229235172, 0.031877897679805756, -0.09787344187498093, -0.06647872924804688, 1.490478515625, 1.3388671875, 0.017120361328125, 1.49267578125, 0, 0, 0
101939, 1.5716283321380615, -85.02735900878906, 0.4721413552761078, 0.0, 0.0, -23.111928939819336, 0.0, 0.0, 1.3807296752929688, 0, 0, 0, 0, 0, 0, 9362.0, 30146.0, 35388.0, 9362.0, 8.350414276123047, 0.2778778374195099, 0.32982927560806274, 0.05925573781132698, -0.9974687695503235, 0.001918185269460082, 0.03254939243197441, -0.09787344187498093, -0.06647872924804688, 1.490478515625, 1.3388671875, 0.017120361328125, 1.49267578125, 0, 0, 0
101949, 1.5017337799072266, -85.02767944335938, 0.4020618498325348, 0.0, 0.0, -23.098684310913086, 0.0, 0.0, 1.324462890625, 0, 0, 0, 0, 0, 0, 9362.0, 30146.0, 35388.0, 9362.0, 8.350414276123047, 0.03787285089492798, 0.2119259536266327, -0.23780693113803864, -0.9971084594726562, 0.0006492281099781394, 0.032858580350875854, -0.09787344187498093, -0.06647872924804688, 1.490478515625, 1.3388671875, 0.017120361328125, 1.49267578125, 0, 0, 0
101959, 1.4413508176803589, -85.02716827392578, 0.341205358505249, 0.0, 0.0, -23.086767196655273, 0.0, 0.0, 1.19171142578125, 0, 0, 0, 0, 0, 0, 9362.0, 30146.0, 35388.0, 9362.0, 8.350414276123047, 0.03787285089492798, 0.2119259536266327, -0.23780693113803864, -0.9989623427391052, 0.0005129099590703845, 0.0324285626411438, -0.09787344187498093, -0.06647872924804688, 1.490478515625, 1.3388671875, 0.017120361328125, 1.49267578125, 0, 0, 0
101969, 1.4847803115844727, -85.02759552001953, 0.38499924540519714, 0.0, 0.0, -23.07904815673828, 0.0, 0.0, 0.7719039916992188, 0, 0, 0, 0, 0, 0, 9362.0, 30146.0, 35388.0, 9362.0, 8.350414276123047, -0.08349379152059555, 0.21416984498500824, 0.12070830166339874, -1.0000337362289429, 0.0007611613254994154, 0.0348198264837265, -0.09787344187498093, -0.06647872924804688, 1.490478515625, 1.3388671875, 0.017120361328125, 1.49267578125, 0, 0, 0
101979, 1.534485101699829, -85.02835083007812, 0.43441057205200195, 0.0, 0.0, -23.072101593017578, 0.0, 0.0, 0.6946563720703125, 0, 0, 0, 0, 0, 0, 9362.0, 30146.0, 35388.0, 9362.0, 8.350414276123047, 0.058281637728214264, 0.2804027199745178, 0.1713707596063614, -1.0002080202102661, -0.0006991424597799778, 0.03667072951793671, -0.09787344187498093, -0.06647872924804688, 1.490478515625, 1.3388671875, 0.017120361328125, 1.49267578125, 0, 0, 0
101989, 1.5533545017242432, -85.02881622314453, 0.4532196521759033, 0.0, 0.0, -23.070497512817383, 0.0, 0.0, 0.16040802001953125, 0, 0, 0, 0, 0, 0, 9362.0, 30146.0, 35388.0, 9362.0, 8.350414276123047, -0.06032849848270416, 0.27612999081611633, 0.06803432106971741, -0.9986785650253296, 0.0011746591189876199, 0.03212888166308403, -0.09787344187498093, -0.06647872924804688, 1.490478515625, 1.3388671875, 0.017120361328125, 1.491943359375, 0, 0, 0
101999, 1.429092288017273, -85.0286636352539, 0.32753637433052063, 0.0, 0.0, -23.069053649902344, 0.0, 0.0, 0.14438629150390625, 0, 0, 0, 0, 0, 0, 9362.0, 30146.0, 35388.0, 9362.0, 8.350414276123047, 0.1314597874879837, -0.2529611587524414, -0.5339961647987366, -1.0003286600112915, -0.0006480172160081565, 0.030897939577698708, -0.09787344187498093, -0.06647872924804688, 1.490478515625, 1.3388671875, 0.017120361328125, 1.491943359375, 0, 0, 0
102009, 1.4475085735321045, -85.02897644042969, 0.34559956192970276, 0.0, 0.0, -23.065567016601562, 0.0, 0.0, 0.348663330078125, 0, 0, 0, 0, 0, 0, 9362.0, 30146.0, 35388.0, 9362.0, 8.350414276123047, 0.019473236054182053, 0.1639247089624405, -0.013576800934970379, -0.9988256096839905, 0.0016692266799509525, 0.03255173936486244, -0.09787344187498093, -0.06647872924804688, 1.490478515625, 1.31103515625, 0.0355682373046875, 1.491943359375, 0, 0, 0
102019, 1.534095048904419, -85.03031158447266, 0.4315721392631531, 0.0, 0.0, -23.062429428100586, 0.0, 0.0, 0.31375885009765625, 0, 0, 0, 0, 0, 0, 9362.0, 30146.0, 35388.0, 9362.0, 8.350414276123047, 0.019473236054182053, 0.1639247089624405, -0.013576800934970379, -0.9984197616577148, 0.0017486928263679147, 0.030123578384518623, -0.09475181996822357, -0.11127853393554688, 1.48681640625, 1.31103515625, 0.0355682373046875, 1.491943359375, 0, 0, 0
102029, 1.5734431743621826, -85.03031158447266, 0.4718760550022125, 0.0, 0.0, -23.062429428100586, 0.0, 0.0, 0.31375885009765625, 0, 0, 0, 0, 0, 0, 9362.0, 30146.0, 35388.0, 9362.0, 8.350414276123047, -0.22068797051906586, 0.1617565006017685, 0.14518196880817413, -1.0001364946365356, 2.0516985387075692e-05, 0.030898453667759895, -0.09475181996822357, -0.11127853393554688, 1.48681640625, 1.31103515625, 0.0355682373046875, 1.493408203125, 0, 0, 0
102039, 1.526124358177185, -85.03055572509766, 0.42257431149482727, 0.0, 0.0, -23.0643367767334, 0.0, 0.0, -0.0904083251953125, 0, 0, 0, 0, 0, 0, 9362.0, 30146.0, 35388.0, 9362.0, 8.350414276123047, 0.05753730982542038, 0.12329275906085968, -0.20437969267368317, -1.0032070875167847, 0.0011091985506936908, 0.03509009629487991, -0.09475181996822357, -0.11127853393554688, 1.48681640625, 1.31103515625, 0.0355682373046875, 1.493408203125, 0, 0, 0
102049, 1.517109990119934, -85.03050994873047, 0.41408687829971313, 0.0, 0.0, -23.072528839111328, 0.0, 0.0, -0.8192062377929688, 0, 0, 0, 0, 0, 0, 9362.0, 30146.0, 35388.0, 9362.0, 8.350414276123047, 0.05753730982542038, 0.12329275906085968, -0.20437969267368317, -0.998699426651001, 0.0020382788497954607, 0.03496687859296799, -0.09475181996822357, -0.11127853393554688, 1.48681640625, 1.31103515625, 0.0355682373046875, 1.496337890625, 0, 0, 0
102059, 1.544324517250061, -85.03144836425781, 0.4406721293926239, 0.0, 0.0, -23.072528839111328, 0.0, 0.0, -0.8192062377929688, 0, 0, 0, 0, 0, 0, 9362.0, 30146.0, 35388.0, 9362.0, 8.350414276123047, 0.1412050575017929, 0.3989753723144531, -0.15849636495113373, -0.9978440999984741, 0.0006261917878873646, 0.03338273987174034, -0.09475181996822357, -0.11127853393554688, 1.48681640625, 1.31103515625, 0.0355682373046875, 1.496337890625, 0, 0, 0
102069, 1.5478277206420898, -85.03141784667969, 0.4450280964374542, 0.0, 0.0, -23.09200668334961, 0.0, 0.0, -1.2104034423828125, 0, 0, 0, 0, 0, 0, 9362.0, 30146.0, 35388.0, 9362.0, 8.350414276123047, -0.07538193464279175, 0.05823101848363876, 0.05979878082871437, -0.9987164735794067, 0.0006634071469306946, 0.03225026652216911, -0.09475181996822357, -0.11127853393554688, 1.48681640625, 1.36669921875, 0.01806640625, 1.496337890625, 0, 0, 0
102079, 1.5150550603866577, -85.03113555908203, 0.4121324121952057, 0.0, 0.0, -23.102903366088867, 0.0, 0.0, -1.0896682739257812, 0, 0, 0, 0, 0, 0, 9362.0, 30146.0, 35388.0, 9362.0, 8.350414276123047, -0.07666017860174179, -0.21399928629398346, -0.07449273020029068, -0.9977772831916809, 0.0006808462785556912, 0.0339212566614151, -0.09475181996822357, -0.11127853393554688, 1.48681640625, 1.392333984375, 0.03314208984375, 1.496337890625, 0, 0, 0
102089, 1.5775132179260254, -85.03141784667969, 0.47518807649612427, 0.0, 0.0, -23.100406646728516, 0.0, 0.0, 0.24967193603515625, 0, 0, 0, 0, 0, 0, 9362.0, 30146.0, 35388.0, 9362.0, 8.350414276123047, -0.03163129463791847, 0.14132791757583618, 0.3621167540550232, -1.0004321336746216, -0.00018803018610924482, 0.03518071398139, -0.09475181996822357, -0.11127853393554688, 1.48681640625, 1.43115234375, 0.0766143798828125, 1.496337890625, 0, 0, 0
102099, 1.5339699983596802, -85.03129577636719, 0.4311428666114807, 0.0, 0.0, -23.098159790039062, 0.0, 0.0, 0.2246856689453125, 0, 0, 0, 0, 0, 0, 9362.0, 30146.0, 35388.0, 9362.0, 8.350414276123047, 0.1075417771935463, 0.32733505964279175, 0.04087208956480026, -0.9983187317848206, -0.0015396879753097892, 0.032864104956388474, -0.09475181996822357, -0.11127853393554688, 1.48681640625, 1.374755859375, 0.021392822265625, 1.496337890625, 0, 0, 0
102109, 1.4733304977416992, -85.03070831298828, 0.37033769488334656, 0.0, 0.0, -23.0909423828125, 0.0, 0.0, 0.72174072265625, 0, 0, 0, 0, 0, 0, 9362.0, 30146.0, 35388.0, 9362.0, 8.350414276123047, 0.008291550911962986, -0.23493394255638123, -0.2577773332595825, -0.9962095022201538, -0.0010157921351492405, 0.032930079847574234, -0.09475181996822357, -0.11127853393554688, 1.48681640625, 1.308837890625, 0.0379486083984375, 1.496337890625, 0, 0, 0
102119, 1.4247632026672363, -85.03105926513672, 0.3209705650806427, 0.0, 0.0, -23.084449768066406, 0.0, 0.0, 0.649261474609375, 0, 0, 0, 0, 0, 0, 9362.0, 30146.0, 35388.0, 9362.0, 8.350414276123047, 0.010020474903285503, 0.13882765173912048, -0.1518504023551941, -1.0008078813552856, 0.0006186476675793529, 0.03239408880472183, -0.09475181996822357, -0.11127853393554688, 1.48681640625, 1.386474609375, 0.028656005859375, 1.496337890625, 0, 0, 0
102129, 1.4724732637405396, -85.03105926513672, 0.3674907982349396, 0.0, 0.0, -23.084449768066406, 0.0, 0.0, 0.649261474609375, 0, 0, 0, 0, 0, 0, 9362.0, 30146.0, 35388.0, 9362.0, 8.350414276123047, 0.21770501136779785, 0.03332728520035744, 0.15969641506671906, -1.0008078813552856, 0.0006186476675793529, 0.03239408880472183, -0.09475181996822357, -0.11127853393554688, 1.48681640625, 1.386474609375, 0.028656005859375, 1.491943359375, 0, 0, 0
102139, 1.4673296213150024, -85.03111267089844, 0.3628291189670563, 0.0, 0.0, -23.066593170166016, 0.0, 0.0, 0.8459091186523438, 0, 0, 0, 0, 0, 0, 9362.0, 30146.0, 35388.0, 9362.0, 8.350414276123047, -0.09944900870323181, 0.11397996544837952, -0.17522087693214417, -0.9984607100486755, -0.000791797530837357, 0.034422967582941055, -0.09475181996822357, -0.11127853393554688, 1.48681640625, 1.386474609375, 0.028656005859375, 1.491943359375, 0, 0, 0
102149, 1.5550466775894165, -85.03083038330078, 0.45030900835990906, 0.0, 0.0, -23.046403884887695, 0.0, 0.0, 2.0189285278320312, 0, 0, 0, 0, 0, 0, 9362.0, 30146.0, 35388.0, 9362.0, 8.350414276123047, 0.08540935069322586, 0.03468216583132744, 0.2774534523487091, -0.9983391761779785, 0.0019060533959418535, 0.03207796812057495, -0.09475181996822357, -0.11127853393554688, 1.48681640625, 1.386474609375, 0.028656005859375, 1.491943359375, 0, 0, 0
102159, 1.6133384704589844, -85.03133392333984, 0.5075240135192871, 0.0, 0.0, -23.02823257446289, 0.0, 0.0, 1.8171310424804688, 0, 0, 0, 0, 0, 0, 9362.0, 30146.0, 35388.0, 9362.0, 8.350414276123047, 0.20763610303401947, 0.3340749442577362, 0.1304822862148285, -0.9990114569664001, 0.0017805672250688076, 0.03315452113747597, -0.09475181996822357, -0.11127853393554688, 1.48681640625, 1.351318359375, 0.0153350830078125, 1.491943359375, 0, 0, 0
102169, 1.6327134370803833, -85.0309066772461, 0.5268117189407349, 0.0, 0.0, -23.006685256958008, 0.0, 0.0, 2.1547317504882812, 0, 0, 0, 0, 0, 0, 9362.0, 30146.0, 35388.0, 9362.0, 8.350414276123047, 0.04829414188861847, 0.016710549592971802, 0.0606829933822155, -1.0008008480072021, 0.0031440607272088528, 0.03272101655602455, -0.09475181996822357, -0.11127853393554688, 1.48681640625, 1.44287109375, 0.0936279296875, 1.493408203125, 0, 0, 0
102179, 1.668468713760376, -85.03133392333984, 0.5615266561508179, 0.0, 0.0, -22.98729133605957, 0.0, 0.0, 1.93939208984375, 0, 0, 0, 0, 0, 0, 9362.0, 30146.0, 35388.0, 9362.0, 8.350414276123047, 0.13372468948364258, 0.23218119144439697, 0.18776598572731018, -0.9998562932014465, 0.002100208308547735, 0.0324474535882473, -0.09475181996822357, -0.11127853393554688, 1.48681640625, 1.44287109375, 0.0936279296875, 1.493408203125, 0, 0, 0
102189, 1.5316880941390991, -85.03111267089844, 0.4246608018875122, 0.0, 0.0, -22.969289779663086, 0.0, 0.0, 1.8001556396484375, 0, 0, 0, 0, 0, 0, 9362.0, 30146.0, 35388.0, 9362.0, 8.350414276123047, 0.010561359114944935, -0.0959407165646553, -0.5206606984138489, -0.9993023872375488, -0.000575726677197963, 0.03221779316663742, -0.09475181996822357, -0.11127853393554688, 1.48681640625, 1.317626953125, 0.0291900634765625, 1.493408203125, 0, 0, 0
102199, 1.5636084079742432, -85.03133392333984, 0.45592835545539856, 0.0, 0.0, -22.953088760375977, 0.0, 0.0, 1.6201019287109375, 0, 0, 0, 0, 0, 0, 9362.0, 30146.0, 35388.0, 9362.0, 8.350414276123047, 0.14427736401557922, 0.32252100110054016, 0.15605385601520538, -1.000963807106018, 8.809076098259538e-05, 0.033974092453718185, -0.09475181996822357, -0.11127853393554688, 1.48681640625, 1.24365234375, 0.1847381591796875, 1.493408203125, 0, 0, 0
102209, 1.6312718391418457, -85.0316162109375, 0.5228383541107178, 0.0, 0.0, -22.93905258178711, 0.0, 0.0, 1.4036178588867188, 0, 0, 0, 0, 0, 0, 9362.0, 30146.0, 35388.0, 9362.0, 8.350414276123047, 0.07534559816122055, 0.1385461986064911, 0.2684435248374939, -1.0019041299819946, 0.002119840122759342, 0.031884558498859406, -0.09475181996822357, -0.11127853393554688, 1.48681640625, 1.446533203125, 0.09930419921875, 1.490478515625, 0, 0, 0
102219, 1.6438612937927246, -85.03255462646484, 0.5355013608932495, 0.0, 0.0, -22.92641830444336, 0.0, 0.0, 1.263427734375, 0, 0, 0, 0, 0, 0, 9362.0, 30146.0, 35388.0, 9362.0, 8.350414276123047, -0.08471141010522842, 0.2925871014595032, -0.13204284012317657, -1.0019041299819946, 0.002119840122759342, 0.031884558498859406, -0.09592564404010773, -0.05751800537109375, 1.4912109375, 1.446533203125, 0.09930419921875, 1.490478515625, 0, 0, 0
102229, 1.6546449661254883, -85.03291320800781, 0.545513391494751, 0.0, 0.0, -22.92641830444336, 0.0, 0.0, 1.263427734375, 0, 0, 0, 0, 0, 0, 9362.0, 30146.0, 35388.0, 9362.0, 8.350414276123047, 0.11122976243495941, 0.08464246243238449, 0.06795336306095123, -0.9994239211082458, -0.000921764352824539, 0.03207901865243912, -0.09592564404010773, -0.05751800537109375, 1.4912109375, 1.446533203125, 0.09930419921875, 1.49560546875, 0, 0, 0
102239, 1.731889009475708, -85.03311157226562, 0.6226899027824402, 0.0, 0.0, -22.916757583618164, 0.0, 0.0, 0.45757293701171875, 0, 0, 0, 0, 0, 0, 9362.0, 30146.0, 35388.0, 9362.0, 8.350414276123047, 0.05303026735782623, 0.169932022690773, 0.38361868262290955, -0.9988218545913696, 0.0016030833357945085, 0.0325382798910141, -0.09592564404010773, -0.05751800537109375, 1.4912109375, 1.446533203125, 0.09930419921875, 1.49560546875, 0, 0, 0
102249, 1.732295274734497, -85.03362274169922, 0.6228463649749756, 0.0, 0.0, -22.912912368774414, 0.0, 0.0, 0.384521484375, 0, 0, 0, 0, 0, 0, 9362.0, 30146.0, 35388.0, 9362.0, 8.350414276123047, -0.036976274102926254, 0.21341656148433685, 0.01914811320602894, -0.9988058805465698, -6.317471161310095e-06, 0.033239200711250305, -0.09592564404010773, -0.05751800537109375, 1.4912109375, 1.42822265625, 0.0726470947265625, 1.49560546875, 0, 0, 0
102259, 1.7511075735092163, -85.0348129272461, 0.6425957679748535, 0.0, 0.0, -22.909454345703125, 0.0, 0.0, 0.34580230712890625, 0, 0, 0, 0, 0, 0, 9362.0, 30146.0, 35388.0, 9362.0, 8.350414276123047, -0.23445208370685577, 0.31232142448425293, 0.018690014258027077, -0.9985752105712891, 0.0017183430027216673, 0.03196025639772415, -0.09592564404010773, -0.05751800537109375, 1.4912109375, 1.40185546875, 0.0417938232421875, 1.49560546875, 0, 0, 0
102269, 1.7590577602386475, -85.03492736816406, 0.6509836316108704, 0.0, 0.0, -22.90852928161621, 0.0, 0.0, 0.09250640869140625, 0, 0, 0, 0, 0, 0, 9362.0, 30146.0, 35388.0, 9362.0, 8.350414276123047, -0.08490994572639465, 0.14631393551826477, -0.05668378248810768, -0.9987474083900452, 0.0018204518128186464, 0.031292874366045, -0.09592564404010773, -0.05751800537109375, 1.4912109375, 1.40185546875, 0.0417938232421875, 1.493408203125, 0, 0, 0
