timeTick, roll, pitch, yaw, stateX, stateY, stateZ, stateVX, stateVY, stateVZ, otX0, otY0, otZ0, otRoll0, otPitch0, otYaw0, left wing, pitch motor, yaw motor, right wing, voltage, roll rate, pitch rate, yaw rate, A_x, A_y, A_z, current, i_raw, v_raw, airflow_voltage, airflow_speed, pot_Pitch
19208, 35.94959259033203, 84.06303405761719, -34.115718841552734, 0, 0, 0, 0, 0, 0, 0, 0, 0, 0, 0, 0, 0, 0, 0, 0, 0, 0, 0, 0, 0, 0, 0, 0, 0, 0, 0, 0, 0
19218, 36.05662155151367, 84.06822204589844, -34.223995208740234, 0.0, 0.0, -42.16032791137695, 0.0, 0.0, 0.2452850341796875, 0, 0, 0, 0, 0, 0, 9362.0, 30146.0, 35388.0, 9362.0, 0, -0.23831935226917267, -0.38182055950164795, -0.044471126049757004, 0.999104380607605, 0.037406738847494125, 0.02863491140305996, 0, 0, 0, 0, 0, 0
19228, 36.106475830078125, 84.07063293457031, -34.27385330200195, 0.0, 0.0, -42.15811538696289, 0.0, 0.0, 0.22125244140625, 0, 0, 0, 0, 0, 0, 9362.0, 30146.0, 35388.0, 9362.0, 0, -0.024664709344506264, -0.12659721076488495, 0.07995400577783585, 0.9977908730506897, 0.038121625781059265, 0.028647037222981453, 0, 0, 0, 0.0, 0.035003662109375, 0
19238, 36.15919494628906, 84.07466125488281, -34.32683563232422, 0.0, 0.0, -42.150936126708984, 0.0, 0.0, 0.717926025390625, 0, 0, 0, 0, 0, 0, 9362.0, 30146.0, 35388.0, 9362.0, 0, -0.0004800483875442296, 0.06031782552599907, 0.10830461233854294, 0.999502956867218, 0.03616786748170853, 0.027058109641075134, 0, 0, 0, 0.0, 0.0542449951171875, 1.49853515625
19248, 36.16737365722656, 84.07791137695312, -34.33542251586914, 0.0, 0.0, -42.14447021484375, 0.0, 0.0, 0.6465911865234375, 0, 0, 0, 0, 0, 0, 9362.0, 30146.0, 35388.0, 9362.0, 0, -0.12945865094661713, 0.1212160661816597, 0.4181760847568512, 1.0000133514404297, 0.03695974498987198, 0.028791554272174835, 0, 0, 0, 0.0, 0.0162506103515625, 1.49853515625
19258, 36.27210998535156, 84.08061981201172, -34.44050216674805, 0.0, 0.0, -42.12908172607422, 0.0, 0.0, 1.538848876953125, 0, 0, 0, 0, 0, 0, 9362.0, 30146.0, 35388.0, 9362.0, 0, -0.04685406759381294, 0.03154744580388069, -0.18047598004341125, 0.9999385476112366, 0.037497587502002716, 0.030682267621159554, 0, 0, 0, 0.0, 0.0238189697265625, 1.4970703125
19268, 36.312835693359375, 84.08192443847656, -34.481544494628906, 0.0, 0.0, -42.115230560302734, 0.0, 0.0, 1.3851165771484375, 0, 0, 0, 0, 0, 0, 9362.0, 30146.0, 35388.0, 9362.0, 0, -0.10883446037769318, 0.20932243764400482, -0.06921505928039551, 1.001761794090271, 0.03817140311002731, 0.02907751128077507, 0, 0, 0, 0.0, 0.01910400390625, 1.4970703125
19278, 36.40563201904297, 84.08499908447266, -34.57466506958008, 0.0, 0.0, -42.104400634765625, 0.0, 0.0, 1.0829925537109375, 0, 0, 0, 0, 0, 0, 9362.0, 30146.0, 35388.0, 9362.0, 0, 0.14017684757709503, -0.03873327746987343, -0.1900312304496765, 0.9999094009399414, 0.037845682352781296, 0.02905067428946495, 0, 0, 0, 0.0, 0.0396575927734375, 1.4970703125
19288, 36.4195442199707, 84.08708953857422, -34.58811950683594, 0.0, 0.0, -42.09465026855469, 0.0, 0.0, 0.97503662109375, 0, 0, 0, 0, 0, 0, 9362.0, 30146.0, 35388.0, 9362.0, 0, 0.045253999531269073, 0.3455905616283417, 0.21401602029800415, 0.9997797012329102, 0.03696947917342186, 0.02824975922703743, 0, 0, 0, 0.0, 0.0344085693359375, 1.4970703125
19298, 36.49721145629883, 84.0902099609375, -34.66567611694336, 0.0, 0.0, -42.079315185546875, 0.0, 0.0, 1.53350830078125, 0, 0, 0, 0, 0, 0, 9362.0, 30146.0, 35388.0, 9362.0, 0, -0.13624882698059082, -0.0426810048520565, -0.10416274517774582, 0.9990713596343994, 0.037187837064266205, 0.02813544310629368, 0, 0, 0, 0.0, 0.0370025634765625, 1.494873046875
19308, 36.56849670410156, 84.0929946899414, -34.736778259277344, 0.0, 0.0, -42.065513610839844, 0.0, 0.0, 1.380157470703125, 0, 0, 0, 0, 0, 0, 9362.0, 30146.0, 35388.0, 9362.0, 8.33057975769043, -0.01419624499976635, -0.4240424633026123, -0.14836697280406952, 0.9970226287841797, 0.036632902920246124, 0.028683187440037727, -0.07158537209033966, 0.023120880126953125, 1.497802734375, 0.0, 0.05517578125, 1.494873046875
19318, 36.67681884765625, 84.0965805053711, -34.845943450927734, 0.0, 0.0, -42.044342041015625, 0.0, 0.0, 2.117156982421875, 0, 0, 0, 0, 0, 0, 9362.0, 30146.0, 35388.0, 9362.0, 8.33057975769043, -0.10847292095422745, -0.21502859890460968, -0.2605918049812317, 0.9998562335968018, 0.037060774862766266, 0.027945615351200104, -0.07158537209033966, 0.023120880126953125, 1.497802734375, 0.0, 0.0319671630859375, 1.491943359375
19328, 36.722354888916016, 84.09857177734375, -34.8919677734375, 0.0, 0.0, -42.02528762817383, 0.0, 0.0, 1.9054412841796875, 0, 0, 0, 0, 0, 0, 9362.0, 30146.0, 35388.0, 9362.0, 8.33057975769043, -0.012448272667825222, 0.1253732591867447, -0.03028224967420101, 0.9996485710144043, 0.03723525628447533, 0.028645139187574387, -0.07158537209033966, 0.023120880126953125, 1.497802734375, 0.0, 0.03314208984375, 1.491943359375
19338, 36.83761978149414, 84.10075378417969, -35.008033752441406, 0.0, 0.0, -42.018802642822266, 0.0, 0.0, 0.64849853515625, 0, 0, 0, 0, 0, 0, 9362.0, 30146.0, 35388.0, 9362.0, 8.33057975769043, -0.11495306342840195, -0.03489837422966957, -0.2867107391357422, 0.9994907975196838, 0.036963868886232376, 0.02863098308444023, -0.07158537209033966, 0.023120880126953125, 1.497802734375, 0.0, 0.0167999267578125, 1.494140625
19348, 36.8852653503418, 84.10325622558594, -35.055084228515625, 0.0, 0.0, -42.01296615600586, 0.0, 0.0, 0.583648681640625, 0, 0, 0, 0, 0, 0, 9362.0, 30146.0, 35388.0, 9362.0, 8.33057975769043, 0.04103993624448776, -0.15345793962478638, 0.019568413496017456, 0.9982527494430542, 0.03721772879362106, 0.030793316662311554, -0.07158537209033966, 0.023120880126953125, 1.497802734375, 0.0, 0.0160980224609375, 1.494140625
19358, 36.914215087890625, 84.10647583007812, -35.08303451538086, 0.0, 0.0, -42.012359619140625, 0.0, 0.0, 0.0606536865234375, 0, 0, 0, 0, 0, 0, 9362.0, 30146.0, 35388.0, 9362.0, 8.33057975769043, 0.08123509585857391, 0.11182677000761032, 0.09433238208293915, 0.9988880753517151, 0.037987880408763885, 0.02837994322180748, -0.07158537209033966, 0.023120880126953125, 1.497802734375, 0.0, 0.016387939453125, 1.49267578125
19368, 36.97542190551758, 84.10951232910156, -35.1451416015625, 0.0, 0.0, -42.01181411743164, 0.0, 0.0, 0.0545501708984375, 0, 0, 0, 0, 0, 0, 9362.0, 30146.0, 35388.0, 9362.0, 8.33057975769043, -0.19671185314655304, -0.29641059041023254, 0.060091301798820496, 0.9997836947441101, 0.037028584629297256, 0.028251713141798973, -0.07158537209033966, 0.023120880126953125, 1.497802734375, 0.0, 0.05950927734375, 1.49267578125
19378, 37.045467376708984, 84.11333465576172, -35.21451950073242, 0.0, 0.0, -42.00995635986328, 0.0, 0.0, 0.1857757568359375, 0, 0, 0, 0, 0, 0, 9362.0, 30146.0, 35388.0, 9362.0, 8.33057975769043, -0.10322313010692596, -0.13784150779247284, 0.09844857454299927, 0.9984444975852966, 0.03737702965736389, 0.026776719838380814, -0.07158537209033966, 0.023120880126953125, 1.497802734375, 0.0, 0.063079833984375, 1.494140625
19388, 37.049560546875, 84.1155014038086, -35.21884536743164, 0.0, 0.0, -42.00828552246094, 0.0, 0.0, 0.167083740234375, 0, 0, 0, 0, 0, 0, 9362.0, 30146.0, 35388.0, 9362.0, 8.33057975769043, -0.03250095993280411, 0.2433098554611206, 0.15336185693740845, 0.9983447194099426, 0.03603377193212509, 0.02755623683333397, -0.07158537209033966, 0.023120880126953125, 1.497802734375, 0.0, 0.0238189697265625, 1.494140625
19398, 37.11137008666992, 84.11802673339844, -35.280357360839844, 0.0, 0.0, -42.01170349121094, 0.0, 0.0, -0.341796875, 0, 0, 0, 0, 0, 0, 9362.0, 30146.0, 35388.0, 9362.0, 8.33057975769043, 0.0017842573579400778, 0.05733930692076683, -0.011411311104893684, 0.9984043836593628, 0.037012729793787, 0.029246510937809944, -0.07158537209033966, 0.023120880126953125, 1.497802734375, 0.0, 0.0314483642578125, 1.49560546875
19408, 37.17115020751953, 84.12039947509766, -35.341400146484375, 0.0, 0.0, -42.01477813720703, 0.0, 0.0, -0.307464599609375, 0, 0, 0, 0, 0, 0, 9362.0, 30146.0, 35388.0, 9362.0, 8.33057975769043, -0.17345592379570007, -0.18293793499469757, -0.03729093819856644, 1.000619888305664, 0.038409508764743805, 0.029217422008514404, -0.0596778504550457, -0.03959846496582031, 1.49267578125, 0.0, 0.0257415771484375, 1.49560546875
19418, 37.2672004699707, 84.12423706054688, -35.4370002746582, 0.0, 0.0, -42.024654388427734, 0.0, 0.0, -0.9876251220703125, 0, 0, 0, 0, 0, 0, 9362.0, 30146.0, 35388.0, 9362.0, 8.33057975769043, 0.14398179948329926, -0.42734071612358093, -0.23627552390098572, 1.001489520072937, 0.0355454683303833, 0.028003180399537086, -0.0596778504550457, -0.03959846496582031, 1.49267578125, 0.0, 0.0678253173828125, 1.49560546875
19428, 37.28835678100586, 84.12703704833984, -35.45896911621094, 0.0, 0.0, -42.033538818359375, 0.0, 0.0, -0.8884429931640625, 0, 0, 0, 0, 0, 0, 9362.0, 30146.0, 35388.0, 9362.0, 8.33057975769043, -0.15429240465164185, 0.012904074043035507, 0.16770698130130768, 1.0004478693008423, 0.03587042912840843, 0.029020244255661964, -0.0596778504550457, -0.03959846496582031, 1.49267578125, 0.0, 0.0291900634765625, 1.49560546875
19438, 37.419090270996094, 84.13130950927734, -35.588539123535156, 0.0, 0.0, -42.04399108886719, 0.0, 0.0, -1.04522705078125, 0, 0, 0, 0, 0, 0, 9362.0, 30146.0, 35388.0, 9362.0, 8.33057975769043, 0.08183826506137848, -0.16741017997264862, -0.38459575176239014, 1.0010135173797607, 0.03847483918070793, 0.026591449975967407, -0.0596778504550457, -0.03959846496582031, 1.49267578125, 0.0, 0.05181884765625, 1.49560546875
19448, 37.4752311706543, 84.13291931152344, -35.64561080932617, 0.0, 0.0, -42.05339813232422, 0.0, 0.0, -0.940704345703125, 0, 0, 0, 0, 0, 0, 9362.0, 30146.0, 35388.0, 9362.0, 8.33057975769043, -0.1749872863292694, 0.10617586970329285, -0.09458126872777939, 0.9999005198478699, 0.037914127111434937, 0.02685665339231491, -0.0596778504550457, -0.03959846496582031, 1.49267578125, 0.0, 0.01885986328125, 1.49560546875
19458, 37.55287551879883, 84.13682556152344, -35.72346878051758, 0.0, 0.0, -42.05803680419922, 0.0, 0.0, -0.4638671875, 0, 0, 0, 0, 0, 0, 9362.0, 30146.0, 35388.0, 9362.0, 8.33057975769043, 0.0569385327398777, -0.18660107254981995, -0.12162045389413834, 0.9997254610061646, 0.03573325648903847, 0.025723285973072052, -0.0596778504550457, -0.03959846496582031, 1.49267578125, 0.0, 0.0261077880859375, 1.497802734375
19468, 37.597259521484375, 84.13909912109375, -35.767127990722656, 0.0, 0.0, -42.06221008300781, 0.0, 0.0, -0.417327880859375, 0, 0, 0, 0, 0, 0, 9362.0, 30146.0, 35388.0, 9362.0, 8.33057975769043, 0.11216197162866592, 0.11828313022851944, 0.13247869908809662, 0.999522864818573, 0.03722810745239258, 0.026641620323061943, -0.0596778504550457, -0.03959846496582031, 1.49267578125, 0.0, 0.0155029296875, 1.497802734375
19478, 37.663429260253906, 84.14200592041016, -35.83428192138672, 0.0, 0.0, -42.063228607177734, 0.0, 0.0, -0.1018524169921875, 0, 0, 0, 0, 0, 0, 9362.0, 30146.0, 35388.0, 9362.0, 8.33057975769043, -0.2045922875404358, 0.07758216559886932, -0.19323356449604034, 1.0009000301361084, 0.037229787558317184, 0.028543228283524513, -0.0596778504550457, -0.03959846496582031, 1.49267578125, 0.0, 0.0175933837890625, 1.49560546875
19488, 37.674827575683594, 84.1445541381836, -35.84626007080078, 0.0, 0.0, -42.06414794921875, 0.0, 0.0, -0.0919342041015625, 0, 0, 0, 0, 0, 0, 9362.0, 30146.0, 35388.0, 9362.0, 8.33057975769043, -0.05013255402445793, 0.20342743396759033, 0.24588331580162048, 1.0003725290298462, 0.036520253866910934, 0.026447778567671776, -0.0596778504550457, -0.03959846496582031, 1.49267578125, 0.0, 0.016387939453125, 1.49560546875
19498, 37.76470947265625, 84.14799499511719, -35.93623352050781, 0.0, 0.0, -42.064422607421875, 0.0, 0.0, -0.0274658203125, 0, 0, 0, 0, 0, 0, 9362.0, 30146.0, 35388.0, 9362.0, 8.33057975769043, -0.04745899513363838, 0.05617113783955574, 0.036111027002334595, 1.0000903606414795, 0.03841731697320938, 0.024656370282173157, -0.0596778504550457, -0.03959846496582031, 1.49267578125, 0.0, 0.0612945556640625, 1.50146484375
19508, 37.81669998168945, 84.15058135986328, -35.98693084716797, 0.0, 0.0, -42.06467056274414, 0.0, 0.0, -0.0247955322265625, 0, 0, 0, 0, 0, 0, 9362.0, 30146.0, 35388.0, 9362.0, 8.33057975769043, 0.1342989057302475, 0.04346150904893875, -0.01005388330668211, 0.9982380867004395, 0.03676411136984825, 0.02623821049928665, -0.06076858565211296, 0.07688140869140625, 1.502197265625, 0.0, 0.028656005859375, 1.50146484375
19518, 37.858489990234375, 84.15473937988281, -36.030311584472656, 0.0, 0.0, -42.05915451049805, 0.0, 0.0, 0.551605224609375, 0, 0, 0, 0, 0, 0, 9362.0, 30146.0, 35388.0, 9362.0, 8.33057975769043, -0.25464385747909546, 0.052423521876335144, 0.05179827660322189, 0.9999911189079285, 0.03705701231956482, 0.02713758870959282, -0.06076858565211296, 0.07688140869140625, 1.502197265625, 0.0, 0.035003662109375, 1.494873046875
19528, 37.899898529052734, 84.15718841552734, -36.072025299072266, 0.0, 0.0, -42.0541877746582, 0.0, 0.0, 0.496673583984375, 0, 0, 0, 0, 0, 0, 9362.0, 30146.0, 35388.0, 9362.0, 8.33057975769043, -0.06787117570638657, -0.14034178853034973, -0.04697466269135475, 1.0006879568099976, 0.03615248203277588, 0.028834829106926918, -0.06076858565211296, 0.07688140869140625, 1.502197265625, 0.0, 0.0153350830078125, 1.494873046875
19538, 37.97686004638672, 84.158935546875, -36.14824295043945, 0.0, 0.0, -42.049171447753906, 0.0, 0.0, 0.5016326904296875, 0, 0, 0, 0, 0, 0, 9362.0, 30146.0, 35388.0, 9362.0, 8.33057975769043, 0.05491400510072708, 0.1757117360830307, -0.4356571435928345, 0.9998248815536499, 0.03665218502283096, 0.02873065508902073, -0.06076858565211296, 0.07688140869140625, 1.502197265625, 0.0, 0.0261077880859375, 1.49853515625
19548, 38.04287338256836, 84.16195678710938, -36.21478271484375, 0.0, 0.0, -42.04465103149414, 0.0, 0.0, 0.4520416259765625, 0, 0, 0, 0, 0, 0, 9362.0, 30146.0, 35388.0, 9362.0, 8.33057975769043, -0.004397859331220388, -0.3441837728023529, -0.057544756680727005, 0.9981986284255981, 0.036274731159210205, 0.02653481438755989, -0.06076858565211296, 0.07688140869140625, 1.502197265625, 0.0, 0.015380859375, 1.49853515625
19558, 38.10585021972656, 84.16510009765625, -36.277381896972656, 0.0, 0.0, -42.03784942626953, 0.0, 0.0, 0.6801605224609375, 0, 0, 0, 0, 0, 0, 9362.0, 30146.0, 35388.0, 9362.0, 8.33057975769043, 0.15476512908935547, -0.07895612716674805, -0.06847488880157471, 0.9983505606651306, 0.03646668419241905, 0.026409167796373367, -0.06076858565211296, 0.07688140869140625, 1.502197265625, 0.0, 0.0160980224609375, 1.49560546875
19568, 38.1676025390625, 84.16719055175781, -36.338768005371094, 0.0, 0.0, -42.03173065185547, 0.0, 0.0, 0.61187744140625, 0, 0, 0, 0, 0, 0, 9362.0, 30146.0, 35388.0, 9362.0, 8.33057975769043, 0.08862224221229553, -0.15408557653427124, -0.12952697277069092, 0.9986940026283264, 0.03716477379202843, 0.027065685018897057, -0.06076858565211296, 0.07688140869140625, 1.502197265625, 0.0, 0.0649566650390625, 1.49560546875
19578, 38.2099723815918, 84.17011260986328, -36.38218688964844, 0.0, 0.0, -42.01720428466797, 0.0, 0.0, 1.45263671875, 0, 0, 0, 0, 0, 0, 9362.0, 30146.0, 35388.0, 9362.0, 8.33057975769043, -0.28681978583335876, 0.14210276305675507, 0.1295955330133438, 0.9989442825317383, 0.037310585379600525, 0.02664053440093994, -0.06076858565211296, 0.07688140869140625, 1.502197265625, 0.0, 0.015380859375, 1.499267578125
19588, 38.23448944091797, 84.17237091064453, -36.406681060791016, 0.0, 0.0, -42.00413131713867, 0.0, 0.0, 1.3072967529296875, 0, 0, 0, 0, 0, 0, 9362.0, 30146.0, 35388.0, 9362.0, 8.33057975769043, -0.019845766946673393, 0.2062888741493225, 0.08973383903503418, 0.9989855289459229, 0.036471638828516006, 0.02854357659816742, -0.06076858565211296, 0.07688140869140625, 1.502197265625, 0.0, 0.0225982666015625, 1.499267578125
19598, 38.268646240234375, 84.17549896240234, -36.4405517578125, 0.0, 0.0, -41.99482345581055, 0.0, 0.0, 0.9307861328125, 0, 0, 0, 0, 0, 0, 9362.0, 30146.0, 35388.0, 9362.0, 8.33057975769043, 0.09546060860157013, 0.2809969186782837, 0.2959822118282318, 0.9995790123939514, 0.03803691267967224, 0.02689625322818756, -0.06076858565211296, 0.07688140869140625, 1.502197265625, 0.0, 0.01806640625, 1.500732421875
19608, 38.36589050292969, 84.17788696289062, -36.537391662597656, 0.0, 0.0, -41.98644256591797, 0.0, 0.0, 0.8380889892578125, 0, 0, 0, 0, 0, 0, 9362.0, 30146.0, 35388.0, 9362.0, 8.33057975769043, 0.23577375710010529, -0.1691538542509079, -0.20408377051353455, 0.9985588788986206, 0.03749670088291168, 0.02681262046098709, -0.061996009200811386, -0.1650371551513672, 1.482421875, 0.0, 0.03033447265625, 1.500732421875
19618, 38.478694915771484, 84.18128967285156, -36.650943756103516, 0.0, 0.0, -41.983280181884766, 0.0, 0.0, 0.3162384033203125, 0, 0, 0, 0, 0, 0, 9362.0, 30146.0, 35388.0, 9362.0, 8.33057975769043, 0.014408078975975513, -0.1552465707063675, -0.07683750987052917, 0.9984747767448425, 0.03579229861497879, 0.027864612638950348, -0.061996009200811386, -0.1650371551513672, 1.482421875, 0.0, 0.046966552734375, 1.496337890625
19628, 38.539363861083984, 84.18438720703125, -36.71135330200195, 0.0, 0.0, -41.98043441772461, 0.0, 0.0, 0.284576416015625, 0, 0, 0, 0, 0, 0, 9362.0, 30146.0, 35388.0, 9362.0, 8.33057975769043, -0.0419311486184597, -0.3734423816204071, 0.031209291890263557, 0.9978641867637634, 0.038561344146728516, 0.026029055938124657, -0.061996009200811386, -0.1650371551513672, 1.482421875, 0.0, 0.0370025634765625, 1.496337890625
19638, 38.58800506591797, 84.18698120117188, -36.76024627685547, 0.0, 0.0, -41.97924041748047, 0.0, 0.0, 0.1194000244140625, 0, 0, 0, 0, 0, 0, 9362.0, 30146.0, 35388.0, 9362.0, 8.33057975769043, 0.01654445379972458, 0.13940411806106567, 0.1200467199087143, 0.9998214840888977, 0.03724741190671921, 0.026120837777853012, -0.061996009200811386, -0.1650371551513672, 1.482421875, 0.0, 0.03033447265625, 1.499267578125
19648, 38.609901428222656, 84.1897201538086, -36.78227996826172, 0.0, 0.0, -41.97816467285156, 0.0, 0.0, 0.107574462890625, 0, 0, 0, 0, 0, 0, 9362.0, 30146.0, 35388.0, 9362.0, 8.33057975769043, -0.03705354407429695, 0.05442187562584877, 0.29884299635887146, 1.0000028610229492, 0.03660640865564346, 0.027963006868958473, -0.061996009200811386, -0.1650371551513672, 1.482421875, 0.0, 0.04034423828125, 1.499267578125
19658, 38.77370834350586, 84.1923828125, -36.945655822753906, 0.0, 0.0, -41.98402786254883, 0.0, 0.0, -0.5863189697265625, 0, 0, 0, 0, 0, 0, 9362.0, 30146.0, 35388.0, 9362.0, 8.33057975769043, 0.00652639614418149, -0.08669927716255188, -0.35385438799858093, 0.9992165565490723, 0.038014497607946396, 0.027474625036120415, -0.061996009200811386, -0.1650371551513672, 1.482421875, 0.0, 0.06591796875, 1.4970703125
19668, 38.856597900390625, 84.19480895996094, -37.028297424316406, 0.0, 0.0, -41.98930358886719, 0.0, 0.0, -0.5275726318359375, 0, 0, 0, 0, 0, 0, 9362.0, 30146.0, 35388.0, 9362.0, 8.33057975769043, 0.08616658300161362, -0.18594476580619812, -0.12731845676898956, 0.9968554973602295, 0.03693452849984169, 0.027084296569228172, -0.061996009200811386, -0.1650371551513672, 1.482421875, 0.0, 0.070709228515625, 1.4970703125
19678, 38.864288330078125, 84.19782257080078, -37.0366325378418, 0.0, 0.0, -41.988861083984375, 0.0, 0.0, 0.04425048828125, 0, 0, 0, 0, 0, 0, 9362.0, 30146.0, 35388.0, 9362.0, 8.33057975769043, 0.16585275530815125, 0.5541985034942627, 0.33064886927604675, 0.9981220364570618, 0.03581436723470688, 0.027293376624584198, -0.061996009200811386, -0.1650371551513672, 1.482421875, 0.0, 0.035675048828125, 1.49853515625
19688, 38.906917572021484, 84.20042419433594, -37.07966995239258, 0.0, 0.0, -41.98846435546875, 0.0, 0.0, 0.0396728515625, 0, 0, 0, 0, 0, 0, 9362.0, 30146.0, 35388.0, 9362.0, 8.33057975769043, -0.007283531595021486, 0.002778360154479742, 0.24153034389019012, 0.9987572431564331, 0.03660434111952782, 0.025512348860502243, -0.061996009200811386, -0.1650371551513672, 1.482421875, 0.0, 0.0197906494140625, 1.49853515625
19698, 38.96494674682617, 84.20315551757812, -37.13859939575195, 0.0, 0.0, -41.98892593383789, 0.0, 0.0, -0.0461578369140625, 0, 0, 0, 0, 0, 0, 9362.0, 30146.0, 35388.0, 9362.0, 8.33057975769043, 0.008315667510032654, 0.2503631114959717, -0.08466582745313644, 0.9994457364082336, 0.03602432832121849, 0.026845071464776993, -0.061996009200811386, -0.1650371551513672, 1.482421875, 0.0, 0.0640716552734375, 1.4970703125
19708, 38.98670959472656, 84.2046127319336, -37.16127014160156, 0.0, 0.0, -41.989341735839844, 0.0, 0.0, -0.0415802001953125, 0, 0, 0, 0, 0, 0, 9362.0, 30146.0, 35388.0, 9362.0, 8.33057975769043, -0.08222819119691849, 0.2503077983856201, 0.08510550111532211, 0.9986846446990967, 0.038506053388118744, 0.029843119904398918, -0.060869328677654266, -0.08439826965332031, 1.489013671875, 0.0, 0.0425262451171875, 1.4970703125
19718, 39.0948486328125, 84.20748138427734, -37.26863098144531, 0.0, 0.0, -41.989715576171875, 0.0, 0.0, -0.037384033203125, 0, 0, 0, 0, 0, 0, 9362.0, 30146.0, 35388.0, 9362.0, 8.33057975769043, 0.038494549691677094, -0.270539253950119, -0.22461126744747162, 0.998710572719574, 0.03894732519984245, 0.028577914461493492, -0.060869328677654266, -0.08439826965332031, 1.489013671875, 0.0, 0.0261077880859375, 1.493408203125
19728, 39.16527557373047, 84.20962524414062, -37.33938217163086, 0.0, 0.0, -41.99005126953125, 0.0, 0.0, -0.0335693359375, 0, 0, 0, 0, 0, 0, 9362.0, 30146.0, 35388.0, 9362.0, 8.33057975769043, -0.03280078247189522, -0.10361896455287933, -0.10842059552669525, 0.999289333820343, 0.03616422414779663, 0.026363397017121315, -0.060869328677654266, -0.08439826965332031, 1.489013671875, 0.0, 0.0509490966796875, 1.493408203125
19738, 39.21735382080078, 84.21202087402344, -37.39048767089844, 0.0, 0.0, -41.988441467285156, 0.0, 0.0, 0.160980224609375, 0, 0, 0, 0, 0, 0, 9362.0, 30146.0, 35388.0, 9362.0, 8.33057975769043, -0.0641564428806305, 0.28979215025901794, -0.023526594042778015, 0.9969165325164795, 0.036363374441862106, 0.027779091149568558, -0.060869328677654266, -0.08439826965332031, 1.489013671875, 0.0, 0.04400634765625, 1.49267578125
19748, 39.27101135253906, 84.21361541748047, -37.44474411010742, 0.0, 0.0, -41.986995697021484, 0.0, 0.0, 0.1445770263671875, 0, 0, 0, 0, 0, 0, 9362.0, 30146.0, 35388.0, 9362.0, 8.33057975769043, -0.10759346932172775, -0.0029478776268661022, -0.19476574659347534, 0.9968841075897217, 0.034639615565538406, 0.028000665828585625, -0.060869328677654266, -0.08439826965332031, 1.489013671875, 0.0, 0.01910400390625, 1.49267578125
19758, 39.30768585205078, 84.21636199951172, -37.480224609375, 0.0, 0.0, -41.98542022705078, 0.0, 0.0, 0.1575469970703125, 0, 0, 0, 0, 0, 0, 9362.0, 30146.0, 35388.0, 9362.0, 8.33057975769043, 0.19947907328605652, 0.240707665681839, -0.036382775753736496, 0.9975335597991943, 0.037465501576662064, 0.027546195313334465, -0.060869328677654266, -0.08439826965332031, 1.489013671875, 0.0, 0.024749755859375, 1.49853515625
19768, 39.361900329589844, 84.21845245361328, -37.533050537109375, 0.0, 0.0, -41.984004974365234, 0.0, 0.0, 0.1415252685546875, 0, 0, 0, 0, 0, 0, 9362.0, 30146.0, 35388.0, 9362.0, 8.33057975769043, 0.2792324125766754, 0.030946211889386177, 0.03907935693860054, 0.9969532489776611, 0.03848996385931969, 0.027517255395650864, -0.060869328677654266, -0.08439826965332031, 1.489013671875, 0.0, 0.0280914306640625, 1.49853515625
19778, 39.440528869628906, 84.22073364257812, -37.61180877685547, 0.0, 0.0, -41.98054504394531, 0.0, 0.0, 0.3459930419921875, 0, 0, 0, 0, 0, 0, 9362.0, 30146.0, 35388.0, 9362.0, 8.33057975769043, -0.012108439579606056, 0.11568702757358551, -0.23137930035591125, 0.9991754293441772, 0.03796933963894844, 0.02793417125940323, -0.060869328677654266, -0.08439826965332031, 1.489013671875, 0.0, 0.0396575927734375, 1.4970703125
19788, 39.485496520996094, 84.22283172607422, -37.65681838989258, 0.0, 0.0, -41.97743225097656, 0.0, 0.0, 0.311279296875, 0, 0, 0, 0, 0, 0, 9362.0, 30146.0, 35388.0, 9362.0, 8.33057975769043, 0.04158191382884979, -0.028479259461164474, 0.0495908260345459, 0.999621570110321, 0.03740636631846428, 0.028102315962314606, -0.060869328677654266, -0.08439826965332031, 1.489013671875, 0.0, 0.0577545166015625, 1.4970703125
19798, 39.61623001098633, 84.2255859375, -37.787574768066406, 0.0, 0.0, -41.97873306274414, 0.0, 0.0, -0.1300811767578125, 0, 0, 0, 0, 0, 0, 9362.0, 30146.0, 35388.0, 9362.0, 8.33057975769043, 0.04241630434989929, -0.06831424683332443, -0.3732699155807495, 1.0002347230911255, 0.037048887461423874, 0.029545485973358154, -0.060869328677654266, -0.08439826965332031, 1.489013671875, 0.0, 0.0319671630859375, 1.49560546875
19808, 39.65911102294922, 84.22816467285156, -37.830596923828125, 0.0, 0.0, -41.97990036010742, 0.0, 0.0, -0.116729736328125, 0, 0, 0, 0, 0, 0, 9362.0, 30146.0, 35388.0, 9362.0, 8.33057975769043, 0.0009040365112014115, -0.03470269590616226, 0.13312427699565887, 0.9990075826644897, 0.03811705857515335, 0.026637738570570946, -0.058595433831214905, -0.2635974884033203, 1.474365234375, 0.0, 0.041015625, 1.49560546875
19818, 39.730010986328125, 84.23193359375, -37.901588439941406, 0.0, 0.0, -41.97384262084961, 0.0, 0.0, 0.60577392578125, 0, 0, 0, 0, 0, 0, 9362.0, 30146.0, 35388.0, 9362.0, 8.33057975769043, 0.003277216339483857, -0.037067532539367676, 0.031109174713492393, 0.9973357915878296, 0.037385351955890656, 0.02647216245532036, -0.058595433831214905, -0.2635974884033203, 1.474365234375, 0.0, 0.0425262451171875, 1.497802734375
19828, 39.75446319580078, 84.23431396484375, -37.9264030456543, 0.0, 0.0, -41.96839141845703, 0.0, 0.0, 0.5451202392578125, 0, 0, 0, 0, 0, 0, 9362.0, 30146.0, 35388.0, 9362.0, 8.33057975769043, 0.00372675945982337, 0.009505442343652248, 0.16953358054161072, 0.9976243376731873, 0.03565477579832077, 0.027691027149558067, -0.058595433831214905, -0.2635974884033203, 1.474365234375, 0.0, 0.058624267578125, 1.497802734375
19838, 39.81074523925781, 84.2376480102539, -37.982906341552734, 0.0, 0.0, -41.968135833740234, 0.0, 0.0, 0.0255584716796875, 0, 0, 0, 0, 0, 0, 9362.0, 30146.0, 35388.0, 9362.0, 8.33057975769043, 0.024143317714333534, -0.03267031908035278, 0.18768717348575592, 0.9982588291168213, 0.038618896156549454, 0.02829619124531746, -0.058595433831214905, -0.2635974884033203, 1.474365234375, 0.0, 0.046966552734375, 1.497802734375
19848, 39.899471282958984, 84.24036407470703, -38.070838928222656, 0.0, 0.0, -41.96790313720703, 0.0, 0.0, 0.0232696533203125, 0, 0, 0, 0, 0, 0, 9362.0, 30146.0, 35388.0, 9362.0, 8.33057975769043, 0.24556197226047516, -0.4024350345134735, -0.08827559649944305, 1.0007063150405884, 0.03624140843749046, 0.02665293589234352, -0.058595433831214905, -0.2635974884033203, 1.474365234375, 0.0, 0.066802978515625, 1.497802734375
19858, 39.96440887451172, 84.24295806884766, -38.136287689208984, 0.0, 0.0, -41.96468734741211, 0.0, 0.0, 0.3215789794921875, 0, 0, 0, 0, 0, 0, 9362.0, 30146.0, 35388.0, 9362.0, 8.33057975769043, -0.024374715983867645, 0.0685146227478981, 0.14388225972652435, 0.9983546733856201, 0.03667624667286873, 0.025477277114987373, -0.058595433831214905, -0.2635974884033203, 1.474365234375, 0.0, 0.0417938232421875, 1.496337890625
19868, 39.98773193359375, 84.24452209472656, -38.159210205078125, 0.0, 0.0, -41.9617919921875, 0.0, 0.0, 0.2895355224609375, 0, 0, 0, 0, 0, 0, 9362.0, 30146.0, 35388.0, 9362.0, 8.33057975769043, 0.0991704910993576, 0.24706614017486572, 0.15111926198005676, 0.9983546733856201, 0.03667624667286873, 0.025477277114987373, -0.058595433831214905, -0.2635974884033203, 1.474365234375, 0.0, 0.0417938232421875, 1.496337890625
19878, 40.084144592285156, 84.24714660644531, -38.25627899169922, 0.0, 0.0, -41.9617919921875, 0.0, 0.0, 0.2895355224609375, 0, 0, 0, 0, 0, 0, 9362.0, 30146.0, 35388.0, 9362.0, 8.33057975769043, 0.09237655252218246, 0.0512077696621418, -0.022366568446159363, 0.9983546733856201, 0.03667624667286873, 0.025477277114987373, -0.058595433831214905, -0.2635974884033203, 1.474365234375, 0.0, 0.0417938232421875, 1.496337890625
19888, 40.118309020996094, 84.24894714355469, -38.28913497924805, 0.0, 0.0, -41.95684051513672, 0.0, 0.0, 0.2346038818359375, 0, 0, 0, 0, 0, 0, 9362.0, 30146.0, 35388.0, 9362.0, 8.33057975769043, 0.2370603382587433, 0.18450188636779785, 0.24873168766498566, 1.0008186101913452, 0.03794582933187485, 0.02565741166472435, -0.058595433831214905, -0.2635974884033203, 1.474365234375, 0.0, 0.0417938232421875, 1.496337890625
19898, 40.25080871582031, 84.25293731689453, -38.42183303833008, 0.0, 0.0, -41.95718765258789, 0.0, 0.0, -0.0347137451171875, 0, 0, 0, 0, 0, 0, 9362.0, 30146.0, 35388.0, 9362.0, 8.33057975769043, 0.0038072571624070406, -0.325884610414505, -0.027758358046412468, 0.9985059499740601, 0.03680047765374184, 0.025659669190645218, -0.058595433831214905, -0.2635974884033203, 1.474365234375, 0.0, 0.0417938232421875, 1.496337890625
19918, 40.28822708129883, 84.25689697265625, -38.459049224853516, 0.0, 0.0, -41.96078109741211, 0.0, 0.0, -0.3284454345703125, 0, 0, 0, 0, 0, 0, 9362.0, 30146.0, 35388.0, 9362.0, 8.33057975769043, -0.09264042973518372, 0.45398515462875366, 0.03519042953848839, 0.9999720454216003, 0.03581440448760986, 0.027685221284627914, -0.0369131825864315, 0.0052013397216796875, 1.496337890625, 0.0, 0.0417938232421875, 1.496337890625
19928, 40.325035095214844, 84.25901794433594, -38.49620819091797, 0.0, 0.0, -41.96373748779297, 0.0, 0.0, -0.2956390380859375, 0, 0, 0, 0, 0, 0, 9362.0, 30146.0, 35388.0, 9362.0, 8.33057975769043, -0.09764113277196884, -0.1251310408115387, 0.027595944702625275, 0.9999489784240723, 0.03636468946933746, 0.02944505587220192, -0.0369131825864315, 0.0052013397216796875, 1.496337890625, 0.0, 0.0417938232421875, 1.496337890625
19938, 40.396427154541016, 84.26140594482422, -38.567298889160156, 0.0, 0.0, -41.971866607666016, 0.0, 0.0, -0.8129119873046875, 0, 0, 0, 0, 0, 0, 9362.0, 30146.0, 35388.0, 9362.0, 8.33057975769043, -0.03536223992705345, -0.2066778838634491, -0.21745572984218597, 0.9993988275527954, 0.037356358021497726, 0.02857503853738308, -0.0369131825864315, 0.0052013397216796875, 1.496337890625, 0.0, 0.0417938232421875, 1.49853515625
19948, 40.41178512573242, 84.2624282836914, -38.58299255371094, 0.0, 0.0, -41.97917938232422, 0.0, 0.0, -0.7312774658203125, 0, 0, 0, 0, 0, 0, 9362.0, 30146.0, 35388.0, 9362.0, 8.33057975769043, -0.04034636914730072, 0.27230459451675415, 0.14866448938846588, 0.999392032623291, 0.037811800837516785, 0.028008464723825455, -0.0369131825864315, 0.0052013397216796875, 1.496337890625, 0.0, 0.0155029296875, 1.49853515625
19958, 40.50571823120117, 84.26427459716797, -38.67706298828125, 0.0, 0.0, -41.98548889160156, 0.0, 0.0, -0.630950927734375, 0, 0, 0, 0, 0, 0, 9362.0, 30146.0, 35388.0, 9362.0, 8.33057975769043, -0.03291773423552513, 0.20449872314929962, -0.15057958662509918, 0.998629093170166, 0.036858171224594116, 0.02729474939405918, -0.0369131825864315, 0.0052013397216796875, 1.496337890625, 0.0, 0.015869140625, 1.49853515625
19968, 40.55067825317383, 84.2658462524414, -38.722015380859375, 0.0, 0.0, -41.99116516113281, 0.0, 0.0, -0.567626953125, 0, 0, 0, 0, 0, 0, 9362.0, 30146.0, 35388.0, 9362.0, 8.33057975769043, 0.06298118084669113, -0.07592116296291351, -0.018203554674983025, 0.999119222164154, 0.035753097385168076, 0.026384389027953148, -0.0369131825864315, 0.0052013397216796875, 1.496337890625, 0.0, 0.015869140625, 1.49853515625
19978, 40.64671325683594, 84.26885223388672, -38.819026947021484, 0.0, 0.0, -41.996273040771484, 0.0, 0.0, -0.5107879638671875, 0, 0, 0, 0, 0, 0, 9362.0, 30146.0, 35388.0, 9362.0, 8.33057975769043, -0.0955004021525383, 0.18601790070533752, -0.10247813165187836, 0.9994463324546814, 0.03914949670433998, 0.02553780935704708, -0.0369131825864315, 0.0052013397216796875, 1.496337890625, 0.0, 0.015869140625, 1.496337890625
19988, 40.68087387084961, 84.27090454101562, -38.852535247802734, 0.0, 0.0, -42.00087356567383, 0.0, 0.0, -0.460052490234375, 0, 0, 0, 0, 0, 0, 9362.0, 30146.0, 35388.0, 9362.0, 8.33057975769043, 0.11484553664922714, 0.10042797774076462, 0.2128785401582718, 1.0006840229034424, 0.03855898603796959, 0.027596600353717804, -0.0369131825864315, 0.0052013397216796875, 1.496337890625, 0.0, 0.015869140625, 1.496337890625
19998, 40.7391471862793, 84.27313232421875, -38.91093826293945, 0.0, 0.0, -42.0003662109375, 0.0, 0.0, 0.0507354736328125, 0, 0, 0, 0, 0, 0, 9362.0, 30146.0, 35388.0, 9362.0, 8.33057975769043, 0.09572863578796387, 0.2127881646156311, -0.0903981402516365, 0.9999340176582336, 0.03660310432314873, 0.027696819975972176, -0.0369131825864315, 0.0052013397216796875, 1.496337890625, 0.0, 0.015869140625, 1.496337890625
20018, 40.820064544677734, 84.27689361572266, -38.99166488647461, 0.0, 0.0, -41.9973030090332, 0.0, 0.0, 0.2605438232421875, 0, 0, 0, 0, 0, 0, 9362.0, 30146.0, 35388.0, 9362.0, 8.33057975769043, -0.06906535476446152, 0.012785530649125576, 0.247957244515419, 1.000288963317871, 0.03816521540284157, 0.02929951250553131, -0.06532537937164307, -0.11127853393554688, 1.48681640625, 0.0, 0.015869140625, 1.49560546875
20028, 40.84233093261719, 84.27808380126953, -39.014278411865234, 0.0, 0.0, -41.99496078491211, 0.0, 0.0, 0.234222412109375, 0, 0, 0, 0, 0, 0, 9362.0, 30146.0, 35388.0, 9362.0, 8.33057975769043, 0.020567482337355614, 0.292685329914093, 0.09130243957042694, 1.001194715499878, 0.037001434713602066, 0.026603426784276962, -0.06532537937164307, -0.11127853393554688, 1.48681640625, 0.0, 0.01556396484375, 1.49560546875
20038, 40.910152435302734, 84.28216552734375, -39.0833625793457, 0.0, 0.0, -42.00022888183594, 0.0, 0.0, -0.5268096923828125, 0, 0, 0, 0, 0, 0, 9362.0, 30146.0, 35388.0, 9362.0, 8.33057975769043, 0.03759406879544258, -0.3181007504463196, 0.07038561999797821, 1.001194715499878, 0.037001434713602066, 0.026603426784276962, -0.06532537937164307, -0.11127853393554688, 1.48681640625, 0.0, 0.01556396484375, 1.49853515625
20048, 40.971099853515625, 84.28282928466797, -39.143775939941406, 0.0, 0.0, -42.00497055053711, 0.0, 0.0, -0.4741668701171875, 0, 0, 0, 0, 0, 0, 9362.0, 30146.0, 35388.0, 9362.0, 8.33057975769043, 0.1548987329006195, -0.010627414099872112, -0.3852948844432831, 0.9998958110809326, 0.03734135627746582, 0.02834821678698063, -0.06532537937164307, -0.11127853393554688, 1.48681640625, 0.0, 0.0577545166015625, 1.49853515625
20058, 41.03824234008789, 84.2830581665039, -39.210731506347656, 0.0, 0.0, -42.012245178222656, 0.0, 0.0, -0.7274627685546875, 0, 0, 0, 0, 0, 0, 9362.0, 30146.0, 35388.0, 9362.0, 8.33057975769043, -0.03534091264009476, 0.2151831090450287, -0.3170633018016815, 0.998826265335083, 0.03841928020119667, 0.02693711780011654, -0.06532537937164307, -0.11127853393554688, 1.48681640625, 0.0, 0.0577545166015625, 1.49560546875
20068, 41.05123519897461, 84.28433227539062, -39.22329330444336, 0.0, 0.0, -42.018795013427734, 0.0, 0.0, -0.6549835205078125, 0, 0, 0, 0, 0, 0, 9362.0, 30146.0, 35388.0, 9362.0, 8.33057975769043, 0.04364226013422012, 0.3349687457084656, 0.07799136638641357, 0.9989491105079651, 0.03780682757496834, 0.026532649993896484, -0.06532537937164307, -0.11127853393554688, 1.48681640625, 0.0, 0.0577545166015625, 1.49560546875
20078, 41.12422561645508, 84.2850112915039, -39.29700469970703, 0.0, 0.0, -42.02605438232422, 0.0, 0.0, -0.7259368896484375, 0, 0, 0, 0, 0, 0, 9362.0, 30146.0, 35388.0, 9362.0, 8.33057975769043, -0.04772838205099106, 0.10708701610565186, -0.3384752571582794, 0.9995788335800171, 0.038387496024370193, 0.025739364326000214, -0.06532537937164307, -0.11127853393554688, 1.48681640625, 0.0, 0.0577545166015625, 1.50146484375
20088, 41.214599609375, 84.28689575195312, -39.3870735168457, 0.0, 0.0, -42.032588958740234, 0.0, 0.0, -0.6534576416015625, 0, 0, 0, 0, 0, 0, 9362.0, 30146.0, 35388.0, 9362.0, 8.33057975769043, -0.0681895986199379, -0.3466973304748535, -0.19977447390556335, 0.9995788335800171, 0.038387496024370193, 0.025739364326000214, -0.06532537937164307, -0.11127853393554688, 1.48681640625, 0.0, 0.023040771484375, 1.50146484375
20098, 41.30402374267578, 84.28787231445312, -39.47544860839844, 0.0, 0.0, -42.032588958740234, 0.0, 0.0, -0.6534576416015625, 0, 0, 0, 0, 0, 0, 9362.0, 30146.0, 35388.0, 9362.0, 8.33057975769043, 0.09804651141166687, 0.03141835331916809, -0.2188595086336136, 0.9994528293609619, 0.03770320490002632, 0.02699464187026024, -0.06532537937164307, -0.11127853393554688, 1.48681640625, 0.0, 0.015380859375, 1.50146484375
20108, 41.36751937866211, 84.28955078125, -39.5389518737793, 0.0, 0.0, -42.035972595214844, 0.0, 0.0, -0.16021728515625, 0, 0, 0, 0, 0, 0, 9362.0, 30146.0, 35388.0, 9362.0, 8.33057975769043, -0.019321434199810028, -0.11236890405416489, -0.15286749601364136, 0.9994528293609619, 0.03770320490002632, 0.02699464187026024, -0.06113005802035332, -0.23671722412109375, 1.4765625, 0.0, 0.0325927734375, 1.50146484375
20118, 41.427818298339844, 84.2909164428711, -39.597816467285156, 0.0, 0.0, -42.04507064819336, 0.0, 0.0, -0.9098052978515625, 0, 0, 0, 0, 0, 0, 9362.0, 30146.0, 35388.0, 9362.0, 8.33057975769043, 0.10933651775121689, 0.25094932317733765, 0.22123990952968597, 0.9992457628250122, 0.038406290113925934, 0.028241360560059547, -0.06113005802035332, -0.23671722412109375, 1.4765625, 0.0, 0.0325927734375, 1.50146484375
20128, 41.49160385131836, 84.29281616210938, -39.662567138671875, 0.0, 0.0, -42.05325698852539, 0.0, 0.0, -0.818634033203125, 0, 0, 0, 0, 0, 0, 9362.0, 30146.0, 35388.0, 9362.0, 8.33057975769043, -0.1833462119102478, -0.04853495955467224, 0.05426768958568573, 0.9992457628250122, 0.038406290113925934, 0.028241360560059547, -0.06113005802035332, -0.23671722412109375, 1.4765625, 0.0, 0.0325927734375, 1.50146484375
20138, 41.568546295166016, 84.2959976196289, -39.74072265625, 0.0, 0.0, -42.0554313659668, 0.0, 0.0, -0.217437744140625, 0, 0, 0, 0, 0, 0, 9362.0, 30146.0, 35388.0, 9362.0, 8.33057975769043, -0.1529778391122818, 0.10464825481176376, -0.0499894805252552, 0.9992457628250122, 0.038406290113925934, 0.028241360560059547, -0.06113005802035332, -0.23671722412109375, 1.4765625, 0.0, 0.063079833984375, 1.50146484375
20148, 41.633155822753906, 84.29762268066406, -39.80601119995117, 0.0, 0.0, -42.05738830566406, 0.0, 0.0, -0.1956939697265625, 0, 0, 0, 0, 0, 0, 9362.0, 30146.0, 35388.0, 9362.0, 8.33057975769043, -0.1529778391122818, 0.10464825481176376, -0.0499894805252552, 0.9980608224868774, 0.036972977221012115, 0.02759534865617752, -0.06113005802035332, -0.23671722412109375, 1.4765625, 0.0, 0.0197906494140625, 1.50146484375
20158, 41.71086120605469, 84.29950714111328, -39.88399124145508, 0.0, 0.0, -42.0575065612793, 0.0, 0.0, -0.0118255615234375, 0, 0, 0, 0, 0, 0, 9362.0, 30146.0, 35388.0, 9362.0, 8.33057975769043, 0.13699433207511902, -0.034352563321590424, 0.05928031727671623, 0.9980608224868774, 0.036972977221012115, 0.02759534865617752, -0.06113005802035332, -0.23671722412109375, 1.4765625, 0.0, 0.0197906494140625, 1.494873046875
20168, 41.752967834472656, 84.30095672607422, -39.92499923706055, 0.0, 0.0, -42.057613372802734, 0.0, 0.0, -0.01068115234375, 0, 0, 0, 0, 0, 0, 9362.0, 30146.0, 35388.0, 9362.0, 8.33057975769043, 0.16905026137828827, 0.1793058067560196, -0.11880657076835632, 0.9980608224868774, 0.036972977221012115, 0.02759534865617752, -0.06113005802035332, -0.23671722412109375, 1.4765625, 0.0, 0.05181884765625, 1.494873046875
20178, 41.84531021118164, 84.30480194091797, -40.018104553222656, 0.0, 0.0, -42.06317901611328, 0.0, 0.0, -0.5565643310546875, 0, 0, 0, 0, 0, 0, 9362.0, 30146.0, 35388.0, 9362.0, 8.33057975769043, 0.16905026137828827, 0.1793058067560196, -0.11880657076835632, 1.0016297101974487, 0.035927023738622665, 0.027506377547979355, -0.06113005802035332, -0.23671722412109375, 1.4765625, 0.0, 0.016387939453125, 1.494873046875
20188, 41.888954162597656, 84.30635833740234, -40.06202697753906, 0.0, 0.0, -42.06818389892578, 0.0, 0.0, -0.50048828125, 0, 0, 0, 0, 0, 0, 9362.0, 30146.0, 35388.0, 9362.0, 8.33057975769043, -0.13982747495174408, 0.06606854498386383, 0.002499095629900694, 1.0023101568222046, 0.03601951524615288, 0.02782399207353592, -0.06113005802035332, -0.23671722412109375, 1.4765625, 0.0, 0.016387939453125, 1.494873046875
20198, 41.9279899597168, 84.30628967285156, -40.09941864013672, 0.0, 0.0, -42.07651138305664, 0.0, 0.0, -0.8327484130859375, 0, 0, 0, 0, 0, 0, 9362.0, 30146.0, 35388.0, 9362.0, 8.33057975769043, 0.2473098784685135, 0.4257581830024719, -0.1294754296541214, 1.0023101568222046, 0.03601951524615288, 0.02782399207353592, -0.06113005802035332, -0.23671722412109375, 1.4765625, 0.0, 0.016387939453125, 1.494140625
20218, 42.08793640136719, 84.30921173095703, -40.26029586791992, 0.0, 0.0, -42.09074783325195, 0.0, 0.0, -0.6740570068359375, 0, 0, 0, 0, 0, 0, 9362.0, 30146.0, 35388.0, 9362.0, 8.33057975769043, -0.07696722447872162, -0.22163374722003937, -0.29071518778800964, 0.9981708526611328, 0.03776184841990471, 0.02639053761959076, -0.06757412850856781, -0.13815879821777344, 1.484619140625, 0.0, 0.0166168212890625, 1.49560546875
20228, 42.101139068603516, 84.31096649169922, -40.272972106933594, 0.0, 0.0, -42.09682083129883, 0.0, 0.0, -0.6072998046875, 0, 0, 0, 0, 0, 0, 9362.0, 30146.0, 35388.0, 9362.0, 8.33057975769043, -0.014731747098267078, 0.17654116451740265, 0.2542950212955475, 0.9995766282081604, 0.0367412231862545, 0.026791179552674294, -0.06757412850856781, -0.13815879821777344, 1.484619140625, 0.0, 0.0166168212890625, 1.49560546875
20238, 42.15937042236328, 84.31365966796875, -40.3302116394043, 0.0, 0.0, -42.099002838134766, 0.0, 0.0, -0.21820068359375, 0, 0, 0, 0, 0, 0, 9362.0, 30146.0, 35388.0, 9362.0, 8.33057975769043, -0.08138769865036011, 0.10106414556503296, -0.004793594125658274, 0.9983228445053101, 0.03605278953909874, 0.025489501655101776, -0.06757412850856781, -0.13815879821777344, 1.484619140625, 0.0, 0.0166168212890625, 1.49560546875
20248, 42.205204010009766, 84.31624603271484, -40.37773132324219, 0.0, 0.0, -42.10096740722656, 0.0, 0.0, -0.1964569091796875, 0, 0, 0, 0, 0, 0, 9362.0, 30146.0, 35388.0, 9362.0, 8.33057975769043, -0.3447631597518921, -0.12911564111709595, 0.21684572100639343, 0.998201847076416, 0.03551467880606651, 0.027090994641184807, -0.06757412850856781, -0.13815879821777344, 1.484619140625, 0.0, 0.0166168212890625, 1.49560546875
20258, 42.27244567871094, 84.31796264648438, -40.444984436035156, 0.0, 0.0, -42.098636627197266, 0.0, 0.0, 0.2330780029296875, 0, 0, 0, 0, 0, 0, 9362.0, 30146.0, 35388.0, 9362.0, 8.33057975769043, 0.14119063317775726, 0.1974395364522934, -0.06912816315889359, 0.998201847076416, 0.03551467880606651, 0.027090994641184807, -0.06757412850856781, -0.13815879821777344, 1.484619140625, 0.0, 0.0166168212890625, 1.49560546875
20268, 42.35607147216797, 84.31945037841797, -40.52912521362305, 0.0, 0.0, -42.09653854370117, 0.0, 0.0, 0.209808349609375, 0, 0, 0, 0, 0, 0, 9362.0, 30146.0, 35388.0, 9362.0, 8.33057975769043, -0.0035660574212670326, -0.2828995883464813, -0.20612233877182007, 1.00110924243927, 0.0378706231713295, 0.02882440574467182, -0.06757412850856781, -0.13815879821777344, 1.484619140625, 0.0, 0.0314483642578125, 1.49560546875
20278, 42.433048248291016, 84.32183074951172, -40.605690002441406, 0.0, 0.0, -42.096561431884766, 0.0, 0.0, -0.002288818359375, 0, 0, 0, 0, 0, 0, 9362.0, 30146.0, 35388.0, 9362.0, 8.33057975769043, -0.009764107875525951, 0.001335694920271635, -0.10041686147451401, 1.0021255016326904, 0.03805401176214218, 0.02739972062408924, -0.06757412850856781, -0.13815879821777344, 1.484619140625, 0.0, 0.0173492431640625, 1.49560546875
20288, 42.46036911010742, 84.32360076904297, -40.634124755859375, 0.0, 0.0, -42.096580505371094, 0.0, 0.0, -0.0019073486328125, 0, 0, 0, 0, 0, 0, 9362.0, 30146.0, 35388.0, 9362.0, 8.33057975769043, -0.20042429864406586, -0.06848981976509094, 0.08357636630535126, 0.9992437362670898, 0.03882495313882828, 0.02709106355905533, -0.06757412850856781, -0.13815879821777344, 1.484619140625, 0.0, 0.0173492431640625, 1.49560546875
20298, 42.5096435546875, 84.3282241821289, -40.68366241455078, 0.0, 0.0, -42.096580505371094, 0.0, 0.0, -0.0019073486328125, 0, 0, 0, 0, 0, 0, 9362.0, 30146.0, 35388.0, 9362.0, 8.33057975769043, -0.10325460135936737, -0.2416580766439438, 0.29619595408439636, 0.9992437362670898, 0.03882495313882828, 0.02709106355905533, -0.06757412850856781, -0.13815879821777344, 1.484619140625, 0.0, 0.0173492431640625, 1.496337890625
20318, 42.670047760009766, 84.33194732666016, -40.8436279296875, 0.0, 0.0, -42.1071662902832, 0.0, 0.0, -0.795745849609375, 0, 0, 0, 0, 0, 0, 9362.0, 30146.0, 35388.0, 9362.0, 8.33057975769043, -0.224547877907753, -0.077113576233387, -0.15957605838775635, 0.9984897375106812, 0.03770392760634422, 0.030304765328764915, -0.06195257976651192, -0.10231781005859375, 1.487548828125, 0.0, 0.0154266357421875, 1.49853515625
20328, 42.69987869262695, 84.33381652832031, -40.87305450439453, 0.0, 0.0, -42.11432647705078, 0.0, 0.0, -0.7160186767578125, 0, 0, 0, 0, 0, 0, 9362.0, 30146.0, 35388.0, 9362.0, 8.33057975769043, -0.03412596881389618, 0.07544941455125809, 0.12563811242580414, 0.9984897375106812, 0.03770392760634422, 0.030304765328764915, -0.06195257976651192, -0.10231781005859375, 1.487548828125, 0.0, 0.0154266357421875, 1.49853515625
20338, 42.76028060913086, 84.33700561523438, -40.93429183959961, 0.0, 0.0, -42.115848541259766, 0.0, 0.0, -0.1522064208984375, 0, 0, 0, 0, 0, 0, 9362.0, 30146.0, 35388.0, 9362.0, 8.33057975769043, -0.12540146708488464, -0.29893043637275696, 0.08552312850952148, 0.9988861083984375, 0.035142648965120316, 0.0269177109003067, -0.06195257976651192, -0.10231781005859375, 1.487548828125, 0.0, 0.06591796875, 1.49853515625
20348, 42.76700973510742, 84.33846282958984, -40.94310760498047, 0.0, 0.0, -42.117218017578125, 0.0, 0.0, -0.1369476318359375, 0, 0, 0, 0, 0, 0, 9362.0, 30146.0, 35388.0, 9362.0, 8.33057975769043, -0.2947472333908081, 0.18346822261810303, 0.17388230562210083, 0.9992716908454895, 0.03837006166577339, 0.026929935440421104, -0.06195257976651192, -0.10231781005859375, 1.487548828125, 0.0, 0.06591796875, 1.49853515625
20368, 42.82151412963867, 84.3413314819336, -40.9984016418457, 0.0, 0.0, -42.13151168823242, 0.0, 0.0, -0.6771087646484375, 0, 0, 0, 0, 0, 0, 9362.0, 30146.0, 35388.0, 9362.0, 8.33057975769043, -0.04672957956790924, 0.15378446877002716, 0.26185595989227295, 1.0013028383255005, 0.0385127030313015, 0.02710064873099327, -0.06195257976651192, -0.10231781005859375, 1.487548828125, 0.0, 0.06591796875, 1.49853515625
20378, 42.881099700927734, 84.34281921386719, -41.05837631225586, 0.0, 0.0, -42.14033889770508, 0.0, 0.0, -0.882720947265625, 0, 0, 0, 0, 0, 0, 9362.0, 30146.0, 35388.0, 9362.0, 8.33057975769043, -0.08219975233078003, 0.19070878624916077, 0.019118845462799072, 0.9994267225265503, 0.03734248876571655, 0.02679847553372383, -0.06195257976651192, -0.10231781005859375, 1.487548828125, 0.0, 0.06591796875, 1.49853515625
20388, 42.93485641479492, 84.34410095214844, -41.111942291259766, 0.0, 0.0, -42.148284912109375, 0.0, 0.0, -0.7946014404296875, 0, 0, 0, 0, 0, 0, 9362.0, 30146.0, 35388.0, 9362.0, 8.33057975769043, -0.053893256932497025, -0.001893687411211431, -0.015186008997261524, 0.9994267225265503, 0.03734248876571655, 0.02679847553372383, -0.06195257976651192, -0.10231781005859375, 1.487548828125, 0.0, 0.06591796875, 1.49853515625
20398, 43.03430938720703, 84.34628295898438, -41.211307525634766, 0.0, 0.0, -42.1505126953125, 0.0, 0.0, -0.2227783203125, 0, 0, 0, 0, 0, 0, 9362.0, 30146.0, 35388.0, 9362.0, 8.33057975769043, 0.1552078127861023, -0.40622133016586304, 0.017893310636281967, 0.9983344078063965, 0.037560734897851944, 0.02660294622182846, -0.06195257976651192, -0.10231781005859375, 1.487548828125, 0.0, 0.03082275390625, 1.49853515625
20418, 43.105892181396484, 84.34971618652344, -41.283935546875, 0.0, 0.0, -42.15251922607422, 0.0, 0.0, -0.200653076171875, 0, 0, 0, 0, 0, 0, 9362.0, 30146.0, 35388.0, 9362.0, 8.33057975769043, -0.03967409208416939, 0.2139434963464737, 0.23252207040786743, 1.0002511739730835, 0.03607957065105438, 0.029816903173923492, -0.06314767897129059, 0.06792068481445312, 1.50146484375, 0.0, 0.03082275390625, 1.497802734375
20428, 43.09718322753906, 84.35051727294922, -41.27535629272461, 0.0, 0.0, -42.15750503540039, 0.0, 0.0, -0.2361297607421875, 0, 0, 0, 0, 0, 0, 9362.0, 30146.0, 35388.0, 9362.0, 8.33057975769043, 0.0219227634370327, 0.33212384581565857, 0.18747226893901825, 1.0002511739730835, 0.03607957065105438, 0.029816903173923492, -0.06314767897129059, 0.06792068481445312, 1.50146484375, 0.0, 0.03082275390625, 1.497802734375
20438, 43.16474151611328, 84.35155487060547, -41.34223937988281, 0.0, 0.0, -42.156349182128906, 0.0, 0.0, 0.1155853271484375, 0, 0, 0, 0, 0, 0, 9362.0, 30146.0, 35388.0, 9362.0, 8.33057975769043, -0.1021893247961998, 0.013461566530168056, -0.09754185378551483, 0.9992019534111023, 0.038405392318964005, 0.026508187875151634, -0.06314767897129059, 0.06792068481445312, 1.50146484375, 0.0, 0.0238189697265625, 1.497802734375
20448, 43.176300048828125, 84.35236358642578, -41.352298736572266, 0.0, 0.0, -42.155311584472656, 0.0, 0.0, 0.103759765625, 0, 0, 0, 0, 0, 0, 9362.0, 30146.0, 35388.0, 9362.0, 8.33057975769043, -0.1021893247961998, 0.013461566530168056, -0.09754185378551483, 0.9982831478118896, 0.037945255637168884, 0.024856945499777794, -0.06314767897129059, 0.06792068481445312, 1.50146484375, 0.0, 0.0238189697265625, 1.497802734375
20458, 43.27573776245117, 84.3537368774414, -41.451725006103516, 0.0, 0.0, -42.15492248535156, 0.0, 0.0, 0.038909912109375, 0, 0, 0, 0, 0, 0, 9362.0, 30146.0, 35388.0, 9362.0, 8.33057975769043, -0.19258412718772888, -0.111606664955616, -0.11503423750400543, 0.9982831478118896, 0.037945255637168884, 0.024856945499777794, -0.06314767897129059, 0.06792068481445312, 1.50146484375, 0.0, 0.0291900634765625, 1.497802734375
20468, 43.37540817260742, 84.35562133789062, -41.551353454589844, 0.0, 0.0, -42.154571533203125, 0.0, 0.0, 0.03509521484375, 0, 0, 0, 0, 0, 0, 9362.0, 30146.0, 35388.0, 9362.0, 8.33057975769043, -0.07290741801261902, -0.4722074568271637, -0.2027588188648224, 0.9982831478118896, 0.037945255637168884, 0.024856945499777794, -0.06314767897129059, 0.06792068481445312, 1.50146484375, 0.0, 0.063079833984375, 1.497802734375
20478, 43.45815658569336, 84.35760498046875, -41.633480072021484, 0.0, 0.0, -42.14906311035156, 0.0, 0.0, 0.55084228515625, 0, 0, 0, 0, 0, 0, 9362.0, 30146.0, 35388.0, 9362.0, 8.33057975769043, -0.0013722211588174105, -0.07317077368497849, -0.007776301819831133, 0.9982831478118896, 0.037945255637168884, 0.024856945499777794, -0.06314767897129059, 0.06792068481445312, 1.50146484375, 0.0, 0.03314208984375, 1.497802734375
20488, 43.457088470458984, 84.35919952392578, -41.63304901123047, 0.0, 0.0, -42.14410400390625, 0.0, 0.0, 0.49591064453125, 0, 0, 0, 0, 0, 0, 9362.0, 30146.0, 35388.0, 9362.0, 8.33057975769043, -0.14644861221313477, 0.22315578162670135, 0.3143508732318878, 0.9982831478118896, 0.037945255637168884, 0.024856945499777794, -0.06314767897129059, 0.06792068481445312, 1.50146484375, 0.0, 0.0446624755859375, 1.497802734375
20498, 43.505489349365234, 84.36083221435547, -41.681331634521484, 0.0, 0.0, -42.14046096801758, 0.0, 0.0, 0.3643035888671875, 0, 0, 0, 0, 0, 0, 9362.0, 30146.0, 35388.0, 9362.0, 8.33057975769043, -0.14644861221313477, 0.22315578162670135, 0.3143508732318878, 0.9994518756866455, 0.03747018426656723, 0.028888676315546036, -0.06314767897129059, 0.06792068481445312, 1.50146484375, 0.0, 0.0314483642578125, 1.497802734375
20518, 43.60203170776367, 84.36465454101562, -41.77870559692383, 0.0, 0.0, -42.13177490234375, 0.0, 0.0, 0.540924072265625, 0, 0, 0, 0, 0, 0, 9362.0, 30146.0, 35388.0, 9362.0, 8.33057975769043, -0.02882288582623005, 0.34183141589164734, 0.17584361135959625, 0.9992420673370361, 0.03752819076180458, 0.027394918724894524, -0.04775255173444748, -0.12023735046386719, 1.486083984375, 0.0, 0.0314483642578125, 1.5
20528, 43.640846252441406, 84.36650085449219, -41.81787872314453, 0.0, 0.0, -42.12690734863281, 0.0, 0.0, 0.48675537109375, 0, 0, 0, 0, 0, 0, 9362.0, 30146.0, 35388.0, 9362.0, 8.33057975769043, 0.051298242062330246, -0.04839075356721878, 0.2132277488708496, 0.9969146847724915, 0.03831763565540314, 0.026871610432863235, -0.04775255173444748, -0.12023735046386719, 1.486083984375, 0.0, 0.0314483642578125, 1.5
20538, 43.67353820800781, 84.36875915527344, -41.85100555419922, 0.0, 0.0, -42.1249885559082, 0.0, 0.0, 0.1918792724609375, 0, 0, 0, 0, 0, 0, 9362.0, 30146.0, 35388.0, 9362.0, 8.33057975769043, -0.10669657588005066, 0.06336525082588196, 0.18563157320022583, 0.9969146847724915, 0.03831763565540314, 0.026871610432863235, -0.04775255173444748, -0.12023735046386719, 1.486083984375, 0.0, 0.0314483642578125, 1.4970703125
20548, 43.6766357421875, 84.36956024169922, -41.85308074951172, 0.0, 0.0, -42.12326431274414, 0.0, 0.0, 0.17242431640625, 0, 0, 0, 0, 0, 0, 9362.0, 30146.0, 35388.0, 9362.0, 8.33057975769043, 0.17227229475975037, 0.16953915357589722, 0.12503428757190704, 0.998227059841156, 0.03728904575109482, 0.02688540890812874, -0.04775255173444748, -0.12023735046386719, 1.486083984375, 0.0, 0.0314483642578125, 1.4970703125
20558, 43.75604248046875, 84.37178802490234, -41.93363952636719, 0.0, 0.0, -42.12799835205078, 0.0, 0.0, -0.4734039306640625, 0, 0, 0, 0, 0, 0, 9362.0, 30146.0, 35388.0, 9362.0, 8.33057975769043, 0.06924863904714584, -0.01997760310769081, -0.09012261033058167, 0.9987244009971619, 0.037508524954319, 0.026696909219026566, -0.04775255173444748, -0.12023735046386719, 1.486083984375, 0.0, 0.0162506103515625, 1.4970703125
20568, 43.79607009887695, 84.37374114990234, -41.973052978515625, 0.0, 0.0, -42.132259368896484, 0.0, 0.0, -0.4261016845703125, 0, 0, 0, 0, 0, 0, 9362.0, 30146.0, 35388.0, 9362.0, 8.33057975769043, 0.1475178450345993, -0.11916866153478622, 0.11996186524629593, 0.9987244009971619, 0.037508524954319, 0.026696909219026566, -0.04775255173444748, -0.12023735046386719, 1.486083984375, 0.0, 0.085052490234375, 1.4970703125
20588, 43.84712219238281, 84.37628936767578, -42.0235710144043, 0.0, 0.0, -42.121368408203125, 0.0, 0.0, 0.5157470703125, 0, 0, 0, 0, 0, 0, 9362.0, 30146.0, 35388.0, 9362.0, 8.33057975769043, 0.03989201411604881, -0.04026308283209801, 0.0990552306175232, 0.9987244009971619, 0.037508524954319, 0.026696909219026566, -0.04775255173444748, -0.12023735046386719, 1.486083984375, 0.0, 0.05950927734375, 1.4970703125
20598, 43.903743743896484, 84.37854766845703, -42.08065414428711, 0.0, 0.0, -42.121368408203125, 0.0, 0.0, 0.5157470703125, 0, 0, 0, 0, 0, 0, 9362.0, 30146.0, 35388.0, 9362.0, 8.33057975769043, -0.03264779597520828, -0.14431293308734894, 0.09165771305561066, 0.9984502792358398, 0.03746669366955757, 0.02764359675347805, -0.04775255173444748, -0.12023735046386719, 1.486083984375, 0.0, 0.05950927734375, 1.49853515625
20618, 43.97193908691406, 84.38172912597656, -42.14777755737305, 0.0, 0.0, -42.119300842285156, 0.0, 0.0, 0.0980377197265625, 0, 0, 0, 0, 0, 0, 9362.0, 30146.0, 35388.0, 9362.0, 8.33057975769043, -0.21194934844970703, 0.1729191690683365, 0.060364387929439545, 0.998346745967865, 0.03690047189593315, 0.027261462062597275, -0.06871172785758972, -0.22775840759277344, 1.477294921875, 0.0, 0.05950927734375, 1.50146484375
20628, 44.015071868896484, 84.38301086425781, -42.190670013427734, 0.0, 0.0, -42.13009262084961, 0.0, 0.0, -0.51116943359375, 0, 0, 0, 0, 0, 0, 9362.0, 30146.0, 35388.0, 9362.0, 8.33057975769043, 0.01865786500275135, -0.045873407274484634, -0.05198284611105919, 0.9996384978294373, 0.03607892245054245, 0.028023354709148407, -0.06871172785758972, -0.22775840759277344, 1.477294921875, 0.0, 0.0678253173828125, 1.50146484375
20638, 44.10725021362305, 84.3846206665039, -42.281951904296875, 0.0, 0.0, -42.13009262084961, 0.0, 0.0, -0.51116943359375, 0, 0, 0, 0, 0, 0, 9362.0, 30146.0, 35388.0, 9362.0, 8.33057975769043, 0.016966022551059723, 0.2094704657793045, -0.36172956228256226, 0.9996384978294373, 0.03607892245054245, 0.028023354709148407, -0.06871172785758972, -0.22775840759277344, 1.477294921875, 0.0, 0.0678253173828125, 1.491943359375
20648, 44.1075325012207, 84.38567352294922, -42.28340530395508, 0.0, 0.0, -42.13727569580078, 0.0, 0.0, -0.34027099609375, 0, 0, 0, 0, 0, 0, 9362.0, 30146.0, 35388.0, 9362.0, 8.33057975769043, -0.1354418247938156, 0.40066850185394287, 0.19096334278583527, 0.9983554482460022, 0.03688820078969002, 0.02535676397383213, -0.06871172785758972, -0.22775840759277344, 1.477294921875, 0.0, 0.01910400390625, 1.491943359375
20658, 44.13404083251953, 84.38677978515625, -42.31144714355469, 0.0, 0.0, -42.13727569580078, 0.0, 0.0, -0.34027099609375, 0, 0, 0, 0, 0, 0, 9362.0, 30146.0, 35388.0, 9362.0, 8.33057975769043, -0.07568429410457611, 0.234975203871727, 0.14804978668689728, 0.9983554482460022, 0.03688820078969002, 0.02535676397383213, -0.06871172785758972, -0.22775840759277344, 1.477294921875, 0.0, 0.01910400390625, 1.494873046875
20668, 44.16730880737305, 84.38796997070312, -42.344276428222656, 0.0, 0.0, -42.13998031616211, 0.0, 0.0, -0.128173828125, 0, 0, 0, 0, 0, 0, 9362.0, 30146.0, 35388.0, 9362.0, 8.33057975769043, 0.036890432238578796, 0.2159123718738556, 0.05243469029664993, 0.9997689127922058, 0.03652522340416908, 0.02616991102695465, -0.06871172785758972, -0.22775840759277344, 1.477294921875, 0.0, 0.098236083984375, 1.494873046875
20678, 44.213321685791016, 84.39055633544922, -42.39141845703125, 0.0, 0.0, -42.13998031616211, 0.0, 0.0, -0.128173828125, 0, 0, 0, 0, 0, 0, 9362.0, 30146.0, 35388.0, 9362.0, 8.33057975769043, -0.10149887949228287, 0.11942937225103378, 0.2771410346031189, 0.9997689127922058, 0.03652522340416908, 0.02616991102695465, -0.06871172785758972, -0.22775840759277344, 1.477294921875, 0.0, 0.098236083984375, 1.49853515625
20688, 44.2216911315918, 84.39141845703125, -42.400733947753906, 0.0, 0.0, -42.13801574707031, 0.0, 0.0, 0.09307861328125, 0, 0, 0, 0, 0, 0, 9362.0, 30146.0, 35388.0, 9362.0, 8.33057975769043, 0.005067682359367609, 0.3048306405544281, 0.15232549607753754, 0.9997689127922058, 0.03652522340416908, 0.02616991102695465, -0.06871172785758972, -0.22775840759277344, 1.477294921875, 0.0, 0.0621337890625, 1.49853515625
20698, 44.2764778137207, 84.393798828125, -42.45553970336914, 0.0, 0.0, -42.137176513671875, 0.0, 0.0, 0.08392333984375, 0, 0, 0, 0, 0, 0, 9362.0, 30146.0, 35388.0, 9362.0, 8.33057975769043, 0.10655508935451508, -0.1516895741224289, 0.024066859856247902, 0.9997689127922058, 0.03652522340416908, 0.02616991102695465, -0.06871172785758972, -0.22775840759277344, 1.477294921875, 0.0, 0.0621337890625, 1.49560546875
20718, 44.37611389160156, 84.39607238769531, -42.556495666503906, 0.0, 0.0, -42.13738250732422, 0.0, 0.0, -0.09613037109375, 0, 0, 0, 0, 0, 0, 9362.0, 30146.0, 35388.0, 9362.0, 8.33057975769043, -0.19673998653888702, 0.518884539604187, -0.042079027742147446, 0.9997689127922058, 0.03652522340416908, 0.02616991102695465, -0.04607858508825302, -0.07543754577636719, 1.48974609375, 0.0, 0.0621337890625, 1.49267578125
20728, 44.414249420166016, 84.39779663085938, -42.595272064208984, 0.0, 0.0, -42.138248443603516, 0.0, 0.0, -0.0865936279296875, 0, 0, 0, 0, 0, 0, 9362.0, 30146.0, 35388.0, 9362.0, 8.33057975769043, -0.19673998653888702, 0.518884539604187, -0.042079027742147446, 0.9986319541931152, 0.0369730070233345, 0.0251351036131382, -0.04607858508825302, -0.07543754577636719, 1.48974609375, 0.0, 0.0766143798828125, 1.49267578125
20738, 44.43254089355469, 84.39901733398438, -42.61334991455078, 0.0, 0.0, -42.138248443603516, 0.0, 0.0, -0.0865936279296875, 0, 0, 0, 0, 0, 0, 9362.0, 30146.0, 35388.0, 9362.0, 8.33057975769043, 0.12559469044208527, 0.21003399789333344, 0.18279670178890228, 0.9986319541931152, 0.0369730070233345, 0.0251351036131382, -0.04607858508825302, -0.07543754577636719, 1.48974609375, 0.0, 0.0766143798828125, 1.494140625
