timeTick, roll, pitch, yaw, stateX, stateY, stateZ, stateVX, stateVY, stateVZ, otX0, otY0, otZ0, otRoll0, otPitch0, otYaw0, left wing, pitch motor, yaw motor, right wing, voltage, roll rate, pitch rate, yaw rate, A_x, A_y, A_z, current, i_raw, v_raw, airflow_voltage, airflow_speed, pot_Pitch, voltage_KF, pkk, non_kf
14931, 3.7764174938201904, 64.45625305175781, -2.4566550254821777, 0, 0, 0, 0, 0, 0, 0, 0, 0, 0, 0, 0, 0, 0, 0, 0, 0, 0, 0, 0, 0, 0, 0, 0, 0, 0, 0, 0, 0, 0, 0, 0
14941, 3.7918925285339355, 64.52893829345703, -2.471417188644409, 0.0, 0.0, -23.123456954956055, 0.0, 0.0, -0.3749847412109375, 0, 0, 0, 0, 0, 0, 9362.0, 30146.0, 35388.0, 9362.0, 0, -0.015487776137888432, -0.34642642736434937, -0.09216933697462082, 1.000004768371582, 0.03263096138834953, 0.02958429977297783, 0, 0, 0, 0, 0, 0, 0, 0, 0
14951, 3.8080103397369385, 64.63374328613281, -2.4868178367614746, 0.0, 0.0, -23.13273811340332, 0.0, 0.0, -0.9281158447265625, 0, 0, 0, 0, 0, 0, 9362.0, 30146.0, 35388.0, 9362.0, 0, -0.08902250230312347, 0.20784063637256622, 0.03230585530400276, 0.9999942183494568, 0.030762849375605583, 0.031344782561063766, 0, 0, 0, 1.409912109375, 0.0501251220703125, 0, 0.2112332582473755, 3.453011959209107e-05, 0.0
14961, 3.8215341567993164, 64.70488739013672, -2.4991776943206787, 0.0, 0.0, -23.141019821166992, 0.0, 0.0, -0.8281707763671875, 0, 0, 0, 0, 0, 0, 9362.0, 30146.0, 35388.0, 9362.0, 0, -0.008904434740543365, -0.14098769426345825, -0.05484504625201225, 0.9995690584182739, 0.030430659651756287, 0.032754410058259964, 0, 0, 0, 1.404052734375, 0.04400634765625, 1.48828125, 0.21050427854061127, 3.4510609111748636e-05, 0.0
14971, 3.841561794281006, 64.80990600585938, -2.5183186531066895, 0.0, 0.0, -23.14289665222168, 0.0, 0.0, -0.18768310546875, 0, 0, 0, 0, 0, 0, 9362.0, 30146.0, 35388.0, 9362.0, 0, -0.2457825243473053, 0.18953286111354828, -0.02404269017279148, 0.9977527260780334, 0.030605245381593704, 0.031207596883177757, 0, 0, 0, 1.28466796875, 0.07440185546875, 1.48828125, 0.20977821946144104, 3.4491233236622065e-05, 0.0
14981, 3.8510472774505615, 64.88095092773438, -2.526244640350342, 0.0, 0.0, -23.144514083862305, 0.0, 0.0, -0.1617431640625, 0, 0, 0, 0, 0, 0, 9362.0, 30146.0, 35388.0, 9362.0, 0, -0.09797775745391846, 0.12123040109872818, 0.41274142265319824, 0.9992808699607849, 0.029656369239091873, 0.029942812398076057, 0, 0, 0, 1.333740234375, 0.0189361572265625, 1.49267578125, 0.2090550661087036, 3.447199196671136e-05, 0.0
14991, 3.8658103942871094, 64.9866943359375, -2.539001941680908, 0.0, 0.0, -23.151880264282227, 0.0, 0.0, -0.7366180419921875, 0, 0, 0, 0, 0, 0, 9362.0, 30146.0, 35388.0, 9362.0, 0, -0.026980184018611908, -0.17925038933753967, 0.14855748414993286, 1.0007615089416504, 0.031242646276950836, 0.03125215694308281, 0, 0, 0, 1.3388671875, 0.017120361328125, 1.49267578125, 0.208334818482399, 3.4452881664037704e-05, 0.0
15001, 3.875255823135376, 65.05481719970703, -2.547095775604248, 0.0, 0.0, -23.15843963623047, 0.0, 0.0, -0.6559371948242188, 0, 0, 0, 0, 0, 0, 9362.0, 30146.0, 35388.0, 9362.0, 0, 0.12401480972766876, 0.22022639214992523, 0.20887163281440735, 0.9991777539253235, 0.030324796214699745, 0.030218616127967834, 0, 0, 0, 1.430419921875, 0.0756378173828125, 1.493408203125, 0.20761744678020477, 3.443390232860111e-05, 0.0
15011, 3.89981746673584, 65.16109466552734, -2.5711934566497803, 0.0, 0.0, -23.16177749633789, 0.0, 0.0, -0.3337860107421875, 0, 0, 0, 0, 0, 0, 9362.0, 30146.0, 35388.0, 9362.0, 0, 0.032381631433963776, -0.27641913294792175, -0.4211083948612213, 1.0005463361740112, 0.03078780323266983, 0.03101600892841816, 0, 0, 0, 1.4091796875, 0.04937744140625, 1.493408203125, 0.20690293610095978, 3.4415053960401565e-05, 0.0
15021, 3.913395404815674, 65.22999572753906, -2.583284854888916, 0.0, 0.0, -23.16471290588379, 0.0, 0.0, -0.29354095458984375, 0, 0, 0, 0, 0, 0, 9362.0, 30146.0, 35388.0, 9362.0, 0, 0.1699099838733673, 0.08352997899055481, -0.020896686241030693, 1.000855565071106, 0.03009241446852684, 0.03183509409427643, 0, 0, 0, 1.439208984375, 0.0882415771484375, 1.48828125, 0.2061912715435028, 3.439633655943908e-05, 0.0
15031, 3.932935953140259, 65.33470916748047, -2.6027348041534424, 0.0, 0.0, -23.162328720092773, 0.0, 0.0, 0.2384185791015625, 0, 0, 0, 0, 0, 0, 9362.0, 30146.0, 35388.0, 9362.0, 8.350414276123047, -0.18892847001552582, 0.05815819278359413, 0.005418179091066122, 1.0000234842300415, 0.029737109318375587, 0.03198954835534096, -0.07741619646549225, -0.11127853393554688, 1.48681640625, 1.4736328125, 0.1452178955078125, 1.48828125, 0.20548243820667267, 3.437774648773484e-05, 0.0
15041, 3.9453799724578857, 65.405517578125, -2.6140220165252686, 0.0, 0.0, -23.160112380981445, 0.0, 0.0, 0.2216339111328125, 0, 0, 0, 0, 0, 0, 9362.0, 30146.0, 35388.0, 9362.0, 8.350414276123047, 0.012404143810272217, -0.2488751858472824, 0.09464255720376968, 0.9991327524185181, 0.030273571610450745, 0.031377214938402176, -0.07741619646549225, -0.11127853393554688, 1.48681640625, 1.235595703125, 0.214599609375, 1.491943359375, 0.20477642118930817, 3.435928374528885e-05, 0.0
15051, 3.9702646732330322, 65.50922393798828, -2.636049509048462, 0.0, 0.0, -23.15883445739746, 0.0, 0.0, 0.1277923583984375, 0, 0, 0, 0, 0, 0, 9362.0, 30146.0, 35388.0, 9362.0, 8.350414276123047, 0.10349614173173904, -0.24532487988471985, -0.10439354926347733, 0.9988669157028198, 0.03084494173526764, 0.030683275312185287, -0.07741619646549225, -0.11127853393554688, 1.48681640625, 1.370361328125, 0.0194549560546875, 1.491943359375, 0.2040732055902481, 3.434094833210111e-05, 0.0
15061, 3.9876725673675537, 65.57799530029297, -2.652413845062256, 0.0, 0.0, -23.157615661621094, 0.0, 0.0, 0.12187957763671875, 0, 0, 0, 0, 0, 0, 9362.0, 30146.0, 35388.0, 9362.0, 8.350414276123047, 0.06267142295837402, -0.048832375556230545, -0.20162653923034668, 0.9985715746879578, 0.03160959854722023, 0.030006110668182373, -0.07741619646549225, -0.11127853393554688, 1.48681640625, 1.353515625, 0.0154571533203125, 1.49267578125, 0.2033727765083313, 3.4322736610192806e-05, 0.0
15071, 4.007403373718262, 65.68002319335938, -2.6704366207122803, 0.0, 0.0, -23.155872344970703, 0.0, 0.0, 0.1743316650390625, 0, 0, 0, 0, 0, 0, 9362.0, 30146.0, 35388.0, 9362.0, 8.350414276123047, -0.09592817723751068, 0.2578047513961792, -0.029125377535820007, 1.0004117488861084, 0.029994729906320572, 0.030464651063084602, -0.07741619646549225, -0.11127853393554688, 1.48681640625, 1.3447265625, 0.0158538818359375, 1.49267578125, 0.20267511904239655, 3.430465221754275e-05, 0.0
15081, 4.021890163421631, 65.74959564208984, -2.683811664581299, 0.0, 0.0, -23.154237747192383, 0.0, 0.0, 0.16345977783203125, 0, 0, 0, 0, 0, 0, 9362.0, 30146.0, 35388.0, 9362.0, 8.350414276123047, -0.003045317018404603, -0.28222474455833435, -0.017827387899160385, 0.999691903591156, 0.03145124018192291, 0.03162610903382301, -0.07741619646549225, -0.11127853393554688, 1.48681640625, 1.3505859375, 0.0153045654296875, 1.48974609375, 0.20198021829128265, 3.428669151617214e-05, 0.0
15091, 4.039910793304443, 65.85240173339844, -2.7019426822662354, 0.0, 0.0, -23.154306411743164, 0.0, 0.0, -0.006866455078125, 0, 0, 0, 0, 0, 0, 9362.0, 30146.0, 35388.0, 9362.0, 8.350414276123047, -0.29569029808044434, 0.003864264814183116, 0.043741609901189804, 0.9984430074691772, 0.03075651079416275, 0.030674142763018608, -0.07741619646549225, -0.11127853393554688, 1.48681640625, 1.360107421875, 0.0162506103515625, 1.48974609375, 0.20128805935382843, 3.426885086810216e-05, 0.0
15101, 4.056888580322266, 65.92046356201172, -2.7169387340545654, 0.0, 0.0, -23.154300689697266, 0.0, 0.0, 0.00057220458984375, 0, 0, 0, 0, 0, 0, 9362.0, 30146.0, 35388.0, 9362.0, 8.350414276123047, -0.002959847217425704, -0.14611674845218658, -0.19123618304729462, 0.9999426603317261, 0.03051859512925148, 0.03301526978611946, -0.07741619646549225, -0.11127853393554688, 1.48681640625, 1.42236328125, 0.0649566650390625, 1.49267578125, 0.20059862732887268, 3.4251133911311626e-05, 0.0
15111, 4.076418876647949, 66.02020263671875, -2.7327582836151123, 0.0, 0.0, -23.15993881225586, 0.0, 0.0, -0.563812255859375, 0, 0, 0, 0, 0, 0, 9362.0, 30146.0, 35388.0, 9362.0, 8.350414276123047, 0.1360897719860077, -0.17938028275966644, -0.103651262819767, 0.9987099170684814, 0.02953958511352539, 0.03306978940963745, -0.07741619646549225, -0.11127853393554688, 1.48681640625, 1.424560546875, 0.0678253173828125, 1.49267578125, 0.1999119073152542, 3.423354064580053e-05, 0.0
15121, 4.086187839508057, 66.0867919921875, -2.7413387298583984, 0.0, 0.0, -23.164947509765625, 0.0, 0.0, -0.5008697509765625, 0, 0, 0, 0, 0, 0, 9362.0, 30146.0, 35388.0, 9362.0, 8.350414276123047, -0.13537809252738953, -0.3585500717163086, 0.12281797081232071, 0.9975269436836243, 0.03142857179045677, 0.033472370356321335, -0.07741619646549225, -0.11127853393554688, 1.48681640625, 1.3037109375, 0.04412841796875, 1.48828125, 0.19922788441181183, 3.421606379561126e-05, 0.0
15131, 4.104780673980713, 66.1864013671875, -2.7582550048828125, 0.0, 0.0, -23.167171478271484, 0.0, 0.0, -0.2223968505859375, 0, 0, 0, 0, 0, 0, 9362.0, 30146.0, 35388.0, 9362.0, 8.350414276123047, -0.07283002138137817, 0.16217762231826782, 0.07145855575799942, 0.998373806476593, 0.028524821624159813, 0.03169429302215576, -0.0660785362124443, -0.1291980743408203, 1.4853515625, 1.430419921875, 0.0756378173828125, 1.48828125, 0.19854654371738434, 3.419870699872263e-05, 0.0
15141, 4.115253925323486, 66.25242614746094, -2.7672901153564453, 0.0, 0.0, -23.16910743713379, 0.0, 0.0, -0.19359588623046875, 0, 0, 0, 0, 0, 0, 9362.0, 30146.0, 35388.0, 9362.0, 8.350414276123047, 0.028494270518422127, 0.10219228267669678, 0.12129372358322144, 1.000205159187317, 0.03007795475423336, 0.03138250857591629, -0.0660785362124443, -0.1291980743408203, 1.4853515625, 1.3798828125, 0.0243377685546875, 1.4912109375, 0.19786788523197174, 3.418147025513463e-05, 0.0
15151, 4.132437229156494, 66.35132598876953, -2.78303599357605, 0.0, 0.0, -23.166927337646484, 0.0, 0.0, 0.21800994873046875, 0, 0, 0, 0, 0, 0, 9362.0, 30146.0, 35388.0, 9362.0, 8.350414276123047, -0.20690172910690308, -0.211247056722641, -0.013849698007106781, 0.9990342855453491, 0.030569681897759438, 0.03153066337108612, -0.0660785362124443, -0.1291980743408203, 1.4853515625, 1.3623046875, 0.0167999267578125, 1.4912109375, 0.19719187915325165, 3.4164349926868454e-05, 0.0
15161, 4.148860454559326, 66.41578674316406, -2.799020528793335, 0.0, 0.0, -23.164899826049805, 0.0, 0.0, 0.20275115966796875, 0, 0, 0, 0, 0, 0, 9362.0, 30146.0, 35388.0, 9362.0, 8.350414276123047, -0.13649846613407135, 0.16499194502830505, -0.2418704479932785, 0.9989906549453735, 0.03154661878943443, 0.03239491954445839, -0.0660785362124443, -0.1291980743408203, 1.4853515625, 1.430419921875, 0.0756378173828125, 1.48828125, 0.19651852548122406, 3.414734601392411e-05, 0.0
15171, 4.1737961769104, 66.51195526123047, -2.8221373558044434, 0.0, 0.0, -23.16434669494629, 0.0, 0.0, 0.0553131103515625, 0, 0, 0, 0, 0, 0, 9362.0, 30146.0, 35388.0, 9362.0, 8.350414276123047, -0.03678497299551964, 0.19842121005058289, -0.033030711114406586, 1.0005056858062744, 0.03145471215248108, 0.03065120242536068, -0.0660785362124443, -0.1291980743408203, 1.4853515625, 1.264892578125, 0.119354248046875, 1.48828125, 0.1958477944135666, 3.413045851630159e-05, 0.0
15181, 4.190525054931641, 66.57527160644531, -2.8380346298217773, 0.0, 0.0, -23.163785934448242, 0.0, 0.0, 0.0560760498046875, 0, 0, 0, 0, 0, 0, 9362.0, 30146.0, 35388.0, 9362.0, 8.350414276123047, -0.19321498274803162, 0.34140586853027344, -0.28943344950675964, 0.9983452558517456, 0.030691249296069145, 0.030884236097335815, -0.0660785362124443, -0.1291980743408203, 1.4853515625, 1.424560546875, 0.0678253173828125, 1.49267578125, 0.19517968595027924, 3.4113687434000894e-05, 0.0
15191, 4.211704730987549, 66.67264556884766, -2.8558757305145264, 0.0, 0.0, -23.16427993774414, 0.0, 0.0, -0.04940032958984375, 0, 0, 0, 0, 0, 0, 9362.0, 30146.0, 35388.0, 9362.0, 8.350414276123047, 0.07631978392601013, 0.08459736406803131, 0.20104733109474182, 0.9985617399215698, 0.03050469048321247, 0.02922152355313301, -0.0660785362124443, -0.1291980743408203, 1.4853515625, 1.339599609375, 0.0168914794921875, 1.49267578125, 0.1945141851902008, 3.409702912904322e-05, 0.0
15201, 4.225216865539551, 66.73698425292969, -2.8686535358428955, 0.0, 0.0, -23.164663314819336, 0.0, 0.0, -0.03833770751953125, 0, 0, 0, 0, 0, 0, 9362.0, 30146.0, 35388.0, 9362.0, 8.350414276123047, -0.0042707775719463825, 0.10298170894384384, 0.11400415003299713, 0.9990445971488953, 0.03108590841293335, 0.030851058661937714, -0.0660785362124443, -0.1291980743408203, 1.4853515625, 1.45166015625, 0.107452392578125, 1.493408203125, 0.1938512772321701, 3.408048360142857e-05, 0.0
15211, 4.243858337402344, 66.8299331665039, -2.8831615447998047, 0.0, 0.0, -23.163822174072266, 0.0, 0.0, 0.08411407470703125, 0, 0, 0, 0, 0, 0, 9362.0, 30146.0, 35388.0, 9362.0, 8.350414276123047, -0.01432864461094141, 0.3142666816711426, 0.116477832198143, 1.0005841255187988, 0.032323479652404785, 0.03289174288511276, -0.0660785362124443, -0.1291980743408203, 1.4853515625, 1.475830078125, 0.1492767333984375, 1.493408203125, 0.19319094717502594, 3.4064050851156935e-05, 0.0
15221, 4.260377883911133, 66.89677429199219, -2.899780035018921, 0.0, 0.0, -23.163005828857422, 0.0, 0.0, 0.081634521484375, 0, 0, 0, 0, 0, 0, 9362.0, 30146.0, 35388.0, 9362.0, 8.350414276123047, -0.20070886611938477, -0.5952295660972595, -0.3772743344306946, 0.9990203976631165, 0.030000826343894005, 0.03141651675105095, -0.0660785362124443, -0.1291980743408203, 1.4853515625, 1.405517578125, 0.0454254150390625, 1.487548828125, 0.19253318011760712, 3.404773087822832e-05, 0.0
15231, 4.2789812088012695, 66.9935073852539, -2.916200876235962, 0.0, 0.0, -23.16573143005371, 0.0, 0.0, -0.27256011962890625, 0, 0, 0, 0, 0, 0, 9362.0, 30146.0, 35388.0, 9362.0, 8.350414276123047, 0.1469028890132904, 0.03492708131670952, 0.18901289999485016, 0.9995784163475037, 0.03119758516550064, 0.030390657484531403, -0.07575373351573944, -0.32631683349609375, 1.46923828125, 1.300048828125, 0.0489654541015625, 1.487548828125, 0.19187796115875244, 3.403152368264273e-05, 0.0
15241, 4.2935051918029785, 67.0579605102539, -2.9283394813537598, 0.0, 0.0, -23.168123245239258, 0.0, 0.0, -0.2391815185546875, 0, 0, 0, 0, 0, 0, 9362.0, 30146.0, 35388.0, 9362.0, 8.350414276123047, 0.26220983266830444, -0.1239653155207634, 0.025837374851107597, 1.0017155408859253, 0.03066195733845234, 0.03268185630440712, -0.07575373351573944, -0.32631683349609375, 1.46923828125, 1.36669921875, 0.01806640625, 1.493408203125, 0.19122527539730072, 3.401542562642135e-05, 0.0
15251, 4.320389747619629, 67.1541976928711, -2.954827070236206, 0.0, 0.0, -23.16826820373535, 0.0, 0.0, -0.014495849609375, 0, 0, 0, 0, 0, 0, 9362.0, 30146.0, 35388.0, 9362.0, 8.350414276123047, -0.08023204654455185, -0.0384262315928936, -0.22776822745800018, 1.0001144409179688, 0.03088175319135189, 0.03000321425497532, -0.07575373351573944, -0.32631683349609375, 1.46923828125, 1.387939453125, 0.0297393798828125, 1.493408203125, 0.19057512283325195, 3.399943670956418e-05, 0.0
15261, 4.329105377197266, 67.21724700927734, -2.96342134475708, 0.0, 0.0, -23.168336868286133, 0.0, 0.0, -0.006866455078125, 0, 0, 0, 0, 0, 0, 9362.0, 30146.0, 35388.0, 9362.0, 8.350414276123047, -0.22908703982830048, -0.0067100790329277515, 0.19199031591415405, 0.9975772500038147, 0.03066604770720005, 0.030658934265375137, -0.07575373351573944, -0.32631683349609375, 1.46923828125, 1.365234375, 0.0175933837890625, 1.491943359375, 0.18992747366428375, 3.3983556932071224e-05, 0.0
15271, 4.355955123901367, 67.31361389160156, -2.9883692264556885, 0.0, 0.0, -23.174598693847656, 0.0, 0.0, -0.6261825561523438, 0, 0, 0, 0, 0, 0, 9362.0, 30146.0, 35388.0, 9362.0, 8.350414276123047, 0.14446163177490234, -0.064938485622406, -0.33679500222206116, 0.9978184700012207, 0.03102186508476734, 0.02922428399324417, -0.07575373351573944, -0.32631683349609375, 1.46923828125, 1.3154296875, 0.03118896484375, 1.491943359375, 0.18928232789039612, 3.3967782655963674e-05, 0.0
15281, 4.371993541717529, 67.3767318725586, -3.0031063556671143, 0.0, 0.0, -23.18017578125, 0.0, 0.0, -0.557708740234375, 0, 0, 0, 0, 0, 0, 9362.0, 30146.0, 35388.0, 9362.0, 8.350414276123047, -0.0019790171645581722, 0.1314987987279892, 0.12822586297988892, 0.998202919960022, 0.032132674008607864, 0.029386134818196297, -0.07575373351573944, -0.32631683349609375, 1.46923828125, 1.427490234375, 0.0716400146484375, 1.487548828125, 0.18863967061042786, 3.395211751922034e-05, 0.0
15291, 4.395074367523193, 67.4739990234375, -3.0248608589172363, 0.0, 0.0, -23.179914474487305, 0.0, 0.0, 0.02613067626953125, 0, 0, 0, 0, 0, 0, 9362.0, 30146.0, 35388.0, 9362.0, 8.350414276123047, 0.035816583782434464, -0.3425430655479431, 0.011057358235120773, 0.9995647668838501, 0.029476510360836983, 0.02753576636314392, -0.07575373351573944, -0.32631683349609375, 1.46923828125, 1.4326171875, 0.0786895751953125, 1.487548828125, 0.18799948692321777, 3.3936557883862406e-05, 0.0
15301, 4.407876491546631, 67.53351593017578, -3.0354440212249756, 0.0, 0.0, -23.17962074279785, 0.0, 0.0, 0.0293731689453125, 0, 0, 0, 0, 0, 0, 9362.0, 30146.0, 35388.0, 9362.0, 8.350414276123047, 0.10431314259767532, 0.34403419494628906, 0.10479672998189926, 0.9987182021141052, 0.031801529228687286, 0.03000236116349697, -0.07575373351573944, -0.32631683349609375, 1.46923828125, 1.314697265625, 0.0319061279296875, 1.490478515625, 0.18736177682876587, 3.392110374988988e-05, 0.0
15311, 4.436023235321045, 67.62620544433594, -3.062852621078491, 0.0, 0.0, -23.176536560058594, 0.0, 0.0, 0.30841827392578125, 0, 0, 0, 0, 0, 0, 9362.0, 30146.0, 35388.0, 9362.0, 8.350414276123047, -0.05504118278622627, 0.37485378980636597, -0.2242744415998459, 0.9986476302146912, 0.030984746292233467, 0.031200753524899483, -0.07575373351573944, -0.32631683349609375, 1.46923828125, 1.481689453125, 0.1600799560546875, 1.490478515625, 0.18672651052474976, 3.390575511730276e-05, 0.0
15321, 4.449054718017578, 67.68948364257812, -3.075528383255005, 0.0, 0.0, -23.173704147338867, 0.0, 0.0, 0.28324127197265625, 0, 0, 0, 0, 0, 0, 9362.0, 30146.0, 35388.0, 9362.0, 8.350414276123047, 0.007649100385606289, -0.30703210830688477, 0.017108947038650513, 0.9995222091674805, 0.03191429004073143, 0.03154240921139717, -0.07575373351573944, -0.32631683349609375, 1.46923828125, 1.439208984375, 0.0882415771484375, 1.494873046875, 0.18609368801116943, 3.389050834812224e-05, 0.0
15331, 4.469759941101074, 67.78453063964844, -3.0959560871124268, 0.0, 0.0, -23.172435760498047, 0.0, 0.0, 0.12683868408203125, 0, 0, 0, 0, 0, 0, 9362.0, 30146.0, 35388.0, 9362.0, 8.33057975769043, 0.09087619185447693, -0.1378079503774643, 0.045404378324747086, 0.9976379871368408, 0.030407311394810677, 0.02960079163312912, -0.10861746966838837, -0.2546367645263672, 1.47509765625, 1.461181640625, 0.1233062744140625, 1.494873046875, 0.1854632943868637, 3.3875367080327123e-05, 0.0
15341, 4.481322288513184, 67.84426879882812, -3.106119155883789, 0.0, 0.0, -23.17123794555664, 0.0, 0.0, 0.119781494140625, 0, 0, 0, 0, 0, 0, 9362.0, 30146.0, 35388.0, 9362.0, 8.33057975769043, 0.10256419330835342, 0.1629781723022461, 0.1827130913734436, 0.9993914365768433, 0.030078021809458733, 0.030471574515104294, -0.10861746966838837, -0.2546367645263672, 1.47509765625, 1.33154296875, 0.0198516845703125, 1.494873046875, 0.1848353147506714, 3.3860327675938606e-05, 0.0
15351, 4.495108127593994, 67.93437194824219, -3.11966872215271, 0.0, 0.0, -23.173357009887695, 0.0, 0.0, -0.21190643310546875, 0, 0, 0, 0, 0, 0, 9362.0, 30146.0, 35388.0, 9362.0, 8.33057975769043, -0.0979953408241272, 0.09443450719118118, 0.1922358274459839, 0.9985387325286865, 0.029283862560987473, 0.034377388656139374, -0.10861746966838837, -0.2546367645263672, 1.47509765625, 1.368896484375, 0.01885986328125, 1.494873046875, 0.18420973420143127, 3.384539013495669e-05, 0.0
15361, 4.510987758636475, 67.99541473388672, -3.136279582977295, 0.0, 0.0, -23.17520523071289, 0.0, 0.0, -0.18482208251953125, 0, 0, 0, 0, 0, 0, 9362.0, 30146.0, 35388.0, 9362.0, 8.33057975769043, -0.18808795511722565, -0.009381433948874474, -0.3615460991859436, 0.9985387325286865, 0.029283862560987473, 0.034377388656139374, -0.10861746966838837, -0.2546367645263672, 1.47509765625, 1.368896484375, 0.01885986328125, 1.494873046875, 0.18358653783798218, 3.383055081940256e-05, 0.0
15371, 4.535634517669678, 68.08670043945312, -3.1584231853485107, 0.0, 0.0, -23.17520523071289, 0.0, 0.0, -0.18482208251953125, 0, 0, 0, 0, 0, 0, 9362.0, 30146.0, 35388.0, 9362.0, 8.33057975769043, -0.18808795511722565, -0.009381433948874474, -0.3615460991859436, 0.9985387325286865, 0.029283862560987473, 0.034377388656139374, -0.10861746966838837, -0.2546367645263672, 1.47509765625, 1.368896484375, 0.01885986328125, 1.494873046875, 0.1829657256603241, 3.381581336725503e-05, 0.0
15381, 4.5506672859191895, 68.14508819580078, -3.1726911067962646, 0.0, 0.0, -23.17520523071289, 0.0, 0.0, -0.18482208251953125, 0, 0, 0, 0, 0, 0, 9362.0, 30146.0, 35388.0, 9362.0, 8.33057975769043, -0.025704246014356613, 0.3472089469432831, 0.13122782111167908, 0.9992238879203796, 0.03131593391299248, 0.03007623925805092, -0.10861746966838837, -0.2546367645263672, 1.47509765625, 1.368896484375, 0.01885986328125, 1.494873046875, 0.18234728276729584, 3.3801174140535295e-05, 0.0
15391, 4.572607517242432, 68.23780822753906, -3.193674325942993, 0.0, 0.0, -23.17520523071289, 0.0, 0.0, -0.18482208251953125, 0, 0, 0, 0, 0, 0, 9362.0, 30146.0, 35388.0, 9362.0, 8.33057975769043, 0.0332469679415226, -0.20247386395931244, 0.05484669283032417, 1.0020705461502075, 0.02979481779038906, 0.031150728464126587, -0.10861746966838837, -0.2546367645263672, 1.47509765625, 1.368896484375, 0.01885986328125, 1.494873046875, 0.1817311942577362, 3.378663313924335e-05, 0.0
15401, 4.589694499969482, 68.2977066040039, -3.2091023921966553, 0.0, 0.0, -23.184429168701172, 0.0, 0.0, 0.22220611572265625, 0, 0, 0, 0, 0, 0, 9362.0, 30146.0, 35388.0, 9362.0, 8.33057975769043, 0.14292532205581665, 0.05243413895368576, -0.016848629340529442, 1.0020705461502075, 0.02979481779038906, 0.031150728464126587, -0.10861746966838837, -0.2546367645263672, 1.47509765625, 1.368896484375, 0.01885986328125, 1.494873046875, 0.1817311942577362, 3.378663313924335e-05, 0.0
15411, 4.608720302581787, 68.38674926757812, -3.2263083457946777, 0.0, 0.0, -23.183164596557617, 0.0, 0.0, 0.12645721435546875, 0, 0, 0, 0, 0, 0, 9362.0, 30146.0, 35388.0, 9362.0, 8.33057975769043, -0.17872513830661774, -0.16835999488830566, 0.0358981117606163, 1.0020705461502075, 0.02979481779038906, 0.031150728464126587, -0.10861746966838837, -0.2546367645263672, 1.47509765625, 1.368896484375, 0.01885986328125, 1.494873046875, 0.18050603568553925, 3.375784581294283e-05, 0.0
15441, 4.662485122680664, 68.59392547607422, -3.2779135704040527, 0.0, 0.0, -23.178686141967773, 0.0, 0.0, 0.1583099365234375, 0, 0, 0, 0, 0, 0, 9362.0, 30146.0, 35388.0, 9362.0, 8.33057975769043, -0.18101076781749725, -0.2553044259548187, -0.1672181934118271, 0.9969690442085266, 0.03165469691157341, 0.029672915115952492, -0.10861746966838837, -0.2546367645263672, 1.47509765625, 1.368896484375, 0.01885986328125, 1.491943359375, 0.18050603568553925, 3.375784581294283e-05, 0.0
15471, 4.718340873718262, 68.82435607910156, -3.3292109966278076, 0.0, 0.0, -23.188318252563477, 0.0, 0.0, -0.6830215454101562, 0, 0, 0, 0, 0, 0, 9362.0, 30146.0, 35388.0, 9362.0, 8.33057975769043, 0.08593656122684479, -0.16339942812919617, -0.05218104273080826, 1.0015393495559692, 0.030294736847281456, 0.031172888353466988, -0.10861746966838837, -0.2546367645263672, 1.47509765625, 1.368896484375, 0.01885986328125, 1.49560546875, 0.1768859177827835, 3.367378667462617e-05, 0.0
15481, 4.730943202972412, 68.8840103149414, -3.341055154800415, 0.0, 0.0, -23.19441032409668, 0.0, 0.0, -0.6092071533203125, 0, 0, 0, 0, 0, 0, 9362.0, 30146.0, 35388.0, 9362.0, 8.33057975769043, 0.04463318735361099, -0.21096740663051605, 0.052954986691474915, 1.0015393495559692, 0.030294736847281456, 0.031172888353466988, -0.10861746966838837, -0.2546367645263672, 1.47509765625, 1.368896484375, 0.01885986328125, 1.49560546875, 0.17629051208496094, 3.36601042363327e-05, 0.0
15491, 4.765121936798096, 68.96995544433594, -3.3741509914398193, 0.0, 0.0, -23.19926643371582, 0.0, 0.0, -0.4856109619140625, 0, 0, 0, 0, 0, 0, 9362.0, 30146.0, 35388.0, 9362.0, 8.33057975769043, 0.010958651080727577, -0.16741953790187836, -0.3569073975086212, 1.0015393495559692, 0.030294736847281456, 0.031172888353466988, -0.10861746966838837, -0.2546367645263672, 1.47509765625, 1.368896484375, 0.01885986328125, 1.49560546875, 0.17569735646247864, 3.364651638548821e-05, 0.0
15501, 4.780827522277832, 69.02896118164062, -3.3895583152770996, 0.0, 0.0, -23.20358657836914, 0.0, 0.0, -0.43201446533203125, 0, 0, 0, 0, 0, 0, 9362.0, 30146.0, 35388.0, 9362.0, 8.33057975769043, 0.010958651080727577, -0.16741953790187836, -0.3569073975086212, 1.0015393495559692, 0.030294736847281456, 0.031172888353466988, -0.10861746966838837, -0.2546367645263672, 1.47509765625, 1.368896484375, 0.01885986328125, 1.4912109375, 0.17569735646247864, 3.364651638548821e-05, 0.0
15511, 4.798330307006836, 69.1181640625, -3.408139228820801, 0.0, 0.0, -23.197277069091797, 0.0, 0.0, 0.630950927734375, 0, 0, 0, 0, 0, 0, 9362.0, 30146.0, 35388.0, 9362.0, 8.33057975769043, -0.23604677617549896, -0.33857202529907227, 0.042972564697265625, 1.0015393495559692, 0.030294736847281456, 0.031172888353466988, -0.10861746966838837, -0.2546367645263672, 1.47509765625, 1.43994140625, 0.089324951171875, 1.4912109375, 0.17569735646247864, 3.364651638548821e-05, 0.0
15521, 4.81117057800293, 69.17540740966797, -3.4197399616241455, 0.0, 0.0, -23.19154930114746, 0.0, 0.0, 0.5727767944335938, 0, 0, 0, 0, 0, 0, 9362.0, 30146.0, 35388.0, 9362.0, 8.33057975769043, -0.004176358692348003, 0.008429420180618763, 0.07145676761865616, 1.0015393495559692, 0.030294736847281456, 0.031172888353466988, -0.10861746966838837, -0.2546367645263672, 1.47509765625, 1.43994140625, 0.089324951171875, 1.494873046875, 0.17569735646247864, 3.364651638548821e-05, 0.0
15541, 4.849968910217285, 69.32215118408203, -3.45491623878479, 0.0, 0.0, -23.18623161315918, 0.0, 0.0, 0.25463104248046875, 0, 0, 0, 0, 0, 0, 9362.0, 30146.0, 35388.0, 9362.0, 8.33057975769043, 0.046548716723918915, -0.15654674172401428, 0.12401627004146576, 1.0015393495559692, 0.030294736847281456, 0.031172888353466988, -0.10861746966838837, -0.2546367645263672, 1.47509765625, 1.43994140625, 0.089324951171875, 1.494873046875, 0.17334695160388947, 3.3593063562875614e-05, 0.0
15551, 4.870977401733398, 69.40504455566406, -3.474487781524658, 0.0, 0.0, -23.17538833618164, 0.0, 0.0, 1.0843276977539062, 0, 0, 0, 0, 0, 0, 9362.0, 30146.0, 35388.0, 9362.0, 8.33057975769043, 0.062442462891340256, -0.11590657383203506, -0.02110530436038971, 1.0015393495559692, 0.030294736847281456, 0.031172888353466988, -0.10861746966838837, -0.2546367645263672, 1.47509765625, 1.43994140625, 0.089324951171875, 1.494873046875, 0.17218492925167084, 3.356687011546455e-05, 0.0
15561, 4.890949726104736, 69.45861053466797, -3.4932637214660645, 0.0, 0.0, -23.16558074951172, 0.0, 0.0, 0.9807586669921875, 0, 0, 0, 0, 0, 0, 9362.0, 30146.0, 35388.0, 9362.0, 8.33057975769043, 0.1360945701599121, 0.16451098024845123, -0.15407437086105347, 1.0000659227371216, 0.031095143407583237, 0.03202788159251213, -0.10861746966838837, -0.2546367645263672, 1.47509765625, 1.43994140625, 0.089324951171875, 1.4912109375, 0.17218492925167084, 3.356687011546455e-05, 0.0
15571, 4.916189193725586, 69.54460144042969, -3.5180110931396484, 0.0, 0.0, -23.16077995300293, 0.0, 0.0, 0.48007965087890625, 0, 0, 0, 0, 0, 0, 9362.0, 30146.0, 35388.0, 9362.0, 8.33057975769043, 0.13104702532291412, -0.11099399626255035, -0.10012135654687881, 1.0000659227371216, 0.031095143407583237, 0.03202788159251213, -0.10861746966838837, -0.2546367645263672, 1.47509765625, 1.43994140625, 0.089324951171875, 1.4912109375, 0.17103159427642822, 3.3541025914018974e-05, 0.0
15581, 4.934620380401611, 69.6004867553711, -3.534616231918335, 0.0, 0.0, -23.156408309936523, 0.0, 0.0, 0.437164306640625, 0, 0, 0, 0, 0, 0, 9362.0, 30146.0, 35388.0, 9362.0, 8.33057975769043, 0.1301165670156479, 0.028912553563714027, -0.11688081920146942, 1.0000659227371216, 0.031095143407583237, 0.03202788159251213, -0.10861746966838837, -0.2546367645263672, 1.47509765625, 1.43994140625, 0.089324951171875, 1.493408203125, 0.17103159427642822, 3.3541025914018974e-05, 0.0
15591, 4.955357074737549, 69.68022918701172, -3.5535695552825928, 0.0, 0.0, -23.156408309936523, 0.0, 0.0, 0.437164306640625, 0, 0, 0, 0, 0, 0, 9362.0, 30146.0, 35388.0, 9362.0, 8.33057975769043, 0.1301165670156479, 0.028912553563714027, -0.11688081920146942, 1.0000659227371216, 0.031095143407583237, 0.03202788159251213, -0.10861746966838837, -0.2546367645263672, 1.47509765625, 1.43994140625, 0.089324951171875, 1.493408203125, 0.16988685727119446, 3.351552732056007e-05, 0.0
15601, 4.974172115325928, 69.73484802246094, -3.572157621383667, 0.0, 0.0, -23.15238380432129, 0.0, 0.0, 0.19321441650390625, 0, 0, 0, 0, 0, 0, 9362.0, 30146.0, 35388.0, 9362.0, 8.33057975769043, -0.09838734567165375, -0.15772388875484467, -0.17398189008235931, 1.0000659227371216, 0.031095143407583237, 0.03202788159251213, -0.10861746966838837, -0.2546367645263672, 1.47509765625, 1.43994140625, 0.089324951171875, 1.4970703125, 0.16988685727119446, 3.351552732056007e-05, 0.0
15611, 5.0004801750183105, 69.8176040649414, -3.597973346710205, 0.0, 0.0, -23.147563934326172, 0.0, 0.0, 0.48198699951171875, 0, 0, 0, 0, 0, 0, 9362.0, 30146.0, 35388.0, 9362.0, 8.33057975769043, -0.08221666514873505, -0.1384301632642746, -0.06291049718856812, 1.0000659227371216, 0.031095143407583237, 0.03202788159251213, -0.10861746966838837, -0.2546367645263672, 1.47509765625, 1.43994140625, 0.089324951171875, 1.4970703125, 0.16875064373016357, 3.349037069710903e-05, 0.0
15621, 5.019153594970703, 69.87210083007812, -3.6160902976989746, 0.0, 0.0, -23.143178939819336, 0.0, 0.0, 0.43849945068359375, 0, 0, 0, 0, 0, 0, 9362.0, 30146.0, 35388.0, 9362.0, 8.33057975769043, 0.0660058856010437, 0.18185578286647797, -0.053830236196517944, 1.0000659227371216, 0.031095143407583237, 0.03202788159251213, -0.10861746966838837, -0.2546367645263672, 1.47509765625, 1.43994140625, 0.089324951171875, 1.49267578125, 0.16875064373016357, 3.349037069710903e-05, 0.0
15641, 5.059036731719971, 70.00936889648438, -3.653953790664673, 0.0, 0.0, -23.13237762451172, 0.0, 0.0, 0.51422119140625, 0, 0, 0, 0, 0, 0, 9362.0, 30146.0, 35388.0, 9362.0, 8.33057975769043, -0.2667335867881775, -0.3711574375629425, 0.004390945192426443, 1.0000659227371216, 0.031095143407583237, 0.03202788159251213, -0.10227680951356888, -0.10231781005859375, 1.487548828125, 1.43994140625, 0.089324951171875, 1.4912109375, 0.16762284934520721, 3.346554876770824e-05, 0.0
15651, 5.084697246551514, 70.09111785888672, -3.6786601543426514, 0.0, 0.0, -23.126859664916992, 0.0, 0.0, 0.5517959594726562, 0, 0, 0, 0, 0, 0, 9362.0, 30146.0, 35388.0, 9362.0, 8.33057975769043, -0.23972313106060028, -0.16908925771713257, 0.13142293691635132, 1.0000659227371216, 0.031095143407583237, 0.03202788159251213, -0.10227680951356888, -0.10231781005859375, 1.487548828125, 1.43994140625, 0.089324951171875, 1.4912109375, 0.1665034145116806, 3.34410578943789e-05, 0.0
15661, 5.104616641998291, 70.14582061767578, -3.698237180709839, 0.0, 0.0, -23.121845245361328, 0.0, 0.0, 0.5014419555664062, 0, 0, 0, 0, 0, 0, 9362.0, 30146.0, 35388.0, 9362.0, 8.33057975769043, -0.013259753584861755, -0.3896081745624542, -0.12554055452346802, 1.0000659227371216, 0.031095143407583237, 0.03202788159251213, -0.10227680951356888, -0.10231781005859375, 1.487548828125, 1.43994140625, 0.089324951171875, 1.489013671875, 0.1665034145116806, 3.34410578943789e-05, 0.0
15671, 5.140078544616699, 70.22831726074219, -3.7312746047973633, 0.0, 0.0, -23.126556396484375, 0.0, 0.0, -0.4711151123046875, 0, 0, 0, 0, 0, 0, 9362.0, 30146.0, 35388.0, 9362.0, 8.33057975769043, 0.19458076357841492, -0.18329249322414398, -0.44693368673324585, 1.0000659227371216, 0.031095143407583237, 0.03202788159251213, -0.10227680951356888, -0.10231781005859375, 1.487548828125, 1.43994140625, 0.089324951171875, 1.489013671875, 0.16539226472377777, 3.34168944391422e-05, 0.0
15691, 5.173616409301758, 70.36090087890625, -3.7626168727874756, 0.0, 0.0, -23.126556396484375, 0.0, 0.0, -0.4711151123046875, 0, 0, 0, 0, 0, 0, 9362.0, 30146.0, 35388.0, 9362.0, 8.33057975769043, 0.19458076357841492, -0.18329249322414398, -0.44693368673324585, 0.9995685815811157, 0.030350953340530396, 0.028202228248119354, -0.10227680951356888, -0.10231781005859375, 1.487548828125, 1.43994140625, 0.089324951171875, 1.489013671875, 0.16539226472377777, 3.34168944391422e-05, 0.0
15701, 5.194400787353516, 70.41356658935547, -3.783945322036743, 0.0, 0.0, -23.126556396484375, 0.0, 0.0, -0.4711151123046875, 0, 0, 0, 0, 0, 0, 9362.0, 30146.0, 35388.0, 9362.0, 8.33057975769043, -0.2540335953235626, -0.06172405928373337, -0.31994906067848206, 0.9995685815811157, 0.030350953340530396, 0.028202228248119354, -0.10227680951356888, -0.10231781005859375, 1.487548828125, 1.43994140625, 0.089324951171875, 1.489013671875, 0.16374090313911438, 3.338124952279031e-05, 0.0
15711, 5.219187259674072, 70.4930419921875, -3.8067078590393066, 0.0, 0.0, -23.126556396484375, 0.0, 0.0, -0.4711151123046875, 0, 0, 0, 0, 0, 0, 9362.0, 30146.0, 35388.0, 9362.0, 8.33057975769043, -0.09763070940971375, -0.21714116632938385, -0.1090569943189621, 0.9995685815811157, 0.030350953340530396, 0.028202228248119354, -0.10227680951356888, -0.10231781005859375, 1.487548828125, 1.43994140625, 0.089324951171875, 1.489013671875, 0.16319450736045837, 3.3369524317095056e-05, 0.0
15721, 5.2337260246276855, 70.54562377929688, -3.821686267852783, 0.0, 0.0, -23.126556396484375, 0.0, 0.0, -0.4711151123046875, 0, 0, 0, 0, 0, 0, 9362.0, 30146.0, 35388.0, 9362.0, 8.33057975769043, -0.15879946947097778, 0.008242553099989891, 0.08167480677366257, 0.9998502135276794, 0.030768923461437225, 0.030574344098567963, -0.10227680951356888, -0.10231781005859375, 1.487548828125, 1.43994140625, 0.089324951171875, 1.489013671875, 0.16265012323856354, 3.3357879146933556e-05, 0.0
15731, 5.256767272949219, 70.62398529052734, -3.840723752975464, 0.0, 0.0, -23.126556396484375, 0.0, 0.0, -0.4711151123046875, 0, 0, 0, 0, 0, 0, 9362.0, 30146.0, 35388.0, 9362.0, 8.350414276123047, -0.15879946947097778, 0.008242553099989891, 0.08167480677366257, 0.9997881650924683, 0.030902979895472527, 0.029107313603162766, -0.10227680951356888, -0.10231781005859375, 1.487548828125, 1.43994140625, 0.089324951171875, 1.489013671875, 0.16210775077342987, 3.3346310374327004e-05, 0.0
15741, 5.275536060333252, 70.67774963378906, -3.858393430709839, 0.0, 0.0, -23.129413604736328, 0.0, 0.0, 0.36334991455078125, 0, 0, 0, 0, 0, 0, 9362.0, 30146.0, 35388.0, 9362.0, 8.350414276123047, 0.05749828740954399, -0.12549680471420288, -0.18129026889801025, 1.000228762626648, 0.029216326773166656, 0.02985776588320732, -0.10227680951356888, -0.10231781005859375, 1.487548828125, 1.43994140625, 0.089324951171875, 1.489013671875, 0.16156736016273499, 3.33348179992754e-05, 0.0
15751, 5.2998270988464355, 70.75525665283203, -3.8812198638916016, 0.0, 0.0, -23.12279510498047, 0.0, 0.0, 0.6618499755859375, 0, 0, 0, 0, 0, 0, 9362.0, 30146.0, 35388.0, 9362.0, 8.350414276123047, -0.000775880936998874, 0.11456622928380966, -0.07192948460578918, 0.9985260367393494, 0.029849035665392876, 0.02893606759607792, -0.10227680951356888, -0.10231781005859375, 1.487548828125, 1.43994140625, 0.089324951171875, 1.489013671875, 0.16102896630764008, 3.332340202177875e-05, 0.0
15761, 5.310977458953857, 70.80596923828125, -3.8909168243408203, 0.0, 0.0, -23.11679458618164, 0.0, 0.0, 0.6000518798828125, 0, 0, 0, 0, 0, 0, 9362.0, 30146.0, 35388.0, 9362.0, 8.350414276123047, 0.10160061717033386, 0.25381702184677124, 0.1980602741241455, 0.999512791633606, 0.028970111161470413, 0.03117465414106846, -0.10227680951356888, -0.10231781005859375, 1.487548828125, 1.43994140625, 0.089324951171875, 1.493408203125, 0.16102896630764008, 3.332340202177875e-05, 0.0
15771, 5.335788726806641, 70.88388061523438, -3.914670705795288, 0.0, 0.0, -23.116527557373047, 0.0, 0.0, 0.026702880859375, 0, 0, 0, 0, 0, 0, 9362.0, 30146.0, 35388.0, 9362.0, 8.350414276123047, 0.10160061717033386, 0.25381702184677124, 0.1980602741241455, 1.0002403259277344, 0.02978612668812275, 0.029116705060005188, -0.10227680951356888, -0.10231781005859375, 1.487548828125, 1.43994140625, 0.089324951171875, 1.493408203125, 0.15995807945728302, 3.330079925945029e-05, 0.0
15781, 5.356177806854248, 70.93775939941406, -3.933453321456909, 0.0, 0.0, -23.116243362426758, 0.0, 0.0, 0.02841949462890625, 0, 0, 0, 0, 0, 0, 9362.0, 30146.0, 35388.0, 9362.0, 8.350414276123047, 0.24343426525592804, -0.4489356577396393, -0.21204838156700134, 1.0002403259277344, 0.02978612668812275, 0.029116705060005188, -0.10227680951356888, -0.10231781005859375, 1.487548828125, 1.43994140625, 0.089324951171875, 1.4912109375, 0.15995807945728302, 3.330079925945029e-05, 0.0
15791, 5.379331588745117, 71.01554107666016, -3.9569482803344727, 0.0, 0.0, -23.11756134033203, 0.0, 0.0, -0.13179779052734375, 0, 0, 0, 0, 0, 0, 9362.0, 30146.0, 35388.0, 9362.0, 8.350414276123047, -0.11655441671609879, 0.06638495624065399, 0.11449392139911652, 1.0002403259277344, 0.02978612668812275, 0.029116705060005188, -0.10227680951356888, -0.10231781005859375, 1.487548828125, 1.43994140625, 0.089324951171875, 1.4912109375, 0.15889504551887512, 3.327849481138401e-05, 0.0
15801, 5.396823883056641, 71.06642150878906, -3.97509765625, 0.0, 0.0, -23.118703842163086, 0.0, 0.0, -0.11425018310546875, 0, 0, 0, 0, 0, 0, 9362.0, 30146.0, 35388.0, 9362.0, 8.350414276123047, -0.23314237594604492, -0.0026473887264728546, -0.1147230789065361, 1.0002403259277344, 0.02978612668812275, 0.029116705060005188, -0.10227680951356888, -0.10231781005859375, 1.487548828125, 1.43994140625, 0.089324951171875, 1.493408203125, 0.15889504551887512, 3.327849481138401e-05, 0.0
15811, 5.419008731842041, 71.14044952392578, -3.9967739582061768, 0.0, 0.0, -23.131973266601562, 0.0, 0.0, -1.3269424438476562, 0, 0, 0, 0, 0, 0, 9362.0, 30146.0, 35388.0, 9362.0, 8.350414276123047, -0.10141873359680176, 0.10335301607847214, 0.10913921147584915, 1.0002403259277344, 0.02978612668812275, 0.029116705060005188, -0.10227680951356888, -0.10231781005859375, 1.487548828125, 1.43994140625, 0.089324951171875, 1.493408203125, 0.15783977508544922, 3.32564850396011e-05, 0.0
15821, 5.433164596557617, 71.18987274169922, -4.010740756988525, 0.0, 0.0, -23.143871307373047, 0.0, 0.0, -1.1898040771484375, 0, 0, 0, 0, 0, 0, 9362.0, 30146.0, 35388.0, 9362.0, 8.350414276123047, -0.061488669365644455, 0.20815682411193848, 0.09670644253492355, 1.0002403259277344, 0.02978612668812275, 0.029116705060005188, -0.10227680951356888, -0.10231781005859375, 1.487548828125, 1.43994140625, 0.089324951171875, 1.494873046875, 0.15783977508544922, 3.32564850396011e-05, 0.0
15841, 5.4704742431640625, 71.31723022460938, -4.047908306121826, 0.0, 0.0, -23.15678596496582, 0.0, 0.0, -0.609588623046875, 0, 0, 0, 0, 0, 0, 9362.0, 30146.0, 35388.0, 9362.0, 8.350414276123047, -0.055478449910879135, 0.2563290596008301, 0.12061773985624313, 1.0002403259277344, 0.02978612668812275, 0.029116705060005188, -0.08164501935243607, -0.021678924560546875, 1.494140625, 1.43994140625, 0.089324951171875, 1.494873046875, 0.15627126395702362, 3.322401607874781e-05, 0.0
15851, 5.500013828277588, 71.39375305175781, -4.076091766357422, 0.0, 0.0, -23.15678596496582, 0.0, 0.0, -0.609588623046875, 0, 0, 0, 0, 0, 0, 9362.0, 30146.0, 35388.0, 9362.0, 8.350414276123047, 0.036234788596630096, -0.1686396449804306, 0.04099901393055916, 0.998857855796814, 0.03171003237366676, 0.03131578490138054, -0.08164501935243607, -0.021678924560546875, 1.494140625, 1.43994140625, 0.089324951171875, 1.494873046875, 0.1557522416114807, 3.321333497297019e-05, 0.0
15861, 5.524698257446289, 71.44454193115234, -4.099825859069824, 0.0, 0.0, -23.15678596496582, 0.0, 0.0, -0.609588623046875, 0, 0, 0, 0, 0, 0, 9362.0, 30146.0, 35388.0, 9362.0, 8.350414276123047, 0.0793987438082695, -0.07859174907207489, -0.2065451443195343, 0.9984160661697388, 0.03189602121710777, 0.031680356711149216, -0.08164501935243607, -0.021678924560546875, 1.494140625, 1.43994140625, 0.089324951171875, 1.494873046875, 0.15523509681224823, 3.320272662676871e-05, 0.0
15871, 5.541164875030518, 71.5174331665039, -4.114383220672607, 0.0, 0.0, -23.15678596496582, 0.0, 0.0, -0.609588623046875, 0, 0, 0, 0, 0, 0, 9362.0, 30146.0, 35388.0, 9362.0, 8.350414276123047, 0.028032535687088966, 0.1357715129852295, 0.13005463778972626, 0.997617244720459, 0.029943739995360374, 0.030541064217686653, -0.08164501935243607, -0.021678924560546875, 1.494140625, 1.43994140625, 0.089324951171875, 1.494873046875, 0.15471984446048737, 3.3192187402164564e-05, 0.0
15881, 5.562982559204102, 71.56782531738281, -4.135583400726318, 0.0, 0.0, -23.13754653930664, 0.0, 0.0, 0.8092880249023438, 0, 0, 0, 0, 0, 0, 9362.0, 30146.0, 35388.0, 9362.0, 8.350414276123047, -0.007780128624290228, -0.02308359183371067, -0.20281249284744263, 0.9978219866752625, 0.029698658734560013, 0.03005032055079937, -0.08164501935243607, -0.021678924560546875, 1.494140625, 1.43994140625, 0.089324951171875, 1.494873046875, 0.15471984446048737, 3.3192187402164564e-05, 0.0
15891, 5.5913801193237305, 71.64192962646484, -4.162123680114746, 0.0, 0.0, -23.12555694580078, 0.0, 0.0, 1.1989593505859375, 0, 0, 0, 0, 0, 0, 9362.0, 30146.0, 35388.0, 9362.0, 8.350414276123047, 0.08062242716550827, 0.04015037417411804, -0.07264145463705063, 0.9978219866752625, 0.029698658734560013, 0.03005032055079937, -0.08164501935243607, -0.021678924560546875, 1.494140625, 1.43994140625, 0.089324951171875, 1.494873046875, 0.15471984446048737, 3.3192187402164564e-05, 0.0
15901, 5.616171360015869, 71.692138671875, -4.186227798461914, 0.0, 0.0, -23.114727020263672, 0.0, 0.0, 1.0829925537109375, 0, 0, 0, 0, 0, 0, 9362.0, 30146.0, 35388.0, 9362.0, 8.350414276123047, 0.1537717580795288, -0.1584700644016266, -0.3313445448875427, 0.9992938041687012, 0.02900637872517109, 0.031136739999055862, -0.08164501935243607, -0.021678924560546875, 1.494140625, 1.43994140625, 0.089324951171875, 1.489013671875, 0.15471984446048737, 3.3192187402164564e-05, 0.0
15911, 5.641360282897949, 71.76558685302734, -4.210261821746826, 0.0, 0.0, -23.114727020263672, 0.0, 0.0, 1.0829925537109375, 0, 0, 0, 0, 0, 0, 9362.0, 30146.0, 35388.0, 9362.0, 8.350414276123047, -0.03378865867853165, -0.104203961789608, 0.06295455992221832, 1.0002049207687378, 0.031667668372392654, 0.02977500483393669, -0.08164501935243607, -0.021678924560546875, 1.494140625, 1.43994140625, 0.089324951171875, 1.489013671875, 0.15267744660377502, 3.315072535770014e-05, 0.0
15921, 5.657310962677002, 71.81487274169922, -4.225279808044434, 0.0, 0.0, -23.114727020263672, 0.0, 0.0, 1.0829925537109375, 0, 0, 0, 0, 0, 0, 9362.0, 30146.0, 35388.0, 9362.0, 8.350414276123047, 0.04592779651284218, -0.12135422229766846, 0.14647039771080017, 0.9990291595458984, 0.032724712044000626, 0.03153359517455101, -0.08164501935243607, -0.021678924560546875, 1.494140625, 1.43994140625, 0.089324951171875, 1.489013671875, 0.15217146277427673, 3.314053174108267e-05, 0.0
15931, 5.681326389312744, 71.88713073730469, -4.24772310256958, 0.0, 0.0, -23.114727020263672, 0.0, 0.0, 1.0829925537109375, 0, 0, 0, 0, 0, 0, 9362.0, 30146.0, 35388.0, 9362.0, 8.350414276123047, 0.04592779651284218, -0.12135422229766846, 0.14647039771080017, 0.9994520545005798, 0.03115684539079666, 0.030561240389943123, -0.08164501935243607, -0.021678924560546875, 1.494140625, 1.43994140625, 0.089324951171875, 1.489013671875, 0.15166731178760529, 3.3130403608083725e-05, 0.0
15941, 5.696565628051758, 71.93602752685547, -4.260600566864014, 0.0, 0.0, -23.114727020263672, 0.0, 0.0, 1.0829925537109375, 0, 0, 0, 0, 0, 0, 9362.0, 30146.0, 35388.0, 9362.0, 8.350414276123047, 0.265105277299881, -0.18959134817123413, 0.17066633701324463, 0.9985446929931641, 0.030493248254060745, 0.03138117864727974, -0.08164501935243607, -0.021678924560546875, 1.494140625, 1.43994140625, 0.089324951171875, 1.489013671875, 0.1511649787425995, 3.3120344596682116e-05, 0.0
15951, 5.725691795349121, 72.00949096679688, -4.289422512054443, 0.0, 0.0, -23.070613861083984, 0.0, 0.0, 0.8642196655273438, 0, 0, 0, 0, 0, 0, 9362.0, 30146.0, 35388.0, 9362.0, 8.350414276123047, 0.265105277299881, -0.18959134817123413, 0.17066633701324463, 0.9993810057640076, 0.0299067422747612, 0.030450016260147095, -0.08164501935243607, -0.021678924560546875, 1.494140625, 1.43994140625, 0.089324951171875, 1.489013671875, 0.15066446363925934, 3.3110351068899035e-05, 0.0
15961, 5.744418621063232, 72.05485534667969, -4.30666971206665, 0.0, 0.0, -23.06279754638672, 0.0, 0.0, 0.7816314697265625, 0, 0, 0, 0, 0, 0, 9362.0, 30146.0, 35388.0, 9362.0, 8.350414276123047, 0.13989481329917908, 0.3020385801792145, -0.2095363885164261, 1.000058650970459, 0.031044691801071167, 0.029520248994231224, -0.08164501935243607, -0.021678924560546875, 1.494140625, 1.43994140625, 0.089324951171875, 1.489013671875, 0.15066446363925934, 3.3110351068899035e-05, 0.0
15981, 5.78111457824707, 72.17587280273438, -4.34161376953125, 0.0, 0.0, -23.058109283447266, 0.0, 0.0, 0.22411346435546875, 0, 0, 0, 0, 0, 0, 9362.0, 30146.0, 35388.0, 9362.0, 8.350414276123047, 0.15577028691768646, -0.5688459873199463, -0.00298492843285203, 1.0004396438598633, 0.03153316676616669, 0.029152099043130875, -0.08164501935243607, -0.021678924560546875, 1.494140625, 1.43994140625, 0.089324951171875, 1.48974609375, 0.1496688425540924, 3.3090560464188457e-05, 0.0
15991, 5.804817199707031, 72.24640655517578, -4.363941192626953, 0.0, 0.0, -23.061777114868164, 0.0, 0.0, -0.36678314208984375, 0, 0, 0, 0, 0, 0, 9362.0, 30146.0, 35388.0, 9362.0, 8.350414276123047, 0.15577028691768646, -0.5688459873199463, -0.00298492843285203, 0.9999298453330994, 0.029758162796497345, 0.03052634559571743, -0.08164501935243607, -0.021678924560546875, 1.494140625, 1.43994140625, 0.089324951171875, 1.48974609375, 0.14868038892745972, 3.307103179395199e-05, 0.0
16001, 5.8205366134643555, 72.29278564453125, -4.3795599937438965, 0.0, 0.0, -23.065040588378906, 0.0, 0.0, -0.32634735107421875, 0, 0, 0, 0, 0, 0, 9362.0, 30146.0, 35388.0, 9362.0, 8.350414276123047, 0.15577028691768646, -0.5688459873199463, -0.00298492843285203, 0.996512234210968, 0.030034586787223816, 0.030106108635663986, -0.08164501935243607, -0.021678924560546875, 1.494140625, 1.43994140625, 0.089324951171875, 1.49560546875, 0.14868038892745972, 3.307103179395199e-05, 0.0
16011, 5.843031406402588, 72.363525390625, -4.400200366973877, 0.0, 0.0, -23.065040588378906, 0.0, 0.0, -0.32634735107421875, 0, 0, 0, 0, 0, 0, 9362.0, 30146.0, 35388.0, 9362.0, 8.350414276123047, 0.07719995826482773, -0.07475756853818893, 0.20768079161643982, 0.996512234210968, 0.030034586787223816, 0.030106108635663986, -0.08164501935243607, -0.021678924560546875, 1.494140625, 1.43994140625, 0.089324951171875, 1.49560546875, 0.1476990431547165, 3.3051761420210823e-05, 0.0
16021, 5.864609718322754, 72.41142272949219, -4.420022487640381, 0.0, 0.0, -23.065040588378906, 0.0, 0.0, -0.32634735107421875, 0, 0, 0, 0, 0, 0, 9362.0, 30146.0, 35388.0, 9362.0, 8.350414276123047, 0.08994238078594208, -0.20477986335754395, -0.046648845076560974, 0.996512234210968, 0.030034586787223816, 0.030106108635663986, -0.08164501935243607, -0.021678924560546875, 1.494140625, 1.30810546875, 0.0388031005859375, 1.49560546875, 0.1472110152244568, 3.304221900179982e-05, 0.0
16031, 5.889420986175537, 72.48109436035156, -4.443238735198975, 0.0, 0.0, -23.08571434020996, 0.0, 0.0, -0.536346435546875, 0, 0, 0, 0, 0, 0, 9362.0, 30146.0, 35388.0, 9362.0, 8.350414276123047, 0.14953403174877167, 0.1974780559539795, 0.09864764660596848, 0.996512234210968, 0.030034586787223816, 0.030106108635663986, -0.08164501935243607, -0.021678924560546875, 1.494140625, 1.30810546875, 0.0388031005859375, 1.49560546875, 0.14672473073005676, 3.303274206700735e-05, 0.0
16041, 5.90380334854126, 72.52815246582031, -4.457841396331787, 0.0, 0.0, -23.090503692626953, 0.0, 0.0, -0.47893524169921875, 0, 0, 0, 0, 0, 0, 9362.0, 30146.0, 35388.0, 9362.0, 8.350414276123047, -0.14391979575157166, -0.13558337092399597, 0.19382883608341217, 0.9990655183792114, 0.031096257269382477, 0.029617279767990112, -0.08164501935243607, -0.021678924560546875, 1.494140625, 1.30810546875, 0.0388031005859375, 1.487548828125, 0.14672473073005676, 3.303274206700735e-05, 0.0
16051, 5.9285688400268555, 72.5949935913086, -4.481334209442139, 0.0, 0.0, -23.090503692626953, 0.0, 0.0, -0.47893524169921875, 0, 0, 0, 0, 0, 0, 9362.0, 30146.0, 35388.0, 9362.0, 8.350414276123047, -0.03324240446090698, 0.1523287147283554, -0.07146201282739639, 0.9990655183792114, 0.031096257269382477, 0.029617279767990112, -0.08164501935243607, -0.021678924560546875, 1.494140625, 1.30810546875, 0.0388031005859375, 1.487548828125, 0.14575739204883575, 3.301397373434156e-05, 0.0
16061, 5.943181037902832, 72.64217376708984, -4.495937824249268, 0.0, 0.0, -23.090503692626953, 0.0, 0.0, -0.47893524169921875, 0, 0, 0, 0, 0, 0, 9362.0, 30146.0, 35388.0, 9362.0, 8.350414276123047, -0.10595349222421646, -0.2541889250278473, 0.13692250847816467, 0.9986244440078735, 0.030254315584897995, 0.03140440210700035, -0.08164501935243607, -0.021678924560546875, 1.494140625, 1.30810546875, 0.0388031005859375, 1.487548828125, 0.14527632296085358, 3.300468233646825e-05, 0.0
16071, 5.974193096160889, 72.7085952758789, -4.523416996002197, 0.0, 0.0, -23.0987548828125, 0.0, 0.0, -0.279998779296875, 0, 0, 0, 0, 0, 0, 9362.0, 30146.0, 35388.0, 9362.0, 8.350414276123047, 0.2611231207847595, 0.16169728338718414, 0.09087013453245163, 1.0002776384353638, 0.031961590051651, 0.03142646327614784, -0.08164501935243607, -0.021678924560546875, 1.494140625, 1.30810546875, 0.0388031005859375, 1.487548828125, 0.14527632296085358, 3.300468233646825e-05, 0.0
16081, 5.991264343261719, 72.7546157836914, -4.5397515296936035, 0.0, 0.0, -23.101240158081055, 0.0, 0.0, -0.24852752685546875, 0, 0, 0, 0, 0, 0, 9362.0, 30146.0, 35388.0, 9362.0, 8.350414276123047, 0.11949460208415985, -0.1029588133096695, 0.11763249337673187, 1.0002776384353638, 0.031961590051651, 0.03142646327614784, -0.08164501935243607, -0.021678924560546875, 1.494140625, 1.30810546875, 0.0388031005859375, 1.487548828125, 0.14527632296085358, 3.300468233646825e-05, 0.0
16091, 6.0156660079956055, 72.82270812988281, -4.5634236335754395, 0.0, 0.0, -23.103422164916992, 0.0, 0.0, -0.21820068359375, 0, 0, 0, 0, 0, 0, 9362.0, 30146.0, 35388.0, 9362.0, 8.350414276123047, -0.08868031948804855, -0.023177199065685272, -0.016654646024107933, 0.9988023638725281, 0.02984435483813286, 0.029520947486162186, -0.08164501935243607, -0.021678924560546875, 1.494140625, 1.38134765625, 0.025177001953125, 1.487548828125, 0.14527632296085358, 3.300468233646825e-05, 0.0
16101, 6.035942554473877, 72.87000274658203, -4.582884311676025, 0.0, 0.0, -23.103422164916992, 0.0, 0.0, -0.21820068359375, 0, 0, 0, 0, 0, 0, 9362.0, 30146.0, 35388.0, 9362.0, 8.350414276123047, 0.011265252716839314, -0.27384987473487854, -0.1963183581829071, 1.000102162361145, 0.029047200456261635, 0.03089369647204876, -0.08164501935243607, -0.021678924560546875, 1.494140625, 1.38134765625, 0.025177001953125, 1.487548828125, 0.14336919784545898, 3.296812792541459e-05, 0.0
16111, 6.058014392852783, 72.93766021728516, -4.604222297668457, 0.0, 0.0, -23.1026611328125, 0.0, 0.0, 0.26912689208984375, 0, 0, 0, 0, 0, 0, 9362.0, 30146.0, 35388.0, 9362.0, 8.350414276123047, -0.10149014741182327, -0.04330718144774437, 0.13360744714736938, 1.000102162361145, 0.029047200456261635, 0.03089369647204876, -0.08164501935243607, -0.021678924560546875, 1.494140625, 1.38134765625, 0.025177001953125, 1.487548828125, 0.14336919784545898, 3.296812792541459e-05, 0.0
16121, 6.074298858642578, 72.98345184326172, -4.620834827423096, 0.0, 0.0, -23.100204467773438, 0.0, 0.0, 0.24566650390625, 0, 0, 0, 0, 0, 0, 9362.0, 30146.0, 35388.0, 9362.0, 8.350414276123047, -0.11220850795507431, -0.12324576824903488, -0.02687424048781395, 1.000102162361145, 0.029047200456261635, 0.03089369647204876, -0.08164501935243607, -0.021678924560546875, 1.494140625, 1.38134765625, 0.025177001953125, 1.493408203125, 0.14336919784545898, 3.296812792541459e-05, 0.0
16141, 6.120049476623535, 73.09231567382812, -4.66438627243042, 0.0, 0.0, -23.100543975830078, 0.0, 0.0, -0.01430511474609375, 0, 0, 0, 0, 0, 0, 9362.0, 30146.0, 35388.0, 9362.0, 8.350414276123047, 0.117111437022686, 0.21964570879936218, -0.19899190962314606, 1.000102162361145, 0.029047200456261635, 0.03089369647204876, -0.08164501935243607, -0.021678924560546875, 1.494140625, 1.38134765625, 0.025177001953125, 1.490478515625, 0.1419566571712494, 3.2941341487457976e-05, 0.0
16151, 6.143472671508789, 73.15921783447266, -4.686607837677002, 0.0, 0.0, -23.10034942626953, 0.0, 0.0, 0.0194549560546875, 0, 0, 0, 0, 0, 0, 9362.0, 30146.0, 35388.0, 9362.0, 8.350414276123047, -0.01563142240047455, -0.15293452143669128, 0.17249035835266113, 1.000102162361145, 0.029047200456261635, 0.03089369647204876, -0.08164501935243607, -0.021678924560546875, 1.494140625, 1.38134765625, 0.025177001953125, 1.490478515625, 0.14102332293987274, 3.292377004981972e-05, 0.0
16161, 6.168213367462158, 73.20516967773438, -4.710101127624512, 0.0, 0.0, -23.100141525268555, 0.0, 0.0, 0.02079010009765625, 0, 0, 0, 0, 0, 0, 9362.0, 30146.0, 35388.0, 9362.0, 8.350414276123047, 0.0790390893816948, -0.32839730381965637, -0.26440250873565674, 1.000102162361145, 0.029047200456261635, 0.03089369647204876, -0.08164501935243607, -0.021678924560546875, 1.494140625, 1.38134765625, 0.025177001953125, 1.490478515625, 0.14102332293987274, 3.292377004981972e-05, 0.0
16171, 6.194412708282471, 73.27216339111328, -4.7367377281188965, 0.0, 0.0, -23.1029109954834, 0.0, 0.0, -0.276947021484375, 0, 0, 0, 0, 0, 0, 9362.0, 30146.0, 35388.0, 9362.0, 8.350414276123047, 0.028388986364006996, -0.30257099866867065, 0.21036911010742188, 0.9971796870231628, 0.032943714410066605, 0.03289984166622162, -0.08164501935243607, -0.021678924560546875, 1.494140625, 1.38134765625, 0.025177001953125, 1.490478515625, 0.14009660482406616, 3.290643508080393e-05, 0.0
16181, 6.215733051300049, 73.31700897216797, -4.757798194885254, 0.0, 0.0, -23.1029109954834, 0.0, 0.0, -0.276947021484375, 0, 0, 0, 0, 0, 0, 9362.0, 30146.0, 35388.0, 9362.0, 8.350414276123047, 0.07763322442770004, -0.3728512227535248, -0.12325085699558258, 0.9971796870231628, 0.032943714410066605, 0.03289984166622162, -0.08164501935243607, -0.021678924560546875, 1.494140625, 1.38134765625, 0.025177001953125, 1.490478515625, 0.13963571190834045, 3.2897853088798e-05, 0.0
16191, 6.24882698059082, 73.38431549072266, -4.788998126983643, 0.0, 0.0, -23.105350494384766, 0.0, 0.0, 0.00209808349609375, 0, 0, 0, 0, 0, 0, 9362.0, 30146.0, 35388.0, 9362.0, 8.350414276123047, 0.043263014405965805, -0.047015972435474396, 0.12357285618782043, 0.9971796870231628, 0.032943714410066605, 0.03289984166622162, -0.08164501935243607, -0.021678924560546875, 1.494140625, 1.38134765625, 0.025177001953125, 1.490478515625, 0.13917645812034607, 3.288932566647418e-05, 0.0
16201, 6.273968696594238, 73.42681884765625, -4.813593864440918, 0.0, 0.0, -23.105350494384766, 0.0, 0.0, 0.00209808349609375, 0, 0, 0, 0, 0, 0, 9362.0, 30146.0, 35388.0, 9362.0, 8.350414276123047, -0.15625043213367462, 0.08418726176023483, -0.227292999625206, 0.9971796870231628, 0.032943714410066605, 0.03289984166622162, -0.08164501935243607, -0.021678924560546875, 1.494140625, 1.38134765625, 0.025177001953125, 1.490478515625, 0.13871882855892181, 3.288085281383246e-05, 0.0
16211, 6.308570384979248, 73.49278259277344, -4.8454766273498535, 0.0, 0.0, -23.097824096679688, 0.0, 0.0, 0.7476806640625, 0, 0, 0, 0, 0, 0, 9362.0, 30146.0, 35388.0, 9362.0, 8.350414276123047, -0.0007514914032071829, -0.22826477885246277, -0.16765384376049042, 0.9971796870231628, 0.032943714410066605, 0.03289984166622162, -0.08164501935243607, -0.021678924560546875, 1.494140625, 1.38134765625, 0.025177001953125, 1.490478515625, 0.1382628232240677, 3.287243816885166e-05, 0.0
16231, 6.36687707901001, 73.60053253173828, -4.902932643890381, 0.0, 0.0, -23.086570739746094, 0.0, 0.0, 0.44918060302734375, 0, 0, 0, 0, 0, 0, 9362.0, 30146.0, 35388.0, 9362.0, 8.350414276123047, -0.03142189234495163, 0.0060774157755076885, -0.2156696766614914, 0.9980692267417908, 0.030807793140411377, 0.030555861070752144, -0.08164501935243607, -0.021678924560546875, 1.494140625, 1.38134765625, 0.025177001953125, 1.490478515625, 0.13735565543174744, 3.285577258793637e-05, 0.0
16241, 6.3838887214660645, 73.64334106445312, -4.919463157653809, 0.0, 0.0, -23.082494735717773, 0.0, 0.0, 0.40760040283203125, 0, 0, 0, 0, 0, 0, 9362.0, 30146.0, 35388.0, 9362.0, 8.350414276123047, 0.029644981026649475, 0.1710752546787262, 0.1966809779405594, 0.9980692267417908, 0.030807793140411377, 0.030555861070752144, -0.08164501935243607, -0.021678924560546875, 1.494140625, 1.38134765625, 0.025177001953125, 1.490478515625, 0.13735565543174744, 3.285577258793637e-05, 0.0
16261, 6.427637100219727, 73.74925231933594, -4.960419178009033, 0.0, 0.0, -23.075225830078125, 0.0, 0.0, 0.7268905639648438, 0, 0, 0, 0, 0, 0, 9362.0, 30146.0, 35388.0, 9362.0, 8.350414276123047, 0.08317162096500397, -0.2261180579662323, -0.2963455319404602, 0.9985886216163635, 0.030899610370397568, 0.0343066044151783, -0.08164501935243607, -0.021678924560546875, 1.494140625, 1.38134765625, 0.025177001953125, 1.490478515625, 0.13645489513874054, 3.283932528574951e-05, 0.0
16271, 6.455535888671875, 73.81069946289062, -4.9891180992126465, 0.0, 0.0, -23.075225830078125, 0.0, 0.0, 0.7268905639648438, 0, 0, 0, 0, 0, 0, 9362.0, 30146.0, 35388.0, 9362.0, 8.350414276123047, -0.22733546793460846, 0.16764616966247559, -0.1732943207025528, 0.9981601238250732, 0.029979895800352097, 0.03223257511854172, -0.08164501935243607, -0.021678924560546875, 1.494140625, 1.38134765625, 0.025177001953125, 1.490478515625, 0.13556046783924103, 3.282308898633346e-05, 0.0
16281, 6.4759202003479, 73.85435485839844, -5.007847309112549, 0.0, 0.0, -23.075225830078125, 0.0, 0.0, 0.7268905639648438, 0, 0, 0, 0, 0, 0, 9362.0, 30146.0, 35388.0, 9362.0, 8.350414276123047, 0.11323212832212448, -0.2509016990661621, 0.16660723090171814, 0.9981601238250732, 0.029979895800352097, 0.03223257511854172, -0.08164501935243607, -0.021678924560546875, 1.494140625, 1.38134765625, 0.025177001953125, 1.493408203125, 0.13556046783924103, 3.282308898633346e-05, 0.0
16301, 6.525939464569092, 73.95912170410156, -5.055902481079102, 0.0, 0.0, -23.08283233642578, 0.0, 0.0, -0.8388519287109375, 0, 0, 0, 0, 0, 0, 9362.0, 30146.0, 35388.0, 9362.0, 8.350414276123047, 0.10086354613304138, -0.36919495463371277, -0.10397578775882721, 0.9983124732971191, 0.03168719261884689, 0.028350330889225006, -0.08164501935243607, -0.021678924560546875, 1.494140625, 1.38134765625, 0.025177001953125, 1.494140625, 0.1346723437309265, 3.280706732766703e-05, 0.0
16311, 6.560863971710205, 74.023193359375, -5.090091705322266, 0.0, 0.0, -23.085142135620117, 0.0, 0.0, -0.23097991943359375, 0, 0, 0, 0, 0, 0, 9362.0, 30146.0, 35388.0, 9362.0, 8.350414276123047, -0.10329718887805939, -0.31033584475517273, 0.047678131610155106, 0.9983124732971191, 0.03168719261884689, 0.028350330889225006, -0.08164501935243607, -0.021678924560546875, 1.494140625, 1.38134765625, 0.025177001953125, 1.494140625, 0.13379046320915222, 3.279125667177141e-05, 0.0
