timeTick, roll, pitch, yaw, stateX, stateY, stateZ, stateVX, stateVY, stateVZ, otX0, otY0, otZ0, otRoll0, otPitch0, otYaw0, left wing, pitch motor, yaw motor, right wing, voltage, roll rate, pitch rate, yaw rate, A_x, A_y, A_z, current, i_raw, v_raw, airflow_voltage, airflow_speed, pot_Pitch, voltage_nKF, kFFx, state, State
16710, 2.9213950634002686, -73.07793426513672, 2.155764579772949, 0, 0, 0, 0, 0, 0, 0, 0, 0, 0, 0, 0, 0, 0, 0, 0, 0, 0, 0, 0, 0, 0, 0, 0, 0, 0, 0, 0, 0, 0, 0, 0, 0
16720, 2.9331166744232178, -73.14305877685547, 2.1683590412139893, 0.0, 0.0, 89.86395263671875, 0.0, 0.0, -0.0213623046875, 0, 0, 0, 0, 0, 0, 9362.0, 30146.0, 35388.0, 9362.0, 0, -0.16314896941184998, 0.05981062352657318, -0.029240110889077187, -0.9977001547813416, 0.016401812434196472, 0.03556695953011513, 0, 0, 0, 0, 0, 0, 0, 0, 0, 0
16730, 2.9415557384490967, -73.1877670288086, 2.1764423847198486, 0.0, 0.0, 89.86270141601562, 0.0, 0.0, -0.1251220703125, 0, 0, 0, 0, 0, 0, 9362.0, 30146.0, 35388.0, 9362.0, 0, 0.05823708698153496, 0.26844221353530884, 0.014844628982245922, -1.0010266304016113, 0.016579309478402138, 0.033198025077581406, 0, 0, 0, 1.442138671875, 0.0926361083984375, 0, 1.445068359375, 10.0, 1.401298464324817e-45, 1.401298464324817e-44
16740, 2.9617645740509033, -73.25287628173828, 2.1953840255737305, 0.0, 0.0, 89.86161804199219, 0.0, 0.0, -0.10833740234375, 0, 0, 0, 0, 0, 0, 9362.0, 30146.0, 35388.0, 9362.0, 0, 0.26042595505714417, 0.2898389995098114, 0.13592413067817688, -0.9967643618583679, 0.016472527757287025, 0.03695949539542198, 0, 0, 0, 1.4384765625, 0.0871429443359375, 1.4912109375, 1.404052734375, 10.0, 1.401298464324817e-45, 1.401298464324817e-44
16750, 2.9729177951812744, -73.29623413085938, 2.2064220905303955, 0.0, 0.0, 89.86177825927734, 0.0, 0.0, 0.016021728515625, 0, 0, 0, 0, 0, 0, 9362.0, 30146.0, 35388.0, 9362.0, 0, -0.003688863944262266, 0.11065424978733063, 0.11972974240779877, -0.9962549805641174, 0.014443190768361092, 0.036682650446891785, 0, 0, 0, 1.426025390625, 0.069732666015625, 1.4912109375, 1.412109375, 10.0, 1.401298464324817e-45, 1.401298464324817e-44
16760, 2.9843618869781494, -73.3596420288086, 2.2173964977264404, 0.0, 0.0, 89.8619613647461, 0.0, 0.0, 0.018310546875, 0, 0, 0, 0, 0, 0, 9362.0, 30146.0, 35388.0, 9362.0, 0, -0.04720178619027138, -0.10224255919456482, -0.005608695559203625, -0.9996659159660339, 0.014934460632503033, 0.03478722646832466, 0, 0, 0, 1.371826171875, 0.02008056640625, 1.494140625, 1.3828125, 10.0, 1.401298464324817e-45, 1.401298464324817e-44
16770, 2.9975569248199463, -73.40167999267578, 2.231187582015991, 0.0, 0.0, 89.86544036865234, 0.0, 0.0, 0.347900390625, 0, 0, 0, 0, 0, 0, 9362.0, 30146.0, 35388.0, 9362.0, 0, -0.13258780539035797, -0.11950614303350449, 0.2479347139596939, -1.0016599893569946, 0.01563979685306549, 0.034647829830646515, 0, 0, 0, 1.427490234375, 0.0716400146484375, 1.494140625, 1.44287109375, 10.0, 1.401298464324817e-45, 1.401298464324817e-44
16780, 3.0123798847198486, -73.46525573730469, 2.247180223464966, 0.0, 0.0, 89.86862182617188, 0.0, 0.0, 0.318145751953125, 0, 0, 0, 0, 0, 0, 9362.0, 30146.0, 35388.0, 9362.0, 0, 0.059725552797317505, -0.17456893622875214, 0.11133551597595215, -1.0003395080566406, 0.014749936759471893, 0.034200817346572876, 0, 0, 0, 1.42822265625, 0.0726470947265625, 1.48974609375, 1.450927734375, 10.0, 1.401298464324817e-45, 1.401298464324817e-44
16790, 3.0231873989105225, -73.50743865966797, 2.2581288814544678, 0.0, 0.0, 89.87152099609375, 0.0, 0.0, 0.2899169921875, 0, 0, 0, 0, 0, 0, 9362.0, 30146.0, 35388.0, 9362.0, 0, 0.011507002636790276, -0.021431591361761093, 0.1903398483991623, -0.9983185529708862, 0.01485473569482565, 0.03379826992750168, 0, 0, 0, 1.415771484375, 0.0568695068359375, 1.48974609375, 1.41064453125, 10.0, 1.401298464324817e-45, 1.401298464324817e-44
16800, 3.035900115966797, -73.56958770751953, 2.2711246013641357, 0.0, 0.0, 89.87417602539062, 0.0, 0.0, 0.2655029296875, 0, 0, 0, 0, 0, 0, 9362.0, 30146.0, 35388.0, 9362.0, 0, 0.047951940447092056, 0.041934799402952194, -0.03383564203977585, -0.9982813000679016, 0.01656799577176571, 0.03338758274912834, 0, 0, 0, 1.4326171875, 0.0786895751953125, 1.49560546875, 1.4501953125, 10.0, 1.401298464324817e-45, 1.401298464324817e-44
16810, 3.049527883529663, -73.61228942871094, 2.2851507663726807, 0.0, 0.0, 89.88206481933594, 0.0, 0.0, 0.78887939453125, 0, 0, 0, 0, 0, 0, 9362.0, 30146.0, 35388.0, 9362.0, 8.370248794555664, 0.032088831067085266, 0.08722037822008133, 0.07072919607162476, -0.9991886615753174, 0.015633126720786095, 0.03569076582789421, -0.12290958315134048, -0.05751800537109375, 1.4912109375, 1.434814453125, 0.081787109375, 1.49560546875, 1.44287109375, 10.0, 1.401298464324817e-45, 1.401298464324817e-44
16820, 3.0615673065185547, -73.67340850830078, 2.2974729537963867, 0.0, 0.0, 89.88920593261719, 0.0, 0.0, 0.714111328125, 0, 0, 0, 0, 0, 0, 9362.0, 30146.0, 35388.0, 9362.0, 8.370248794555664, 0.0685383751988411, -0.20759648084640503, -0.17960502207279205, -1.0023341178894043, 0.015118956565856934, 0.0374932698905468, -0.12290958315134048, -0.05751800537109375, 1.4912109375, 1.43701171875, 0.085052490234375, 1.493408203125, 1.4560546875, 10.0, 1.401298464324817e-45, 1.401298464324817e-44
16830, 3.074497938156128, -73.71409606933594, 2.3103556632995605, 0.0, 0.0, 89.89785766601562, 0.0, 0.0, 0.86517333984375, 0, 0, 0, 0, 0, 0, 9362.0, 30146.0, 35388.0, 9362.0, 8.370248794555664, -0.03480001166462898, -0.1286972016096115, 0.10783964395523071, -0.9985226392745972, 0.01625092141330242, 0.0363948829472065, -0.12290958315134048, -0.05751800537109375, 1.4912109375, 1.41650390625, 0.0577545166015625, 1.493408203125, 1.434814453125, 10.0, 1.401298464324817e-45, 1.401298464324817e-44
16840, 3.0802173614501953, -73.77538299560547, 2.3140618801116943, 0.0, 0.0, 89.90569305419922, 0.0, 0.0, 0.783538818359375, 0, 0, 0, 0, 0, 0, 9362.0, 30146.0, 35388.0, 9362.0, 8.370248794555664, 0.012552429921925068, -0.18583528697490692, -0.29697319865226746, -0.9988117218017578, 0.015581692568957806, 0.03551148623228073, -0.12290958315134048, -0.05751800537109375, 1.4912109375, 1.423095703125, 0.06591796875, 1.484619140625, 1.43994140625, 10.0, 1.401298464324817e-45, 1.401298464324817e-44
16850, 3.083050489425659, -73.81549072265625, 2.315666675567627, 0.0, 0.0, 89.91332244873047, 0.0, 0.0, 0.762939453125, 0, 0, 0, 0, 0, 0, 9362.0, 30146.0, 35388.0, 9362.0, 8.370248794555664, -0.020741693675518036, -0.2792811989784241, -0.08560419827699661, -0.9997460842132568, 0.014279065653681755, 0.03456662967801094, -0.12290958315134048, -0.05751800537109375, 1.4912109375, 1.421630859375, 0.0640716552734375, 1.484619140625, 1.393798828125, 10.0, 1.401298464324817e-45, 1.401298464324817e-44
16860, 3.0969460010528564, -73.876220703125, 2.328319549560547, 0.0, 0.0, 89.92023468017578, 0.0, 0.0, 0.69122314453125, 0, 0, 0, 0, 0, 0, 9362.0, 30146.0, 35388.0, 9362.0, 8.370248794555664, -0.03415763005614281, -0.1409747153520584, 0.02386961318552494, -0.9991616606712341, 0.014379126951098442, 0.03763285279273987, -0.12290958315134048, -0.05751800537109375, 1.4912109375, 1.420166015625, 0.0621337890625, 1.491943359375, 1.437744140625, 10.0, 1.401298464324817e-45, 1.401298464324817e-44
16870, 3.1085546016693115, -73.91636657714844, 2.340169668197632, 0.0, 0.0, 89.91773223876953, 0.0, 0.0, -0.250244140625, 0, 0, 0, 0, 0, 0, 9362.0, 30146.0, 35388.0, 9362.0, 8.370248794555664, -0.08376630395650864, -0.18505345284938812, 0.16892646253108978, -1.000188946723938, 0.013426397927105427, 0.034696873277425766, -0.12290958315134048, -0.05751800537109375, 1.4912109375, 1.430419921875, 0.0756378173828125, 1.491943359375, 1.42822265625, 10.0, 1.401298464324817e-45, 1.401298464324817e-44
16880, 3.123183488845825, -73.97911071777344, 2.3537182807922363, 0.0, 0.0, 89.91552734375, 0.0, 0.0, -0.220489501953125, 0, 0, 0, 0, 0, 0, 9362.0, 30146.0, 35388.0, 9362.0, 8.370248794555664, 0.15000109374523163, 0.19075506925582886, 0.13983191549777985, -1.000044584274292, 0.014192325994372368, 0.03330446034669876, -0.12290958315134048, -0.05751800537109375, 1.4912109375, 1.412841796875, 0.0534515380859375, 1.494873046875, 1.423095703125, 10.0, 1.401298464324817e-45, 1.401298464324817e-44
16890, 3.1268272399902344, -74.02095031738281, 2.3562769889831543, 0.0, 0.0, 89.91248321533203, 0.0, 0.0, -0.304412841796875, 0, 0, 0, 0, 0, 0, 9362.0, 30146.0, 35388.0, 9362.0, 8.370248794555664, 0.09141261130571365, 0.06644359976053238, -0.09983116388320923, -0.9978312849998474, 0.014258189126849174, 0.030426347628235817, -0.12290958315134048, -0.05751800537109375, 1.4912109375, 1.3828125, 0.0261077880859375, 1.494873046875, 1.4267578125, 10.0, 1.401298464324817e-45, 1.401298464324817e-44
16900, 3.1430327892303467, -74.0828628540039, 2.371628761291504, 0.0, 0.0, 89.9097900390625, 0.0, 0.0, -0.269317626953125, 0, 0, 0, 0, 0, 0, 9362.0, 30146.0, 35388.0, 9362.0, 8.370248794555664, 0.11043021082878113, 0.19952836632728577, 0.07067535817623138, -0.9968783259391785, 0.015323647297918797, 0.033194947987794876, -0.12290958315134048, -0.05751800537109375, 1.4912109375, 1.421630859375, 0.0640716552734375, 1.48828125, 1.430419921875, 10.0, 1.401298464324817e-45, 1.401298464324817e-44
16910, 3.157101631164551, -74.12190246582031, 2.3859689235687256, 0.0, 0.0, 89.90794372558594, 0.0, 0.0, -0.18463134765625, 0, 0, 0, 0, 0, 0, 9362.0, 30146.0, 35388.0, 9362.0, 8.370248794555664, 0.010057325474917889, -0.22668524086475372, 0.21496647596359253, -0.9988747835159302, 0.013223091140389442, 0.0329836905002594, -0.08955996483564377, -0.10231781005859375, 1.487548828125, 1.434814453125, 0.081787109375, 1.48828125, 1.43408203125, 10.0, 1.401298464324817e-45, 1.401298464324817e-44
16920, 3.1679718494415283, -74.18077850341797, 2.3959412574768066, 0.0, 0.0, 89.90631866455078, 0.0, 0.0, -0.162506103515625, 0, 0, 0, 0, 0, 0, 9362.0, 30146.0, 35388.0, 9362.0, 8.370248794555664, -0.0800175666809082, -0.11750295013189316, -0.07247138768434525, -0.9972467422485352, 0.015005181543529034, 0.03477388620376587, -0.08955996483564377, -0.10231781005859375, 1.487548828125, 1.42529296875, 0.0688018798828125, 1.4912109375, 1.44140625, 10.0, 1.401298464324817e-45, 1.401298464324817e-44
16930, 3.1770787239074707, -74.21839141845703, 2.4046170711517334, 0.0, 0.0, 89.9005126953125, 0.0, 0.0, -0.580596923828125, 0, 0, 0, 0, 0, 0, 9362.0, 30146.0, 35388.0, 9362.0, 8.370248794555664, 0.09974483400583267, -0.3052136301994324, 0.08976306021213531, -0.9974422454833984, 0.012111304327845573, 0.03501247614622116, -0.08955996483564377, -0.10231781005859375, 1.487548828125, 1.421630859375, 0.0640716552734375, 1.4912109375, 1.43408203125, 10.0, 1.401298464324817e-45, 1.401298464324817e-44
16940, 3.1891279220581055, -74.2757339477539, 2.416271924972534, 0.0, 0.0, 89.89532470703125, 0.0, 0.0, -0.518798828125, 0, 0, 0, 0, 0, 0, 9362.0, 30146.0, 35388.0, 9362.0, 8.370248794555664, -0.0591278038918972, -0.36303189396858215, 0.22588804364204407, -0.9983891844749451, 0.014285716228187084, 0.03479958325624466, -0.08955996483564377, -0.10231781005859375, 1.487548828125, 1.4267578125, 0.070709228515625, 1.491943359375, 1.4150390625, 10.0, 1.401298464324817e-45, 1.401298464324817e-44
16950, 3.1968507766723633, -74.31672668457031, 2.4216067790985107, 0.0, 0.0, 89.89669799804688, 0.0, 0.0, 0.1373291015625, 0, 0, 0, 0, 0, 0, 9362.0, 30146.0, 35388.0, 9362.0, 8.370248794555664, 0.34260985255241394, 0.10892639309167862, -0.11697354167699814, -0.9975412487983704, 0.015525090508162975, 0.0339844673871994, -0.08955996483564377, -0.10231781005859375, 1.487548828125, 1.458984375, 0.1195831298828125, 1.491943359375, 1.434814453125, 10.0, 1.401298464324817e-45, 1.401298464324817e-44
16960, 3.2122647762298584, -74.37600708007812, 2.436980962753296, 0.0, 0.0, 89.8979721069336, 0.0, 0.0, 0.127410888671875, 0, 0, 0, 0, 0, 0, 9362.0, 30146.0, 35388.0, 9362.0, 8.370248794555664, 0.06589645892381668, -0.19885189831256866, -0.20954355597496033, -0.9982134699821472, 0.01650959625840187, 0.03253649175167084, -0.08955996483564377, -0.10231781005859375, 1.487548828125, 1.4150390625, 0.05596923828125, 1.489013671875, 1.450927734375, 10.0, 1.401298464324817e-45, 1.401298464324817e-44
16970, 3.2311439514160156, -74.41492462158203, 2.455490827560425, 0.0, 0.0, 89.89149475097656, 0.0, 0.0, -0.647735595703125, 0, 0, 0, 0, 0, 0, 9362.0, 30146.0, 35388.0, 9362.0, 8.370248794555664, 0.0766916275024414, -0.19007132947444916, 0.3701901137828827, -0.9985302686691284, 0.016442717984318733, 0.03337302803993225, -0.08955996483564377, -0.10231781005859375, 1.487548828125, 1.415771484375, 0.0568695068359375, 1.489013671875, 1.442138671875, 10.0, 1.401298464324817e-45, 1.401298464324817e-44
16980, 3.2408180236816406, -74.47335815429688, 2.4645612239837646, 0.0, 0.0, 89.88570404052734, 0.0, 0.0, -0.579071044921875, 0, 0, 0, 0, 0, 0, 9362.0, 30146.0, 35388.0, 9362.0, 8.370248794555664, -0.11102043092250824, 0.19128146767616272, -0.04762621596455574, -0.9983403086662292, 0.016430532559752464, 0.03635379299521446, -0.08955996483564377, -0.10231781005859375, 1.487548828125, 1.45458984375, 0.11224365234375, 1.4912109375, 1.465576171875, 10.0, 1.401298464324817e-45, 1.401298464324817e-44
16990, 3.2442359924316406, -74.51121520996094, 2.4668900966644287, 0.0, 0.0, 89.88435363769531, 0.0, 0.0, -0.135040283203125, 0, 0, 0, 0, 0, 0, 9362.0, 30146.0, 35388.0, 9362.0, 8.370248794555664, 0.11050945520401001, -0.11325003951787949, -0.34038928151130676, -0.9982846975326538, 0.015428326092660427, 0.03549967333674431, -0.08955996483564377, -0.10231781005859375, 1.487548828125, 1.426025390625, 0.069732666015625, 1.4912109375, 1.446533203125, 10.0, 1.401298464324817e-45, 1.401298464324817e-44
17000, 3.2629261016845703, -74.57050323486328, 2.4841976165771484, 0.0, 0.0, 89.8831787109375, 0.0, 0.0, -0.11749267578125, 0, 0, 0, 0, 0, 0, 9362.0, 30146.0, 35388.0, 9362.0, 8.370248794555664, 0.07598748803138733, 0.05558329448103905, 0.03903104364871979, -0.9965529441833496, 0.014692481607198715, 0.03564249351620674, -0.08955996483564377, -0.10231781005859375, 1.487548828125, 1.39306640625, 0.0337982177734375, 1.48974609375, 1.42529296875, 10.0, 1.401298464324817e-45, 1.401298464324817e-44
17010, 3.2691702842712402, -74.60895538330078, 2.489319324493408, 0.0, 0.0, 89.88323974609375, 0.0, 0.0, 0.006103515625, 0, 0, 0, 0, 0, 0, 9362.0, 30146.0, 35388.0, 9362.0, 8.370248794555664, 0.12199044227600098, -0.08706589043140411, -0.1924658566713333, -1.0002344846725464, 0.012513415887951851, 0.03515247628092766, -0.12082412093877792, -0.13815879821777344, 1.484619140625, 1.41357421875, 0.0542449951171875, 1.48974609375, 1.39599609375, 10.0, 1.401298464324817e-45, 1.401298464324817e-44
17020, 3.267470121383667, -74.66474914550781, 2.486926794052124, 0.0, 0.0, 89.88333129882812, 0.0, 0.0, 0.0091552734375, 0, 0, 0, 0, 0, 0, 9362.0, 30146.0, 35388.0, 9362.0, 8.370248794555664, -0.04206322133541107, -0.051183778792619705, -0.27399107813835144, -0.9984221458435059, 0.011276517994701862, 0.036388758569955826, -0.12082412093877792, -0.13815879821777344, 1.484619140625, 1.379150390625, 0.0238189697265625, 1.489013671875, 1.428955078125, 10.0, 1.401298464324817e-45, 1.401298464324817e-44
17030, 3.2749006748199463, -74.7037124633789, 2.4940497875213623, 0.0, 0.0, 89.88946533203125, 0.0, 0.0, 0.6134033203125, 0, 0, 0, 0, 0, 0, 9362.0, 30146.0, 35388.0, 9362.0, 8.370248794555664, 0.06319257616996765, 0.06737256050109863, 0.024092774838209152, -0.9987043142318726, 0.013049132190644741, 0.036807287484407425, -0.12082412093877792, -0.13815879821777344, 1.484619140625, 1.37548828125, 0.021820068359375, 1.489013671875, 1.4208984375, 10.0, 1.401298464324817e-45, 1.401298464324817e-44
17040, 3.2860593795776367, -74.76168060302734, 2.505316972732544, 0.0, 0.0, 89.89501953125, 0.0, 0.0, 0.555419921875, 0, 0, 0, 0, 0, 0, 9362.0, 30146.0, 35388.0, 9362.0, 8.370248794555664, -0.04236705228686333, -0.010334504768252373, -0.035622816532850266, -0.9977784752845764, 0.01322954148054123, 0.03452813997864723, -0.12082412093877792, -0.13815879821777344, 1.484619140625, 1.348388671875, 0.0154571533203125, 1.49267578125, 1.423095703125, 10.0, 1.401298464324817e-45, 1.401298464324817e-44
17070, 3.3171563148498535, -74.89431762695312, 2.5361216068267822, 0.0, 0.0, 89.90605926513672, 0.0, 0.0, 1.103973388671875, 0, 0, 0, 0, 0, 0, 9362.0, 30146.0, 35388.0, 9362.0, 8.370248794555664, 0.10254615545272827, -0.1469317078590393, -0.10924103856086731, -0.9979149103164673, 0.014058276079595089, 0.033048588782548904, -0.12082412093877792, -0.13815879821777344, 1.484619140625, 1.404052734375, 0.04400634765625, 1.49267578125, 1.4619140625, 10.0, 1.401298464324817e-45, 1.401298464324817e-44
17080, 3.3432793617248535, -74.95333099365234, 2.561983346939087, 0.0, 0.0, 89.90605926513672, 0.0, 0.0, 1.103973388671875, 0, 0, 0, 0, 0, 0, 9362.0, 30146.0, 35388.0, 9362.0, 8.370248794555664, -0.08872926235198975, 0.1571468561887741, 0.2978309392929077, -0.9983134865760803, 0.015905428677797318, 0.03417433053255081, -0.12082412093877792, -0.13815879821777344, 1.484619140625, 1.404052734375, 0.04400634765625, 1.491943359375, 1.4619140625, 10.0, 1.401298464324817e-45, 1.401298464324817e-44
17090, 3.348080635070801, -74.99182891845703, 2.565458059310913, 0.0, 0.0, 89.93531036376953, 0.0, 0.0, 0.732421875, 0, 0, 0, 0, 0, 0, 9362.0, 30146.0, 35388.0, 9362.0, 8.370248794555664, 0.10219737887382507, 0.21755936741828918, -0.1347735971212387, -0.9983134865760803, 0.015905428677797318, 0.03417433053255081, -0.12082412093877792, -0.13815879821777344, 1.484619140625, 1.404052734375, 0.04400634765625, 1.491943359375, 1.4619140625, 10.0, 1.401298464324817e-45, 1.401298464324817e-44
17120, 3.3634796142578125, -75.13589477539062, 2.577974796295166, 0.0, 0.0, 89.95230102539062, 0.0, 0.0, 1.03607177734375, 0, 0, 0, 0, 0, 0, 9362.0, 30146.0, 35388.0, 9362.0, 8.370248794555664, 0.05166010931134224, -0.2428252398967743, -0.4289757311344147, -0.9989966154098511, 0.01284061186015606, 0.03399220108985901, -0.1209973618388176, -0.11127853393554688, 1.48681640625, 1.404052734375, 0.04400634765625, 1.496337890625, 1.455322265625, 10.0, 1.401298464324817e-45, 1.401298464324817e-44
17150, 3.385357141494751, -75.26081085205078, 2.598963975906372, 0.0, 0.0, 89.95230102539062, 0.0, 0.0, 1.03607177734375, 0, 0, 0, 0, 0, 0, 9362.0, 30146.0, 35388.0, 9362.0, 8.370248794555664, -0.048234764486551285, -0.4134971797466278, -0.1950322389602661, -1.0004183053970337, 0.013220585882663727, 0.03414905071258545, -0.1209973618388176, -0.11127853393554688, 1.48681640625, 1.43701171875, 0.085052490234375, 1.496337890625, 1.455322265625, 10.0, 1.401298464324817e-45, 1.401298464324817e-44
17170, 3.4267501831054688, -75.35799407958984, 2.6399824619293213, 0.0, 0.0, 89.95230102539062, 0.0, 0.0, 1.03607177734375, 0, 0, 0, 0, 0, 0, 9362.0, 30146.0, 35388.0, 9362.0, 8.370248794555664, -0.032301273196935654, 0.20469650626182556, 0.19591495394706726, -0.9989148378372192, 0.014061715453863144, 0.03336707130074501, -0.1209973618388176, -0.11127853393554688, 1.48681640625, 1.45751953125, 0.117095947265625, 1.49560546875, 1.455322265625, 10.0, 1.401298464324817e-45, 1.401298464324817e-44
17190, 3.448751211166382, -75.44601440429688, 2.6609199047088623, 0.0, 0.0, 89.95230102539062, 0.0, 0.0, 1.03607177734375, 0, 0, 0, 0, 0, 0, 9362.0, 30146.0, 35388.0, 9362.0, 8.370248794555664, 0.03818102926015854, -0.29393279552459717, 0.07825761288404465, -0.998516857624054, 0.0174860842525959, 0.03320228308439255, -0.1209973618388176, -0.11127853393554688, 1.48681640625, 1.4150390625, 0.05596923828125, 1.49560546875, 1.43701171875, 10.0, 1.401298464324817e-45, 1.401298464324817e-44
17200, 3.4702985286712646, -75.50230407714844, 2.680067539215088, 0.0, 0.0, 89.95230102539062, 0.0, 0.0, 1.03607177734375, 0, 0, 0, 0, 0, 0, 9362.0, 30146.0, 35388.0, 9362.0, 8.370248794555664, 0.1462836116552353, 0.25560295581817627, 0.04989665746688843, -0.9986053109169006, 0.01804378628730774, 0.03424989432096481, -0.1209973618388176, -0.11127853393554688, 1.48681640625, 1.37841796875, 0.023406982421875, 1.49560546875, 1.44580078125, 10.0, 1.401298464324817e-45, 1.401298464324817e-44
17230, 3.5065269470214844, -75.62736511230469, 2.7119882106781006, 0.0, 0.0, 89.99887084960938, 0.0, 0.0, -0.17547607421875, 0, 0, 0, 0, 0, 0, 9362.0, 30146.0, 35388.0, 9362.0, 8.370248794555664, -0.01605970412492752, -0.07162266969680786, 0.09834207594394684, -0.9995030760765076, 0.014509965665638447, 0.03535906970500946, -0.1209973618388176, -0.11127853393554688, 1.48681640625, 1.44580078125, 0.098236083984375, 1.48974609375, 1.46337890625, 10.0, 1.401298464324817e-45, 1.401298464324817e-44
17240, 3.5209434032440186, -75.67919921875, 2.7238128185272217, 0.0, 0.0, 89.99887084960938, 0.0, 0.0, -0.17547607421875, 0, 0, 0, 0, 0, 0, 9362.0, 30146.0, 35388.0, 9362.0, 8.370248794555664, 0.09200192987918854, -0.2352500855922699, -0.05528270825743675, -0.9995030760765076, 0.014509965665638447, 0.03535906970500946, -0.1209973618388176, -0.11127853393554688, 1.48681640625, 1.3740234375, 0.0210723876953125, 1.48974609375, 1.46337890625, 10.0, 1.401298464324817e-45, 1.401298464324817e-44
17250, 3.53328013420105, -75.71522521972656, 2.7362067699432373, 0.0, 0.0, 89.99887084960938, 0.0, 0.0, -0.17547607421875, 0, 0, 0, 0, 0, 0, 9362.0, 30146.0, 35388.0, 9362.0, 8.370248794555664, -0.06998949497938156, 0.23015452921390533, 0.16848024725914001, -0.9995030760765076, 0.014509965665638447, 0.03535906970500946, -0.1209973618388176, -0.11127853393554688, 1.48681640625, 1.437744140625, 0.086029052734375, 1.48974609375, 1.46337890625, 10.0, 1.401298464324817e-45, 1.401298464324817e-44
17280, 3.572312116622925, -75.8570785522461, 2.7743613719940186, 0.0, 0.0, 90.02246856689453, 0.0, 0.0, 0.553131103515625, 0, 0, 0, 0, 0, 0, 9362.0, 30146.0, 35388.0, 9362.0, 8.370248794555664, -0.09601228684186935, 0.21452787518501282, -0.04384123906493187, -1.0018272399902344, 0.011862380430102348, 0.03292309120297432, -0.1209973618388176, -0.11127853393554688, 1.48681640625, 1.437744140625, 0.086029052734375, 1.490478515625, 1.4560546875, 10.0, 1.401298464324817e-45, 1.401298464324817e-44
17290, 3.590095281600952, -75.89212799072266, 2.7920587062835693, 0.0, 0.0, 90.02710723876953, 0.0, 0.0, -0.03814697265625, 0, 0, 0, 0, 0, 0, 9362.0, 30146.0, 35388.0, 9362.0, 8.370248794555664, 0.11223898082971573, -0.04569191858172417, 0.2149379551410675, -0.9997619390487671, 0.011080904863774776, 0.032746754586696625, -0.1209973618388176, -0.11127853393554688, 1.48681640625, 1.437744140625, 0.086029052734375, 1.490478515625, 1.4501953125, 10.0, 1.401298464324817e-45, 1.401298464324817e-44
17300, 3.602095603942871, -75.94596862792969, 2.8029258251190186, 0.0, 0.0, 90.02710723876953, 0.0, 0.0, -0.03814697265625, 0, 0, 0, 0, 0, 0, 9362.0, 30146.0, 35388.0, 9362.0, 8.370248794555664, 0.03000694513320923, 0.31337329745292664, 0.09154433757066727, -0.9997619390487671, 0.011080904863774776, 0.032746754586696625, -0.1209973618388176, -0.11127853393554688, 1.48681640625, 1.437744140625, 0.086029052734375, 1.49267578125, 1.456787109375, 10.0, 1.401298464324817e-45, 1.401298464324817e-44
17320, 3.618882417678833, -76.03319549560547, 2.8176796436309814, 0.0, 0.0, 90.01834106445312, 0.0, 0.0, -0.846099853515625, 0, 0, 0, 0, 0, 0, 9362.0, 30146.0, 35388.0, 9362.0, 8.370248794555664, 0.31029513478279114, 0.04690920189023018, 0.21272395551204681, -0.998559296131134, 0.013875050470232964, 0.03572120890021324, -0.09174153208732605, -0.06647872924804688, 1.490478515625, 1.401123046875, 0.041015625, 1.49267578125, 1.412109375, 10.0, 1.401298464324817e-45, 1.401298464324817e-44
17330, 3.6260159015655518, -76.0677490234375, 2.8248496055603027, 0.0, 0.0, 90.01544952392578, 0.0, 0.0, 0.46844482421875, 0, 0, 0, 0, 0, 0, 9362.0, 30146.0, 35388.0, 9362.0, 8.370248794555664, -0.12443632632493973, 0.06551019102334976, -0.1439722180366516, -0.9969885945320129, 0.014295239001512527, 0.03641277924180031, -0.09174153208732605, -0.06647872924804688, 1.490478515625, 1.401123046875, 0.041015625, 1.49267578125, 1.412109375, 10.0, 1.401298464324817e-45, 1.401298464324817e-44
17350, 3.662541627883911, -76.15335083007812, 2.8626441955566406, 0.0, 0.0, 90.01544952392578, 0.0, 0.0, 0.46844482421875, 0, 0, 0, 0, 0, 0, 9362.0, 30146.0, 35388.0, 9362.0, 8.370248794555664, -0.10081754624843597, 0.0173598974943161, 0.12908607721328735, -0.9967143535614014, 0.014969711191952229, 0.03506491705775261, -0.09174153208732605, -0.06647872924804688, 1.490478515625, 1.421630859375, 0.0640716552734375, 1.4912109375, 1.412109375, 10.0, 1.401298464324817e-45, 1.401298464324817e-44
17370, 3.6997995376586914, -76.23522186279297, 2.900444507598877, 0.0, 0.0, 90.01544952392578, 0.0, 0.0, 0.46844482421875, 0, 0, 0, 0, 0, 0, 9362.0, 30146.0, 35388.0, 9362.0, 8.370248794555664, -0.13532139360904694, 0.1769469827413559, 0.11211701482534409, -0.9962121248245239, 0.016375327482819557, 0.034128475934267044, -0.09174153208732605, -0.06647872924804688, 1.490478515625, 1.47216796875, 0.142547607421875, 1.49560546875, 1.412109375, 10.0, 1.401298464324817e-45, 1.401298464324817e-44
17380, 3.7228846549987793, -76.28366088867188, 2.92234468460083, 0.0, 0.0, 90.01544952392578, 0.0, 0.0, 0.46844482421875, 0, 0, 0, 0, 0, 0, 9362.0, 30146.0, 35388.0, 9362.0, 8.370248794555664, 0.05637640878558159, -0.02774570882320404, -0.04949535056948662, -0.997628927230835, 0.016765357926487923, 0.03429914638400078, -0.09174153208732605, -0.06647872924804688, 1.490478515625, 1.47216796875, 0.142547607421875, 1.493408203125, 1.46630859375, 10.0, 1.401298464324817e-45, 1.401298464324817e-44
17390, 3.7387752532958984, -76.31695556640625, 2.9385039806365967, 0.0, 0.0, 90.00845336914062, 0.0, 0.0, -0.28839111328125, 0, 0, 0, 0, 0, 0, 9362.0, 30146.0, 35388.0, 9362.0, 8.370248794555664, -0.03354162350296974, -0.04950328171253204, 0.19662469625473022, -1.0017781257629395, 0.01624162308871746, 0.03140302002429962, -0.09174153208732605, -0.06647872924804688, 1.490478515625, 1.47216796875, 0.142547607421875, 1.493408203125, 1.44873046875, 10.0, 1.401298464324817e-45, 1.401298464324817e-44
17420, 3.7833282947540283, -76.44950103759766, 2.977700710296631, 0.0, 0.0, 90.00845336914062, 0.0, 0.0, -0.28839111328125, 0, 0, 0, 0, 0, 0, 9362.0, 30146.0, 35388.0, 9362.0, 8.370248794555664, 0.03698502853512764, -0.2740127444267273, -0.13433124125003815, -0.999366283416748, 0.01351720467209816, 0.03238585963845253, -0.09174153208732605, -0.06647872924804688, 1.490478515625, 1.462646484375, 0.125823974609375, 1.48974609375, 1.44873046875, 10.0, 1.401298464324817e-45, 1.401298464324817e-44
17450, 3.7982404232025146, -76.56153106689453, 2.9905014038085938, 0.0, 0.0, 90.02655029296875, 0.0, 0.0, -0.1678466796875, 0, 0, 0, 0, 0, 0, 9362.0, 30146.0, 35388.0, 9362.0, 8.370248794555664, 0.07947246730327606, -0.07077447324991226, 0.07418308407068253, -0.9986172914505005, 0.012118708342313766, 0.03605780750513077, -0.09174153208732605, -0.06647872924804688, 1.490478515625, 1.47216796875, 0.142547607421875, 1.48974609375, 1.4501953125, 10.0, 1.401298464324817e-45, 1.401298464324817e-44
17460, 3.817889928817749, -76.6104965209961, 3.01009202003479, 0.0, 0.0, 90.02655029296875, 0.0, 0.0, -0.1678466796875, 0, 0, 0, 0, 0, 0, 9362.0, 30146.0, 35388.0, 9362.0, 8.370248794555664, 0.048079781234264374, 0.08313636481761932, 0.2953064441680908, -0.9996915459632874, 0.011469834484159946, 0.03587089106440544, -0.09174153208732605, -0.06647872924804688, 1.490478515625, 1.47216796875, 0.142547607421875, 1.494140625, 1.465576171875, 10.0, 1.401298464324817e-45, 1.401298464324817e-44
17470, 3.8348100185394287, -76.64481353759766, 3.027467966079712, 0.0, 0.0, 90.02046966552734, 0.0, 0.0, -0.45928955078125, 0, 0, 0, 0, 0, 0, 9362.0, 30146.0, 35388.0, 9362.0, 8.370248794555664, 0.03158668056130409, 0.47232750058174133, 0.2430439293384552, -0.9995469450950623, 0.01334330253303051, 0.03567202389240265, -0.09174153208732605, -0.06647872924804688, 1.490478515625, 1.47216796875, 0.142547607421875, 1.494140625, 1.478759765625, 10.0, 1.401298464324817e-45, 1.401298464324817e-44
17480, 3.849085807800293, -76.6907730102539, 3.043060064315796, 0.0, 0.0, 90.02046966552734, 0.0, 0.0, -0.45928955078125, 0, 0, 0, 0, 0, 0, 9362.0, 30146.0, 35388.0, 9362.0, 8.370248794555664, 0.012531758286058903, 0.027941355481743813, 0.09019996970891953, -0.9995469450950623, 0.01334330253303051, 0.03567202389240265, -0.09174153208732605, -0.06647872924804688, 1.490478515625, 1.47216796875, 0.142547607421875, 1.49267578125, 1.478759765625, 10.0, 1.401298464324817e-45, 1.401298464324817e-44
17530, 3.9102704524993896, -76.87902069091797, 3.10306453704834, 0.0, 0.0, 90.02799987792969, 0.0, 0.0, 1.163482666015625, 0, 0, 0, 0, 0, 0, 9362.0, 30146.0, 35388.0, 9362.0, 8.370248794555664, 0.1210937574505806, -0.46591177582740784, 0.06474394351243973, -0.998184859752655, 0.015473056584596634, 0.03293222188949585, -0.10764329135417938, -0.09335899353027344, 1.48828125, 1.44580078125, 0.098236083984375, 1.494873046875, 1.482421875, 10.0, 1.401298464324817e-45, 1.401298464324817e-44
17570, 3.984607219696045, -77.03413391113281, 3.1749095916748047, 0.0, 0.0, 90.10704803466797, 0.0, 0.0, 1.0955810546875, 0, 0, 0, 0, 0, 0, 9362.0, 30146.0, 35388.0, 9362.0, 8.370248794555664, 0.11467555165290833, -0.28211015462875366, 0.05247921124100685, -0.9990548491477966, 0.018569674342870712, 0.03543820232152939, -0.10764329135417938, -0.09335899353027344, 1.48828125, 1.4970703125, 0.18975830078125, 1.4912109375, 1.449462890625, 10.0, 1.401298464324817e-45, 1.401298464324817e-44
17580, 4.004512310028076, -77.08062744140625, 3.194863796234131, 0.0, 0.0, 90.10704803466797, 0.0, 0.0, 1.0955810546875, 0, 0, 0, 0, 0, 0, 9362.0, 30146.0, 35388.0, 9362.0, 8.370248794555664, -0.12414370477199554, -0.14622923731803894, 0.06092360243201256, -0.9990548491477966, 0.018569674342870712, 0.03543820232152939, -0.10764329135417938, -0.09335899353027344, 1.48828125, 1.4326171875, 0.0786895751953125, 1.4912109375, 1.449462890625, 10.0, 1.401298464324817e-45, 1.401298464324817e-44
17590, 4.012653827667236, -77.11321258544922, 3.202059030532837, 0.0, 0.0, 90.10704803466797, 0.0, 0.0, 1.0955810546875, 0, 0, 0, 0, 0, 0, 9362.0, 30146.0, 35388.0, 9362.0, 8.370248794555664, 0.1667507141828537, 0.2077045887708664, -0.13704459369182587, -0.9990548491477966, 0.018569674342870712, 0.03543820232152939, -0.10764329135417938, -0.09335899353027344, 1.48828125, 1.4326171875, 0.0786895751953125, 1.4912109375, 1.449462890625, 10.0, 1.401298464324817e-45, 1.401298464324817e-44
17600, 4.022302627563477, -77.15953063964844, 3.209932804107666, 0.0, 0.0, 90.10704803466797, 0.0, 0.0, 1.0955810546875, 0, 0, 0, 0, 0, 0, 9362.0, 30146.0, 35388.0, 9362.0, 8.370248794555664, 0.1667507141828537, 0.2077045887708664, -0.13704459369182587, -0.9998182058334351, 0.014179600402712822, 0.03796148672699928, -0.10764329135417938, -0.09335899353027344, 1.48828125, 1.434814453125, 0.081787109375, 1.4912109375, 1.450927734375, 10.0, 1.401298464324817e-45, 1.401298464324817e-44
17670, 4.11339807510376, -77.41869354248047, 3.300088882446289, 0.0, 0.0, 90.1302719116211, 0.0, 0.0, 0.853729248046875, 0, 0, 0, 0, 0, 0, 9362.0, 30146.0, 35388.0, 9362.0, 8.370248794555664, -0.22443699836730957, 0.21661651134490967, -0.10651560872793198, -0.9978886842727661, 0.0195187758654356, 0.031513337045907974, -0.10764329135417938, -0.09335899353027344, 1.48828125, 1.434814453125, 0.081787109375, 1.49560546875, 1.421630859375, 10.0, 1.401298464324817e-45, 1.401298464324817e-44
17680, 4.149674415588379, -77.46713256835938, 3.336778402328491, 0.0, 0.0, 90.1302719116211, 0.0, 0.0, 0.853729248046875, 0, 0, 0, 0, 0, 0, 9362.0, 30146.0, 35388.0, 9362.0, 8.370248794555664, -0.03679515793919563, 0.4192757308483124, 0.24317283928394318, -0.9987757802009583, 0.02139972522854805, 0.030954984948039055, -0.10764329135417938, -0.09335899353027344, 1.48828125, 1.434814453125, 0.081787109375, 1.49267578125, 1.426025390625, 10.0, 1.401298464324817e-45, 1.401298464324817e-44
17690, 4.162625789642334, -77.49718475341797, 3.3485841751098633, 0.0, 0.0, 90.1302719116211, 0.0, 0.0, 0.853729248046875, 0, 0, 0, 0, 0, 0, 9362.0, 30146.0, 35388.0, 9362.0, 8.370248794555664, 0.04811025783419609, -0.038132306188344955, -0.08011177182197571, -0.9985278844833374, 0.017637677490711212, 0.031577058136463165, -0.10764329135417938, -0.09335899353027344, 1.48828125, 1.41357421875, 0.0542449951171875, 1.49267578125, 1.426025390625, 10.0, 1.401298464324817e-45, 1.401298464324817e-44
17720, 4.167840003967285, -77.61450958251953, 3.348296642303467, 0.0, 0.0, 90.1302719116211, 0.0, 0.0, 0.853729248046875, 0, 0, 0, 0, 0, 0, 9362.0, 30146.0, 35388.0, 9362.0, 8.370248794555664, 0.04299198091030121, 0.13191045820713043, -0.20244039595127106, -0.9985278844833374, 0.017637677490711212, 0.031577058136463165, -0.10764329135417938, -0.09335899353027344, 1.48828125, 1.426025390625, 0.069732666015625, 1.49267578125, 1.426025390625, 10.0, 1.401298464324817e-45, 1.401298464324817e-44
17770, 4.277822494506836, -77.79024505615234, 3.4618687629699707, 0.0, 0.0, 90.11800384521484, 0.0, 0.0, -0.499725341796875, 0, 0, 0, 0, 0, 0, 9362.0, 30146.0, 35388.0, 9362.0, 8.370248794555664, 0.07365991920232773, 0.5711666941642761, 0.2187209576368332, -0.9972726106643677, 0.01710188016295433, 0.0332983061671257, -0.10764329135417938, -0.09335899353027344, 1.48828125, 1.399658203125, 0.0396575927734375, 1.49267578125, 1.426025390625, 10.0, 1.401298464324817e-45, 1.401298464324817e-44
17780, 4.280845642089844, -77.8308334350586, 3.4645111560821533, 0.0, 0.0, 90.11800384521484, 0.0, 0.0, -0.499725341796875, 0, 0, 0, 0, 0, 0, 9362.0, 30146.0, 35388.0, 9362.0, 8.370248794555664, 0.007412916049361229, -0.43623462319374084, -0.4078715443611145, -1.0008375644683838, 0.013705538585782051, 0.034382522106170654, -0.10764329135417938, -0.09335899353027344, 1.48828125, 1.399658203125, 0.0396575927734375, 1.491943359375, 1.426025390625, 10.0, 1.401298464324817e-45, 1.401298464324817e-44
17800, 4.268986701965332, -77.89883422851562, 3.4490742683410645, 0.0, 0.0, 90.0736083984375, 0.0, 0.0, -1.882171630859375, 0, 0, 0, 0, 0, 0, 9362.0, 30146.0, 35388.0, 9362.0, 8.370248794555664, 0.09435716271400452, 0.17415829002857208, -0.7554275989532471, -0.9997250437736511, 0.011782985180616379, 0.03427586704492569, -0.10764329135417938, -0.09335899353027344, 1.48828125, 1.4033203125, 0.043182373046875, 1.491943359375, 1.40771484375, 10.0, 1.401298464324817e-45, 1.401298464324817e-44
17820, 4.324162483215332, -77.96216583251953, 3.5064585208892822, 0.0, 0.0, 90.0736083984375, 0.0, 0.0, -1.882171630859375, 0, 0, 0, 0, 0, 0, 9362.0, 30146.0, 35388.0, 9362.0, 8.370248794555664, -0.2241543084383011, 0.030005231499671936, 0.6634542346000671, -1.0013632774353027, 0.017496835440397263, 0.04570702835917473, -0.10764329135417938, -0.09335899353027344, 1.48828125, 1.44287109375, 0.0936279296875, 1.49560546875, 1.42236328125, 10.0, 1.401298464324817e-45, 1.401298464324817e-44
17830, 4.3487749099731445, -77.98736572265625, 3.531592607498169, 0.0, 0.0, 90.00772094726562, 0.0, 0.0, -0.350189208984375, 0, 0, 0, 0, 0, 0, 9362.0, 30146.0, 35388.0, 9362.0, 8.370248794555664, -0.2241543084383011, 0.030005231499671936, 0.6634542346000671, -0.9897485971450806, 0.017331531271338463, 0.04019881412386894, -0.10764329135417938, -0.09335899353027344, 1.48828125, 1.44287109375, 0.0936279296875, 1.49560546875, 1.423095703125, 10.0, 1.401298464324817e-45, 1.401298464324817e-44
17840, 4.366797924041748, -78.03265380859375, 3.547369956970215, 0.0, 0.0, 90.00772094726562, 0.0, 0.0, -0.350189208984375, 0, 0, 0, 0, 0, 0, 9362.0, 30146.0, 35388.0, 9362.0, 8.370248794555664, 0.3085074722766876, 0.9703012704849243, 0.19765862822532654, -0.9897485971450806, 0.017331531271338463, 0.04019881412386894, -0.10764329135417938, -0.09335899353027344, 1.48828125, 1.44287109375, 0.0936279296875, 1.493408203125, 1.423095703125, 10.0, 1.401298464324817e-45, 1.401298464324817e-44
17850, 4.334831237792969, -78.05928039550781, 3.5129024982452393, 0.0, 0.0, 90.019287109375, 0.0, 0.0, 1.46942138671875, 0, 0, 0, 0, 0, 0, 9362.0, 30146.0, 35388.0, 9362.0, 8.370248794555664, 0.24619407951831818, -0.5413609743118286, -1.1825387477874756, -1.0045878887176514, 0.012824333272874355, 0.02474975399672985, -0.10764329135417938, -0.09335899353027344, 1.48828125, 1.44287109375, 0.0936279296875, 1.493408203125, 1.423828125, 10.0, 1.401298464324817e-45, 1.401298464324817e-44
17860, 4.3554887771606445, -78.10861206054688, 3.5317602157592773, 0.0, 0.0, 90.019287109375, 0.0, 0.0, 1.46942138671875, 0, 0, 0, 0, 0, 0, 9362.0, 30146.0, 35388.0, 9362.0, 8.370248794555664, 0.15990053117275238, 1.0725364685058594, 0.2826887369155884, -1.0012997388839722, 0.01023498922586441, 0.026750462129712105, -0.10764329135417938, -0.09335899353027344, 1.48828125, 1.44287109375, 0.0936279296875, 1.491943359375, 1.42236328125, 10.0, 1.401298464324817e-45, 1.401298464324817e-44
17880, 4.464810371398926, -78.18416595458984, 3.6463966369628906, 0.0, 0.0, 90.04556274414062, 0.0, 0.0, 1.3031005859375, 0, 0, 0, 0, 0, 0, 9362.0, 30146.0, 35388.0, 9362.0, 8.370248794555664, -0.10547313839197159, 0.9488676190376282, 1.1284873485565186, -1.0031474828720093, 0.01393129862844944, 0.027135083451867104, -0.10764329135417938, -0.09335899353027344, 1.48828125, 1.445068359375, 0.0970306396484375, 1.4912109375, 1.461181640625, 10.0, 1.401298464324817e-45, 1.401298464324817e-44
17930, 4.464226245880127, -78.32695770263672, 3.6443533897399902, 0.0, 0.0, 90.10449981689453, 0.0, 0.0, 0.539398193359375, 0, 0, 0, 0, 0, 0, 9362.0, 30146.0, 35388.0, 9362.0, 8.370248794555664, -0.33241596817970276, -0.5053713321685791, -0.1757361739873886, -0.9986986517906189, 0.015315752476453781, 0.04304811730980873, -0.09470192342996597, -0.07543754577636719, 1.48974609375, 1.44140625, 0.0914459228515625, 1.489013671875, 1.461181640625, 10.0, 1.401298464324817e-45, 1.401298464324817e-44
17940, 4.494314670562744, -78.36725616455078, 3.6729047298431396, 0.0, 0.0, 90.10449981689453, 0.0, 0.0, 0.539398193359375, 0, 0, 0, 0, 0, 0, 9362.0, 30146.0, 35388.0, 9362.0, 8.370248794555664, 0.17455556988716125, 0.6404138803482056, 0.19021722674369812, -0.9952765107154846, 0.014999262988567352, 0.03890310600399971, -0.09470192342996597, -0.07543754577636719, 1.48974609375, 1.44140625, 0.0914459228515625, 1.493408203125, 1.46630859375, 10.0, 1.401298464324817e-45, 1.401298464324817e-44
17950, 4.511207580566406, -78.3921127319336, 3.6894686222076416, 0.0, 0.0, 90.11215209960938, 0.0, 0.0, 0.276947021484375, 0, 0, 0, 0, 0, 0, 9362.0, 30146.0, 35388.0, 9362.0, 8.370248794555664, 0.013126969337463379, -0.11462307721376419, 0.018077872693538666, -1.0002888441085815, 0.015570832416415215, 0.03420254588127136, -0.09470192342996597, -0.07543754577636719, 1.48974609375, 1.44140625, 0.0914459228515625, 1.493408203125, 1.46630859375, 10.0, 1.401298464324817e-45, 1.401298464324817e-44
17990, 4.590472221374512, -78.53555297851562, 3.766385078430176, 0.0, 0.0, 90.11215209960938, 0.0, 0.0, 0.276947021484375, 0, 0, 0, 0, 0, 0, 9362.0, 30146.0, 35388.0, 9362.0, 8.370248794555664, -0.001464338623918593, 0.48403698205947876, 0.16198508441448212, -1.003057837486267, 0.015455756336450577, 0.028133578598499298, -0.09470192342996597, -0.07543754577636719, 1.48974609375, 1.4267578125, 0.070709228515625, 1.493408203125, 1.440673828125, 10.0, 1.401298464324817e-45, 1.401298464324817e-44
18000, 4.567647457122803, -78.56636810302734, 3.739469528198242, 0.0, 0.0, 90.11215209960938, 0.0, 0.0, 0.276947021484375, 0, 0, 0, 0, 0, 0, 9362.0, 30146.0, 35388.0, 9362.0, 8.370248794555664, 0.3879919648170471, -0.757506787776947, -0.5872469544410706, -0.9980186820030212, 0.012301011942327023, 0.03476919233798981, -0.09470192342996597, -0.07543754577636719, 1.48974609375, 1.4267578125, 0.070709228515625, 1.48974609375, 1.452392578125, 10.0, 1.401298464324817e-45, 1.401298464324817e-44
18020, 4.57004451751709, -78.62104034423828, 3.7427008152008057, 0.0, 0.0, 90.11991882324219, 0.0, 0.0, 0.383758544921875, 0, 0, 0, 0, 0, 0, 9362.0, 30146.0, 35388.0, 9362.0, 8.370248794555664, -0.1542925238609314, 0.026059765368700027, 0.20554688572883606, -0.9973332285881042, 0.009195503778755665, 0.03992750495672226, -0.09470192342996597, -0.07543754577636719, 1.48974609375, 1.423828125, 0.066802978515625, 1.48974609375, 1.452392578125, 10.0, 1.401298464324817e-45, 1.401298464324817e-44
18050, 4.613308906555176, -78.70927429199219, 3.7892887592315674, 0.0, 0.0, 90.11354064941406, 0.0, 0.0, -0.0244140625, 0, 0, 0, 0, 0, 0, 9362.0, 30146.0, 35388.0, 9362.0, 8.370248794555664, -0.04597644507884979, 0.5884913206100464, 0.07926645129919052, -0.997222363948822, 0.013644828461110592, 0.032690756022930145, -0.09470192342996597, -0.07543754577636719, 1.48974609375, 1.424560546875, 0.0678253173828125, 1.49560546875, 1.45166015625, 10.0, 1.401298464324817e-45, 1.401298464324817e-44
18060, 4.668911933898926, -78.75122833251953, 3.847226619720459, 0.0, 0.0, 90.11354064941406, 0.0, 0.0, -0.0244140625, 0, 0, 0, 0, 0, 0, 9362.0, 30146.0, 35388.0, 9362.0, 8.370248794555664, -0.05195127800107002, 0.5493709444999695, 0.7142038345336914, -0.9971852898597717, 0.01538044959306717, 0.027493780478835106, -0.09470192342996597, -0.07543754577636719, 1.48974609375, 1.424560546875, 0.0678253173828125, 1.48974609375, 1.45166015625, 10.0, 1.401298464324817e-45, 1.401298464324817e-44
18070, 4.693006992340088, -78.7771224975586, 3.871349334716797, 0.0, 0.0, 90.10826110839844, 0.0, 0.0, -0.508880615234375, 0, 0, 0, 0, 0, 0, 9362.0, 30146.0, 35388.0, 9362.0, 8.370248794555664, 0.004645939916372299, 0.16173155605793, 0.03816872835159302, -0.9953915476799011, 0.017936591058969498, 0.02765974961221218, -0.09470192342996597, -0.07543754577636719, 1.48974609375, 1.424560546875, 0.0678253173828125, 1.48974609375, 1.405517578125, 10.0, 1.401298464324817e-45, 1.401298464324817e-44
18080, 4.7401838302612305, -78.8165283203125, 3.918205976486206, 0.0, 0.0, 90.10826110839844, 0.0, 0.0, -0.508880615234375, 0, 0, 0, 0, 0, 0, 9362.0, 30146.0, 35388.0, 9362.0, 8.370248794555664, 0.08620461821556091, 0.17570264637470245, 0.4185578227043152, -0.9967459440231323, 0.018645580857992172, 0.0275165606290102, -0.09470192342996597, -0.07543754577636719, 1.48974609375, 1.385009765625, 0.0276336669921875, 1.48974609375, 1.418701171875, 10.0, 1.401298464324817e-45, 1.401298464324817e-44
18090, 4.748985290527344, -78.83709716796875, 3.926123857498169, 0.0, 0.0, 90.10070037841797, 0.0, 0.0, -0.299835205078125, 0, 0, 0, 0, 0, 0, 9362.0, 30146.0, 35388.0, 9362.0, 8.370248794555664, 0.09672082960605621, -0.5517526865005493, -0.22567713260650635, -1.000373125076294, 0.018951304256916046, 0.0294808279722929, -0.09470192342996597, -0.07543754577636719, 1.48974609375, 1.385009765625, 0.0276336669921875, 1.48974609375, 1.4443359375, 10.0, 1.401298464324817e-45, 1.401298464324817e-44
18100, 4.729162216186523, -78.87068176269531, 3.9043190479278564, 0.0, 0.0, 90.10070037841797, 0.0, 0.0, -0.299835205078125, 0, 0, 0, 0, 0, 0, 9362.0, 30146.0, 35388.0, 9362.0, 8.370248794555664, 0.07711997628211975, -0.4224090576171875, -0.8799909949302673, -0.9986274242401123, 0.01670989580452442, 0.03478642553091049, -0.09470192342996597, -0.07543754577636719, 1.48974609375, 1.385009765625, 0.0276336669921875, 1.4912109375, 1.42529296875, 10.0, 1.401298464324817e-45, 1.401298464324817e-44
18120, 4.736583709716797, -78.92100524902344, 3.910689115524292, 0.0, 0.0, 90.08631134033203, 0.0, 0.0, -1.17034912109375, 0, 0, 0, 0, 0, 0, 9362.0, 30146.0, 35388.0, 9362.0, 8.370248794555664, 0.060150809586048126, -0.4064916968345642, -0.06582317501306534, -0.9978052377700806, 0.013563795946538448, 0.04040001332759857, -0.12278557568788528, -0.12023735046386719, 1.486083984375, 1.385009765625, 0.0276336669921875, 1.493408203125, 1.42529296875, 10.0, 1.401298464324817e-45, 1.401298464324817e-44
18130, 4.74418306350708, -78.94339752197266, 3.919785737991333, 0.0, 0.0, 90.0761947631836, 0.0, 0.0, 0.0396728515625, 0, 0, 0, 0, 0, 0, 9362.0, 30146.0, 35388.0, 9362.0, 8.370248794555664, -0.35609060525894165, -0.02905855141580105, 0.062365829944610596, -0.9972106218338013, 0.011007060296833515, 0.03945072740316391, -0.12278557568788528, -0.12023735046386719, 1.486083984375, 1.385009765625, 0.0276336669921875, 1.493408203125, 1.42529296875, 10.0, 1.401298464324817e-45, 1.401298464324817e-44
18140, 4.777495384216309, -78.98161315917969, 3.9527673721313477, 0.0, 0.0, 90.0761947631836, 0.0, 0.0, 0.0396728515625, 0, 0, 0, 0, 0, 0, 9362.0, 30146.0, 35388.0, 9362.0, 8.370248794555664, 0.05824408680200577, 0.3817881941795349, 0.24996013939380646, -0.994541585445404, 0.011753065511584282, 0.03891665115952492, -0.12278557568788528, -0.12023735046386719, 1.486083984375, 1.385009765625, 0.0276336669921875, 1.49560546875, 1.44287109375, 10.0, 1.401298464324817e-45, 1.401298464324817e-44
18150, 4.794031143188477, -79.00743865966797, 3.970010280609131, 0.0, 0.0, 90.06597900390625, 0.0, 0.0, -1.0589599609375, 0, 0, 0, 0, 0, 0, 9362.0, 30146.0, 35388.0, 9362.0, 8.370248794555664, -0.25833940505981445, 0.2669922411441803, 0.0016095842001959682, -0.9997814297676086, 0.01394661609083414, 0.03298034891486168, -0.12278557568788528, -0.12023735046386719, 1.486083984375, 1.385009765625, 0.0276336669921875, 1.49560546875, 1.45751953125, 10.0, 1.401298464324817e-45, 1.401298464324817e-44
18160, 4.852671146392822, -79.0484390258789, 4.029139518737793, 0.0, 0.0, 90.06597900390625, 0.0, 0.0, -1.0589599609375, 0, 0, 0, 0, 0, 0, 9362.0, 30146.0, 35388.0, 9362.0, 8.370248794555664, -0.25833940505981445, 0.2669922411441803, 0.0016095842001959682, -0.9996916055679321, 0.016513196751475334, 0.03024827130138874, -0.12278557568788528, -0.12023735046386719, 1.486083984375, 1.385009765625, 0.0276336669921875, 1.49267578125, 1.45751953125, 10.0, 1.401298464324817e-45, 1.401298464324817e-44
18170, 4.875269889831543, -79.07579803466797, 4.052452087402344, 0.0, 0.0, 90.05010223388672, 0.0, 0.0, -0.63629150390625, 0, 0, 0, 0, 0, 0, 9362.0, 30146.0, 35388.0, 9362.0, 8.370248794555664, -0.22101594507694244, 0.5229239463806152, -0.012983697466552258, -0.9999682307243347, 0.016951195895671844, 0.03206286206841469, -0.12278557568788528, -0.12023735046386719, 1.486083984375, 1.385009765625, 0.0276336669921875, 1.49267578125, 1.435546875, 10.0, 1.401298464324817e-45, 1.401298464324817e-44
18180, 4.93107271194458, -79.11186218261719, 4.108315944671631, 0.0, 0.0, 90.05010223388672, 0.0, 0.0, -0.63629150390625, 0, 0, 0, 0, 0, 0, 9362.0, 30146.0, 35388.0, 9362.0, 8.370248794555664, -0.22101594507694244, 0.5229239463806152, -0.012983697466552258, -0.9997552633285522, 0.01915292628109455, 0.031172018498182297, -0.12278557568788528, -0.12023735046386719, 1.486083984375, 1.385009765625, 0.0276336669921875, 1.49560546875, 1.435546875, 10.0, 1.401298464324817e-45, 1.401298464324817e-44
18200, 4.924593448638916, -79.16474151611328, 4.09872579574585, 0.0, 0.0, 90.0348892211914, 0.0, 0.0, -0.949859619140625, 0, 0, 0, 0, 0, 0, 9362.0, 30146.0, 35388.0, 9362.0, 8.370248794555664, 0.24492338299751282, -0.17162372171878815, -0.6475957632064819, -0.9996994137763977, 0.01791742816567421, 0.032226454466581345, -0.12278557568788528, -0.12023735046386719, 1.486083984375, 1.398193359375, 0.03826904296875, 1.490478515625, 1.4208984375, 10.0, 1.401298464324817e-45, 1.401298464324817e-44
18240, 4.98273229598999, -79.27507781982422, 4.1575541496276855, 0.0, 0.0, 90.02142333984375, 0.0, 0.0, -0.49285888671875, 0, 0, 0, 0, 0, 0, 9362.0, 30146.0, 35388.0, 9362.0, 8.370248794555664, -0.07180144637823105, 0.3317921757698059, 0.3923813998699188, -0.999495267868042, 0.013725205324590206, 0.034769266843795776, -0.12278557568788528, -0.12023735046386719, 1.486083984375, 1.411376953125, 0.05181884765625, 1.48974609375, 1.449462890625, 10.0, 1.401298464324817e-45, 1.401298464324817e-44
18250, 5.018113613128662, -79.30253601074219, 4.194547176361084, 0.0, 0.0, 89.99632263183594, 0.0, 0.0, 0.034332275390625, 0, 0, 0, 0, 0, 0, 9362.0, 30146.0, 35388.0, 9362.0, 8.370248794555664, -0.1535264104604721, 0.689195990562439, 0.39764222502708435, -0.9986721277236938, 0.01723242923617363, 0.03193847835063934, -0.12278557568788528, -0.12023735046386719, 1.486083984375, 1.411376953125, 0.05181884765625, 1.48974609375, 1.440673828125, 10.0, 1.401298464324817e-45, 1.401298464324817e-44
18260, 5.048387050628662, -79.33999633789062, 4.223703384399414, 0.0, 0.0, 89.99632263183594, 0.0, 0.0, 0.034332275390625, 0, 0, 0, 0, 0, 0, 9362.0, 30146.0, 35388.0, 9362.0, 8.370248794555664, 0.14979341626167297, 0.33226707577705383, -0.03277084231376648, -0.9990859627723694, 0.017042972147464752, 0.029131967574357986, -0.12278557568788528, -0.12023735046386719, 1.486083984375, 1.411376953125, 0.05181884765625, 1.4970703125, 1.43701171875, 10.0, 1.401298464324817e-45, 1.401298464324817e-44
18270, 5.061464309692383, -79.36299133300781, 4.236957550048828, 0.0, 0.0, 89.99632263183594, 0.0, 0.0, 0.034332275390625, 0, 0, 0, 0, 0, 0, 9362.0, 30146.0, 35388.0, 9362.0, 8.370248794555664, 0.05390015244483948, -0.02401798777282238, -0.08663755655288696, -0.9986921548843384, 0.017732208594679832, 0.029765117913484573, -0.12278557568788528, -0.12023735046386719, 1.486083984375, 1.443603515625, 0.0948486328125, 1.4970703125, 1.475830078125, 10.0, 1.401298464324817e-45, 1.401298464324817e-44
18280, 5.072404384613037, -79.39866638183594, 4.245123863220215, 0.0, 0.0, 89.99632263183594, 0.0, 0.0, 0.034332275390625, 0, 0, 0, 0, 0, 0, 9362.0, 30146.0, 35388.0, 9362.0, 8.370248794555664, 0.30449411273002625, 0.2635756731033325, -0.034708596765995026, -0.9982956051826477, 0.016039878129959106, 0.030290387570858, -0.12278557568788528, -0.12023735046386719, 1.486083984375, 1.401123046875, 0.041015625, 1.4970703125, 1.440673828125, 10.0, 1.401298464324817e-45, 1.401298464324817e-44
18290, 5.0736403465271, -79.42091369628906, 4.246363162994385, 0.0, 0.0, 89.99632263183594, 0.0, 0.0, 0.034332275390625, 0, 0, 0, 0, 0, 0, 9362.0, 30146.0, 35388.0, 9362.0, 8.370248794555664, -0.08415637910366058, -0.008759720250964165, -0.18099553883075714, -0.9967881441116333, 0.013677570037543774, 0.03484911471605301, -0.12278557568788528, -0.12023735046386719, 1.486083984375, 1.39599609375, 0.0362701416015625, 1.4970703125, 1.46923828125, 10.0, 1.401298464324817e-45, 1.401298464324817e-44
18300, 5.108861923217773, -79.45346069335938, 4.280683517456055, 0.0, 0.0, 89.99632263183594, 0.0, 0.0, 0.034332275390625, 0, 0, 0, 0, 0, 0, 9362.0, 30146.0, 35388.0, 9362.0, 8.370248794555664, 0.20142008364200592, 0.32402303814888, 0.27619805932044983, -0.9995812773704529, 0.01573663391172886, 0.035864390432834625, -0.12278557568788528, -0.12023735046386719, 1.486083984375, 1.39599609375, 0.0362701416015625, 1.4912109375, 1.46923828125, 10.0, 1.401298464324817e-45, 1.401298464324817e-44
18320, 5.138396739959717, -79.50579071044922, 4.311762809753418, 0.0, 0.0, 89.99632263183594, 0.0, 0.0, 0.034332275390625, 0, 0, 0, 0, 0, 0, 9362.0, 30146.0, 35388.0, 9362.0, 8.370248794555664, -0.3600226044654846, -0.03555155172944069, -0.18557116389274597, -0.9961791634559631, 0.015353932045400143, 0.03811788558959961, -0.11134152114391327, -0.08439826965332031, 1.489013671875, 1.408447265625, 0.0485382080078125, 1.4912109375, 1.46923828125, 10.0, 1.401298464324817e-45, 1.401298464324817e-44
18330, 5.162956237792969, -79.52989196777344, 4.337446689605713, 0.0, 0.0, 89.99632263183594, 0.0, 0.0, 0.034332275390625, 0, 0, 0, 0, 0, 0, 9362.0, 30146.0, 35388.0, 9362.0, 8.370248794555664, -0.3600226044654846, -0.03555155172944069, -0.18557116389274597, -0.9977768659591675, 0.014980900101363659, 0.035288725048303604, -0.11134152114391327, -0.08439826965332031, 1.489013671875, 1.42529296875, 0.0688018798828125, 1.4912109375, 1.46923828125, 10.0, 1.401298464324817e-45, 1.401298464324817e-44
18340, 5.220071315765381, -79.56549072265625, 4.39558219909668, 0.0, 0.0, 89.99632263183594, 0.0, 0.0, 0.034332275390625, 0, 0, 0, 0, 0, 0, 9362.0, 30146.0, 35388.0, 9362.0, 8.370248794555664, -0.3600226044654846, -0.03555155172944069, -0.18557116389274597, -0.9997889399528503, 0.0158862117677927, 0.033278729766607285, -0.11134152114391327, -0.08439826965332031, 1.489013671875, 1.445068359375, 0.0970306396484375, 1.4912109375, 1.46923828125, 10.0, 1.401298464324817e-45, 1.401298464324817e-44
18350, 5.249197006225586, -79.58952331542969, 4.4245686531066895, 0.0, 0.0, 90.0213394165039, 0.0, 0.0, 0.74310302734375, 0, 0, 0, 0, 0, 0, 9362.0, 30146.0, 35388.0, 9362.0, 8.370248794555664, 0.05637945979833603, 0.1928063929080963, 0.327534019947052, -0.99962317943573, 0.016043994575738907, 0.031722329556941986, -0.11134152114391327, -0.08439826965332031, 1.489013671875, 1.445068359375, 0.0970306396484375, 1.4912109375, 1.471435546875, 10.0, 1.401298464324817e-45, 1.401298464324817e-44
18370, 5.2767558097839355, -79.64751434326172, 4.45114278793335, 0.0, 0.0, 90.02971649169922, 0.0, 0.0, 0.167083740234375, 0, 0, 0, 0, 0, 0, 9362.0, 30146.0, 35388.0, 9362.0, 8.370248794555664, -0.13324230909347534, 0.10758420825004578, -0.2715902030467987, -0.9982572793960571, 0.014117741957306862, 0.03132028132677078, -0.11134152114391327, -0.08439826965332031, 1.489013671875, 1.445068359375, 0.0970306396484375, 1.489013671875, 1.445068359375, 10.0, 1.401298464324817e-45, 1.401298464324817e-44
18400, 5.307348728179932, -79.72721862792969, 4.479884147644043, 0.0, 0.0, 90.02971649169922, 0.0, 0.0, 0.167083740234375, 0, 0, 0, 0, 0, 0, 9362.0, 30146.0, 35388.0, 9362.0, 8.370248794555664, -0.02558402344584465, 0.086253821849823, -0.10151843726634979, -0.9979899525642395, 0.014257308095693588, 0.036435361951589584, -0.11134152114391327, -0.08439826965332031, 1.489013671875, 1.423828125, 0.066802978515625, 1.493408203125, 1.468505859375, 10.0, 1.401298464324817e-45, 1.401298464324817e-44
18420, 5.344865798950195, -79.7786636352539, 4.5183000564575195, 0.0, 0.0, 90.02971649169922, 0.0, 0.0, 0.167083740234375, 0, 0, 0, 0, 0, 0, 9362.0, 30146.0, 35388.0, 9362.0, 8.370248794555664, -0.263659805059433, 0.08177098631858826, 0.16394418478012085, -0.9980332255363464, 0.017032364383339882, 0.03781541436910629, -0.11134152114391327, -0.08439826965332031, 1.489013671875, 1.423828125, 0.066802978515625, 1.493408203125, 1.3828125, 10.0, 1.401298464324817e-45, 1.401298464324817e-44
18430, 5.375219821929932, -79.8017807006836, 4.549464225769043, 0.0, 0.0, 90.02971649169922, 0.0, 0.0, 0.167083740234375, 0, 0, 0, 0, 0, 0, 9362.0, 30146.0, 35388.0, 9362.0, 8.370248794555664, -0.14574767649173737, 0.31805697083473206, 0.2650994658470154, -0.998848021030426, 0.018034258857369423, 0.03361210227012634, -0.11134152114391327, -0.08439826965332031, 1.489013671875, 1.423828125, 0.066802978515625, 1.493408203125, 1.415771484375, 10.0, 1.401298464324817e-45, 1.401298464324817e-44
18450, 5.430009365081787, -79.85731506347656, 4.6039323806762695, 0.0, 0.0, 90.02971649169922, 0.0, 0.0, 0.167083740234375, 0, 0, 0, 0, 0, 0, 9362.0, 30146.0, 35388.0, 9362.0, 8.370248794555664, -0.008559104986488819, 0.20297440886497498, -0.13879647850990295, -0.9979180693626404, 0.015052045695483685, 0.03143388777971268, -0.11134152114391327, -0.08439826965332031, 1.489013671875, 1.405517578125, 0.0454254150390625, 1.493408203125, 1.41064453125, 10.0, 1.401298464324817e-45, 1.401298464324817e-44
18470, 5.4541425704956055, -79.91179656982422, 4.623099327087402, 0.0, 0.0, 90.02971649169922, 0.0, 0.0, 0.167083740234375, 0, 0, 0, 0, 0, 0, 9362.0, 30146.0, 35388.0, 9362.0, 8.370248794555664, 0.2213575690984726, 0.218155175447464, -0.26449260115623474, -0.9981554746627808, 0.014602454379200935, 0.03392297774553299, -0.11134152114391327, -0.08439826965332031, 1.489013671875, 1.405517578125, 0.0454254150390625, 1.493408203125, 1.4150390625, 10.0, 1.401298464324817e-45, 1.401298464324817e-44
18490, 5.483847141265869, -79.95565795898438, 4.652686595916748, 0.0, 0.0, 90.02971649169922, 0.0, 0.0, 0.167083740234375, 0, 0, 0, 0, 0, 0, 9362.0, 30146.0, 35388.0, 9362.0, 8.370248794555664, -0.12272651493549347, -0.12777775526046753, 0.06325436383485794, -0.9993352293968201, 0.013376153074204922, 0.038093410432338715, -0.11134152114391327, -0.08439826965332031, 1.489013671875, 1.399658203125, 0.0396575927734375, 1.48974609375, 1.4150390625, 10.0, 1.401298464324817e-45, 1.401298464324817e-44
18500, 5.516503810882568, -79.98466491699219, 4.685674667358398, 0.0, 0.0, 90.02971649169922, 0.0, 0.0, 0.167083740234375, 0, 0, 0, 0, 0, 0, 9362.0, 30146.0, 35388.0, 9362.0, 8.370248794555664, -0.07066792994737625, 0.10178022086620331, 0.341701865196228, -1.0002074241638184, 0.014710238203406334, 0.037813302129507065, -0.11134152114391327, -0.08439826965332031, 1.489013671875, 1.431884765625, 0.07769775390625, 1.48974609375, 1.442138671875, 10.0, 1.401298464324817e-45, 1.401298464324817e-44
18520, 5.571930408477783, -80.03778076171875, 4.741390228271484, 0.0, 0.0, 90.04312133789062, 0.0, 0.0, -0.14495849609375, 0, 0, 0, 0, 0, 0, 9362.0, 30146.0, 35388.0, 9362.0, 8.370248794555664, 0.10031964629888535, 0.15761728584766388, 0.1880296915769577, -0.9995641708374023, 0.01614462397992611, 0.03219645470380783, -0.10643105208873749, -0.13815879821777344, 1.484619140625, 1.4384765625, 0.0871429443359375, 1.49267578125, 1.4150390625, 10.0, 1.401298464324817e-45, 1.401298464324817e-44
18530, 5.612190246582031, -80.0599365234375, 4.782305717468262, 0.0, 0.0, 90.04779052734375, 0.0, 0.0, 0.595855712890625, 0, 0, 0, 0, 0, 0, 9362.0, 30146.0, 35388.0, 9362.0, 8.370248794555664, -0.05740145593881607, 0.5387027859687805, 0.43666696548461914, -0.9986426830291748, 0.016582099720835686, 0.03145994991064072, -0.10643105208873749, -0.13815879821777344, 1.484619140625, 1.4384765625, 0.0871429443359375, 1.49267578125, 1.427490234375, 10.0, 1.401298464324817e-45, 1.401298464324817e-44
18540, 5.654090404510498, -80.09330749511719, 4.823915004730225, 0.0, 0.0, 90.04779052734375, 0.0, 0.0, 0.595855712890625, 0, 0, 0, 0, 0, 0, 9362.0, 30146.0, 35388.0, 9362.0, 8.370248794555664, 0.03102683462202549, 0.26167234778404236, -0.022792236879467964, -0.9986426830291748, 0.016582099720835686, 0.03145994991064072, -0.10643105208873749, -0.13815879821777344, 1.484619140625, 1.40478515625, 0.0446624755859375, 1.49267578125, 1.427490234375, 10.0, 1.401298464324817e-45, 1.401298464324817e-44
18560, 5.673904895782471, -80.1423568725586, 4.840190410614014, 0.0, 0.0, 90.04779052734375, 0.0, 0.0, 0.595855712890625, 0, 0, 0, 0, 0, 0, 9362.0, 30146.0, 35388.0, 9362.0, 8.370248794555664, 0.05821573734283447, -0.40880802273750305, -0.3162483274936676, -0.9987668991088867, 0.01321588084101677, 0.029866350814700127, -0.10643105208873749, -0.13815879821777344, 1.484619140625, 1.4619140625, 0.1246185302734375, 1.48974609375, 1.469970703125, 10.0, 1.401298464324817e-45, 1.401298464324817e-44
18570, 5.682324409484863, -80.1606674194336, 4.8489603996276855, 0.0, 0.0, 90.07398986816406, 0.0, 0.0, 1.160430908203125, 0, 0, 0, 0, 0, 0, 9362.0, 30146.0, 35388.0, 9362.0, 8.370248794555664, -0.05242412909865379, -0.05964159965515137, -0.01896250620484352, -0.9983548521995544, 0.011364605277776718, 0.03206445649266243, -0.10643105208873749, -0.13815879821777344, 1.484619140625, 1.4619140625, 0.1246185302734375, 1.48974609375, 1.42822265625, 10.0, 1.401298464324817e-45, 1.401298464324817e-44
18600, 5.709250450134277, -80.23236846923828, 4.874032974243164, 0.0, 0.0, 90.07398986816406, 0.0, 0.0, 1.160430908203125, 0, 0, 0, 0, 0, 0, 9362.0, 30146.0, 35388.0, 9362.0, 8.370248794555664, 0.0055823675356805325, -0.20878557860851288, -0.0857909619808197, -0.9973890781402588, 0.01721080020070076, 0.04016499221324921, -0.10643105208873749, -0.13815879821777344, 1.484619140625, 1.436279296875, 0.0838775634765625, 1.49560546875, 1.43408203125, 10.0, 1.401298464324817e-45, 1.401298464324817e-44
