timeTick, roll, pitch, yaw, stateX, stateY, stateZ, stateVX, stateVY, stateVZ, otX0, otY0, otZ0, otRoll0, otPitch0, otYaw0, left wing, pitch motor, yaw motor, right wing, voltage, roll rate, pitch rate, yaw rate, A_x, A_y, A_z, current, i_raw, v_raw, airflow_voltage, airflow_speed, pot_Pitch, voltage_nKF, kFFx, state, State, volt_KF
16194, 12.257267951965332, 72.48788452148438, -9.055437088012695, 0, 0, 0, 0, 0, 0, 0, 0, 0, 0, 0, 0, 0, 0, 0, 0, 0, 0, 0, 0, 0, 0, 0, 0, 0, 0, 0, 0, 0, 0, 0, 0, 0, 0
16204, 12.295700073242188, 72.53103637695312, -9.0908784866333, 0.0, 0.0, 89.65470886230469, 0.0, 0.0, 0.6591796875, 0, 0, 0, 0, 0, 0, 9362.0, 30146.0, 35388.0, 9362.0, 0, 0.1569923609495163, 0.28589627146720886, 0.043654363602399826, 0.9979813694953918, 0.06520392745733261, 0.02643463760614395, 0, 0, 0, 0, 0, 0, 0, 0, 0, 0, 0
16214, 12.339500427246094, 72.59770965576172, -9.13362979888916, 0.0, 0.0, 89.65467834472656, 0.0, 0.0, -0.0030517578125, 0, 0, 0, 0, 0, 0, 9362.0, 30146.0, 35388.0, 9362.0, 0, -0.2975417971611023, 0.08923093974590302, 0.3944654166698456, 0.9968246817588806, 0.06505037099123001, 0.026517227292060852, 0, 0, 0, 1.374755859375, 0.021392822265625, 0, 1.40625, 10.0, 1.401298464324817e-45, 1.401298464324817e-44, 1.3922295570373535
16224, 12.376608848571777, 72.64311981201172, -9.168959617614746, 0.0, 0.0, 89.6546859741211, 0.0, 0.0, 0.000762939453125, 0, 0, 0, 0, 0, 0, 9362.0, 30146.0, 35388.0, 9362.0, 0, -0.0757327526807785, -0.3051237165927887, -0.008224580436944962, 0.9944043159484863, 0.06309058517217636, 0.030760470777750015, 0, 0, 0, 1.40185546875, 0.0417938232421875, 1.4853515625, 1.38427734375, 10.0, 1.401298464324817e-45, 1.401298464324817e-44, 1.3921599388122559
16234, 12.436413764953613, 72.70938873291016, -9.22678279876709, 0.0, 0.0, 89.65145874023438, 0.0, 0.0, -0.322723388671875, 0, 0, 0, 0, 0, 0, 9362.0, 30146.0, 35388.0, 9362.0, 0, -0.06453240662813187, -0.00802224688231945, -0.25591376423835754, 0.9979813694953918, 0.06497681885957718, 0.03230465203523636, 0, 0, 0, 1.36962890625, 0.01910400390625, 1.4853515625, 1.40771484375, 10.0, 1.401298464324817e-45, 1.401298464324817e-44, 1.392104983329773
16244, 12.470635414123535, 72.75381469726562, -9.25831413269043, 0.0, 0.0, 89.64859771728516, 0.0, 0.0, -0.286102294921875, 0, 0, 0, 0, 0, 0, 9362.0, 30146.0, 35388.0, 9362.0, 0, 0.013923521153628826, -0.156825989484787, 0.10358346253633499, 0.9971867799758911, 0.0635383203625679, 0.029993217438459396, 0, 0, 0, 1.3974609375, 0.03759765625, 1.4970703125, 1.35791015625, 10.0, 1.401298464324817e-45, 1.401298464324817e-44, 1.3920767307281494
16254, 12.520770072937012, 72.81773376464844, -9.30392837524414, 0.0, 0.0, 89.64990234375, 0.0, 0.0, 0.130462646484375, 0, 0, 0, 0, 0, 0, 9362.0, 30146.0, 35388.0, 9362.0, 0, 0.20059354603290558, 0.36659982800483704, 0.2972681522369385, 0.9963076710700989, 0.06405653059482574, 0.028481118381023407, 0, 0, 0, 1.396728515625, 0.0370025634765625, 1.4970703125, 1.368896484375, 10.0, 1.401298464324817e-45, 1.401298464324817e-44, 1.3921499252319336
16264, 12.556589126586914, 72.86143493652344, -9.33829116821289, 0.0, 0.0, 89.65110778808594, 0.0, 0.0, 0.12054443359375, 0, 0, 0, 0, 0, 0, 9362.0, 30146.0, 35388.0, 9362.0, 0, -0.0164109468460083, -0.010236121714115143, 0.09214998781681061, 0.9963878393173218, 0.06272631883621216, 0.02621564082801342, 0, 0, 0, 1.3623046875, 0.0167999267578125, 1.490478515625, 1.414306640625, 10.0, 1.401298464324817e-45, 1.401298464324817e-44, 1.3920323848724365
16274, 12.616263389587402, 72.92711639404297, -9.39473819732666, 0.0, 0.0, 89.64732360839844, 0.0, 0.0, -0.37841796875, 0, 0, 0, 0, 0, 0, 9362.0, 30146.0, 35388.0, 9362.0, 0, 0.13440407812595367, 0.1191432848572731, -0.0834503173828125, 0.9980044960975647, 0.06404988467693329, 0.02700171247124672, 0, 0, 0, 1.37841796875, 0.023406982421875, 1.490478515625, 1.39892578125, 10.0, 1.401298464324817e-45, 1.401298464324817e-44, 1.392084002494812
16284, 12.65147590637207, 72.97108459472656, -9.429038047790527, 0.0, 0.0, 89.6439437866211, 0.0, 0.0, -0.337982177734375, 0, 0, 0, 0, 0, 0, 9362.0, 30146.0, 35388.0, 9362.0, 0, -0.12950409948825836, -0.03513543680310249, 0.07346419990062714, 0.9975404143333435, 0.06527658551931381, 0.027142195031046867, 0, 0, 0, 1.40771484375, 0.0478363037109375, 1.49267578125, 1.395263671875, 10.0, 1.401298464324817e-45, 1.401298464324817e-44, 1.3919570446014404
16294, 12.710692405700684, 73.03421020507812, -9.485884666442871, 0.0, 0.0, 89.6426010131836, 0.0, 0.0, -0.13427734375, 0, 0, 0, 0, 0, 0, 9362.0, 30146.0, 35388.0, 9362.0, 8.350414276123047, 0.09144216030836105, 0.34209540486335754, -0.15731801092624664, 0.9979089498519897, 0.06774156540632248, 0.0270187109708786, -0.083705373108387, -0.10231781005859375, 1.487548828125, 1.38720703125, 0.0291900634765625, 1.49267578125, 1.423095703125, 10.0, 1.401298464324817e-45, 1.401298464324817e-44, 1.3918161392211914
16304, 12.750967979431152, 73.07907104492188, -9.525815963745117, 0.0, 0.0, 89.64141845703125, 0.0, 0.0, -0.118255615234375, 0, 0, 0, 0, 0, 0, 9362.0, 30146.0, 35388.0, 9362.0, 8.350414276123047, -0.19604021310806274, -0.24808984994888306, -0.11868436634540558, 1.0005775690078735, 0.06603972613811493, 0.0280083566904068, -0.083705373108387, -0.10231781005859375, 1.487548828125, 1.3916015625, 0.0325927734375, 1.493408203125, 1.3828125, 10.0, 1.401298464324817e-45, 1.401298464324817e-44, 1.3917720317840576
16314, 12.801734924316406, 73.1435775756836, -9.573531150817871, 0.0, 0.0, 89.6376724243164, 0.0, 0.0, -0.374603271484375, 0, 0, 0, 0, 0, 0, 9362.0, 30146.0, 35388.0, 9362.0, 8.350414276123047, 0.12694430351257324, -0.08021330088376999, 0.2504756450653076, 0.9997267723083496, 0.06326298415660858, 0.029087472707033157, -0.083705373108387, -0.10231781005859375, 1.487548828125, 1.39013671875, 0.0314483642578125, 1.493408203125, 1.3798828125, 10.0, 1.401298464324817e-45, 1.401298464324817e-44, 1.3917714357376099
16324, 12.851366996765137, 73.18924713134766, -9.622871398925781, 0.0, 0.0, 89.63433837890625, 0.0, 0.0, -0.333404541015625, 0, 0, 0, 0, 0, 0, 9362.0, 30146.0, 35388.0, 9362.0, 8.350414276123047, -0.04669412970542908, -0.48795562982559204, -0.32431843876838684, 0.998158872127533, 0.06494947522878647, 0.028158938512206078, -0.083705373108387, -0.10231781005859375, 1.487548828125, 1.390869140625, 0.0319671630859375, 1.496337890625, 1.352783203125, 10.0, 1.401298464324817e-45, 1.401298464324817e-44, 1.3918334245681763
16334, 12.917332649230957, 73.25147247314453, -9.685468673706055, 0.0, 0.0, 89.63302612304688, 0.0, 0.0, -0.1312255859375, 0, 0, 0, 0, 0, 0, 9362.0, 30146.0, 35388.0, 9362.0, 8.350414276123047, 0.18846946954727173, 0.241623654961586, -0.007374991197139025, 0.9987500309944153, 0.06511953473091125, 0.029600463807582855, -0.083705373108387, -0.10231781005859375, 1.487548828125, 1.41064453125, 0.0509490966796875, 1.496337890625, 1.39013671875, 10.0, 1.401298464324817e-45, 1.401298464324817e-44, 1.391832709312439
16344, 12.956805229187012, 73.29225158691406, -9.72317886352539, 0.0, 0.0, 89.63188171386719, 0.0, 0.0, -0.11444091796875, 0, 0, 0, 0, 0, 0, 9362.0, 30146.0, 35388.0, 9362.0, 8.350414276123047, 0.010130813345313072, 0.1958995908498764, -0.0987948402762413, 1.0005855560302734, 0.0663413405418396, 0.029120516031980515, -0.083705373108387, -0.10231781005859375, 1.487548828125, 1.404052734375, 0.04400634765625, 1.4912109375, 1.417236328125, 10.0, 1.401298464324817e-45, 1.401298464324817e-44, 1.391865611076355
16354, 13.013473510742188, 73.35629272460938, -9.778943061828613, 0.0, 0.0, 89.62871551513672, 0.0, 0.0, -0.316619873046875, 0, 0, 0, 0, 0, 0, 9362.0, 30146.0, 35388.0, 9362.0, 8.350414276123047, -0.23793518543243408, 0.022059476003050804, 0.12389267235994339, 0.9965270161628723, 0.06598266214132309, 0.029342256486415863, -0.083705373108387, -0.10231781005859375, 1.487548828125, 1.3564453125, 0.0156707763671875, 1.4912109375, 1.39599609375, 10.0, 1.401298464324817e-45, 1.401298464324817e-44, 1.3918262720108032
16364, 13.056304931640625, 73.39775848388672, -9.81977653503418, 0.0, 0.0, 89.62590026855469, 0.0, 0.0, -0.281524658203125, 0, 0, 0, 0, 0, 0, 9362.0, 30146.0, 35388.0, 9362.0, 8.350414276123047, 0.14240926504135132, 0.19187843799591064, -0.2082306146621704, 0.9969769716262817, 0.06662578880786896, 0.026592504233121872, -0.083705373108387, -0.10231781005859375, 1.487548828125, 1.386474609375, 0.028656005859375, 1.494140625, 1.40478515625, 10.0, 1.401298464324817e-45, 1.401298464324817e-44, 1.3916908502578735
16374, 13.112959861755371, 73.46286010742188, -9.87374210357666, 0.0, 0.0, 89.62232208251953, 0.0, 0.0, -0.357818603515625, 0, 0, 0, 0, 0, 0, 9362.0, 30146.0, 35388.0, 9362.0, 8.350414276123047, -0.03233809769153595, -0.2220180183649063, 0.20090118050575256, 0.9977843165397644, 0.0653119757771492, 0.027596959844231606, -0.083705373108387, -0.10231781005859375, 1.487548828125, 1.41357421875, 0.0542449951171875, 1.494140625, 1.379150390625, 10.0, 1.401298464324817e-45, 1.401298464324817e-44, 1.391599178314209
16384, 13.1495361328125, 73.50354766845703, -9.90770435333252, 0.0, 0.0, 89.61913299560547, 0.0, 0.0, -0.31890869140625, 0, 0, 0, 0, 0, 0, 9362.0, 30146.0, 35388.0, 9362.0, 8.350414276123047, 0.19410347938537598, 0.28349733352661133, -0.030554357916116714, 0.9976555109024048, 0.06347274035215378, 0.025709081441164017, -0.083705373108387, -0.10231781005859375, 1.487548828125, 1.401123046875, 0.041015625, 1.49267578125, 1.3798828125, 10.0, 1.401298464324817e-45, 1.401298464324817e-44, 1.3915799856185913
16394, 13.209449768066406, 73.56369018554688, -9.965466499328613, 0.0, 0.0, 89.61576843261719, 0.0, 0.0, -0.336456298828125, 0, 0, 0, 0, 0, 0, 9362.0, 30146.0, 35388.0, 9362.0, 8.350414276123047, -0.0018414966762065887, 0.13958688080310822, -0.3664076626300812, 0.9968180656433105, 0.0621490404009819, 0.02737009897828102, -0.06754936277866364, -0.01271820068359375, 1.494873046875, 1.40185546875, 0.0417938232421875, 1.49267578125, 1.385009765625, 10.0, 1.401298464324817e-45, 1.401298464324817e-44, 1.3917121887207031
16404, 13.247563362121582, 73.60352325439453, -10.001813888549805, 0.0, 0.0, 89.61276245117188, 0.0, 0.0, -0.30059814453125, 0, 0, 0, 0, 0, 0, 9362.0, 30146.0, 35388.0, 9362.0, 8.350414276123047, 0.14456555247306824, 0.13501477241516113, 0.03107423707842827, 1.0010141134262085, 0.06280320882797241, 0.028190208598971367, -0.06754936277866364, -0.01271820068359375, 1.494873046875, 1.363037109375, 0.0169219970703125, 1.49267578125, 1.3740234375, 10.0, 1.401298464324817e-45, 1.401298464324817e-44, 1.3916493654251099
16414, 13.310733795166016, 73.66424560546875, -10.062762260437012, 0.0, 0.0, 89.61448669433594, 0.0, 0.0, 0.17242431640625, 0, 0, 0, 0, 0, 0, 9362.0, 30146.0, 35388.0, 9362.0, 8.350414276123047, 0.006847698241472244, -0.13490082323551178, -0.15346814692020416, 0.9973490834236145, 0.06413187831640244, 0.028907474130392075, -0.06754936277866364, -0.01271820068359375, 1.494873046875, 1.3974609375, 0.03759765625, 1.49267578125, 1.39453125, 10.0, 1.401298464324817e-45, 1.401298464324817e-44, 1.3917981386184692
16424, 13.35588264465332, 73.70450592041016, -10.105374336242676, 0.0, 0.0, 89.6160659790039, 0.0, 0.0, 0.157928466796875, 0, 0, 0, 0, 0, 0, 9362.0, 30146.0, 35388.0, 9362.0, 8.350414276123047, 0.17566202580928802, -0.07263412326574326, -0.1133171021938324, 0.9968053698539734, 0.06551101803779602, 0.02799103409051895, -0.06754936277866364, -0.01271820068359375, 1.494873046875, 1.37841796875, 0.023406982421875, 1.490478515625, 1.395263671875, 10.0, 1.401298464324817e-45, 1.401298464324817e-44, 1.3917254209518433
16434, 13.418855667114258, 73.76502990722656, -10.167414665222168, 0.0, 0.0, 89.61042785644531, 0.0, 0.0, -0.563812255859375, 0, 0, 0, 0, 0, 0, 9362.0, 30146.0, 35388.0, 9362.0, 8.350414276123047, -0.18923738598823547, 0.08711360394954681, -0.046321943402290344, 0.9965919256210327, 0.0660354420542717, 0.031132187694311142, -0.06754936277866364, -0.01271820068359375, 1.494873046875, 1.401123046875, 0.041015625, 1.490478515625, 1.360107421875, 10.0, 1.401298464324817e-45, 1.401298464324817e-44, 1.3917897939682007
16444, 13.46146297454834, 73.80573272705078, -10.208955764770508, 0.0, 0.0, 89.60538482666016, 0.0, 0.0, -0.504302978515625, 0, 0, 0, 0, 0, 0, 9362.0, 30146.0, 35388.0, 9362.0, 8.350414276123047, -0.05011444538831711, -0.16882909834384918, -0.17453216016292572, 0.9985818266868591, 0.0646677017211914, 0.03181099519133568, -0.06754936277866364, -0.01271820068359375, 1.494873046875, 1.38427734375, 0.027099609375, 1.4912109375, 1.405517578125, 10.0, 1.401298464324817e-45, 1.401298464324817e-44, 1.391748309135437
16454, 13.519144058227539, 73.86639404296875, -10.264904975891113, 0.0, 0.0, 89.5948715209961, 0.0, 0.0, -1.05133056640625, 0, 0, 0, 0, 0, 0, 9362.0, 30146.0, 35388.0, 9362.0, 8.350414276123047, -0.021971501410007477, -0.20510973036289215, -0.17007240653038025, 0.9963909387588501, 0.06593186408281326, 0.028508076444268227, -0.06754936277866364, -0.01271820068359375, 1.494873046875, 1.389404296875, 0.03082275390625, 1.4912109375, 1.376220703125, 10.0, 1.401298464324817e-45, 1.401298464324817e-44, 1.3916277885437012
16464, 13.55617618560791, 73.90667724609375, -10.301154136657715, 0.0, 0.0, 89.58544158935547, 0.0, 0.0, -0.9429931640625, 0, 0, 0, 0, 0, 0, 9362.0, 30146.0, 35388.0, 9362.0, 8.350414276123047, -0.10735547542572021, -0.10688456892967224, 0.01444844901561737, 0.996785581111908, 0.06445401161909103, 0.027106238529086113, -0.06754936277866364, -0.01271820068359375, 1.494873046875, 1.3798828125, 0.0243377685546875, 1.49267578125, 1.40185546875, 10.0, 1.401298464324817e-45, 1.401298464324817e-44, 1.391603708267212
16474, 13.60693359375, 73.96586608886719, -10.348784446716309, 0.0, 0.0, 89.58848571777344, 0.0, 0.0, 0.304412841796875, 0, 0, 0, 0, 0, 0, 9362.0, 30146.0, 35388.0, 9362.0, 8.350414276123047, 0.07981528341770172, 0.32460513710975647, 0.04296252503991127, 0.9984574913978577, 0.06297165900468826, 0.025977252051234245, -0.06754936277866364, -0.01271820068359375, 1.494873046875, 1.4033203125, 0.043182373046875, 1.49267578125, 1.39013671875, 10.0, 1.401298464324817e-45, 1.401298464324817e-44, 1.3916516304016113
16484, 13.64013385772705, 74.00689697265625, -10.380640983581543, 0.0, 0.0, 89.59125518798828, 0.0, 0.0, 0.276947021484375, 0, 0, 0, 0, 0, 0, 9362.0, 30146.0, 35388.0, 9362.0, 8.350414276123047, -0.05599676072597504, 0.015683237463235855, 0.2756027579307556, 1.0002225637435913, 0.06271851807832718, 0.02470010705292225, -0.06754936277866364, -0.01271820068359375, 1.494873046875, 1.348388671875, 0.0154571533203125, 1.49267578125, 1.38134765625, 10.0, 1.401298464324817e-45, 1.401298464324817e-44, 1.3916898965835571
16494, 13.709304809570312, 74.06743621826172, -10.448250770568848, 0.0, 0.0, 89.59870910644531, 0.0, 0.0, 0.745391845703125, 0, 0, 0, 0, 0, 0, 9362.0, 30146.0, 35388.0, 9362.0, 8.350414276123047, -0.12927879393100739, -0.519967257976532, -0.4240785539150238, 0.9983704686164856, 0.06411582976579666, 0.0255440641194582, -0.07886805385351181, -0.2635974884033203, 1.474365234375, 1.353515625, 0.0154571533203125, 1.49267578125, 1.3505859375, 10.0, 1.401298464324817e-45, 1.401298464324817e-44, 1.3917423486709595
16504, 13.74730396270752, 74.1041259765625, -10.48565673828125, 0.0, 0.0, 89.6054458618164, 0.0, 0.0, 0.673675537109375, 0, 0, 0, 0, 0, 0, 9362.0, 30146.0, 35388.0, 9362.0, 8.350414276123047, -0.09599998593330383, 0.22610045969486237, -0.09808167815208435, 0.9983704686164856, 0.06411582976579666, 0.0255440641194582, -0.07886805385351181, -0.2635974884033203, 1.474365234375, 1.3681640625, 0.0185394287109375, 1.49267578125, 1.3505859375, 10.0, 1.401298464324817e-45, 1.401298464324817e-44, 1.3917423486709595
16514, 13.820917129516602, 74.161376953125, -10.558283805847168, 0.0, 0.0, 89.60444641113281, 0.0, 0.0, -0.099945068359375, 0, 0, 0, 0, 0, 0, 9362.0, 30146.0, 35388.0, 9362.0, 8.350414276123047, -0.09599998593330383, 0.22610045969486237, -0.09808167815208435, 0.9962615966796875, 0.06357840448617935, 0.031123895198106766, -0.07886805385351181, -0.2635974884033203, 1.474365234375, 1.4033203125, 0.043182373046875, 1.49267578125, 1.3505859375, 10.0, 1.401298464324817e-45, 1.401298464324817e-44, 1.3917196989059448
16524, 13.861739158630371, 74.19853210449219, -10.595548629760742, 0.0, 0.0, 89.60444641113281, 0.0, 0.0, -0.099945068359375, 0, 0, 0, 0, 0, 0, 9362.0, 30146.0, 35388.0, 9362.0, 8.350414276123047, -0.09599998593330383, 0.22610045969486237, -0.09808167815208435, 0.9989566802978516, 0.06564968079328537, 0.03130067512392998, -0.07886805385351181, -0.2635974884033203, 1.474365234375, 1.3798828125, 0.0243377685546875, 1.49267578125, 1.3505859375, 10.0, 1.401298464324817e-45, 1.401298464324817e-44, 1.3916330337524414
16534, 13.925495147705078, 74.25830078125, -10.6555757522583, 0.0, 0.0, 89.60444641113281, 0.0, 0.0, -0.099945068359375, 0, 0, 0, 0, 0, 0, 9362.0, 30146.0, 35388.0, 9362.0, 8.350414276123047, 0.1304677128791809, -0.27924057841300964, -0.04674019664525986, 0.9989566802978516, 0.06564968079328537, 0.03130067512392998, -0.07886805385351181, -0.2635974884033203, 1.474365234375, 1.346923828125, 0.015472412109375, 1.49267578125, 1.3505859375, 10.0, 1.401298464324817e-45, 1.401298464324817e-44, 1.3916330337524414
16544, 13.967825889587402, 74.29693603515625, -10.695784568786621, 0.0, 0.0, 89.60444641113281, 0.0, 0.0, -0.099945068359375, 0, 0, 0, 0, 0, 0, 9362.0, 30146.0, 35388.0, 9362.0, 8.350414276123047, 0.06501250714063644, -0.08767125755548477, -0.11202637851238251, 0.9989566802978516, 0.06564968079328537, 0.03130067512392998, -0.07886805385351181, -0.2635974884033203, 1.474365234375, 1.41064453125, 0.0509490966796875, 1.49267578125, 1.3505859375, 10.0, 1.401298464324817e-45, 1.401298464324817e-44, 1.391573190689087
16554, 14.036552429199219, 74.35577392578125, -10.762385368347168, 0.0, 0.0, 89.60444641113281, 0.0, 0.0, -0.099945068359375, 0, 0, 0, 0, 0, 0, 9362.0, 30146.0, 35388.0, 9362.0, 8.350414276123047, 0.0046453154645860195, -0.14681307971477509, -0.38512396812438965, 0.9989566802978516, 0.06564968079328537, 0.03130067512392998, -0.07886805385351181, -0.2635974884033203, 1.474365234375, 1.398193359375, 0.03826904296875, 1.49267578125, 1.3505859375, 10.0, 1.401298464324817e-45, 1.401298464324817e-44, 1.3914583921432495
16564, 14.077402114868164, 74.39382934570312, -10.80152416229248, 0.0, 0.0, 89.60444641113281, 0.0, 0.0, -0.099945068359375, 0, 0, 0, 0, 0, 0, 9362.0, 30146.0, 35388.0, 9362.0, 8.350414276123047, -0.11040491610765457, 0.08544326573610306, -0.10279819369316101, 0.9989566802978516, 0.06564968079328537, 0.03130067512392998, -0.07886805385351181, -0.2635974884033203, 1.474365234375, 1.433349609375, 0.0797576904296875, 1.49267578125, 1.3505859375, 10.0, 1.401298464324817e-45, 1.401298464324817e-44, 1.3916096687316895
16574, 14.134929656982422, 74.45135498046875, -10.856826782226562, 0.0, 0.0, 89.61653900146484, 0.0, 0.0, 0.275421142578125, 0, 0, 0, 0, 0, 0, 9362.0, 30146.0, 35388.0, 9362.0, 8.350414276123047, -0.023673541843891144, -0.1218349039554596, -0.005305582191795111, 0.9989566802978516, 0.06564968079328537, 0.03130067512392998, -0.07886805385351181, -0.2635974884033203, 1.474365234375, 1.421630859375, 0.0640716552734375, 1.49267578125, 1.3505859375, 10.0, 1.401298464324817e-45, 1.401298464324817e-44, 1.3916287422180176
16584, 14.17485237121582, 74.49021911621094, -10.895484924316406, 0.0, 0.0, 89.61653900146484, 0.0, 0.0, 0.275421142578125, 0, 0, 0, 0, 0, 0, 9362.0, 30146.0, 35388.0, 9362.0, 8.350414276123047, -0.04933163896203041, -0.14278604090213776, 0.11237642914056778, 0.9989566802978516, 0.06564968079328537, 0.03130067512392998, -0.07886805385351181, -0.2635974884033203, 1.474365234375, 1.374755859375, 0.021392822265625, 1.49267578125, 1.3505859375, 10.0, 1.401298464324817e-45, 1.401298464324817e-44, 1.3916287422180176
16594, 14.235182762145996, 74.54570770263672, -10.953163146972656, 0.0, 0.0, 89.61532592773438, 0.0, 0.0, -0.371551513671875, 0, 0, 0, 0, 0, 0, 9362.0, 30146.0, 35388.0, 9362.0, 8.350414276123047, -0.04933163896203041, -0.14278604090213776, 0.11237642914056778, 0.9970765709877014, 0.06596576422452927, 0.027161281555891037, -0.07417555153369904, -0.04855918884277344, 1.491943359375, 1.396728515625, 0.0370025634765625, 1.49267578125, 1.3505859375, 10.0, 1.401298464324817e-45, 1.401298464324817e-44, 1.3916287422180176
16604, 14.275904655456543, 74.58447265625, -10.992194175720215, 0.0, 0.0, 89.61532592773438, 0.0, 0.0, -0.371551513671875, 0, 0, 0, 0, 0, 0, 9362.0, 30146.0, 35388.0, 9362.0, 8.350414276123047, -0.020742641761898994, -0.16680306196212769, 0.007023160345852375, 0.9970765709877014, 0.06596576422452927, 0.027161281555891037, -0.07417555153369904, -0.04855918884277344, 1.491943359375, 1.396728515625, 0.0370025634765625, 1.49267578125, 1.3505859375, 10.0, 1.401298464324817e-45, 1.401298464324817e-44, 1.3916287422180176
16614, 14.33869743347168, 74.63842010498047, -11.052111625671387, 0.0, 0.0, 89.61451721191406, 0.0, 0.0, 0.25177001953125, 0, 0, 0, 0, 0, 0, 9362.0, 30146.0, 35388.0, 9362.0, 8.350414276123047, 0.06884221732616425, 0.2975086271762848, -0.031051479279994965, 0.9970765709877014, 0.06596576422452927, 0.027161281555891037, -0.07417555153369904, -0.04855918884277344, 1.491943359375, 1.402587890625, 0.0425262451171875, 1.49267578125, 1.3505859375, 10.0, 1.401298464324817e-45, 1.401298464324817e-44, 1.391709566116333
16624, 14.383315086364746, 74.67514038085938, -11.095684051513672, 0.0, 0.0, 89.61451721191406, 0.0, 0.0, 0.25177001953125, 0, 0, 0, 0, 0, 0, 9362.0, 30146.0, 35388.0, 9362.0, 8.350414276123047, 0.06884221732616425, 0.2975086271762848, -0.031051479279994965, 0.9960402846336365, 0.06493392586708069, 0.030102506279945374, -0.07417555153369904, -0.04855918884277344, 1.491943359375, 1.3798828125, 0.0243377685546875, 1.494873046875, 1.3505859375, 10.0, 1.401298464324817e-45, 1.401298464324817e-44, 1.3916877508163452
16634, 14.437146186828613, 74.73014831542969, -11.146673202514648, 0.0, 0.0, 89.61451721191406, 0.0, 0.0, 0.25177001953125, 0, 0, 0, 0, 0, 0, 9362.0, 30146.0, 35388.0, 9362.0, 8.350414276123047, 0.06884221732616425, 0.2975086271762848, -0.031051479279994965, 0.9960402846336365, 0.06493392586708069, 0.030102506279945374, -0.07417555153369904, -0.04855918884277344, 1.491943359375, 1.3740234375, 0.0210723876953125, 1.494873046875, 1.3505859375, 10.0, 1.401298464324817e-45, 1.401298464324817e-44, 1.391496181488037
16644, 14.48016357421875, 74.76727294921875, -11.188539505004883, 0.0, 0.0, 89.61451721191406, 0.0, 0.0, 0.25177001953125, 0, 0, 0, 0, 0, 0, 9362.0, 30146.0, 35388.0, 9362.0, 8.350414276123047, 0.06884221732616425, 0.2975086271762848, -0.031051479279994965, 0.9971046447753906, 0.06533049792051315, 0.027279086410999298, -0.07417555153369904, -0.04855918884277344, 1.491943359375, 1.401123046875, 0.041015625, 1.48974609375, 1.3505859375, 10.0, 1.401298464324817e-45, 1.401298464324817e-44, 1.391496181488037
16654, 14.53413200378418, 74.82181549072266, -11.240035057067871, 0.0, 0.0, 89.61451721191406, 0.0, 0.0, 0.25177001953125, 0, 0, 0, 0, 0, 0, 9362.0, 30146.0, 35388.0, 9362.0, 8.350414276123047, 0.14141105115413666, 0.13262325525283813, 0.1101522147655487, 0.9971046447753906, 0.06533049792051315, 0.027279086410999298, -0.07417555153369904, -0.04855918884277344, 1.491943359375, 1.412841796875, 0.0534515380859375, 1.48974609375, 1.3505859375, 10.0, 1.401298464324817e-45, 1.401298464324817e-44, 1.3916447162628174
16664, 14.568793296813965, 74.85816192626953, -11.273317337036133, 0.0, 0.0, 89.61451721191406, 0.0, 0.0, 0.25177001953125, 0, 0, 0, 0, 0, 0, 9362.0, 30146.0, 35388.0, 9362.0, 8.350414276123047, -0.05193476378917694, 0.03647216781973839, 0.20289354026317596, 0.9971046447753906, 0.06533049792051315, 0.027279086410999298, -0.07417555153369904, -0.04855918884277344, 1.491943359375, 1.396728515625, 0.0370025634765625, 1.494873046875, 1.3505859375, 10.0, 1.401298464324817e-45, 1.401298464324817e-44, 1.391670823097229
16674, 14.631345748901367, 74.9142837524414, -11.335402488708496, 0.0, 0.0, 89.57715606689453, 0.0, 0.0, -1.13372802734375, 0, 0, 0, 0, 0, 0, 9362.0, 30146.0, 35388.0, 9362.0, 8.350414276123047, -0.18675152957439423, -0.05629982054233551, -0.15553373098373413, 0.9971046447753906, 0.06533049792051315, 0.027279086410999298, -0.07417555153369904, -0.04855918884277344, 1.491943359375, 1.428955078125, 0.073577880859375, 1.494873046875, 1.3505859375, 10.0, 1.401298464324817e-45, 1.401298464324817e-44, 1.3917709589004517
16684, 14.669151306152344, 74.95160675048828, -11.370736122131348, 0.0, 0.0, 89.57715606689453, 0.0, 0.0, -1.13372802734375, 0, 0, 0, 0, 0, 0, 9362.0, 30146.0, 35388.0, 9362.0, 8.350414276123047, 0.1428237110376358, -0.15904061496257782, 0.17089365422725677, 0.9971046447753906, 0.06533049792051315, 0.027279086410999298, -0.07417555153369904, -0.04855918884277344, 1.491943359375, 1.393798828125, 0.0344085693359375, 1.494140625, 1.3505859375, 10.0, 1.401298464324817e-45, 1.401298464324817e-44, 1.3918659687042236
16694, 14.737737655639648, 75.00559997558594, -11.437418937683105, 0.0, 0.0, 89.57715606689453, 0.0, 0.0, -1.13372802734375, 0, 0, 0, 0, 0, 0, 9362.0, 30146.0, 35388.0, 9362.0, 8.350414276123047, 0.1428237110376358, -0.15904061496257782, 0.17089365422725677, 0.9977269768714905, 0.06446284800767899, 0.027545448392629623, -0.08218704909086227, -0.04855918884277344, 1.491943359375, 1.385009765625, 0.0276336669921875, 1.494140625, 1.3505859375, 10.0, 1.401298464324817e-45, 1.401298464324817e-44, 1.3918659687042236
16704, 14.780381202697754, 75.04164123535156, -11.478883743286133, 0.0, 0.0, 89.57715606689453, 0.0, 0.0, -1.13372802734375, 0, 0, 0, 0, 0, 0, 9362.0, 30146.0, 35388.0, 9362.0, 8.350414276123047, 0.1428237110376358, -0.15904061496257782, 0.17089365422725677, 0.9963304996490479, 0.06532991677522659, 0.028186267241835594, -0.08218704909086227, -0.04855918884277344, 1.491943359375, 1.385009765625, 0.0276336669921875, 1.494140625, 1.3505859375, 10.0, 1.401298464324817e-45, 1.401298464324817e-44, 1.3918166160583496
16714, 14.84162712097168, 75.0970458984375, -11.538424491882324, 0.0, 0.0, 89.57715606689453, 0.0, 0.0, -1.13372802734375, 0, 0, 0, 0, 0, 0, 9362.0, 30146.0, 35388.0, 9362.0, 8.350414276123047, 0.1428237110376358, -0.15904061496257782, 0.17089365422725677, 0.9997519850730896, 0.06501179933547974, 0.02974693290889263, -0.08218704909086227, -0.04855918884277344, 1.491943359375, 1.3505859375, 0.0153045654296875, 1.494140625, 1.3505859375, 10.0, 1.401298464324817e-45, 1.401298464324817e-44, 1.391756296157837
16724, 14.879075050354004, 75.13259887695312, -11.5755615234375, 0.0, 0.0, 89.57715606689453, 0.0, 0.0, -1.13372802734375, 0, 0, 0, 0, 0, 0, 9362.0, 30146.0, 35388.0, 9362.0, 8.350414276123047, -0.05686482787132263, 0.021058790385723114, 0.06370554864406586, 0.9997519850730896, 0.06501179933547974, 0.02974693290889263, -0.08218704909086227, -0.04855918884277344, 1.491943359375, 1.393798828125, 0.0344085693359375, 1.494140625, 1.3505859375, 10.0, 1.401298464324817e-45, 1.401298464324817e-44, 1.391756296157837
16734, 14.949239730834961, 75.18551635742188, -11.643549919128418, 0.0, 0.0, 89.53688049316406, 0.0, 0.0, 0.064849853515625, 0, 0, 0, 0, 0, 0, 9362.0, 30146.0, 35388.0, 9362.0, 8.350414276123047, 0.1838366985321045, -0.002776786219328642, -0.11283309757709503, 0.9997519850730896, 0.06501179933547974, 0.02974693290889263, -0.08218704909086227, -0.04855918884277344, 1.491943359375, 1.38134765625, 0.025177001953125, 1.494140625, 1.3505859375, 10.0, 1.401298464324817e-45, 1.401298464324817e-44, 1.391731858253479
16744, 14.987557411193848, 75.22074890136719, -11.678772926330566, 0.0, 0.0, 89.53688049316406, 0.0, 0.0, 0.064849853515625, 0, 0, 0, 0, 0, 0, 9362.0, 30146.0, 35388.0, 9362.0, 8.350414276123047, 0.3511274755001068, 0.027402758598327637, 0.22543247044086456, 0.9993214011192322, 0.06537072360515594, 0.02840832620859146, -0.08218704909086227, -0.04855918884277344, 1.491943359375, 1.358642578125, 0.0159912109375, 1.494140625, 1.3505859375, 10.0, 1.401298464324817e-45, 1.401298464324817e-44, 1.3917003870010376
16754, 15.046565055847168, 75.2740478515625, -11.734970092773438, 0.0, 0.0, 89.53688049316406, 0.0, 0.0, 0.064849853515625, 0, 0, 0, 0, 0, 0, 9362.0, 30146.0, 35388.0, 9362.0, 8.350414276123047, 0.3511274755001068, 0.027402758598327637, 0.22543247044086456, 0.9982656240463257, 0.0635220855474472, 0.024577854201197624, -0.08218704909086227, -0.04855918884277344, 1.491943359375, 1.388671875, 0.03033447265625, 1.494140625, 1.3505859375, 10.0, 1.401298464324817e-45, 1.401298464324817e-44, 1.3916428089141846
16764, 15.09533977508545, 75.30873107910156, -11.783247947692871, 0.0, 0.0, 89.53688049316406, 0.0, 0.0, 0.064849853515625, 0, 0, 0, 0, 0, 0, 9362.0, 30146.0, 35388.0, 9362.0, 8.350414276123047, 0.3511274755001068, 0.027402758598327637, 0.22543247044086456, 0.9985834956169128, 0.062445688992738724, 0.026872973889112473, -0.08218704909086227, -0.04855918884277344, 1.491943359375, 1.37548828125, 0.021820068359375, 1.494140625, 1.3505859375, 10.0, 1.401298464324817e-45, 1.401298464324817e-44, 1.391633152961731
16774, 15.157597541809082, 75.36199188232422, -11.845711708068848, 0.0, 0.0, 89.53688049316406, 0.0, 0.0, 0.064849853515625, 0, 0, 0, 0, 0, 0, 9362.0, 30146.0, 35388.0, 9362.0, 8.350414276123047, -0.2837408781051636, 0.12264581024646759, 0.14011894166469574, 0.9981943964958191, 0.06509391963481903, 0.028776494786143303, -0.08218704909086227, -0.04855918884277344, 1.491943359375, 1.3623046875, 0.0167999267578125, 1.494140625, 1.3505859375, 10.0, 1.401298464324817e-45, 1.401298464324817e-44, 1.391633152961731
16784, 15.202533721923828, 75.39727020263672, -11.890412330627441, 0.0, 0.0, 89.53688049316406, 0.0, 0.0, 0.064849853515625, 0, 0, 0, 0, 0, 0, 9362.0, 30146.0, 35388.0, 9362.0, 8.350414276123047, -0.2837408781051636, 0.12264581024646759, 0.14011894166469574, 0.9985838532447815, 0.06628420203924179, 0.028573261573910713, -0.08218704909086227, -0.04855918884277344, 1.491943359375, 1.374755859375, 0.021392822265625, 1.494140625, 1.3505859375, 10.0, 1.401298464324817e-45, 1.401298464324817e-44, 1.3914475440979004
16794, 15.270052909851074, 75.45185852050781, -11.955936431884766, 0.0, 0.0, 89.53688049316406, 0.0, 0.0, 0.064849853515625, 0, 0, 0, 0, 0, 0, 9362.0, 30146.0, 35388.0, 9362.0, 8.350414276123047, -0.2837408781051636, 0.12264581024646759, 0.14011894166469574, 0.9981916546821594, 0.06607428938150406, 0.028991321101784706, -0.059760477393865585, 0.05896186828613281, 1.500732421875, 1.348388671875, 0.0154571533203125, 1.494140625, 1.3505859375, 10.0, 1.401298464324817e-45, 1.401298464324817e-44, 1.3914475440979004
16804, 15.31301212310791, 75.48497772216797, -11.998696327209473, 0.0, 0.0, 89.53688049316406, 0.0, 0.0, 0.064849853515625, 0, 0, 0, 0, 0, 0, 9362.0, 30146.0, 35388.0, 9362.0, 8.350414276123047, -0.2837408781051636, 0.12264581024646759, 0.14011894166469574, 0.998055636882782, 0.06571907550096512, 0.03380703181028366, -0.059760477393865585, 0.05896186828613281, 1.500732421875, 1.348388671875, 0.0154571533203125, 1.49267578125, 1.3505859375, 10.0, 1.401298464324817e-45, 1.401298464324817e-44, 1.3913699388504028
16824, 15.418513298034668, 75.57266998291016, -12.102714538574219, 0.0, 0.0, 89.57708740234375, 0.0, 0.0, -0.23345947265625, 0, 0, 0, 0, 0, 0, 9362.0, 30146.0, 35388.0, 9362.0, 8.350414276123047, -0.09090831875801086, 0.0378817617893219, 0.35798612236976624, 0.998055636882782, 0.06571907550096512, 0.03380703181028366, -0.059760477393865585, 0.05896186828613281, 1.500732421875, 1.40185546875, 0.0417938232421875, 1.494140625, 1.3505859375, 10.0, 1.401298464324817e-45, 1.401298464324817e-44, 1.3912882804870605
16834, 15.483832359313965, 75.6240234375, -12.16629409790039, 0.0, 0.0, 89.5682601928711, 0.0, 0.0, -0.675201416015625, 0, 0, 0, 0, 0, 0, 9362.0, 30146.0, 35388.0, 9362.0, 8.350414276123047, -0.09090831875801086, 0.0378817617893219, 0.35798612236976624, 0.998055636882782, 0.06571907550096512, 0.03380703181028366, -0.059760477393865585, 0.05896186828613281, 1.500732421875, 1.412841796875, 0.0534515380859375, 1.494140625, 1.3505859375, 10.0, 1.401298464324817e-45, 1.401298464324817e-44, 1.391303539276123
16844, 15.546463012695312, 75.65960693359375, -12.227957725524902, 0.0, 0.0, 89.5682601928711, 0.0, 0.0, -0.675201416015625, 0, 0, 0, 0, 0, 0, 9362.0, 30146.0, 35388.0, 9362.0, 8.350414276123047, -0.09090831875801086, 0.0378817617893219, 0.35798612236976624, 0.998234212398529, 0.0634898915886879, 0.0268518328666687, -0.059760477393865585, 0.05896186828613281, 1.500732421875, 1.371826171875, 0.02008056640625, 1.48974609375, 1.3505859375, 10.0, 1.401298464324817e-45, 1.401298464324817e-44, 1.3913568258285522
16854, 15.625598907470703, 75.71318054199219, -12.305106163024902, 0.0, 0.0, 89.56990814208984, 0.0, 0.0, 0.77056884765625, 0, 0, 0, 0, 0, 0, 9362.0, 30146.0, 35388.0, 9362.0, 8.350414276123047, 0.11901677399873734, -0.2794552147388458, -0.33759498596191406, 0.998234212398529, 0.0634898915886879, 0.0268518328666687, -0.059760477393865585, 0.05896186828613281, 1.500732421875, 1.418701171875, 0.0603485107421875, 1.48974609375, 1.3505859375, 10.0, 1.401298464324817e-45, 1.401298464324817e-44, 1.3913813829421997
16864, 15.67389965057373, 75.74736022949219, -12.351902961730957, 0.0, 0.0, 89.56990814208984, 0.0, 0.0, 0.77056884765625, 0, 0, 0, 0, 0, 0, 9362.0, 30146.0, 35388.0, 9362.0, 8.350414276123047, 0.11901677399873734, -0.2794552147388458, -0.33759498596191406, 0.995168149471283, 0.06501553952693939, 0.026895316317677498, -0.059760477393865585, 0.05896186828613281, 1.500732421875, 1.41650390625, 0.0577545166015625, 1.493408203125, 1.3505859375, 10.0, 1.401298464324817e-45, 1.401298464324817e-44, 1.3913393020629883
16874, 15.737494468688965, 75.79849243164062, -12.414299011230469, 0.0, 0.0, 89.56990814208984, 0.0, 0.0, 0.77056884765625, 0, 0, 0, 0, 0, 0, 9362.0, 30146.0, 35388.0, 9362.0, 8.350414276123047, 0.11901677399873734, -0.2794552147388458, -0.33759498596191406, 0.9971964955329895, 0.0640663355588913, 0.02635909430682659, -0.059760477393865585, 0.05896186828613281, 1.500732421875, 1.379150390625, 0.0238189697265625, 1.493408203125, 1.3505859375, 10.0, 1.401298464324817e-45, 1.401298464324817e-44, 1.3912854194641113
16884, 15.784913063049316, 75.8319091796875, -12.459497451782227, 0.0, 0.0, 89.56990814208984, 0.0, 0.0, 0.77056884765625, 0, 0, 0, 0, 0, 0, 9362.0, 30146.0, 35388.0, 9362.0, 8.350414276123047, 0.19380982220172882, -0.04115614295005798, -0.135227233171463, 0.9958795309066772, 0.06283789128065109, 0.028051462024450302, -0.059760477393865585, 0.05896186828613281, 1.500732421875, 1.401123046875, 0.041015625, 1.493408203125, 1.3505859375, 10.0, 1.401298464324817e-45, 1.401298464324817e-44, 1.3911936283111572
16904, 15.896435737609863, 75.9136734008789, -12.568075180053711, 0.0, 0.0, 89.58993530273438, 0.0, 0.0, 0.316619873046875, 0, 0, 0, 0, 0, 0, 9362.0, 30146.0, 35388.0, 9362.0, 8.350414276123047, 0.20464688539505005, -0.07311352342367172, -0.25936952233314514, 0.9965271949768066, 0.06381972134113312, 0.030600400641560555, -0.07340822368860245, -0.20087814331054688, 1.4794921875, 1.401123046875, 0.041015625, 1.48828125, 1.3505859375, 10.0, 1.401298464324817e-45, 1.401298464324817e-44, 1.3910870552062988
16914, 15.969514846801758, 75.96316528320312, -12.639370918273926, 0.0, 0.0, 89.58993530273438, 0.0, 0.0, 0.316619873046875, 0, 0, 0, 0, 0, 0, 9362.0, 30146.0, 35388.0, 9362.0, 8.350414276123047, -0.01768677495419979, 0.01377326250076294, -0.16030773520469666, 0.9972941875457764, 0.06477568298578262, 0.02873755618929863, -0.07340822368860245, -0.20087814331054688, 1.4794921875, 1.387939453125, 0.0297393798828125, 1.48828125, 1.3505859375, 10.0, 1.401298464324817e-45, 1.401298464324817e-44, 1.3910506963729858
16924, 16.012592315673828, 75.9957046508789, -12.682414054870605, 0.0, 0.0, 89.58993530273438, 0.0, 0.0, 0.316619873046875, 0, 0, 0, 0, 0, 0, 9362.0, 30146.0, 35388.0, 9362.0, 8.350414276123047, -0.01768677495419979, 0.01377326250076294, -0.16030773520469666, 0.9968994855880737, 0.061991363763809204, 0.027411166578531265, -0.07340822368860245, -0.20087814331054688, 1.4794921875, 1.377685546875, 0.023040771484375, 1.48828125, 1.3505859375, 10.0, 1.401298464324817e-45, 1.401298464324817e-44, 1.3910691738128662
16934, 16.083677291870117, 76.04490661621094, -12.75085163116455, 0.0, 0.0, 89.58993530273438, 0.0, 0.0, 0.316619873046875, 0, 0, 0, 0, 0, 0, 9362.0, 30146.0, 35388.0, 9362.0, 8.350414276123047, 0.14083027839660645, -0.012819865718483925, -0.028413960710167885, 0.9968994855880737, 0.061991363763809204, 0.027411166578531265, -0.07340822368860245, -0.20087814331054688, 1.4794921875, 1.3828125, 0.0261077880859375, 1.48828125, 1.3505859375, 10.0, 1.401298464324817e-45, 1.401298464324817e-44, 1.3910114765167236
16944, 16.128110885620117, 76.07723999023438, -12.794233322143555, 0.0, 0.0, 89.58993530273438, 0.0, 0.0, 0.316619873046875, 0, 0, 0, 0, 0, 0, 9362.0, 30146.0, 35388.0, 9362.0, 8.350414276123047, -0.014179898425936699, -0.10086769610643387, 0.00924238283187151, 0.9972262978553772, 0.06392122060060501, 0.028415115550160408, -0.07340822368860245, -0.20087814331054688, 1.4794921875, 1.3916015625, 0.0325927734375, 1.493408203125, 1.3505859375, 10.0, 1.401298464324817e-45, 1.401298464324817e-44, 1.3910846710205078
16954, 16.199907302856445, 76.12515258789062, -12.863697052001953, 0.0, 0.0, 89.58993530273438, 0.0, 0.0, 0.316619873046875, 0, 0, 0, 0, 0, 0, 9362.0, 30146.0, 35388.0, 9362.0, 8.350414276123047, 0.013319130055606365, 0.23728419840335846, 0.05975235998630524, 0.9972262978553772, 0.06392122060060501, 0.028415115550160408, -0.07340822368860245, -0.20087814331054688, 1.4794921875, 1.409912109375, 0.0501251220703125, 1.493408203125, 1.3505859375, 10.0, 1.401298464324817e-45, 1.401298464324817e-44, 1.3911480903625488
16964, 16.247608184814453, 76.15713500976562, -12.91051197052002, 0.0, 0.0, 89.58993530273438, 0.0, 0.0, 0.316619873046875, 0, 0, 0, 0, 0, 0, 9362.0, 30146.0, 35388.0, 9362.0, 8.350414276123047, 0.013319130055606365, 0.23728419840335846, 0.05975235998630524, 0.9990701079368591, 0.06450611352920532, 0.027946410700678825, -0.07340822368860245, -0.20087814331054688, 1.4794921875, 1.395263671875, 0.035675048828125, 1.493408203125, 1.3505859375, 10.0, 1.401298464324817e-45, 1.401298464324817e-44, 1.3910545110702515
16974, 16.325143814086914, 76.20699310302734, -12.9849214553833, 0.0, 0.0, 89.58993530273438, 0.0, 0.0, 0.316619873046875, 0, 0, 0, 0, 0, 0, 9362.0, 30146.0, 35388.0, 9362.0, 8.350414276123047, 0.013319130055606365, 0.23728419840335846, 0.05975235998630524, 0.9984784126281738, 0.06376371532678604, 0.027391070500016212, -0.07340822368860245, -0.20087814331054688, 1.4794921875, 1.41650390625, 0.0577545166015625, 1.493408203125, 1.3505859375, 10.0, 1.401298464324817e-45, 1.401298464324817e-44, 1.3911322355270386
16984, 16.368371963500977, 76.23779296875, -13.027165412902832, 0.0, 0.0, 89.58993530273438, 0.0, 0.0, 0.316619873046875, 0, 0, 0, 0, 0, 0, 9362.0, 30146.0, 35388.0, 9362.0, 8.350414276123047, 0.013319130055606365, 0.23728419840335846, 0.05975235998630524, 0.9995439648628235, 0.0648081824183464, 0.02968052588403225, -0.07340822368860245, -0.20087814331054688, 1.4794921875, 1.399658203125, 0.0396575927734375, 1.493408203125, 1.3505859375, 10.0, 1.401298464324817e-45, 1.401298464324817e-44, 1.3912097215652466
16994, 16.432435989379883, 76.2845458984375, -13.088221549987793, 0.0, 0.0, 89.58966827392578, 0.0, 0.0, 0.409698486328125, 0, 0, 0, 0, 0, 0, 9362.0, 30146.0, 35388.0, 9362.0, 8.350414276123047, 0.013319130055606365, 0.23728419840335846, 0.05975235998630524, 0.9985565543174744, 0.06433044373989105, 0.031546059995889664, -0.07512712478637695, -0.08439826965332031, 1.489013671875, 1.383544921875, 0.026611328125, 1.493408203125, 1.3505859375, 10.0, 1.401298464324817e-45, 1.401298464324817e-44, 1.3912097215652466
17004, 16.470178604125977, 76.3144302368164, -13.125913619995117, 0.0, 0.0, 89.58966827392578, 0.0, 0.0, 0.409698486328125, 0, 0, 0, 0, 0, 0, 9362.0, 30146.0, 35388.0, 9362.0, 8.350414276123047, 0.013319130055606365, 0.23728419840335846, 0.05975235998630524, 0.9969725012779236, 0.06629468500614166, 0.029186470434069633, -0.07512712478637695, -0.08439826965332031, 1.489013671875, 1.383544921875, 0.026611328125, 1.493408203125, 1.3505859375, 10.0, 1.401298464324817e-45, 1.401298464324817e-44, 1.3912546634674072
17014, 16.545995712280273, 76.36193084716797, -13.200037002563477, 0.0, 0.0, 89.59895324707031, 0.0, 0.0, 0.55694580078125, 0, 0, 0, 0, 0, 0, 9362.0, 30146.0, 35388.0, 9362.0, 8.350414276123047, 0.044163815677165985, -0.04026448726654053, -0.030751598998904228, 0.9969725012779236, 0.06629468500614166, 0.029186470434069633, -0.07512712478637695, -0.08439826965332031, 1.489013671875, 1.3974609375, 0.03759765625, 1.493408203125, 1.3505859375, 10.0, 1.401298464324817e-45, 1.401298464324817e-44, 1.3911703824996948
17024, 16.584653854370117, 76.39216613769531, -13.237162590026855, 0.0, 0.0, 89.59895324707031, 0.0, 0.0, 0.55694580078125, 0, 0, 0, 0, 0, 0, 9362.0, 30146.0, 35388.0, 9362.0, 8.350414276123047, 0.044163815677165985, -0.04026448726654053, -0.030751598998904228, 0.9969725012779236, 0.06629468500614166, 0.029186470434069633, -0.07512712478637695, -0.08439826965332031, 1.489013671875, 1.3681640625, 0.0185394287109375, 1.493408203125, 1.3505859375, 10.0, 1.401298464324817e-45, 1.401298464324817e-44, 1.391102910041809
17034, 16.661697387695312, 76.43836212158203, -13.311659812927246, 0.0, 0.0, 89.60798645019531, 0.0, 0.0, 0.400543212890625, 0, 0, 0, 0, 0, 0, 9362.0, 30146.0, 35388.0, 9362.0, 8.350414276123047, 0.044163815677165985, -0.04026448726654053, -0.030751598998904228, 0.9977465271949768, 0.06406103074550629, 0.025933057069778442, -0.07512712478637695, -0.08439826965332031, 1.489013671875, 1.36083984375, 0.016387939453125, 1.493408203125, 1.3505859375, 10.0, 1.401298464324817e-45, 1.401298464324817e-44, 1.3911092281341553
17044, 16.704784393310547, 76.4686508178711, -13.353215217590332, 0.0, 0.0, 89.60798645019531, 0.0, 0.0, 0.400543212890625, 0, 0, 0, 0, 0, 0, 9362.0, 30146.0, 35388.0, 9362.0, 8.350414276123047, -0.057801924645900726, 0.16284067928791046, 0.027211416512727737, 0.9977465271949768, 0.06406103074550629, 0.025933057069778442, -0.07512712478637695, -0.08439826965332031, 1.489013671875, 1.4208984375, 0.063079833984375, 1.49267578125, 1.3505859375, 10.0, 1.401298464324817e-45, 1.401298464324817e-44, 1.3911843299865723
17054, 16.772418975830078, 76.51335906982422, -13.419528007507324, 0.0, 0.0, 89.61327362060547, 0.0, 0.0, 0.165557861328125, 0, 0, 0, 0, 0, 0, 9362.0, 30146.0, 35388.0, 9362.0, 8.350414276123047, -0.057801924645900726, 0.16284067928791046, 0.027211416512727737, 0.9978967308998108, 0.06484726816415787, 0.02769346907734871, -0.07512712478637695, -0.08439826965332031, 1.489013671875, 1.414306640625, 0.05517578125, 1.49267578125, 1.3505859375, 10.0, 1.401298464324817e-45, 1.401298464324817e-44, 1.391135811805725
17064, 16.825315475463867, 76.54502868652344, -13.471256256103516, 0.0, 0.0, 89.61327362060547, 0.0, 0.0, 0.165557861328125, 0, 0, 0, 0, 0, 0, 9362.0, 30146.0, 35388.0, 9362.0, 8.350414276123047, -0.057801924645900726, 0.16284067928791046, 0.027211416512727737, 0.9950084090232849, 0.06461096554994583, 0.029860107228159904, -0.07512712478637695, -0.08439826965332031, 1.489013671875, 1.371826171875, 0.02008056640625, 1.49267578125, 1.3505859375, 10.0, 1.401298464324817e-45, 1.401298464324817e-44, 1.3910139799118042
17074, 16.888118743896484, 76.58647155761719, -13.532248497009277, 0.0, 0.0, 89.61327362060547, 0.0, 0.0, 0.165557861328125, 0, 0, 0, 0, 0, 0, 9362.0, 30146.0, 35388.0, 9362.0, 8.350414276123047, 0.08431630581617355, 0.5652191042900085, 0.0743536576628685, 0.9950084090232849, 0.06461096554994583, 0.029860107228159904, -0.07512712478637695, -0.08439826965332031, 1.489013671875, 1.3564453125, 0.0156707763671875, 1.49267578125, 1.3505859375, 10.0, 1.401298464324817e-45, 1.401298464324817e-44, 1.3910139799118042
17084, 16.9326229095459, 76.61674499511719, -13.575526237487793, 0.0, 0.0, 89.61327362060547, 0.0, 0.0, 0.165557861328125, 0, 0, 0, 0, 0, 0, 9362.0, 30146.0, 35388.0, 9362.0, 8.350414276123047, 0.08431630581617355, 0.5652191042900085, 0.0743536576628685, 0.9978842735290527, 0.06315585225820541, 0.030048273503780365, -0.07512712478637695, -0.08439826965332031, 1.489013671875, 1.399658203125, 0.0396575927734375, 1.49560546875, 1.3505859375, 10.0, 1.401298464324817e-45, 1.401298464324817e-44, 1.3908048868179321
17094, 17.002262115478516, 76.6626968383789, -13.643017768859863, 0.0, 0.0, 89.61327362060547, 0.0, 0.0, 0.165557861328125, 0, 0, 0, 0, 0, 0, 9362.0, 30146.0, 35388.0, 9362.0, 8.350414276123047, 0.08431630581617355, 0.5652191042900085, 0.0743536576628685, 0.9994288086891174, 0.06509073078632355, 0.03004411980509758, -0.07512712478637695, -0.08439826965332031, 1.489013671875, 1.41796875, 0.05950927734375, 1.49560546875, 1.3505859375, 10.0, 1.401298464324817e-45, 1.401298464324817e-44, 1.3908048868179321
17104, 17.046350479125977, 76.69319915771484, -13.686111450195312, 0.0, 0.0, 89.61327362060547, 0.0, 0.0, 0.165557861328125, 0, 0, 0, 0, 0, 0, 9362.0, 30146.0, 35388.0, 9362.0, 8.350414276123047, 0.08431630581617355, 0.5652191042900085, 0.0743536576628685, 0.9969949722290039, 0.06390471756458282, 0.028249135240912437, -0.07512712478637695, -0.08439826965332031, 1.489013671875, 1.41796875, 0.05950927734375, 1.49560546875, 1.3505859375, 10.0, 1.401298464324817e-45, 1.401298464324817e-44, 1.3907959461212158
17134, 17.23021697998047, 76.81676483154297, -13.86385726928711, 0.0, 0.0, 89.61327362060547, 0.0, 0.0, 0.165557861328125, 0, 0, 0, 0, 0, 0, 9362.0, 30146.0, 35388.0, 9362.0, 8.350414276123047, 0.002481275936588645, -0.14391283690929413, 0.009341594763100147, 0.9971012473106384, 0.06389234960079193, 0.030531805008649826, -0.07512712478637695, -0.08439826965332031, 1.489013671875, 1.382080078125, 0.0256195068359375, 1.49560546875, 1.3505859375, 10.0, 1.401298464324817e-45, 1.401298464324817e-44, 1.3909662961959839
17144, 17.269865036010742, 76.84851837158203, -13.902182579040527, 0.0, 0.0, 89.61327362060547, 0.0, 0.0, 0.165557861328125, 0, 0, 0, 0, 0, 0, 9362.0, 30146.0, 35388.0, 9362.0, 8.350414276123047, 0.002481275936588645, -0.14391283690929413, 0.009341594763100147, 0.998202919960022, 0.06402797996997833, 0.027129562571644783, -0.07512712478637695, -0.08439826965332031, 1.489013671875, 1.388671875, 0.03033447265625, 1.49267578125, 1.3505859375, 10.0, 1.401298464324817e-45, 1.401298464324817e-44, 1.3909375667572021
17154, 17.335206985473633, 76.8920669555664, -13.965067863464355, 0.0, 0.0, 89.61327362060547, 0.0, 0.0, 0.165557861328125, 0, 0, 0, 0, 0, 0, 9362.0, 30146.0, 35388.0, 9362.0, 8.350414276123047, 0.002481275936588645, -0.14391283690929413, 0.009341594763100147, 0.9988518953323364, 0.061511531472206116, 0.02875434421002865, -0.07512712478637695, -0.08439826965332031, 1.489013671875, 1.435546875, 0.0829315185546875, 1.49267578125, 1.3505859375, 10.0, 1.401298464324817e-45, 1.401298464324817e-44, 1.3909302949905396
17164, 17.38227653503418, 76.921142578125, -14.010531425476074, 0.0, 0.0, 89.61327362060547, 0.0, 0.0, 0.165557861328125, 0, 0, 0, 0, 0, 0, 9362.0, 30146.0, 35388.0, 9362.0, 8.350414276123047, -0.036054130643606186, -0.021093478426337242, -0.026136573404073715, 0.9988518953323364, 0.061511531472206116, 0.02875434421002865, -0.07512712478637695, -0.08439826965332031, 1.489013671875, 1.411376953125, 0.05181884765625, 1.49267578125, 1.3505859375, 10.0, 1.401298464324817e-45, 1.401298464324817e-44, 1.390953779220581
17174, 17.470518112182617, 76.96566772460938, -14.098519325256348, 0.0, 0.0, 89.66365051269531, 0.0, 0.0, -0.484466552734375, 0, 0, 0, 0, 0, 0, 9362.0, 30146.0, 35388.0, 9362.0, 8.350414276123047, -0.036054130643606186, -0.021093478426337242, -0.026136573404073715, 0.9987406134605408, 0.06522400677204132, 0.028249500319361687, -0.07512712478637695, -0.08439826965332031, 1.489013671875, 1.387939453125, 0.0297393798828125, 1.49267578125, 1.3505859375, 10.0, 1.401298464324817e-45, 1.401298464324817e-44, 1.3909156322479248
17184, 17.527175903320312, 76.99398803710938, -14.154646873474121, 0.0, 0.0, 89.66365051269531, 0.0, 0.0, -0.484466552734375, 0, 0, 0, 0, 0, 0, 9362.0, 30146.0, 35388.0, 9362.0, 8.350414276123047, -0.036054130643606186, -0.021093478426337242, -0.026136573404073715, 0.997101366519928, 0.06633935123682022, 0.027673570439219475, -0.07512712478637695, -0.08439826965332031, 1.489013671875, 1.40478515625, 0.0446624755859375, 1.49267578125, 1.3505859375, 10.0, 1.401298464324817e-45, 1.401298464324817e-44, 1.3910125494003296
17194, 17.606643676757812, 77.0375747680664, -14.230632781982422, 0.0, 0.0, 89.66365051269531, 0.0, 0.0, -0.484466552734375, 0, 0, 0, 0, 0, 0, 9362.0, 30146.0, 35388.0, 9362.0, 8.350414276123047, -0.036054130643606186, -0.021093478426337242, -0.026136573404073715, 0.9987843632698059, 0.06373970955610275, 0.027497172355651855, -0.059473294764757156, 0.04104042053222656, 1.499267578125, 1.376220703125, 0.0222930908203125, 1.49267578125, 1.3505859375, 10.0, 1.401298464324817e-45, 1.401298464324817e-44, 1.3910125494003296
17204, 17.653318405151367, 77.06531524658203, -14.274983406066895, 0.0, 0.0, 89.66365051269531, 0.0, 0.0, -0.484466552734375, 0, 0, 0, 0, 0, 0, 9362.0, 30146.0, 35388.0, 9362.0, 8.350414276123047, -0.036054130643606186, -0.021093478426337242, -0.026136573404073715, 0.9986923336982727, 0.06387552618980408, 0.02697489969432354, -0.059473294764757156, 0.04104042053222656, 1.499267578125, 1.376220703125, 0.0222930908203125, 1.49267578125, 1.3505859375, 10.0, 1.401298464324817e-45, 1.401298464324817e-44, 1.390914797782898
17214, 17.73427963256836, 77.10713958740234, -14.353734016418457, 0.0, 0.0, 89.66365051269531, 0.0, 0.0, -0.484466552734375, 0, 0, 0, 0, 0, 0, 9362.0, 30146.0, 35388.0, 9362.0, 8.350414276123047, -0.036054130643606186, -0.021093478426337242, -0.026136573404073715, 0.9966450333595276, 0.06380996853113174, 0.025769194588065147, -0.059473294764757156, 0.04104042053222656, 1.499267578125, 1.41064453125, 0.0509490966796875, 1.49267578125, 1.3505859375, 10.0, 1.401298464324817e-45, 1.401298464324817e-44, 1.3909809589385986
17224, 17.772363662719727, 77.134765625, -14.390409469604492, 0.0, 0.0, 89.66365051269531, 0.0, 0.0, -0.484466552734375, 0, 0, 0, 0, 0, 0, 9362.0, 30146.0, 35388.0, 9362.0, 8.350414276123047, -0.036054130643606186, -0.021093478426337242, -0.026136573404073715, 0.9972118139266968, 0.06366941332817078, 0.027709856629371643, -0.059473294764757156, 0.04104042053222656, 1.499267578125, 1.3447265625, 0.0158538818359375, 1.49267578125, 1.3505859375, 10.0, 1.401298464324817e-45, 1.401298464324817e-44, 1.3909143209457397
17234, 17.840791702270508, 77.17581939697266, -14.456038475036621, 0.0, 0.0, 89.66365051269531, 0.0, 0.0, -0.484466552734375, 0, 0, 0, 0, 0, 0, 9362.0, 30146.0, 35388.0, 9362.0, 8.350414276123047, -0.036054130643606186, -0.021093478426337242, -0.026136573404073715, 0.9972118139266968, 0.06366941332817078, 0.027709856629371643, -0.059473294764757156, 0.04104042053222656, 1.499267578125, 1.3857421875, 0.0280914306640625, 1.49267578125, 1.3505859375, 10.0, 1.401298464324817e-45, 1.401298464324817e-44, 1.3908029794692993
17244, 17.8829288482666, 77.20365905761719, -14.496282577514648, 0.0, 0.0, 89.66365051269531, 0.0, 0.0, -0.484466552734375, 0, 0, 0, 0, 0, 0, 9362.0, 30146.0, 35388.0, 9362.0, 8.350414276123047, -0.036054130643606186, -0.021093478426337242, -0.026136573404073715, 0.9974813461303711, 0.0649067834019661, 0.026552168652415276, -0.059473294764757156, 0.04104042053222656, 1.499267578125, 1.3857421875, 0.0280914306640625, 1.493408203125, 1.3505859375, 10.0, 1.401298464324817e-45, 1.401298464324817e-44, 1.390812635421753
17254, 17.93254852294922, 77.24396514892578, -14.54446029663086, 0.0, 0.0, 89.66365051269531, 0.0, 0.0, -0.484466552734375, 0, 0, 0, 0, 0, 0, 9362.0, 30146.0, 35388.0, 9362.0, 8.350414276123047, -0.036054130643606186, -0.021093478426337242, -0.026136573404073715, 0.9971975088119507, 0.06444429606199265, 0.02695235051214695, -0.059473294764757156, 0.04104042053222656, 1.499267578125, 1.3857421875, 0.0280914306640625, 1.493408203125, 1.3505859375, 10.0, 1.401298464324817e-45, 1.401298464324817e-44, 1.3908151388168335
17264, 17.980663299560547, 77.27349090576172, -14.591107368469238, 0.0, 0.0, 89.6324234008789, 0.0, 0.0, -0.29754638671875, 0, 0, 0, 0, 0, 0, 9362.0, 30146.0, 35388.0, 9362.0, 8.350414276123047, -0.06938879191875458, -0.32241204380989075, 0.023300305008888245, 0.9971975088119507, 0.06444429606199265, 0.02695235051214695, -0.059473294764757156, 0.04104042053222656, 1.499267578125, 1.38720703125, 0.0291900634765625, 1.493408203125, 1.3505859375, 10.0, 1.401298464324817e-45, 1.401298464324817e-44, 1.3908129930496216
17274, 18.05525016784668, 77.31380462646484, -14.663599967956543, 0.0, 0.0, 89.6324234008789, 0.0, 0.0, -0.29754638671875, 0, 0, 0, 0, 0, 0, 9362.0, 30146.0, 35388.0, 9362.0, 8.350414276123047, -0.06938879191875458, -0.32241204380989075, 0.023300305008888245, 0.9986361265182495, 0.06428439170122147, 0.026818392798304558, -0.059473294764757156, 0.04104042053222656, 1.499267578125, 1.37548828125, 0.021820068359375, 1.493408203125, 1.3505859375, 10.0, 1.401298464324817e-45, 1.401298464324817e-44, 1.390912413597107
17284, 18.099218368530273, 77.33992767333984, -14.70704460144043, 0.0, 0.0, 89.6324234008789, 0.0, 0.0, -0.29754638671875, 0, 0, 0, 0, 0, 0, 9362.0, 30146.0, 35388.0, 9362.0, 8.350414276123047, -0.06938879191875458, -0.32241204380989075, 0.023300305008888245, 0.9975903630256653, 0.06389188021421432, 0.028797678649425507, -0.059473294764757156, 0.04104042053222656, 1.499267578125, 1.390869140625, 0.0319671630859375, 1.493408203125, 1.3505859375, 10.0, 1.401298464324817e-45, 1.401298464324817e-44, 1.3908295631408691
17294, 18.173757553100586, 77.3837661743164, -14.781022071838379, 0.0, 0.0, 89.6324234008789, 0.0, 0.0, -0.29754638671875, 0, 0, 0, 0, 0, 0, 9362.0, 30146.0, 35388.0, 9362.0, 8.350414276123047, -0.06938879191875458, -0.32241204380989075, 0.023300305008888245, 0.9958433508872986, 0.06370378285646439, 0.029154932126402855, -0.061530739068984985, -0.09335899353027344, 1.48828125, 1.405517578125, 0.0454254150390625, 1.493408203125, 1.3505859375, 10.0, 1.401298464324817e-45, 1.401298464324817e-44, 1.3908295631408691
17304, 18.223251342773438, 77.40996551513672, -14.829095840454102, 0.0, 0.0, 89.6324234008789, 0.0, 0.0, -0.29754638671875, 0, 0, 0, 0, 0, 0, 9362.0, 30146.0, 35388.0, 9362.0, 8.350414276123047, 0.04981406778097153, 0.16702914237976074, -0.050621166825294495, 0.9958433508872986, 0.06370378285646439, 0.029154932126402855, -0.061530739068984985, -0.09335899353027344, 1.48828125, 1.405517578125, 0.0454254150390625, 1.491943359375, 1.3505859375, 10.0, 1.401298464324817e-45, 1.401298464324817e-44, 1.3908536434173584
17314, 18.290796279907227, 77.45091247558594, -14.895099639892578, 0.0, 0.0, 89.6324234008789, 0.0, 0.0, -0.29754638671875, 0, 0, 0, 0, 0, 0, 9362.0, 30146.0, 35388.0, 9362.0, 8.350414276123047, 0.04981406778097153, 0.16702914237976074, -0.050621166825294495, 0.9978846907615662, 0.06434731930494308, 0.028540113940835, -0.061530739068984985, -0.09335899353027344, 1.48828125, 1.405517578125, 0.0454254150390625, 1.491943359375, 1.3505859375, 10.0, 1.401298464324817e-45, 1.401298464324817e-44, 1.3908584117889404
17324, 18.339723587036133, 77.47763061523438, -14.940910339355469, 0.0, 0.0, 89.6324234008789, 0.0, 0.0, -0.29754638671875, 0, 0, 0, 0, 0, 0, 9362.0, 30146.0, 35388.0, 9362.0, 8.350414276123047, 0.40701228380203247, 0.11973270028829575, -0.09382853657007217, 0.9978846907615662, 0.06434731930494308, 0.028540113940835, -0.061530739068984985, -0.09335899353027344, 1.48828125, 1.37841796875, 0.023406982421875, 1.491943359375, 1.3505859375, 10.0, 1.401298464324817e-45, 1.401298464324817e-44, 1.3908584117889404
17334, 18.422155380249023, 77.5193099975586, -15.02247142791748, 0.0, 0.0, 89.57726287841797, 0.0, 0.0, -0.579833984375, 0, 0, 0, 0, 0, 0, 9362.0, 30146.0, 35388.0, 9362.0, 8.350414276123047, -0.10547836869955063, -0.17250694334506989, -0.22009457647800446, 0.9978846907615662, 0.06434731930494308, 0.028540113940835, -0.061530739068984985, -0.09335899353027344, 1.48828125, 1.392333984375, 0.03314208984375, 1.491943359375, 1.3505859375, 10.0, 1.401298464324817e-45, 1.401298464324817e-44, 1.3908584117889404
17344, 18.46098518371582, 77.54544830322266, -15.058647155761719, 0.0, 0.0, 89.57726287841797, 0.0, 0.0, -0.579833984375, 0, 0, 0, 0, 0, 0, 9362.0, 30146.0, 35388.0, 9362.0, 8.350414276123047, 0.20512467622756958, 0.2674994468688965, 0.21535764634609222, 0.9978846907615662, 0.06434731930494308, 0.028540113940835, -0.061530739068984985, -0.09335899353027344, 1.48828125, 1.3798828125, 0.0243377685546875, 1.490478515625, 1.3505859375, 10.0, 1.401298464324817e-45, 1.401298464324817e-44, 1.3906325101852417
17364, 18.57645606994629, 77.61299133300781, -15.171012878417969, 0.0, 0.0, 89.55919647216797, 0.0, 0.0, -1.28631591796875, 0, 0, 0, 0, 0, 0, 9362.0, 30146.0, 35388.0, 9362.0, 8.350414276123047, -0.07091950625181198, 0.04446365684270859, 0.15942363440990448, 0.9978846907615662, 0.06434731930494308, 0.028540113940835, -0.061530739068984985, -0.09335899353027344, 1.48828125, 1.405517578125, 0.0454254150390625, 1.490478515625, 1.3505859375, 10.0, 1.401298464324817e-45, 1.401298464324817e-44, 1.390590786933899
17374, 18.651426315307617, 77.65379333496094, -15.244590759277344, 0.0, 0.0, 89.5367202758789, 0.0, 0.0, -1.092529296875, 0, 0, 0, 0, 0, 0, 9362.0, 30146.0, 35388.0, 9362.0, 8.350414276123047, -0.07091950625181198, 0.04446365684270859, 0.15942363440990448, 0.9999827742576599, 0.06591227650642395, 0.02732444740831852, -0.061530739068984985, -0.09335899353027344, 1.48828125, 1.41796875, 0.05950927734375, 1.490478515625, 1.3505859375, 10.0, 1.401298464324817e-45, 1.401298464324817e-44, 1.3903448581695557
17384, 18.7051944732666, 77.68079376220703, -15.29636287689209, 0.0, 0.0, 89.5367202758789, 0.0, 0.0, -1.092529296875, 0, 0, 0, 0, 0, 0, 9362.0, 30146.0, 35388.0, 9362.0, 8.350414276123047, -0.07091950625181198, 0.04446365684270859, 0.15942363440990448, 0.9999827742576599, 0.06591227650642395, 0.02732444740831852, -0.061530739068984985, -0.09335899353027344, 1.48828125, 1.39453125, 0.035003662109375, 1.490478515625, 1.3505859375, 10.0, 1.401298464324817e-45, 1.401298464324817e-44, 1.390407919883728
17394, 18.771730422973633, 77.7178726196289, -15.36158275604248, 0.0, 0.0, 89.5367202758789, 0.0, 0.0, -1.092529296875, 0, 0, 0, 0, 0, 0, 9362.0, 30146.0, 35388.0, 9362.0, 8.350414276123047, -0.07091950625181198, 0.04446365684270859, 0.15942363440990448, 0.9966267347335815, 0.06383732706308365, 0.027540361508727074, -0.07157410681247711, -0.1291980743408203, 1.4853515625, 1.401123046875, 0.041015625, 1.490478515625, 1.3505859375, 10.0, 1.401298464324817e-45, 1.401298464324817e-44, 1.390407919883728
17404, 18.809856414794922, 77.74321746826172, -15.397544860839844, 0.0, 0.0, 89.5367202758789, 0.0, 0.0, -1.092529296875, 0, 0, 0, 0, 0, 0, 9362.0, 30146.0, 35388.0, 9362.0, 8.350414276123047, -0.07091950625181198, 0.04446365684270859, 0.15942363440990448, 0.9983758926391602, 0.06510861963033676, 0.02787311002612114, -0.07157410681247711, -0.1291980743408203, 1.4853515625, 1.401123046875, 0.041015625, 1.490478515625, 1.3505859375, 10.0, 1.401298464324817e-45, 1.401298464324817e-44, 1.3903050422668457
