timeTick, roll, pitch, yaw, stateX, stateY, stateZ, stateVX, stateVY, stateVZ, otX0, otY0, otZ0, otRoll0, otPitch0, otYaw0, left wing, pitch motor, yaw motor, right wing, voltage, roll rate, pitch rate, yaw rate, A_x, A_y, A_z, current, i_raw, v_raw, airflow_voltage, airflow_speed, pot_Pitch, voltage_nKF, kFFx, state, State
7189, 6.353501319885254, 60.75690841674805, -3.7620809078216553, 0, 0, 0, 0, 0, 0, 0, 0, 0, 0, 0, 0, 0, 0, 0, 0, 0, 0, 0, 0, 0, 0, 0, 0, 0, 0, 0, 0, 0, 0, 0, 0, 0
7199, 6.372296333312988, 60.83802795410156, -3.778140068054199, 0.0, 0.0, 93.0344467163086, 0.0, 0.0, 0.174713134765625, 0, 0, 0, 0, 0, 0, 9362.0, 30146.0, 35388.0, 9362.0, 0, -0.006481493823230267, -0.10318008065223694, 0.041250646114349365, 0.9984996318817139, 0.06163237243890762, 0.02955196425318718, 0, 0, 0, 0, 0, 0, 0, 0, 0, 0
7209, 6.4088521003723145, 60.960357666015625, -3.810763120651245, 0.0, 0.0, 93.0323257446289, 0.0, 0.0, -0.21209716796875, 0, 0, 0, 0, 0, 0, 9362.0, 30146.0, 35388.0, 9362.0, 0, 0.1748727262020111, -0.05674250051379204, -0.15539775788784027, 0.9979612231254578, 0.059440162032842636, 0.03056543506681919, 0, 0, 0, 1.3798828125, 0.0243377685546875, 0, 0.0, 10.0, 1.401298464324817e-45, 1.401298464324817e-44
7219, 6.429069519042969, 61.04045486450195, -3.8276360034942627, 0.0, 0.0, 93.03050994873047, 0.0, 0.0, -0.18157958984375, 0, 0, 0, 0, 0, 0, 9362.0, 30146.0, 35388.0, 9362.0, 0, 0.17520996928215027, 0.2053624391555786, 0.136524498462677, 0.997422993183136, 0.05968277528882027, 0.030579712241888046, 0, 0, 0, 1.42236328125, 0.0649566650390625, 1.493408203125, 0.0, 10.0, 1.401298464324817e-45, 1.401298464324817e-44
7229, 6.464325904846191, 61.162193298339844, -3.86025071144104, 0.0, 0.0, 93.0361099243164, 0.0, 0.0, 0.55999755859375, 0, 0, 0, 0, 0, 0, 9362.0, 30146.0, 35388.0, 9362.0, 0, 0.15746161341667175, 0.07143400609493256, -0.16223536431789398, 0.9979432821273804, 0.06078551709651947, 0.030130671337246895, 0, 0, 0, 1.385009765625, 0.0276336669921875, 1.493408203125, 0.0, 10.0, 1.401298464324817e-45, 1.401298464324817e-44
7239, 6.491063117980957, 61.24519729614258, -3.886234760284424, 0.0, 0.0, 93.04124450683594, 0.0, 0.0, 0.513458251953125, 0, 0, 0, 0, 0, 0, 9362.0, 30146.0, 35388.0, 9362.0, 0, -0.10177461802959442, -0.29811057448387146, -0.35251790285110474, 0.9993286728858948, 0.06203925609588623, 0.026325959712266922, 0, 0, 0, 1.39892578125, 0.0390167236328125, 1.49267578125, 0.0, 10.0, 1.401298464324817e-45, 1.401298464324817e-44
7249, 6.5220441818237305, 61.36448669433594, -3.9150707721710205, 0.0, 0.0, 93.04052734375, 0.0, 0.0, -0.07171630859375, 0, 0, 0, 0, 0, 0, 9362.0, 30146.0, 35388.0, 9362.0, 0, -0.22769135236740112, 0.24804040789604187, 0.07254552096128464, 1.000791311264038, 0.06264034658670425, 0.028469277545809746, 0, 0, 0, 1.41943359375, 0.0612945556640625, 1.49267578125, 0.0, 10.0, 1.401298464324817e-45, 1.401298464324817e-44
7259, 6.542511940002441, 61.44524002075195, -3.932819366455078, 0.0, 0.0, 93.03997039794922, 0.0, 0.0, -0.055694580078125, 0, 0, 0, 0, 0, 0, 9362.0, 30146.0, 35388.0, 9362.0, 0, -0.00967045221477747, 0.06688520312309265, 0.12308140844106674, 0.999411404132843, 0.06135040894150734, 0.028917258605360985, 0, 0, 0, 1.46484375, 0.1295928955078125, 1.496337890625, 0.0, 10.0, 1.401298464324817e-45, 1.401298464324817e-44
7269, 6.576871395111084, 61.5673713684082, -3.9618237018585205, 0.0, 0.0, 93.04070281982422, 0.0, 0.0, 0.0732421875, 0, 0, 0, 0, 0, 0, 9362.0, 30146.0, 35388.0, 9362.0, 0, 0.25616228580474854, -0.20774155855178833, -0.014225148595869541, 0.9969879984855652, 0.0630079060792923, 0.024793770164251328, 0, 0, 0, 1.423828125, 0.066802978515625, 1.496337890625, 0.0, 10.0, 1.401298464324817e-45, 1.401298464324817e-44
7279, 6.599928855895996, 61.644187927246094, -3.9816062450408936, 0.0, 0.0, 93.04144287109375, 0.0, 0.0, 0.074005126953125, 0, 0, 0, 0, 0, 0, 9362.0, 30146.0, 35388.0, 9362.0, 0, 0.08498859405517578, 0.5686210989952087, -0.1914646476507187, 0.9960104823112488, 0.06304118782281876, 0.022111596539616585, 0, 0, 0, 1.388671875, 0.03033447265625, 1.493408203125, 0.0, 10.0, 1.401298464324817e-45, 1.401298464324817e-44
7289, 6.637027740478516, 61.7635383605957, -4.01542329788208, 0.0, 0.0, 93.03621673583984, 0.0, 0.0, -0.522613525390625, 0, 0, 0, 0, 0, 0, 9362.0, 30146.0, 35388.0, 9362.0, 8.033059120178223, -0.061027608811855316, -0.11572384834289551, -0.21604397892951965, 0.9983393549919128, 0.061742156744003296, 0.025995342060923576, -0.03829672560095787, -0.09335899353027344, 1.48828125, 1.3681640625, 0.0185394287109375, 1.493408203125, 0.0, 10.0, 1.401298464324817e-45, 1.401298464324817e-44
7299, 6.664026737213135, 61.843536376953125, -4.0405592918396, 0.0, 0.0, 93.03160095214844, 0.0, 0.0, -0.461578369140625, 0, 0, 0, 0, 0, 0, 9362.0, 30146.0, 35388.0, 9362.0, 8.033059120178223, -0.0515814833343029, -0.05396517738699913, -0.3630317747592926, 0.9977056384086609, 0.05757715180516243, 0.028686385601758957, -0.03829672560095787, -0.09335899353027344, 1.48828125, 1.44873046875, 0.102813720703125, 1.496337890625, 0.0, 10.0, 1.401298464324817e-45, 1.401298464324817e-44
7309, 6.704714298248291, 61.96162414550781, -4.079314231872559, 0.0, 0.0, 93.02320098876953, 0.0, 0.0, -0.839996337890625, 0, 0, 0, 0, 0, 0, 9362.0, 30146.0, 35388.0, 9362.0, 8.033059120178223, -0.20705030858516693, -0.10060218721628189, -0.5064458250999451, 0.9961269497871399, 0.061742670834064484, 0.029500383883714676, -0.03829672560095787, -0.09335899353027344, 1.48828125, 1.4033203125, 0.043182373046875, 1.496337890625, 0.0, 10.0, 1.401298464324817e-45, 1.401298464324817e-44
7319, 6.725283145904541, 62.0386962890625, -4.096372127532959, 0.0, 0.0, 93.0157241821289, 0.0, 0.0, -0.7476806640625, 0, 0, 0, 0, 0, 0, 9362.0, 30146.0, 35388.0, 9362.0, 8.033059120178223, -0.005231313873082399, 0.08230994641780853, 0.2145405262708664, 0.9988586902618408, 0.061176709830760956, 0.03040887787938118, -0.03829672560095787, -0.09335899353027344, 1.48828125, 1.3740234375, 0.0210723876953125, 1.4912109375, 0.0, 10.0, 1.401298464324817e-45, 1.401298464324817e-44
7329, 6.764631271362305, 62.15471649169922, -4.131731986999512, 0.0, 0.0, 93.0080337524414, 0.0, 0.0, -0.76904296875, 0, 0, 0, 0, 0, 0, 9362.0, 30146.0, 35388.0, 9362.0, 8.033059120178223, 0.0890764594078064, 0.06901354342699051, -0.14605344831943512, 0.9999212026596069, 0.06197551265358925, 0.02886241301894188, -0.03829672560095787, -0.09335899353027344, 1.48828125, 1.474365234375, 0.14654541015625, 1.4912109375, 0.0, 10.0, 1.401298464324817e-45, 1.401298464324817e-44
7339, 6.787451267242432, 62.23204040527344, -4.152149677276611, 0.0, 0.0, 93.00119018554688, 0.0, 0.0, -0.684356689453125, 0, 0, 0, 0, 0, 0, 9362.0, 30146.0, 35388.0, 9362.0, 8.033059120178223, 0.021311553195118904, 0.18346059322357178, 0.10420575737953186, 0.9987181425094604, 0.0592450387775898, 0.028280125930905342, -0.03829672560095787, -0.09335899353027344, 1.48828125, 1.39013671875, 0.0314483642578125, 1.49267578125, 0.0, 10.0, 1.401298464324817e-45, 1.401298464324817e-44
7349, 6.814485549926758, 62.347808837890625, -4.174203872680664, 0.0, 0.0, 92.99789428710938, 0.0, 0.0, -0.32958984375, 0, 0, 0, 0, 0, 0, 9362.0, 30146.0, 35388.0, 9362.0, 8.033059120178223, 0.0812428742647171, 0.06430026143789291, 0.4994277060031891, 0.9951848387718201, 0.05978258326649666, 0.026652134954929352, -0.03829672560095787, -0.09335899353027344, 1.48828125, 1.349853515625, 0.015350341796875, 1.49267578125, 0.0, 10.0, 1.401298464324817e-45, 1.401298464324817e-44
7359, 6.836092472076416, 62.425838470458984, -4.193073272705078, 0.0, 0.0, 92.9950180053711, 0.0, 0.0, -0.287628173828125, 0, 0, 0, 0, 0, 0, 9362.0, 30146.0, 35388.0, 9362.0, 8.033059120178223, 0.060172613710165024, -0.02796097844839096, 0.18251970410346985, 0.9954938292503357, 0.059667348861694336, 0.0256380382925272, -0.03829672560095787, -0.09335899353027344, 1.48828125, 1.34765625, 0.0154571533203125, 1.49267578125, 0.0, 10.0, 1.401298464324817e-45, 1.401298464324817e-44
7369, 6.866589546203613, 62.537757873535156, -4.221290111541748, 0.0, 0.0, 93.00347900390625, 0.0, 0.0, 0.846099853515625, 0, 0, 0, 0, 0, 0, 9362.0, 30146.0, 35388.0, 9362.0, 8.033059120178223, -0.13785764575004578, 0.25495457649230957, 0.34858518838882446, 0.9990658760070801, 0.06135625019669533, 0.025080377236008644, -0.03829672560095787, -0.09335899353027344, 1.48828125, 1.35498046875, 0.01556396484375, 1.49267578125, 0.0, 10.0, 1.401298464324817e-45, 1.401298464324817e-44
7379, 6.894691467285156, 62.61288833618164, -4.248255729675293, 0.0, 0.0, 93.01117706298828, 0.0, 0.0, 0.769805908203125, 0, 0, 0, 0, 0, 0, 9362.0, 30146.0, 35388.0, 9362.0, 8.033059120178223, -0.036167506128549576, 0.11819107085466385, -0.38686707615852356, 0.9985443949699402, 0.060613296926021576, 0.02531757578253746, -0.03829672560095787, -0.09335899353027344, 1.48828125, 1.4384765625, 0.0871429443359375, 1.493408203125, 0.0, 10.0, 1.401298464324817e-45, 1.401298464324817e-44
7389, 6.930098533630371, 62.725162506103516, -4.280605792999268, 0.0, 0.0, 93.02423858642578, 0.0, 0.0, 1.30615234375, 0, 0, 0, 0, 0, 0, 9362.0, 30146.0, 35388.0, 9362.0, 8.033059120178223, -0.06285074353218079, 0.3176509141921997, 0.10270943492650986, 0.9931114912033081, 0.061759740114212036, 0.024676255881786346, -0.044997550547122955, 0.03208160400390625, 1.49853515625, 1.363037109375, 0.0169219970703125, 1.493408203125, 0.0, 10.0, 1.401298464324817e-45, 1.401298464324817e-44
7399, 6.959935665130615, 62.79950714111328, -4.307993412017822, 0.0, 0.0, 93.03607177734375, 0.0, 0.0, 1.183319091796875, 0, 0, 0, 0, 0, 0, 9362.0, 30146.0, 35388.0, 9362.0, 8.033059120178223, 0.15103614330291748, 0.18663203716278076, -0.28445345163345337, 0.9974532723426819, 0.06258183717727661, 0.024817777797579765, -0.044997550547122955, 0.03208160400390625, 1.49853515625, 1.39306640625, 0.0337982177734375, 1.493408203125, 0.0, 10.0, 1.401298464324817e-45, 1.401298464324817e-44
7409, 6.985047817230225, 62.910709381103516, -4.329028606414795, 0.0, 0.0, 93.0435562133789, 0.0, 0.0, 0.748443603515625, 0, 0, 0, 0, 0, 0, 9362.0, 30146.0, 35388.0, 9362.0, 8.033059120178223, -0.16000913083553314, 0.198067307472229, 0.3169873058795929, 1.001501202583313, 0.060427941381931305, 0.03148047998547554, -0.044997550547122955, 0.03208160400390625, 1.49853515625, 1.354248046875, 0.0154266357421875, 1.493408203125, 0.0, 10.0, 1.401298464324817e-45, 1.401298464324817e-44
7419, 7.002043724060059, 62.98688507080078, -4.343531608581543, 0.0, 0.0, 93.05037689208984, 0.0, 0.0, 0.68206787109375, 0, 0, 0, 0, 0, 0, 9362.0, 30146.0, 35388.0, 9362.0, 8.033059120178223, -0.09160670638084412, 0.039959248155355453, 0.5330819487571716, 0.99555903673172, 0.061005353927612305, 0.02770928293466568, -0.044997550547122955, 0.03208160400390625, 1.49853515625, 1.41943359375, 0.0612945556640625, 1.49560546875, 0.0, 10.0, 1.401298464324817e-45, 1.401298464324817e-44
7429, 7.040592670440674, 63.09996795654297, -4.377110958099365, 0.0, 0.0, 93.05281066894531, 0.0, 0.0, 0.243377685546875, 0, 0, 0, 0, 0, 0, 9362.0, 30146.0, 35388.0, 9362.0, 8.033059120178223, 0.03714993968605995, 0.057688742876052856, 0.01391777116805315, 0.9934780597686768, 0.06056069955229759, 0.025836357846856117, -0.044997550547122955, 0.03208160400390625, 1.49853515625, 1.452392578125, 0.10870361328125, 1.49560546875, 0.0, 10.0, 1.401298464324817e-45, 1.401298464324817e-44
7439, 7.069516181945801, 63.173736572265625, -4.404130935668945, 0.0, 0.0, 93.0550765991211, 0.0, 0.0, 0.226593017578125, 0, 0, 0, 0, 0, 0, 9362.0, 30146.0, 35388.0, 9362.0, 8.033059120178223, 0.05337678641080856, -0.010693788528442383, -0.267941415309906, 0.9997519254684448, 0.06074409931898117, 0.029784243553876877, -0.044997550547122955, 0.03208160400390625, 1.49853515625, 1.443603515625, 0.0948486328125, 1.493408203125, 0.0, 10.0, 1.401298464324817e-45, 1.401298464324817e-44
7449, 7.106026649475098, 63.283321380615234, -4.438260078430176, 0.0, 0.0, 93.05066680908203, 0.0, 0.0, -0.44097900390625, 0, 0, 0, 0, 0, 0, 9362.0, 30146.0, 35388.0, 9362.0, 8.033059120178223, -0.13567191362380981, -0.03692742809653282, -0.051871158182621, 0.9977958798408508, 0.061570342630147934, 0.03048599138855934, -0.044997550547122955, 0.03208160400390625, 1.49853515625, 1.43701171875, 0.085052490234375, 1.493408203125, 0.0, 10.0, 1.401298464324817e-45, 1.401298464324817e-44
7459, 7.132528305053711, 63.3580436706543, -4.462324619293213, 0.0, 0.0, 93.04678344726562, 0.0, 0.0, -0.388336181640625, 0, 0, 0, 0, 0, 0, 9362.0, 30146.0, 35388.0, 9362.0, 8.033059120178223, 0.0231303907930851, -0.2783493101596832, -0.15966586768627167, 0.9962964057922363, 0.060652684420347214, 0.029111355543136597, -0.044997550547122955, 0.03208160400390625, 1.49853515625, 1.4150390625, 0.05596923828125, 1.4912109375, 0.0, 10.0, 1.401298464324817e-45, 1.401298464324817e-44
7469, 7.171261310577393, 63.46720886230469, -4.4964141845703125, 0.0, 0.0, 93.0368423461914, 0.0, 0.0, -0.994110107421875, 0, 0, 0, 0, 0, 0, 9362.0, 30146.0, 35388.0, 9362.0, 8.033059120178223, -0.024143161252141, 0.13860535621643066, 0.049018263816833496, 0.9992532134056091, 0.062105461955070496, 0.027559423819184303, -0.044997550547122955, 0.03208160400390625, 1.49853515625, 1.41357421875, 0.0542449951171875, 1.4912109375, 0.0, 10.0, 1.401298464324817e-45, 1.401298464324817e-44
7479, 7.187714576721191, 63.53978729248047, -4.510920524597168, 0.0, 0.0, 93.02796936035156, 0.0, 0.0, -0.887298583984375, 0, 0, 0, 0, 0, 0, 9362.0, 30146.0, 35388.0, 9362.0, 8.033059120178223, -0.1707991361618042, 0.3072444200515747, 0.44550007581710815, 1.001677393913269, 0.061739545315504074, 0.02971973642706871, -0.044997550547122955, 0.03208160400390625, 1.49853515625, 1.4267578125, 0.070709228515625, 1.49267578125, 0.0, 10.0, 1.401298464324817e-45, 1.401298464324817e-44
7489, 7.217115879058838, 63.651405334472656, -4.537603378295898, 0.0, 0.0, 93.02393341064453, 0.0, 0.0, -0.403594970703125, 0, 0, 0, 0, 0, 0, 9362.0, 30146.0, 35388.0, 9362.0, 8.033059120178223, -0.10108999162912369, -0.26658982038497925, 0.13122154772281647, 0.996573269367218, 0.06265030801296234, 0.027337562292814255, -0.03576333448290825, 0.1844005584716797, 1.510986328125, 1.43994140625, 0.089324951171875, 1.49267578125, 0.0, 10.0, 1.401298464324817e-45, 1.401298464324817e-44
7499, 7.246517181396484, 63.72440719604492, -4.565530300140381, 0.0, 0.0, 93.02037811279297, 0.0, 0.0, -0.35552978515625, 0, 0, 0, 0, 0, 0, 9362.0, 30146.0, 35388.0, 9362.0, 8.033059120178223, -0.12158556282520294, 0.09385580569505692, -0.5959389209747314, 0.9970192909240723, 0.0615992434322834, 0.02456642873585224, -0.03576333448290825, 0.1844005584716797, 1.510986328125, 1.449462890625, 0.103973388671875, 1.49560546875, 0.0, 10.0, 1.401298464324817e-45, 1.401298464324817e-44
7509, 7.2930779457092285, 63.83347702026367, -4.609218597412109, 0.0, 0.0, 93.01783752441406, 0.0, 0.0, -0.254058837890625, 0, 0, 0, 0, 0, 0, 9362.0, 30146.0, 35388.0, 9362.0, 8.033059120178223, 0.10739602893590927, -0.04436242952942848, -0.48767852783203125, 1.000141978263855, 0.06358886510133743, 0.02401205152273178, -0.03576333448290825, 0.1844005584716797, 1.510986328125, 1.4501953125, 0.1050872802734375, 1.49560546875, 0.0, 10.0, 1.401298464324817e-45, 1.401298464324817e-44
7519, 7.315399646759033, 63.90614318847656, -4.628723621368408, 0.0, 0.0, 93.01563262939453, 0.0, 0.0, -0.220489501953125, 0, 0, 0, 0, 0, 0, 9362.0, 30146.0, 35388.0, 9362.0, 8.033059120178223, -0.005368368234485388, -0.0023934294003993273, 0.10775823146104813, 0.9980024099349976, 0.06317008286714554, 0.02444577030837536, -0.03576333448290825, 0.1844005584716797, 1.510986328125, 1.39013671875, 0.0314483642578125, 1.486083984375, 0.0, 10.0, 1.401298464324817e-45, 1.401298464324817e-44
7529, 7.355850696563721, 64.01708984375, -4.665800094604492, 0.0, 0.0, 93.01868438720703, 0.0, 0.0, 0.30517578125, 0, 0, 0, 0, 0, 0, 9362.0, 30146.0, 35388.0, 9362.0, 8.033059120178223, 0.08420366793870926, -0.27078375220298767, -0.20800885558128357, 0.9965827465057373, 0.0594242587685585, 0.027128223329782486, -0.03576333448290825, 0.1844005584716797, 1.510986328125, 1.379150390625, 0.0238189697265625, 1.486083984375, 0.0, 10.0, 1.401298464324817e-45, 1.401298464324817e-44
7549, 7.412947177886963, 64.20049285888672, -4.717219352722168, 0.0, 0.0, 93.01868438720703, 0.0, 0.0, 0.30517578125, 0, 0, 0, 0, 0, 0, 9362.0, 30146.0, 35388.0, 9362.0, 8.033059120178223, -0.059560030698776245, -0.15878185629844666, 0.40815263986587524, 1.0009751319885254, 0.05931347608566284, 0.028297830373048782, -0.03576333448290825, 0.1844005584716797, 1.510986328125, 1.392333984375, 0.03314208984375, 1.48974609375, 0.0, 10.0, 1.401298464324817e-45, 1.401298464324817e-44
7559, 7.441178321838379, 64.27246856689453, -4.744494915008545, 0.0, 0.0, 93.01868438720703, 0.0, 0.0, 0.30517578125, 0, 0, 0, 0, 0, 0, 9362.0, 30146.0, 35388.0, 9362.0, 8.033059120178223, -0.1380777508020401, -0.09568566083908081, -0.38409581780433655, 0.99878990650177, 0.060167670249938965, 0.029270201921463013, -0.03576333448290825, 0.1844005584716797, 1.510986328125, 1.392333984375, 0.03314208984375, 1.493408203125, 0.0, 10.0, 1.401298464324817e-45, 1.401298464324817e-44
7569, 7.478200912475586, 64.37970733642578, -4.77721643447876, 0.0, 0.0, 93.01868438720703, 0.0, 0.0, 0.30517578125, 0, 0, 0, 0, 0, 0, 9362.0, 30146.0, 35388.0, 9362.0, 8.033059120178223, 0.11740026623010635, 0.0476018525660038, -0.004229032434523106, 0.998116135597229, 0.058673787862062454, 0.0265597365796566, -0.03576333448290825, 0.1844005584716797, 1.510986328125, 1.371826171875, 0.02008056640625, 1.493408203125, 0.0, 10.0, 1.401298464324817e-45, 1.401298464324817e-44
7579, 7.501649379730225, 64.45026397705078, -4.798129558563232, 0.0, 0.0, 93.01868438720703, 0.0, 0.0, 0.30517578125, 0, 0, 0, 0, 0, 0, 9362.0, 30146.0, 35388.0, 9362.0, 8.033059120178223, 0.03749256953597069, -0.06374886631965637, 0.15432581305503845, 0.998116135597229, 0.058673787862062454, 0.0265597365796566, -0.03576333448290825, 0.1844005584716797, 1.510986328125, 1.371826171875, 0.02008056640625, 1.49267578125, 0.0, 10.0, 1.401298464324817e-45, 1.401298464324817e-44
7619, 7.620890140533447, 64.80030822753906, -4.906274318695068, 0.0, 0.0, 93.04139709472656, 0.0, 0.0, 0.659942626953125, 0, 0, 0, 0, 0, 0, 9362.0, 30146.0, 35388.0, 9362.0, 8.033059120178223, -0.01985727809369564, -0.12740838527679443, -0.05083483085036278, 0.9966357946395874, 0.06206454336643219, 0.02497253008186817, -0.012479200959205627, -0.07543754577636719, 1.48974609375, 1.363037109375, 0.0169219970703125, 1.49267578125, 0.0, 10.0, 1.401298464324817e-45, 1.401298464324817e-44
7629, 7.661216735839844, 64.90530395507812, -4.943281650543213, 0.0, 0.0, 93.04139709472656, 0.0, 0.0, 0.659942626953125, 0, 0, 0, 0, 0, 0, 9362.0, 30146.0, 35388.0, 9362.0, 8.033059120178223, -0.0012963302433490753, -0.26860570907592773, 0.02964833937585354, 0.9986780285835266, 0.06310901790857315, 0.027953535318374634, -0.012479200959205627, -0.07543754577636719, 1.48974609375, 1.363037109375, 0.0169219970703125, 1.49267578125, 0.0, 10.0, 1.401298464324817e-45, 1.401298464324817e-44
7639, 7.688024520874023, 64.97599792480469, -4.967467308044434, 0.0, 0.0, 93.04139709472656, 0.0, 0.0, 0.659942626953125, 0, 0, 0, 0, 0, 0, 9362.0, 30146.0, 35388.0, 9362.0, 8.033059120178223, 0.06433504819869995, -0.12021900713443756, 0.03406932204961777, 0.9960603713989258, 0.06239863857626915, 0.02496638521552086, -0.012479200959205627, -0.07543754577636719, 1.48974609375, 1.363037109375, 0.0169219970703125, 1.49267578125, 0.0, 10.0, 1.401298464324817e-45, 1.401298464324817e-44
7649, 7.722559928894043, 65.081787109375, -4.999661922454834, 0.0, 0.0, 93.04139709472656, 0.0, 0.0, 0.659942626953125, 0, 0, 0, 0, 0, 0, 9362.0, 30146.0, 35388.0, 9362.0, 8.033059120178223, -0.2128225564956665, -0.3275053799152374, 0.10724502801895142, 0.9971782565116882, 0.05763312429189682, 0.02703731879591942, -0.012479200959205627, -0.07543754577636719, 1.48974609375, 1.363037109375, 0.0169219970703125, 1.49267578125, 0.0, 10.0, 1.401298464324817e-45, 1.401298464324817e-44
7679, 7.813606262207031, 65.31869506835938, -5.080567359924316, 0.0, 0.0, 93.05607604980469, 0.0, 0.0, -0.760650634765625, 0, 0, 0, 0, 0, 0, 9362.0, 30146.0, 35388.0, 9362.0, 8.033059120178223, 0.10766840726137161, 0.02720510959625244, -0.08288749307394028, 0.9964482188224792, 0.060968536883592606, 0.029306843876838684, -0.012479200959205627, -0.07543754577636719, 1.48974609375, 1.383544921875, 0.026611328125, 1.49267578125, 0.0, 10.0, 1.401298464324817e-45, 1.401298464324817e-44
7699, 7.8849639892578125, 65.48979949951172, -5.14805793762207, 0.0, 0.0, 93.04767608642578, 0.0, 0.0, -0.162506103515625, 0, 0, 0, 0, 0, 0, 9362.0, 30146.0, 35388.0, 9362.0, 8.033059120178223, -0.026930492371320724, -0.5075947046279907, -0.16791695356369019, 0.9975292682647705, 0.061030253767967224, 0.03309517726302147, -0.0610564723610878, -0.11127853393554688, 1.48681640625, 1.383544921875, 0.026611328125, 1.491943359375, 0.0, 10.0, 1.401298464324817e-45, 1.401298464324817e-44
7719, 7.945823669433594, 65.65945434570312, -5.203693389892578, 0.0, 0.0, 93.04512786865234, 0.0, 0.0, -0.115203857421875, 0, 0, 0, 0, 0, 0, 9362.0, 30146.0, 35388.0, 9362.0, 8.033059120178223, -0.03979426622390747, 0.08395311236381531, -0.3007609248161316, 1.0000686645507812, 0.059832923114299774, 0.023789405822753906, -0.0610564723610878, -0.11127853393554688, 1.48681640625, 1.38427734375, 0.027099609375, 1.491943359375, 0.0, 10.0, 1.401298464324817e-45, 1.401298464324817e-44
7759, 8.081839561462402, 65.9934310913086, -5.325923442840576, 0.0, 0.0, 93.04120635986328, 0.0, 0.0, -0.295257568359375, 0, 0, 0, 0, 0, 0, 9362.0, 30146.0, 35388.0, 9362.0, 8.033059120178223, -0.12939059734344482, 0.2743099331855774, 0.09289523959159851, 0.9959245324134827, 0.06150355935096741, 0.03266657516360283, -0.0610564723610878, -0.11127853393554688, 1.48681640625, 1.32568359375, 0.0232086181640625, 1.489013671875, 0.0, 10.0, 1.401298464324817e-45, 1.401298464324817e-44
7769, 8.1191987991333, 66.08919525146484, -5.359339714050293, 0.0, 0.0, 93.03900146484375, 0.0, 0.0, 0.250244140625, 0, 0, 0, 0, 0, 0, 9362.0, 30146.0, 35388.0, 9362.0, 8.033059120178223, 0.10835197567939758, 0.3422720432281494, 0.0007596052601002157, 0.9943757653236389, 0.060715530067682266, 0.028196115046739578, -0.0610564723610878, -0.11127853393554688, 1.48681640625, 1.32568359375, 0.0232086181640625, 1.489013671875, 0.0, 10.0, 1.401298464324817e-45, 1.401298464324817e-44
7779, 8.146318435668945, 66.15512084960938, -5.383636951446533, 0.0, 0.0, 93.03900146484375, 0.0, 0.0, 0.250244140625, 0, 0, 0, 0, 0, 0, 9362.0, 30146.0, 35388.0, 9362.0, 8.033059120178223, 0.044650599360466, -0.06525412201881409, 0.047562550753355026, 0.9985225200653076, 0.06268130987882614, 0.029552973806858063, -0.0610564723610878, -0.11127853393554688, 1.48681640625, 1.32568359375, 0.0232086181640625, 1.49267578125, 0.0, 10.0, 1.401298464324817e-45, 1.401298464324817e-44
7799, 8.203946113586426, 66.31797790527344, -5.435717582702637, 0.0, 0.0, 93.03900146484375, 0.0, 0.0, 0.250244140625, 0, 0, 0, 0, 0, 0, 9362.0, 30146.0, 35388.0, 9362.0, 8.033059120178223, -0.2788630723953247, 0.07280027866363525, 0.3564954996109009, 0.9988123178482056, 0.06093510612845421, 0.02936520427465439, -0.0610564723610878, -0.11127853393554688, 1.48681640625, 1.32568359375, 0.0232086181640625, 1.49267578125, 0.0, 10.0, 1.401298464324817e-45, 1.401298464324817e-44
7809, 8.24576187133789, 66.414306640625, -5.472955226898193, 0.0, 0.0, 93.03900146484375, 0.0, 0.0, 0.250244140625, 0, 0, 0, 0, 0, 0, 9362.0, 30146.0, 35388.0, 9362.0, 8.033059120178223, -0.008070242591202259, 0.14930179715156555, 0.12576846778392792, 0.9964399933815002, 0.06087686866521835, 0.02523217536509037, -0.0610564723610878, -0.11127853393554688, 1.48681640625, 1.3505859375, 0.0153045654296875, 1.49267578125, 0.0, 10.0, 1.401298464324817e-45, 1.401298464324817e-44
7839, 8.347085952758789, 66.64250946044922, -5.567685127258301, 0.0, 0.0, 93.03900146484375, 0.0, 0.0, 0.250244140625, 0, 0, 0, 0, 0, 0, 9362.0, 30146.0, 35388.0, 9362.0, 8.033059120178223, 0.006408090237528086, -0.0344146229326725, -0.15415708720684052, 0.9951422214508057, 0.06042838096618652, 0.025489725172519684, -0.0610564723610878, -0.11127853393554688, 1.48681640625, 1.41943359375, 0.0612945556640625, 1.48681640625, 0.0, 10.0, 1.401298464324817e-45, 1.401298464324817e-44
7849, 8.386191368103027, 66.73710632324219, -5.603261947631836, 0.0, 0.0, 93.09051513671875, 0.0, 0.0, 0.72021484375, 0, 0, 0, 0, 0, 0, 9362.0, 30146.0, 35388.0, 9362.0, 8.033059120178223, 0.061875198036432266, 0.3833712339401245, -0.06407313793897629, 1.001949429512024, 0.060379136353731155, 0.03153226897120476, -0.0610564723610878, -0.11127853393554688, 1.48681640625, 1.41943359375, 0.0612945556640625, 1.48681640625, 0.0, 10.0, 1.401298464324817e-45, 1.401298464324817e-44
7859, 8.410150527954102, 66.79964447021484, -5.624926567077637, 0.0, 0.0, 93.09051513671875, 0.0, 0.0, 0.72021484375, 0, 0, 0, 0, 0, 0, 9362.0, 30146.0, 35388.0, 9362.0, 8.033059120178223, 0.022150330245494843, 0.14160288870334625, 0.101894810795784, 0.9996472597122192, 0.06242433562874794, 0.02873831056058407, -0.0610564723610878, -0.11127853393554688, 1.48681640625, 1.41943359375, 0.0612945556640625, 1.49267578125, 0.0, 10.0, 1.401298464324817e-45, 1.401298464324817e-44
7869, 8.446558952331543, 66.89429473876953, -5.657602787017822, 0.0, 0.0, 93.10469055175781, 0.0, 0.0, 0.762939453125, 0, 0, 0, 0, 0, 0, 9362.0, 30146.0, 35388.0, 9362.0, 8.033059120178223, -0.03841225057840347, -0.05698317289352417, 0.12795203924179077, 0.9975576996803284, 0.061810411512851715, 0.027319230139255524, -0.0610564723610878, -0.11127853393554688, 1.48681640625, 1.43115234375, 0.0766143798828125, 1.49267578125, 0.0, 10.0, 1.401298464324817e-45, 1.401298464324817e-44
7879, 8.469270706176758, 66.95642852783203, -5.678226947784424, 0.0, 0.0, 93.10469055175781, 0.0, 0.0, 0.762939453125, 0, 0, 0, 0, 0, 0, 9362.0, 30146.0, 35388.0, 9362.0, 8.033059120178223, -0.06965342909097672, 0.1404951959848404, 0.21366538107395172, 0.998564600944519, 0.06076904013752937, 0.02885543927550316, -0.0610564723610878, -0.11127853393554688, 1.48681640625, 1.43115234375, 0.0766143798828125, 1.493408203125, 0.0, 10.0, 1.401298464324817e-45, 1.401298464324817e-44
7899, 8.541060447692871, 67.1161117553711, -5.74724817276001, 0.0, 0.0, 93.10469055175781, 0.0, 0.0, 0.762939453125, 0, 0, 0, 0, 0, 0, 9362.0, 30146.0, 35388.0, 9362.0, 8.033059120178223, 0.05531800538301468, -0.27539125084877014, -0.17400871217250824, 0.996021032333374, 0.06102033331990242, 0.022743327543139458, -0.04901755973696709, -0.030637741088867188, 1.493408203125, 1.3095703125, 0.037139892578125, 1.493408203125, 0.0, 10.0, 1.401298464324817e-45, 1.401298464324817e-44
7909, 8.5825777053833, 67.2085189819336, -5.785748481750488, 0.0, 0.0, 93.10469055175781, 0.0, 0.0, 0.762939453125, 0, 0, 0, 0, 0, 0, 9362.0, 30146.0, 35388.0, 9362.0, 8.033059120178223, 0.0012314860941842198, 0.1693999022245407, -0.16387173533439636, 0.9969635009765625, 0.05947341397404671, 0.024452654644846916, -0.04901755973696709, -0.030637741088867188, 1.493408203125, 1.33154296875, 0.0198516845703125, 1.493408203125, 0.0, 10.0, 1.401298464324817e-45, 1.401298464324817e-44
7919, 8.60873031616211, 67.27149963378906, -5.808850288391113, 0.0, 0.0, 93.10469055175781, 0.0, 0.0, 0.762939453125, 0, 0, 0, 0, 0, 0, 9362.0, 30146.0, 35388.0, 9362.0, 8.033059120178223, 0.0012314860941842198, 0.1693999022245407, -0.16387173533439636, 0.9984277486801147, 0.061584725975990295, 0.027533819898962975, -0.04901755973696709, -0.030637741088867188, 1.493408203125, 1.33154296875, 0.0198516845703125, 1.493408203125, 0.0, 10.0, 1.401298464324817e-45, 1.401298464324817e-44
7939, 8.673508644104004, 67.42768859863281, -5.868211269378662, 0.0, 0.0, 93.12503051757812, 0.0, 0.0, -0.324249267578125, 0, 0, 0, 0, 0, 0, 9362.0, 30146.0, 35388.0, 9362.0, 8.033059120178223, -0.20234942436218262, -0.28032219409942627, -0.03732538968324661, 0.9978547692298889, 0.06012504920363426, 0.02828546240925789, -0.04901755973696709, -0.030637741088867188, 1.493408203125, 1.32421875, 0.024139404296875, 1.493408203125, 0.0, 10.0, 1.401298464324817e-45, 1.401298464324817e-44
7949, 8.712285041809082, 67.51984405517578, -5.904473781585693, 0.0, 0.0, 93.12187957763672, 0.0, 0.0, -0.029754638671875, 0, 0, 0, 0, 0, 0, 9362.0, 30146.0, 35388.0, 9362.0, 8.033059120178223, -0.009284138679504395, 0.18109655380249023, -0.009162832982838154, 0.9982511401176453, 0.06143859028816223, 0.027907701209187508, -0.04901755973696709, -0.030637741088867188, 1.493408203125, 1.32421875, 0.024139404296875, 1.493408203125, 0.0, 10.0, 1.401298464324817e-45, 1.401298464324817e-44
7999, 8.884709358215332, 67.88011932373047, -6.064446449279785, 0.0, 0.0, 93.13130950927734, 0.0, 0.0, 0.2685546875, 0, 0, 0, 0, 0, 0, 9362.0, 30146.0, 35388.0, 9362.0, 8.033059120178223, 0.038799263536930084, 0.3013492226600647, -0.04043034464120865, 0.9969105124473572, 0.06240469217300415, 0.025995677337050438, -0.04113755375146866, -0.030637741088867188, 1.493408203125, 1.39013671875, 0.0314483642578125, 1.494873046875, 0.0, 10.0, 1.401298464324817e-45, 1.401298464324817e-44
8009, 8.931174278259277, 67.96868133544922, -6.108273983001709, 0.0, 0.0, 93.13545227050781, 0.0, 0.0, 0.414276123046875, 0, 0, 0, 0, 0, 0, 9362.0, 30146.0, 35388.0, 9362.0, 8.033059120178223, -0.01351411547511816, 0.2820110023021698, -0.24091370403766632, 0.9965405464172363, 0.06151135265827179, 0.024174824357032776, -0.04113755375146866, -0.030637741088867188, 1.493408203125, 1.39013671875, 0.0314483642578125, 1.494873046875, 0.0, 10.0, 1.401298464324817e-45, 1.401298464324817e-44
8019, 8.96340560913086, 68.02943420410156, -6.137490749359131, 0.0, 0.0, 93.13545227050781, 0.0, 0.0, 0.414276123046875, 0, 0, 0, 0, 0, 0, 9362.0, 30146.0, 35388.0, 9362.0, 8.033059120178223, 0.1788894683122635, -0.2340669482946396, -0.054594796150922775, 0.9979415535926819, 0.05809085816144943, 0.025485239923000336, -0.04113755375146866, -0.030637741088867188, 1.493408203125, 1.39013671875, 0.0314483642578125, 1.493408203125, 0.0, 10.0, 1.401298464324817e-45, 1.401298464324817e-44
8039, 9.026134490966797, 68.17521667480469, -6.196420192718506, 0.0, 0.0, 93.13545227050781, 0.0, 0.0, 0.414276123046875, 0, 0, 0, 0, 0, 0, 9362.0, 30146.0, 35388.0, 9362.0, 8.033059120178223, 0.07631852477788925, 0.4087185859680176, 0.0852416381239891, 0.9983092546463013, 0.06054948270320892, 0.025698475539684296, -0.04113755375146866, -0.030637741088867188, 1.493408203125, 1.39306640625, 0.0337982177734375, 1.493408203125, 0.0, 10.0, 1.401298464324817e-45, 1.401298464324817e-44
8049, 9.062209129333496, 68.26294708251953, -6.230626106262207, 0.0, 0.0, 93.13287353515625, 0.0, 0.0, -0.681304931640625, 0, 0, 0, 0, 0, 0, 9362.0, 30146.0, 35388.0, 9362.0, 8.033059120178223, -0.28845393657684326, 0.03033633716404438, 0.27012014389038086, 0.9946634769439697, 0.06082227826118469, 0.030996358022093773, -0.04113755375146866, -0.030637741088867188, 1.493408203125, 1.39306640625, 0.0337982177734375, 1.493408203125, 0.0, 10.0, 1.401298464324817e-45, 1.401298464324817e-44
8079, 9.163678169250488, 68.46829986572266, -6.324007034301758, 0.0, 0.0, 93.13287353515625, 0.0, 0.0, -0.681304931640625, 0, 0, 0, 0, 0, 0, 9362.0, 30146.0, 35388.0, 9362.0, 8.033059120178223, 0.19000458717346191, -0.0236120093613863, -0.1251838058233261, 0.9951104521751404, 0.06020142138004303, 0.027195453643798828, -0.04113755375146866, -0.030637741088867188, 1.493408203125, 1.341796875, 0.0162811279296875, 1.493408203125, 0.0, 10.0, 1.401298464324817e-45, 1.401298464324817e-44
8099, 9.238615989685059, 68.61189270019531, -6.394587516784668, 0.0, 0.0, 93.15420532226562, 0.0, 0.0, 1.056671142578125, 0, 0, 0, 0, 0, 0, 9362.0, 30146.0, 35388.0, 9362.0, 8.033059120178223, 0.060261234641075134, 0.11335138976573944, -0.0008341378415934741, 0.9977417588233948, 0.060779061168432236, 0.027718449011445045, -0.05961243063211441, -0.04855918884277344, 1.491943359375, 1.3681640625, 0.0185394287109375, 1.493408203125, 0.0, 10.0, 1.401298464324817e-45, 1.401298464324817e-44
8149, 9.427976608276367, 68.9899673461914, -6.573014259338379, 0.0, 0.0, 93.15420532226562, 0.0, 0.0, 1.056671142578125, 0, 0, 0, 0, 0, 0, 9362.0, 30146.0, 35388.0, 9362.0, 8.033059120178223, -0.32652145624160767, 0.0014374047750607133, -0.13132305443286896, 1.0012521743774414, 0.060551661998033524, 0.029227936640381813, -0.05961243063211441, -0.04855918884277344, 1.491943359375, 1.30517578125, 0.0422515869140625, 1.493408203125, 0.0, 10.0, 1.401298464324817e-45, 1.401298464324817e-44
8159, 9.461923599243164, 69.04606628417969, -6.604781627655029, 0.0, 0.0, 93.15420532226562, 0.0, 0.0, 1.056671142578125, 0, 0, 0, 0, 0, 0, 9362.0, 30146.0, 35388.0, 9362.0, 8.033059120178223, 0.15875554084777832, 0.1854626089334488, -0.14670738577842712, 0.9954901337623596, 0.0610518716275692, 0.028072861954569817, -0.05961243063211441, -0.04855918884277344, 1.491943359375, 1.30517578125, 0.0422515869140625, 1.4853515625, 0.0, 10.0, 1.401298464324817e-45, 1.401298464324817e-44
8169, 9.512226104736328, 69.13006591796875, -6.652946949005127, 0.0, 0.0, 93.24465942382812, 0.0, 0.0, 0.10986328125, 0, 0, 0, 0, 0, 0, 9362.0, 30146.0, 35388.0, 9362.0, 8.033059120178223, -0.03312734141945839, -0.17286591231822968, -0.014856698922812939, 0.9974397420883179, 0.06301440298557281, 0.030409367755055428, -0.05961243063211441, -0.04855918884277344, 1.491943359375, 1.30517578125, 0.0422515869140625, 1.4853515625, 0.0, 10.0, 1.401298464324817e-45, 1.401298464324817e-44
8179, 9.537184715270996, 69.18528747558594, -6.674621105194092, 0.0, 0.0, 93.24465942382812, 0.0, 0.0, 0.10986328125, 0, 0, 0, 0, 0, 0, 9362.0, 30146.0, 35388.0, 9362.0, 8.033059120178223, 0.10671458393335342, 0.14875908195972443, 0.37162473797798157, 0.9988605976104736, 0.06123651564121246, 0.028784140944480896, -0.05961243063211441, -0.04855918884277344, 1.491943359375, 1.346923828125, 0.015472412109375, 1.4853515625, 0.0, 10.0, 1.401298464324817e-45, 1.401298464324817e-44
8189, 9.58642864227295, 69.27153015136719, -6.7213897705078125, 0.0, 0.0, 93.24616241455078, 0.0, 0.0, 0.046539306640625, 0, 0, 0, 0, 0, 0, 9362.0, 30146.0, 35388.0, 9362.0, 8.033059120178223, 0.11005527526140213, -0.42442530393600464, -0.3385651409626007, 0.9989261031150818, 0.06096218526363373, 0.025468459352850914, -0.05961243063211441, -0.04855918884277344, 1.491943359375, 1.346923828125, 0.015472412109375, 1.4853515625, 0.0, 10.0, 1.401298464324817e-45, 1.401298464324817e-44
8199, 9.621088027954102, 69.3269271850586, -6.755483150482178, 0.0, 0.0, 93.24616241455078, 0.0, 0.0, 0.046539306640625, 0, 0, 0, 0, 0, 0, 9362.0, 30146.0, 35388.0, 9362.0, 8.033059120178223, -0.1104707270860672, -0.11015144735574722, -0.41369539499282837, 0.998632550239563, 0.060005031526088715, 0.025840146467089653, -0.05961243063211441, -0.04855918884277344, 1.491943359375, 1.346923828125, 0.015472412109375, 1.4912109375, 0.0, 10.0, 1.401298464324817e-45, 1.401298464324817e-44
8209, 9.66722297668457, 69.41387176513672, -6.799276828765869, 0.0, 0.0, 93.248779296875, 0.0, 0.0, 0.214385986328125, 0, 0, 0, 0, 0, 0, 9362.0, 30146.0, 35388.0, 9362.0, 8.033059120178223, -0.028389684855937958, -0.2314797043800354, -0.06006449833512306, 0.9991415143013, 0.061695098876953125, 0.026309695094823837, -0.05961243063211441, -0.04855918884277344, 1.491943359375, 1.346923828125, 0.015472412109375, 1.4912109375, 0.0, 10.0, 1.401298464324817e-45, 1.401298464324817e-44
8219, 9.703521728515625, 69.46814727783203, -6.833993911743164, 0.0, 0.0, 93.248779296875, 0.0, 0.0, 0.214385986328125, 0, 0, 0, 0, 0, 0, 9362.0, 30146.0, 35388.0, 9362.0, 8.033059120178223, 0.07149210572242737, 0.029518309980630875, -0.40358683466911316, 0.9964314103126526, 0.06141529977321625, 0.027793381363153458, -0.05961243063211441, -0.04855918884277344, 1.491943359375, 1.346923828125, 0.015472412109375, 1.494140625, 0.0, 10.0, 1.401298464324817e-45, 1.401298464324817e-44
8229, 9.746315956115723, 69.54911041259766, -6.873806476593018, 0.0, 0.0, 93.24385070800781, 0.0, 0.0, -0.689697265625, 0, 0, 0, 0, 0, 0, 9362.0, 30146.0, 35388.0, 9362.0, 8.033059120178223, 0.032660190016031265, 0.23544202744960785, -0.07816608995199203, 0.9954975247383118, 0.06043093279004097, 0.026559123769402504, -0.05961243063211441, -0.04855918884277344, 1.491943359375, 1.346923828125, 0.015472412109375, 1.494140625, 0.0, 10.0, 1.401298464324817e-45, 1.401298464324817e-44
8259, 9.847245216369629, 69.73664093017578, -6.968793869018555, 0.0, 0.0, 93.24385070800781, 0.0, 0.0, -0.689697265625, 0, 0, 0, 0, 0, 0, 9362.0, 30146.0, 35388.0, 9362.0, 8.033059120178223, 0.0032495176419615746, 0.41647768020629883, 0.1555381715297699, 0.9980677962303162, 0.06111859530210495, 0.03130398318171501, -0.05961243063211441, -0.04855918884277344, 1.491943359375, 1.357177734375, 0.0157928466796875, 1.49267578125, 0.0, 10.0, 1.401298464324817e-45, 1.401298464324817e-44
8309, 10.04529094696045, 70.08474731445312, -7.155189037322998, 0.0, 0.0, 93.20075988769531, 0.0, 0.0, -0.59661865234375, 0, 0, 0, 0, 0, 0, 9362.0, 30146.0, 35388.0, 9362.0, 8.033059120178223, -0.12675397098064423, -0.31378090381622314, -0.02237696386873722, 0.9969673156738281, 0.06115091219544411, 0.027485433965921402, -0.033175960183143616, -0.05751800537109375, 1.4912109375, 1.361572265625, 0.016571044921875, 1.48828125, 0.0, 10.0, 1.401298464324817e-45, 1.401298464324817e-44
8329, 10.118928909301758, 70.21212768554688, -7.225156784057617, 0.0, 0.0, 93.20075988769531, 0.0, 0.0, -0.59661865234375, 0, 0, 0, 0, 0, 0, 9362.0, 30146.0, 35388.0, 9362.0, 8.033059120178223, 0.0928775817155838, 0.20472463965415955, 0.013734197244048119, 0.9985231757164001, 0.059390630573034286, 0.0298692025244236, -0.033175960183143616, -0.05751800537109375, 1.4912109375, 1.3623046875, 0.0167999267578125, 1.493408203125, 0.0, 10.0, 1.401298464324817e-45, 1.401298464324817e-44
8339, 10.142559051513672, 70.2657699584961, -7.247557163238525, 0.0, 0.0, 93.20075988769531, 0.0, 0.0, -0.59661865234375, 0, 0, 0, 0, 0, 0, 9362.0, 30146.0, 35388.0, 9362.0, 8.033059120178223, -0.025698397308588028, -0.21794353425502777, 0.2884896695613861, 0.994504988193512, 0.057366956025362015, 0.028410939499735832, -0.033175960183143616, -0.05751800537109375, 1.4912109375, 1.3623046875, 0.0167999267578125, 1.491943359375, 0.0, 10.0, 1.401298464324817e-45, 1.401298464324817e-44
8359, 10.224665641784668, 70.39847564697266, -7.3236565589904785, 0.0, 0.0, 93.20075988769531, 0.0, 0.0, -0.59661865234375, 0, 0, 0, 0, 0, 0, 9362.0, 30146.0, 35388.0, 9362.0, 8.033059120178223, 0.08876484632492065, -0.10072193294763565, -0.02535410225391388, 0.9994368553161621, 0.06289032101631165, 0.027451246976852417, -0.033175960183143616, -0.05751800537109375, 1.4912109375, 1.33740234375, 0.0175323486328125, 1.491943359375, 0.0, 10.0, 1.401298464324817e-45, 1.401298464324817e-44
8379, 10.305612564086914, 70.52699279785156, -7.399065971374512, 0.0, 0.0, 93.21731567382812, 0.0, 0.0, 1.641082763671875, 0, 0, 0, 0, 0, 0, 9362.0, 30146.0, 35388.0, 9362.0, 8.033059120178223, 0.2615257799625397, 0.07945874333381653, -0.2717991769313812, 0.9958952069282532, 0.06174542382359505, 0.02465032786130905, -0.033175960183143616, -0.05751800537109375, 1.4912109375, 1.37109375, 0.0197906494140625, 1.491943359375, 0.0, 10.0, 1.401298464324817e-45, 1.401298464324817e-44
8409, 10.429984092712402, 70.7309341430664, -7.515914440155029, 0.0, 0.0, 93.25353240966797, 0.0, 0.0, 0.83770751953125, 0, 0, 0, 0, 0, 0, 9362.0, 30146.0, 35388.0, 9362.0, 8.033059120178223, -0.04522991180419922, 0.03639969602227211, -0.14901688694953918, 0.9944776892662048, 0.05979454144835472, 0.029028931632637978, -0.033175960183143616, -0.05751800537109375, 1.4912109375, 1.374755859375, 0.021392822265625, 1.491943359375, 0.0, 10.0, 1.401298464324817e-45, 1.401298464324817e-44
8449, 10.585494041442871, 70.97974395751953, -7.662614345550537, 0.0, 0.0, 93.27845764160156, 0.0, 0.0, 1.25274658203125, 0, 0, 0, 0, 0, 0, 9362.0, 30146.0, 35388.0, 9362.0, 8.033059120178223, 0.03193478658795357, 0.43580567836761475, -0.1236446276307106, 0.99698805809021, 0.060909487307071686, 0.025406071916222572, -0.033175960183143616, -0.05751800537109375, 1.4912109375, 1.379150390625, 0.0238189697265625, 1.494873046875, 0.0, 10.0, 1.401298464324817e-45, 1.401298464324817e-44
8459, 10.611291885375977, 71.0321273803711, -7.687587738037109, 0.0, 0.0, 93.27845764160156, 0.0, 0.0, 1.25274658203125, 0, 0, 0, 0, 0, 0, 9362.0, 30146.0, 35388.0, 9362.0, 8.033059120178223, -0.21937039494514465, -0.36157554388046265, 0.2871345579624176, 0.9997536540031433, 0.060203514993190765, 0.026865432038903236, -0.033175960183143616, -0.05751800537109375, 1.4912109375, 1.379150390625, 0.0238189697265625, 1.494873046875, 0.0, 10.0, 1.401298464324817e-45, 1.401298464324817e-44
8479, 10.69057559967041, 71.15493774414062, -7.761577129364014, 0.0, 0.0, 93.27845764160156, 0.0, 0.0, 1.25274658203125, 0, 0, 0, 0, 0, 0, 9362.0, 30146.0, 35388.0, 9362.0, 8.033059120178223, 0.0043344139121472836, 0.39909133315086365, -0.07429476827383041, 0.9952524304389954, 0.061327751725912094, 0.024875067174434662, -0.033175960183143616, -0.05751800537109375, 1.4912109375, 1.392333984375, 0.03314208984375, 1.496337890625, 0.0, 10.0, 1.401298464324817e-45, 1.401298464324817e-44
8499, 10.775727272033691, 71.27713012695312, -7.842176914215088, 0.0, 0.0, 93.29546356201172, 0.0, 0.0, 0.17547607421875, 0, 0, 0, 0, 0, 0, 9362.0, 30146.0, 35388.0, 9362.0, 8.033059120178223, 0.07943747937679291, -0.06242750957608223, 0.13947249948978424, 0.9999369978904724, 0.06103929132223129, 0.029315808787941933, -0.04760580509901047, -0.0037593841552734375, 1.49560546875, 1.392333984375, 0.03314208984375, 1.48974609375, 0.0, 10.0, 1.401298464324817e-45, 1.401298464324817e-44
8529, 10.891140937805176, 71.47248840332031, -7.9502387046813965, 0.0, 0.0, 93.29369354248047, 0.0, 0.0, -0.339508056640625, 0, 0, 0, 0, 0, 0, 9362.0, 30146.0, 35388.0, 9362.0, 8.033059120178223, -0.1157844066619873, -0.07322607189416885, 0.17738890647888184, 0.9996183514595032, 0.06146182492375374, 0.025610962882637978, -0.04760580509901047, -0.0037593841552734375, 1.49560546875, 1.38134765625, 0.025177001953125, 1.48974609375, 0.0, 10.0, 1.401298464324817e-45, 1.401298464324817e-44
8549, 10.961962699890137, 71.5921859741211, -8.01451301574707, 0.0, 0.0, 93.29369354248047, 0.0, 0.0, -0.339508056640625, 0, 0, 0, 0, 0, 0, 9362.0, 30146.0, 35388.0, 9362.0, 8.033059120178223, 0.09400288760662079, 0.3368108570575714, 0.20203925669193268, 0.9975532293319702, 0.060045912861824036, 0.025578314438462257, -0.04760580509901047, -0.0037593841552734375, 1.49560546875, 1.385009765625, 0.0276336669921875, 1.494140625, 0.0, 10.0, 1.401298464324817e-45, 1.401298464324817e-44
8559, 10.995655059814453, 71.64020538330078, -8.047103881835938, 0.0, 0.0, 93.29369354248047, 0.0, 0.0, -0.339508056640625, 0, 0, 0, 0, 0, 0, 9362.0, 30146.0, 35388.0, 9362.0, 8.033059120178223, -0.14514857530593872, -0.0499509796500206, -0.12012860178947449, 0.9975658655166626, 0.06106574833393097, 0.024656249210238457, -0.04760580509901047, -0.0037593841552734375, 1.49560546875, 1.385009765625, 0.0276336669921875, 1.49267578125, 0.0, 10.0, 1.401298464324817e-45, 1.401298464324817e-44
8619, 11.246312141418457, 71.99414825439453, -8.284830093383789, 0.0, 0.0, 93.21399688720703, 0.0, 0.0, -1.11083984375, 0, 0, 0, 0, 0, 0, 9362.0, 30146.0, 35388.0, 9362.0, 8.033059120178223, 0.07806103676557541, -0.07229213416576385, 0.3624190092086792, 0.9980446100234985, 0.06103532016277313, 0.028092971071600914, -0.044571567326784134, -0.03959846496582031, 1.49267578125, 1.36962890625, 0.01910400390625, 1.49267578125, 0.0, 10.0, 1.401298464324817e-45, 1.401298464324817e-44
8629, 11.289947509765625, 72.06333923339844, -8.325523376464844, 0.0, 0.0, 93.21399688720703, 0.0, 0.0, -1.11083984375, 0, 0, 0, 0, 0, 0, 9362.0, 30146.0, 35388.0, 9362.0, 8.033059120178223, 0.03396114706993103, 0.14230258762836456, 0.048387739807367325, 0.9967018961906433, 0.06311878561973572, 0.026031840592622757, -0.044571567326784134, -0.03959846496582031, 1.49267578125, 1.33447265625, 0.0186309814453125, 1.49267578125, 0.0, 10.0, 1.401298464324817e-45, 1.401298464324817e-44
8639, 11.33037281036377, 72.11187744140625, -8.363938331604004, 0.0, 0.0, 93.21399688720703, 0.0, 0.0, -1.11083984375, 0, 0, 0, 0, 0, 0, 9362.0, 30146.0, 35388.0, 9362.0, 8.033059120178223, 0.0268971249461174, -0.2748325765132904, -0.21869806945323944, 0.9971086382865906, 0.06337293237447739, 0.024429183453321457, -0.044571567326784134, -0.03959846496582031, 1.49267578125, 1.33447265625, 0.0186309814453125, 1.493408203125, 0.0, 10.0, 1.401298464324817e-45, 1.401298464324817e-44
8659, 11.409396171569824, 72.22836303710938, -8.439620971679688, 0.0, 0.0, 93.22203826904297, 0.0, 0.0, 0.1678466796875, 0, 0, 0, 0, 0, 0, 9362.0, 30146.0, 35388.0, 9362.0, 8.033059120178223, -0.08756361901760101, -0.10837127268314362, -0.22196775674819946, 0.9984399676322937, 0.06092344596982002, 0.024853495880961418, -0.044571567326784134, -0.03959846496582031, 1.49267578125, 1.3916015625, 0.0325927734375, 1.493408203125, 0.0, 10.0, 1.401298464324817e-45, 1.401298464324817e-44
8669, 11.474376678466797, 72.2976303100586, -8.502615928649902, 0.0, 0.0, 93.22203826904297, 0.0, 0.0, 0.1678466796875, 0, 0, 0, 0, 0, 0, 9362.0, 30146.0, 35388.0, 9362.0, 8.033059120178223, -0.08756361901760101, -0.10837127268314362, -0.22196775674819946, 0.9979877471923828, 0.06162187084555626, 0.024718938395380974, -0.044571567326784134, -0.03959846496582031, 1.49267578125, 1.34033203125, 0.0166168212890625, 1.493408203125, 0.0, 10.0, 1.401298464324817e-45, 1.401298464324817e-44
8679, 11.513800621032715, 72.34121704101562, -8.540913581848145, 0.0, 0.0, 93.22203826904297, 0.0, 0.0, 0.1678466796875, 0, 0, 0, 0, 0, 0, 9362.0, 30146.0, 35388.0, 9362.0, 8.033059120178223, -0.25170692801475525, 0.10764480382204056, -0.2183619737625122, 0.9991733431816101, 0.06183873862028122, 0.029816901311278343, -0.044571567326784134, -0.03959846496582031, 1.49267578125, 1.3330078125, 0.0191650390625, 1.493408203125, 0.0, 10.0, 1.401298464324817e-45, 1.401298464324817e-44
8689, 11.563390731811523, 72.4093017578125, -8.588924407958984, 0.0, 0.0, 93.24736022949219, 0.0, 0.0, 0.3326416015625, 0, 0, 0, 0, 0, 0, 9362.0, 30146.0, 35388.0, 9362.0, 8.033059120178223, -0.25170692801475525, 0.10764480382204056, -0.2183619737625122, 0.9959436655044556, 0.061206936836242676, 0.0320434607565403, -0.044571567326784134, -0.03959846496582031, 1.49267578125, 1.3330078125, 0.0191650390625, 1.493408203125, 0.0, 10.0, 1.401298464324817e-45, 1.401298464324817e-44
8739, 11.788002967834473, 72.67607879638672, -8.805173873901367, 0.0, 0.0, 93.25808715820312, 0.0, 0.0, 0.769805908203125, 0, 0, 0, 0, 0, 0, 9362.0, 30146.0, 35388.0, 9362.0, 8.033059120178223, 0.05733206495642662, 0.07558310031890869, -0.393248975276947, 0.998065710067749, 0.06192920356988907, 0.026487665250897408, -0.044571567326784134, -0.03959846496582031, 1.49267578125, 1.35205078125, 0.015380859375, 1.49267578125, 0.0, 10.0, 1.401298464324817e-45, 1.401298464324817e-44
8799, 12.057428359985352, 73.01216888427734, -9.063572883605957, 0.0, 0.0, 93.34117889404297, 0.0, 0.0, 1.526641845703125, 0, 0, 0, 0, 0, 0, 9362.0, 30146.0, 35388.0, 9362.0, 8.033059120178223, -0.002536149462684989, -0.11878126114606857, -0.33754947781562805, 0.9956804513931274, 0.06055701896548271, 0.026715723797678947, -0.03994259238243103, 0.1933612823486328, 1.51171875, 1.352783203125, 0.015350341796875, 1.49267578125, 0.0, 10.0, 1.401298464324817e-45, 1.401298464324817e-44
8809, 12.118151664733887, 73.0773696899414, -9.120575904846191, 0.0, 0.0, 93.36028289794922, 0.0, 0.0, 0.533294677734375, 0, 0, 0, 0, 0, 0, 9362.0, 30146.0, 35388.0, 9362.0, 8.033059120178223, 0.06078242138028145, -0.01220414973795414, -0.0367669053375721, 0.9974437952041626, 0.0603032112121582, 0.027099812403321266, -0.03994259238243103, 0.1933612823486328, 1.51171875, 1.352783203125, 0.015350341796875, 1.49267578125, 0.0, 10.0, 1.401298464324817e-45, 1.401298464324817e-44
8819, 12.153956413269043, 73.11903381347656, -9.154814720153809, 0.0, 0.0, 93.36028289794922, 0.0, 0.0, 0.533294677734375, 0, 0, 0, 0, 0, 0, 9362.0, 30146.0, 35388.0, 9362.0, 8.033059120178223, -0.08489590883255005, 0.1451392024755478, -0.04406040161848068, 0.9975046515464783, 0.0614909902215004, 0.028992056846618652, -0.03994259238243103, 0.1933612823486328, 1.51171875, 1.352783203125, 0.015350341796875, 1.4970703125, 0.0, 10.0, 1.401298464324817e-45, 1.401298464324817e-44
8839, 12.237106323242188, 73.22486877441406, -9.23352336883545, 0.0, 0.0, 93.36404418945312, 0.0, 0.0, -0.1068115234375, 0, 0, 0, 0, 0, 0, 9362.0, 30146.0, 35388.0, 9362.0, 8.033059120178223, -0.08489590883255005, 0.1451392024755478, -0.04406040161848068, 0.9974520206451416, 0.061700984835624695, 0.027476025745272636, -0.03994259238243103, 0.1933612823486328, 1.51171875, 1.37109375, 0.0197906494140625, 1.4970703125, 0.0, 10.0, 1.401298464324817e-45, 1.401298464324817e-44
8859, 12.321447372436523, 73.32975769042969, -9.3160982131958, 0.0, 0.0, 93.3721694946289, 0.0, 0.0, 0.905609130859375, 0, 0, 0, 0, 0, 0, 9362.0, 30146.0, 35388.0, 9362.0, 8.033059120178223, -0.06203586608171463, 0.05447174608707428, -0.08713926374912262, 0.9971185326576233, 0.06078263744711876, 0.02702733315527439, -0.03994259238243103, 0.1933612823486328, 1.51171875, 1.34765625, 0.0154571533203125, 1.4970703125, 0.0, 10.0, 1.401298464324817e-45, 1.401298464324817e-44
8869, 12.383259773254395, 73.39288330078125, -9.376046180725098, 0.0, 0.0, 93.38394165039062, 0.0, 0.0, 0.35858154296875, 0, 0, 0, 0, 0, 0, 9362.0, 30146.0, 35388.0, 9362.0, 8.033059120178223, -0.2284599095582962, 0.13114045560359955, -0.2870829105377197, 0.9944010972976685, 0.05833256617188454, 0.027641961351037025, -0.03994259238243103, 0.1933612823486328, 1.51171875, 1.34765625, 0.0154571533203125, 1.4970703125, 0.0, 10.0, 1.401298464324817e-45, 1.401298464324817e-44
8879, 12.418082237243652, 73.43260955810547, -9.409432411193848, 0.0, 0.0, 93.38394165039062, 0.0, 0.0, 0.35858154296875, 0, 0, 0, 0, 0, 0, 9362.0, 30146.0, 35388.0, 9362.0, 8.033059120178223, 0.04034041240811348, 0.3459894359111786, 0.08599822223186493, 0.9977429509162903, 0.06063920632004738, 0.02833828330039978, -0.03994259238243103, 0.1933612823486328, 1.51171875, 1.34765625, 0.0154571533203125, 1.491943359375, 0.0, 10.0, 1.401298464324817e-45, 1.401298464324817e-44
8899, 12.513572692871094, 73.5379409790039, -9.500825881958008, 0.0, 0.0, 93.39236450195312, 0.0, 0.0, 0.516510009765625, 0, 0, 0, 0, 0, 0, 9362.0, 30146.0, 35388.0, 9362.0, 8.033059120178223, 0.07957001775503159, -0.2410895675420761, 0.026744864881038666, 0.9997765421867371, 0.06057664752006531, 0.02474174275994301, -0.03994259238243103, 0.1933612823486328, 1.51171875, 1.34765625, 0.0154571533203125, 1.49267578125, 0.0, 10.0, 1.401298464324817e-45, 1.401298464324817e-44
8929, 12.671462059020996, 73.70294189453125, -9.655949592590332, 0.0, 0.0, 93.40021514892578, 0.0, 0.0, 0.3173828125, 0, 0, 0, 0, 0, 0, 9362.0, 30146.0, 35388.0, 9362.0, 8.033059120178223, -0.16186130046844482, -0.03291715309023857, -0.2055334597826004, 0.9983277916908264, 0.05962042137980461, 0.025434905663132668, -0.03994259238243103, 0.1933612823486328, 1.51171875, 1.36376953125, 0.017181396484375, 1.49267578125, 0.0, 10.0, 1.401298464324817e-45, 1.401298464324817e-44
8949, 12.755380630493164, 73.79984283447266, -9.735860824584961, 0.0, 0.0, 93.40021514892578, 0.0, 0.0, 0.3173828125, 0, 0, 0, 0, 0, 0, 9362.0, 30146.0, 35388.0, 9362.0, 8.033059120178223, -0.024245284497737885, 0.2977347671985626, 0.04558828845620155, 0.9978863596916199, 0.06227178871631622, 0.0276052076369524, -0.03994259238243103, 0.1933612823486328, 1.51171875, 1.376953125, 0.0225982666015625, 1.49267578125, 0.0, 10.0, 1.401298464324817e-45, 1.401298464324817e-44
8959, 12.79028034210205, 73.84211730957031, -9.769144058227539, 0.0, 0.0, 93.40021514892578, 0.0, 0.0, 0.3173828125, 0, 0, 0, 0, 0, 0, 9362.0, 30146.0, 35388.0, 9362.0, 8.033059120178223, 0.06488191336393356, -0.3629380166530609, 0.14930389821529388, 0.9969033598899841, 0.06045018881559372, 0.02664101868867874, -0.03994259238243103, 0.1933612823486328, 1.51171875, 1.376953125, 0.0225982666015625, 1.49267578125, 0.0, 10.0, 1.401298464324817e-45, 1.401298464324817e-44
8969, 12.845778465270996, 73.90286254882812, -9.821843147277832, 0.0, 0.0, 93.40020751953125, 0.0, 0.0, -0.56915283203125, 0, 0, 0, 0, 0, 0, 9362.0, 30146.0, 35388.0, 9362.0, 8.033059120178223, -0.09498461335897446, 0.1766175776720047, 0.0006920068990439177, 0.9968793988227844, 0.06092067062854767, 0.02692061848938465, -0.03994259238243103, 0.1933612823486328, 1.51171875, 1.376953125, 0.0225982666015625, 1.49267578125, 0.0, 10.0, 1.401298464324817e-45, 1.401298464324817e-44
8979, 12.879072189331055, 73.94097900390625, -9.853290557861328, 0.0, 0.0, 93.40020751953125, 0.0, 0.0, -0.56915283203125, 0, 0, 0, 0, 0, 0, 9362.0, 30146.0, 35388.0, 9362.0, 8.033059120178223, -0.031281713396310806, 0.4835148751735687, 0.1622350662946701, 0.9968675374984741, 0.06227230653166771, 0.02709915302693844, -0.03994259238243103, 0.1933612823486328, 1.51171875, 1.376953125, 0.0225982666015625, 1.49267578125, 0.0, 10.0, 1.401298464324817e-45, 1.401298464324817e-44
8999, 12.970499992370605, 74.04071044921875, -9.942021369934082, 0.0, 0.0, 93.3862075805664, 0.0, 0.0, -0.89111328125, 0, 0, 0, 0, 0, 0, 9362.0, 30146.0, 35388.0, 9362.0, 8.033059120178223, 0.04414847493171692, -0.005314345005899668, -0.02653077058494091, 0.9994868040084839, 0.06338629126548767, 0.028720960021018982, -0.03994259238243103, 0.1933612823486328, 1.51171875, 1.374755859375, 0.021392822265625, 1.49267578125, 0.0, 10.0, 1.401298464324817e-45, 1.401298464324817e-44
9019, 13.0668306350708, 74.13883209228516, -10.033856391906738, 0.0, 0.0, 93.3532485961914, 0.0, 0.0, -1.1810302734375, 0, 0, 0, 0, 0, 0, 9362.0, 30146.0, 35388.0, 9362.0, 8.033059120178223, 0.14425520598888397, 0.25248801708221436, -0.05985063686966896, 0.9971766471862793, 0.06173287704586983, 0.025557510554790497, -0.03994259238243103, 0.1933612823486328, 1.51171875, 1.3828125, 0.0261077880859375, 1.49267578125, 0.0, 10.0, 1.401298464324817e-45, 1.401298464324817e-44
9029, 13.118181228637695, 74.19750213623047, -10.08398151397705, 0.0, 0.0, 93.34593963623047, 0.0, 0.0, -0.73089599609375, 0, 0, 0, 0, 0, 0, 9362.0, 30146.0, 35388.0, 9362.0, 8.033059120178223, -0.14968185126781464, 0.05707075446844101, 0.15753278136253357, 0.9970774054527283, 0.05971147492527962, 0.026804763823747635, -0.03994259238243103, 0.1933612823486328, 1.51171875, 1.411376953125, 0.05181884765625, 1.49267578125, 0.0, 10.0, 1.401298464324817e-45, 1.401298464324817e-44
9049, 13.216269493103027, 74.29209899902344, -10.180206298828125, 0.0, 0.0, 93.32588195800781, 0.0, 0.0, -1.351165771484375, 0, 0, 0, 0, 0, 0, 9362.0, 30146.0, 35388.0, 9362.0, 8.033059120178223, -0.050556108355522156, -0.01459609903395176, -0.07612089812755585, 0.9974250197410583, 0.0592380091547966, 0.02655484713613987, -0.03994259238243103, 0.1933612823486328, 1.51171875, 1.399658203125, 0.0396575927734375, 1.49267578125, 0.0, 10.0, 1.401298464324817e-45, 1.401298464324817e-44
9059, 13.254335403442383, 74.33000946044922, -10.216924667358398, 0.0, 0.0, 93.32588195800781, 0.0, 0.0, -1.351165771484375, 0, 0, 0, 0, 0, 0, 9362.0, 30146.0, 35388.0, 9362.0, 8.033059120178223, 0.07636550068855286, 0.16232356429100037, -0.007752052042633295, 0.9973162412643433, 0.06305646896362305, 0.02770538628101349, -0.03994259238243103, 0.1933612823486328, 1.51171875, 1.399658203125, 0.0396575927734375, 1.49267578125, 0.0, 10.0, 1.401298464324817e-45, 1.401298464324817e-44
9069, 13.308760643005371, 74.38653564453125, -10.268555641174316, 0.0, 0.0, 93.30451965332031, 0.0, 0.0, -0.92315673828125, 0, 0, 0, 0, 0, 0, 9362.0, 30146.0, 35388.0, 9362.0, 8.033059120178223, -0.14879323542118073, -0.04413571581244469, 0.08005010336637497, 0.9990584850311279, 0.06110665202140808, 0.028984449803829193, -0.03994259238243103, 0.1933612823486328, 1.51171875, 1.399658203125, 0.0396575927734375, 1.49267578125, 0.0, 10.0, 1.401298464324817e-45, 1.401298464324817e-44
9079, 13.352906227111816, 74.42508697509766, -10.310112953186035, 0.0, 0.0, 93.30451965332031, 0.0, 0.0, -0.92315673828125, 0, 0, 0, 0, 0, 0, 9362.0, 30146.0, 35388.0, 9362.0, 8.033059120178223, 0.27627190947532654, -0.015100433491170406, -0.32676589488983154, 0.9977052211761475, 0.06103653088212013, 0.028377775102853775, -0.03994259238243103, 0.1933612823486328, 1.51171875, 1.399658203125, 0.0396575927734375, 1.493408203125, 0.0, 10.0, 1.401298464324817e-45, 1.401298464324817e-44
9099, 13.446772575378418, 74.51947021484375, -10.403219223022461, 0.0, 0.0, 93.29264831542969, 0.0, 0.0, -0.35858154296875, 0, 0, 0, 0, 0, 0, 9362.0, 30146.0, 35388.0, 9362.0, 8.033059120178223, -0.18926244974136353, -0.020272253081202507, 0.2124878168106079, 0.998094379901886, 0.062314290553331375, 0.0269997026771307, -0.03994259238243103, 0.1933612823486328, 1.51171875, 1.36376953125, 0.017181396484375, 1.493408203125, 0.0, 10.0, 1.401298464324817e-45, 1.401298464324817e-44
9119, 13.534872055053711, 74.61553955078125, -10.48967456817627, 0.0, 0.0, 93.2898941040039, 0.0, 0.0, 0.04425048828125, 0, 0, 0, 0, 0, 0, 9362.0, 30146.0, 35388.0, 9362.0, 8.033059120178223, -0.15936316549777985, -0.32164132595062256, 0.0008560832357034087, 0.9985718727111816, 0.06084961071610451, 0.02714749239385128, -0.03994259238243103, 0.1933612823486328, 1.51171875, 1.361572265625, 0.016571044921875, 1.493408203125, 0.0, 10.0, 1.401298464324817e-45, 1.401298464324817e-44
9129, 13.60159969329834, 74.67240142822266, -10.553644180297852, 0.0, 0.0, 93.29895782470703, 0.0, 0.0, 0.862884521484375, 0, 0, 0, 0, 0, 0, 9362.0, 30146.0, 35388.0, 9362.0, 8.033059120178223, 0.2296029031276703, 0.03034244105219841, -0.25060132145881653, 0.9966540932655334, 0.061797913163900375, 0.027231840416789055, -0.03994259238243103, 0.1933612823486328, 1.51171875, 1.361572265625, 0.016571044921875, 1.493408203125, 0.0, 10.0, 1.401298464324817e-45, 1.401298464324817e-44
9139, 13.641185760498047, 74.71004486083984, -10.592997550964355, 0.0, 0.0, 93.29895782470703, 0.0, 0.0, 0.862884521484375, 0, 0, 0, 0, 0, 0, 9362.0, 30146.0, 35388.0, 9362.0, 8.033059120178223, -0.15267889201641083, -0.07696787267923355, -0.13128343224525452, 0.999034583568573, 0.06110774353146553, 0.028876498341560364, -0.03994259238243103, 0.1933612823486328, 1.51171875, 1.361572265625, 0.016571044921875, 1.493408203125, 0.0, 10.0, 1.401298464324817e-45, 1.401298464324817e-44
9159, 13.746065139770508, 74.80240631103516, -10.696090698242188, 0.0, 0.0, 93.30834197998047, 0.0, 0.0, 0.15869140625, 0, 0, 0, 0, 0, 0, 9362.0, 30146.0, 35388.0, 9362.0, 8.033059120178223, -0.21041728556156158, -0.13609592616558075, -0.08659962564706802, 0.9965820908546448, 0.0633385106921196, 0.027196429669857025, -0.03994259238243103, 0.1933612823486328, 1.51171875, 1.336669921875, 0.0177764892578125, 1.493408203125, 0.0, 10.0, 1.401298464324817e-45, 1.401298464324817e-44
9169, 13.806673049926758, 74.85930633544922, -10.756487846374512, 0.0, 0.0, 93.30834197998047, 0.0, 0.0, 0.15869140625, 0, 0, 0, 0, 0, 0, 9362.0, 30146.0, 35388.0, 9362.0, 8.033059120178223, -0.21041728556156158, -0.13609592616558075, -0.08659962564706802, 0.9999407529830933, 0.059734247624874115, 0.0287475548684597, -0.03994259238243103, 0.1933612823486328, 1.51171875, 1.41943359375, 0.0612945556640625, 1.493408203125, 0.0, 10.0, 1.401298464324817e-45, 1.401298464324817e-44
