timeTick, roll, pitch, yaw, stateX, stateY, stateZ, stateVX, stateVY, stateVZ, otX0, otY0, otZ0, otRoll0, otPitch0, otYaw0, left wing, pitch motor, yaw motor, right wing, voltage, roll rate, pitch rate, yaw rate, A_x, A_y, A_z, current, i_raw, v_raw, airflow_voltage, airflow_speed, pot_Pitch, voltage_nKF, kFFx, state, State
33086, 67.89044189453125, 84.38196563720703, -64.52096557617188, 0, 0, 0, 0, 0, 0, 0, 0, 0, 0, 0, 0, 0, 0, 0, 0, 0, 0, 0, 0, 0, 0, 0, 0, 0, 0, 0, 0, 0, 0, 0, 0, 0
33096, 67.86725616455078, 84.38227844238281, -64.49755096435547, 0.0, 0.0, 92.84073638916016, 0.0, 0.0, 0.704193115234375, 0, 0, 0, 0, 0, 0, 9362.0, 30146.0, 35388.0, 9362.0, 0, 0.029290271922945976, -0.026385264471173286, -0.08398274332284927, 0.9980449676513672, 0.04583451524376869, 0.029944993555545807, 0, 0, 0, 0, 0, 0, 0, 0, 0, 0
33106, 67.85681915283203, 84.38324737548828, -64.48664855957031, 0.0, 0.0, 92.8454360961914, 0.0, 0.0, 0.469970703125, 0, 0, 0, 0, 0, 0, 9362.0, 30146.0, 35388.0, 9362.0, 0, 0.11557463556528091, -0.06265681236982346, 0.2191949337720871, 0.9981762170791626, 0.04871239513158798, 0.02614569664001465, 0, 0, 0, 1.34912109375, 0.015380859375, 0, 0.0, 10.0, 1.401298464324817e-45, 1.401298464324817e-44
33116, 67.8390121459961, 84.3829116821289, -64.46668243408203, 0.0, 0.0, 92.84966278076172, 0.0, 0.0, 0.42266845703125, 0, 0, 0, 0, 0, 0, 9362.0, 30146.0, 35388.0, 9362.0, 0, 0.19919398427009583, 0.11640721559524536, -0.15929269790649414, 0.9982888698577881, 0.045700088143348694, 0.027855437248945236, 0, 0, 0, 1.346923828125, 0.015472412109375, 1.489013671875, 0.0, 10.0, 1.401298464324817e-45, 1.401298464324817e-44
33126, 67.76840209960938, 84.38398742675781, -64.39682006835938, 0.0, 0.0, 92.85292053222656, 0.0, 0.0, 0.325775146484375, 0, 0, 0, 0, 0, 0, 9362.0, 30146.0, 35388.0, 9362.0, 0, -0.11215004324913025, 0.40727943181991577, 0.3412730097770691, 1.0011752843856812, 0.04789041727781296, 0.027113115414977074, 0, 0, 0, 1.420166015625, 0.0621337890625, 1.489013671875, 0.0, 10.0, 1.401298464324817e-45, 1.401298464324817e-44
33136, 67.78495788574219, 84.38308715820312, -64.41207122802734, 0.0, 0.0, 92.8558578491211, 0.0, 0.0, 0.293731689453125, 0, 0, 0, 0, 0, 0, 9362.0, 30146.0, 35388.0, 9362.0, 0, 0.27297601103782654, 0.14553125202655792, -0.35763898491859436, 0.9998007416725159, 0.04547971114516258, 0.024686597287654877, 0, 0, 0, 1.409912109375, 0.0501251220703125, 1.496337890625, 0.0, 10.0, 1.401298464324817e-45, 1.401298464324817e-44
33146, 67.82887268066406, 84.38294219970703, -64.45507049560547, 0.0, 0.0, 92.84757232666016, 0.0, 0.0, -0.82855224609375, 0, 0, 0, 0, 0, 0, 9362.0, 30146.0, 35388.0, 9362.0, 0, 0.20877963304519653, -0.07560285180807114, -0.25456520915031433, 1.001542329788208, 0.04961390420794487, 0.021919352933764458, 0, 0, 0, 1.433349609375, 0.0797576904296875, 1.496337890625, 0.0, 10.0, 1.401298464324817e-45, 1.401298464324817e-44
33156, 67.85511016845703, 84.3829116821289, -64.48219299316406, 0.0, 0.0, 92.8401107788086, 0.0, 0.0, -0.74615478515625, 0, 0, 0, 0, 0, 0, 9362.0, 30146.0, 35388.0, 9362.0, 0, -0.12205812335014343, 0.18699896335601807, -0.17529265582561493, 0.997468113899231, 0.0496465340256691, 0.02349632978439331, 0, 0, 0, 1.42822265625, 0.0726470947265625, 1.490478515625, 0.0, 10.0, 1.401298464324817e-45, 1.401298464324817e-44
33166, 67.84574890136719, 84.38304901123047, -64.47207641601562, 0.0, 0.0, 92.8306655883789, 0.0, 0.0, -0.94451904296875, 0, 0, 0, 0, 0, 0, 9362.0, 30146.0, 35388.0, 9362.0, 0, 0.14726682007312775, 0.1963837593793869, 0.08950178325176239, 0.9998207092285156, 0.0478229895234108, 0.025072846561670303, 0, 0, 0, 1.40625, 0.04620361328125, 1.490478515625, 0.0, 10.0, 1.401298464324817e-45, 1.401298464324817e-44
33176, 67.8652114868164, 84.38237762451172, -64.49049377441406, 0.0, 0.0, 92.82215881347656, 0.0, 0.0, -0.850677490234375, 0, 0, 0, 0, 0, 0, 9362.0, 30146.0, 35388.0, 9362.0, 0, 0.09419949352741241, 0.226087749004364, -0.20559044182300568, 0.9991368651390076, 0.04949457198381424, 0.02627846598625183, 0, 0, 0, 1.44140625, 0.0914459228515625, 1.49560546875, 0.0, 10.0, 1.401298464324817e-45, 1.401298464324817e-44
33186, 67.89105224609375, 84.38162231445312, -64.51595306396484, 0.0, 0.0, 92.81997680664062, 0.0, 0.0, -0.21820068359375, 0, 0, 0, 0, 0, 0, 9362.0, 30146.0, 35388.0, 9362.0, 8.112398147583008, 0.07016982138156891, -0.07002104818820953, -0.39195317029953003, 0.9978868961334229, 0.04771464318037033, 0.02688608691096306, -0.11182347685098648, -0.0037593841552734375, 1.49560546875, 1.453125, 0.1099090576171875, 1.49560546875, 0.0, 10.0, 1.401298464324817e-45, 1.401298464324817e-44
33196, 67.83556365966797, 84.38224029541016, -64.46086120605469, 0.0, 0.0, 92.81800842285156, 0.0, 0.0, -0.19683837890625, 0, 0, 0, 0, 0, 0, 9362.0, 30146.0, 35388.0, 9362.0, 8.112398147583008, -0.08493530005216599, 0.15960195660591125, 0.1295827478170395, 0.9989078044891357, 0.049227748066186905, 0.02712397649884224, -0.11182347685098648, -0.0037593841552734375, 1.49560546875, 1.411376953125, 0.05181884765625, 1.49853515625, 0.0, 10.0, 1.401298464324817e-45, 1.401298464324817e-44
33206, 67.82089233398438, 84.38287353515625, -64.4451675415039, 0.0, 0.0, 92.82061767578125, 0.0, 0.0, 0.26092529296875, 0, 0, 0, 0, 0, 0, 9362.0, 30146.0, 35388.0, 9362.0, 8.112398147583008, 0.2697238028049469, 0.11457739770412445, 0.1749649941921234, 0.9988390803337097, 0.04756946861743927, 0.024182068184018135, -0.11182347685098648, -0.0037593841552734375, 1.49560546875, 1.368896484375, 0.01885986328125, 1.49853515625, 0.0, 10.0, 1.401298464324817e-45, 1.401298464324817e-44
33216, 67.79989624023438, 84.38304901123047, -64.42485046386719, 0.0, 0.0, 92.82295989990234, 0.0, 0.0, 0.234222412109375, 0, 0, 0, 0, 0, 0, 9362.0, 30146.0, 35388.0, 9362.0, 8.112398147583008, -0.13674336671829224, -0.037209779024124146, -0.12449222058057785, 0.998137354850769, 0.043367933481931686, 0.02690238691866398, -0.11182347685098648, -0.0037593841552734375, 1.49560546875, 1.423095703125, 0.06591796875, 1.497802734375, 0.0, 10.0, 1.401298464324817e-45, 1.401298464324817e-44
33226, 67.78410339355469, 84.38277435302734, -64.40875244140625, 0.0, 0.0, 92.81522369384766, 0.0, 0.0, -0.77362060546875, 0, 0, 0, 0, 0, 0, 9362.0, 30146.0, 35388.0, 9362.0, 8.112398147583008, -0.09421202540397644, 0.19932718575000763, -0.018230553716421127, 0.9996173977851868, 0.049392446875572205, 0.022949326783418655, -0.11182347685098648, -0.0037593841552734375, 1.49560546875, 1.43994140625, 0.089324951171875, 1.497802734375, 0.0, 10.0, 1.401298464324817e-45, 1.401298464324817e-44
33236, 67.79597473144531, 84.38318634033203, -64.41990661621094, 0.0, 0.0, 92.80826568603516, 0.0, 0.0, -0.69580078125, 0, 0, 0, 0, 0, 0, 9362.0, 30146.0, 35388.0, 9362.0, 8.112398147583008, 0.0806274563074112, 0.13950487971305847, -0.0503716766834259, 0.9982283711433411, 0.04579860344529152, 0.022081248462200165, -0.11182347685098648, -0.0037593841552734375, 1.49560546875, 1.4296875, 0.07464599609375, 1.3857421875, 0.0, 10.0, 1.401298464324817e-45, 1.401298464324817e-44
33246, 67.78829956054688, 84.38262939453125, -64.41184997558594, 0.0, 0.0, 92.80363464355469, 0.0, 0.0, -0.463104248046875, 0, 0, 0, 0, 0, 0, 9362.0, 30146.0, 35388.0, 9362.0, 8.112398147583008, 0.016217267140746117, 0.04408252239227295, -0.24300868809223175, 0.9999572038650513, 0.048661720007658005, 0.028400609269738197, -0.11182347685098648, -0.0037593841552734375, 1.49560546875, 1.4326171875, 0.0786895751953125, 1.3857421875, 0.0, 10.0, 1.401298464324817e-45, 1.401298464324817e-44
33256, 67.80587768554688, 84.38070678710938, -64.42890167236328, 0.0, 0.0, 92.79947662353516, 0.0, 0.0, -0.415802001953125, 0, 0, 0, 0, 0, 0, 9362.0, 30146.0, 35388.0, 9362.0, 8.112398147583008, -0.12683814764022827, 0.09236489981412888, -0.16874349117279053, 0.9993129968643188, 0.05198686197400093, 0.025106268003582954, -0.11182347685098648, -0.0037593841552734375, 1.49560546875, 1.440673828125, 0.090423583984375, 1.5, 0.0, 10.0, 1.401298464324817e-45, 1.401298464324817e-44
33266, 67.83417510986328, 84.37914276123047, -64.4573974609375, 0.0, 0.0, 92.78971862792969, 0.0, 0.0, -0.975799560546875, 0, 0, 0, 0, 0, 0, 9362.0, 30146.0, 35388.0, 9362.0, 8.112398147583008, 0.03961297869682312, -0.1649090200662613, -0.4082035720348358, 0.9982629418373108, 0.052436914294958115, 0.02822723239660263, -0.11182347685098648, -0.0037593841552734375, 1.49560546875, 1.42236328125, 0.0649566650390625, 1.5, 0.0, 10.0, 1.401298464324817e-45, 1.401298464324817e-44
33276, 67.84674072265625, 84.37918090820312, -64.46983337402344, 0.0, 0.0, 92.78093719482422, 0.0, 0.0, -0.878143310546875, 0, 0, 0, 0, 0, 0, 9362.0, 30146.0, 35388.0, 9362.0, 8.112398147583008, 0.15852826833724976, -0.25161853432655334, 0.051430121064186096, 0.9995589256286621, 0.05387604236602783, 0.027825579047203064, -0.11182347685098648, -0.0037593841552734375, 1.49560546875, 1.4296875, 0.07464599609375, 1.4970703125, 0.0, 10.0, 1.401298464324817e-45, 1.401298464324817e-44
33286, 67.8349380493164, 84.37918090820312, -64.45703125, 0.0, 0.0, 92.78396606445312, 0.0, 0.0, 0.302886962890625, 0, 0, 0, 0, 0, 0, 9362.0, 30146.0, 35388.0, 9362.0, 8.112398147583008, 0.15202660858631134, 0.04652507230639458, 0.24181875586509705, 0.996827244758606, 0.05104796215891838, 0.02886301279067993, -0.09643703699111938, -0.2635974884033203, 1.474365234375, 1.423095703125, 0.06591796875, 1.4970703125, 0.0, 10.0, 1.401298464324817e-45, 1.401298464324817e-44
33296, 67.84595489501953, 84.37934875488281, -64.46759796142578, 0.0, 0.0, 92.78668975830078, 0.0, 0.0, 0.272369384765625, 0, 0, 0, 0, 0, 0, 9362.0, 30146.0, 35388.0, 9362.0, 8.112398147583008, -0.16365964710712433, -0.3025192320346832, -0.07457863539457321, 0.9994064569473267, 0.04982505366206169, 0.02662055753171444, -0.09643703699111938, -0.2635974884033203, 1.474365234375, 1.4033203125, 0.043182373046875, 1.49560546875, 0.0, 10.0, 1.401298464324817e-45, 1.401298464324817e-44
33306, 67.83150482177734, 84.38067626953125, -64.45240020751953, 0.0, 0.0, 92.78858947753906, 0.0, 0.0, 0.189971923828125, 0, 0, 0, 0, 0, 0, 9362.0, 30146.0, 35388.0, 9362.0, 8.112398147583008, 0.026270372793078423, 0.010502309538424015, 0.4684952199459076, 0.997603178024292, 0.04425403103232384, 0.023662662133574486, -0.09643703699111938, -0.2635974884033203, 1.474365234375, 1.398193359375, 0.03826904296875, 1.49560546875, 0.0, 10.0, 1.401298464324817e-45, 1.401298464324817e-44
33316, 67.8539047241211, 84.38021850585938, -64.47467803955078, 0.0, 0.0, 92.79029846191406, 0.0, 0.0, 0.1708984375, 0, 0, 0, 0, 0, 0, 9362.0, 30146.0, 35388.0, 9362.0, 8.112398147583008, -0.10471192747354507, 0.0771164521574974, -0.29953470826148987, 0.9985705614089966, 0.04332338273525238, 0.022018905729055405, -0.09643703699111938, -0.2635974884033203, 1.474365234375, 1.4150390625, 0.05596923828125, 1.4970703125, 0.0, 10.0, 1.401298464324817e-45, 1.401298464324817e-44
33326, 67.85130310058594, 84.38151550292969, -64.47296905517578, 0.0, 0.0, 92.80223083496094, 0.0, 0.0, 1.1932373046875, 0, 0, 0, 0, 0, 0, 9362.0, 30146.0, 35388.0, 9362.0, 8.112398147583008, -0.14814996719360352, 0.060678884387016296, 0.07576991617679596, 0.9994756579399109, 0.042414385825395584, 0.019372044131159782, -0.09643703699111938, -0.2635974884033203, 1.474365234375, 1.386474609375, 0.028656005859375, 1.4970703125, 0.0, 10.0, 1.401298464324817e-45, 1.401298464324817e-44
33336, 67.91047668457031, 84.38217163085938, -64.531005859375, 0.0, 0.0, 92.8129653930664, 0.0, 0.0, 1.073455810546875, 0, 0, 0, 0, 0, 0, 9362.0, 30146.0, 35388.0, 9362.0, 8.112398147583008, 0.07135296612977982, -0.21371391415596008, -0.3152182102203369, 0.9994887113571167, 0.044353704899549484, 0.023908093571662903, -0.09643703699111938, -0.2635974884033203, 1.474365234375, 1.428955078125, 0.073577880859375, 1.494873046875, 0.0, 10.0, 1.401298464324817e-45, 1.401298464324817e-44
33346, 67.95318603515625, 84.38262939453125, -64.57540893554688, 0.0, 0.0, 92.82208251953125, 0.0, 0.0, 0.911712646484375, 0, 0, 0, 0, 0, 0, 9362.0, 30146.0, 35388.0, 9362.0, 8.112398147583008, -0.20437049865722656, -0.39274516701698303, 0.01731232739984989, 0.9976798892021179, 0.04821397364139557, 0.02231551893055439, -0.09643703699111938, -0.2635974884033203, 1.474365234375, 1.412841796875, 0.0534515380859375, 1.494873046875, 0.0, 10.0, 1.401298464324817e-45, 1.401298464324817e-44
33356, 67.94334411621094, 84.38070678710938, -64.54495239257812, 0.0, 0.0, 92.83028411865234, 0.0, 0.0, 0.820159912109375, 0, 0, 0, 0, 0, 0, 9362.0, 30146.0, 35388.0, 9362.0, 8.112398147583008, 0.35492271184921265, 0.26907625794410706, -0.1882428377866745, 0.999113917350769, 0.051609136164188385, 0.027336278930306435, -0.09643703699111938, -0.2635974884033203, 1.474365234375, 1.421630859375, 0.0640716552734375, 1.49560546875, 0.0, 10.0, 1.401298464324817e-45, 1.401298464324817e-44
33366, 67.9102554321289, 84.38070678710938, -64.53173065185547, 0.0, 0.0, 92.83985900878906, 0.0, 0.0, 0.957489013671875, 0, 0, 0, 0, 0, 0, 9362.0, 30146.0, 35388.0, 9362.0, 8.112398147583008, -0.14131353795528412, -0.1394166350364685, -0.008280709385871887, 1.001114010810852, 0.05247149616479874, 0.03152022510766983, -0.09643703699111938, -0.2635974884033203, 1.474365234375, 1.304443359375, 0.043182373046875, 1.49560546875, 0.0, 10.0, 1.401298464324817e-45, 1.401298464324817e-44
33376, 67.91075897216797, 84.38056945800781, -64.53147888183594, 0.0, 0.0, 92.84847259521484, 0.0, 0.0, 0.861358642578125, 0, 0, 0, 0, 0, 0, 9362.0, 30146.0, 35388.0, 9362.0, 8.112398147583008, 0.02368885651230812, -0.15743859112262726, -0.0033465700689703226, 0.9984894394874573, 0.052682168781757355, 0.029930872842669487, -0.09643703699111938, -0.2635974884033203, 1.474365234375, 1.44580078125, 0.098236083984375, 1.49560546875, 0.0, 10.0, 1.401298464324817e-45, 1.401298464324817e-44
33386, 67.88774871826172, 84.38074493408203, -64.50778198242188, 0.0, 0.0, 92.84847259521484, 0.0, 0.0, 0.861358642578125, 0, 0, 0, 0, 0, 0, 9362.0, 30146.0, 35388.0, 9362.0, 8.112398147583008, 0.03350725769996643, 0.23526598513126373, 0.11900255084037781, 1.0015027523040771, 0.05216944217681885, 0.02798895351588726, -0.07803158462047577, -0.09335899353027344, 1.48828125, 1.33447265625, 0.0186309814453125, 1.49560546875, 0.0, 10.0, 1.401298464324817e-45, 1.401298464324817e-44
33396, 67.9124526977539, 84.38151550292969, -64.53196716308594, 0.0, 0.0, 92.85801696777344, 0.0, 0.0, 0.452423095703125, 0, 0, 0, 0, 0, 0, 9362.0, 30146.0, 35388.0, 9362.0, 8.112398147583008, 0.1229948103427887, -0.2835470139980316, 0.17214743793010712, 1.000032663345337, 0.04923168942332268, 0.028551101684570312, -0.07803158462047577, -0.09335899353027344, 1.48828125, 1.430419921875, 0.0756378173828125, 1.4970703125, 0.0, 10.0, 1.401298464324817e-45, 1.401298464324817e-44
33406, 67.8863296508789, 84.38155364990234, -64.5038833618164, 0.0, 0.0, 92.85801696777344, 0.0, 0.0, 0.452423095703125, 0, 0, 0, 0, 0, 0, 9362.0, 30146.0, 35388.0, 9362.0, 8.112398147583008, 0.25804516673088074, 0.1351684182882309, -0.14765746891498566, 0.998112142086029, 0.04556647688150406, 0.02492109313607216, -0.07803158462047577, -0.09335899353027344, 1.48828125, 1.417236328125, 0.058624267578125, 1.4970703125, 0.0, 10.0, 1.401298464324817e-45, 1.401298464324817e-44
33416, 67.88533020019531, 84.38199615478516, -64.50218963623047, 0.0, 0.0, 92.84185791015625, 0.0, 0.0, -0.765228271484375, 0, 0, 0, 0, 0, 0, 9362.0, 30146.0, 35388.0, 9362.0, 8.112398147583008, 0.09047577530145645, -0.017815204337239265, 0.0511653833091259, 0.998613715171814, 0.04409877583384514, 0.023174524307250977, -0.07803158462047577, -0.09335899353027344, 1.48828125, 1.3505859375, 0.0153045654296875, 1.494140625, 0.0, 10.0, 1.401298464324817e-45, 1.401298464324817e-44
33426, 67.84041595458984, 84.3823471069336, -64.45761108398438, 0.0, 0.0, 92.84185791015625, 0.0, 0.0, -0.765228271484375, 0, 0, 0, 0, 0, 0, 9362.0, 30146.0, 35388.0, 9362.0, 8.112398147583008, 0.09047577530145645, -0.017815204337239265, 0.0511653833091259, 0.998613715171814, 0.04409877583384514, 0.023174524307250977, -0.07803158462047577, -0.09335899353027344, 1.48828125, 1.42529296875, 0.0688018798828125, 1.494140625, 0.0, 10.0, 1.401298464324817e-45, 1.401298464324817e-44
33436, 67.82457733154297, 84.38116455078125, -64.44164276123047, 0.0, 0.0, 92.84185791015625, 0.0, 0.0, -0.765228271484375, 0, 0, 0, 0, 0, 0, 9362.0, 30146.0, 35388.0, 9362.0, 8.112398147583008, 0.09047577530145645, -0.017815204337239265, 0.0511653833091259, 0.9961910247802734, 0.04445911571383476, 0.02358383685350418, -0.07803158462047577, -0.09335899353027344, 1.48828125, 1.3564453125, 0.0156707763671875, 1.494140625, 0.0, 10.0, 1.401298464324817e-45, 1.401298464324817e-44
33446, 67.8658676147461, 84.38056945800781, -64.48436737060547, 0.0, 0.0, 92.84185791015625, 0.0, 0.0, -0.765228271484375, 0, 0, 0, 0, 0, 0, 9362.0, 30146.0, 35388.0, 9362.0, 8.112398147583008, 0.013499722816050053, -0.35809221863746643, -0.10305649787187576, 0.9961910247802734, 0.04445911571383476, 0.02358383685350418, -0.07803158462047577, -0.09335899353027344, 1.48828125, 1.342529296875, 0.0161895751953125, 1.494140625, 0.0, 10.0, 1.401298464324817e-45, 1.401298464324817e-44
33456, 67.89293670654297, 84.37934875488281, -64.5117416381836, 0.0, 0.0, 92.84185791015625, 0.0, 0.0, -0.765228271484375, 0, 0, 0, 0, 0, 0, 9362.0, 30146.0, 35388.0, 9362.0, 8.112398147583008, -0.016423001885414124, -0.22337625920772552, -0.37438076734542847, 0.9992043375968933, 0.04992632567882538, 0.03068518079817295, -0.07803158462047577, -0.09335899353027344, 1.48828125, 1.342529296875, 0.0161895751953125, 1.494140625, 0.0, 10.0, 1.401298464324817e-45, 1.401298464324817e-44
33476, 67.81593322753906, 84.3794174194336, -64.4334945678711, 0.0, 0.0, 92.8384017944336, 0.0, 0.0, 0.061798095703125, 0, 0, 0, 0, 0, 0, 9362.0, 30146.0, 35388.0, 9362.0, 8.112398147583008, 0.21176336705684662, 0.21351516246795654, 0.08305560797452927, 0.9980431795120239, 0.052047621458768845, 0.029396045953035355, -0.07803158462047577, -0.09335899353027344, 1.48828125, 1.46337890625, 0.1270751953125, 1.494873046875, 0.0, 10.0, 1.401298464324817e-45, 1.401298464324817e-44
33486, 67.77901458740234, 84.3794174194336, -64.39751434326172, 0.0, 0.0, 92.8384017944336, 0.0, 0.0, 0.061798095703125, 0, 0, 0, 0, 0, 0, 9362.0, 30146.0, 35388.0, 9362.0, 8.112398147583008, -0.09113440662622452, -0.1265321671962738, 0.1531977355480194, 0.9980431795120239, 0.052047621458768845, 0.029396045953035355, -0.078310526907444, -0.021678924560546875, 1.494140625, 1.39013671875, 0.0314483642578125, 1.494873046875, 0.0, 10.0, 1.401298464324817e-45, 1.401298464324817e-44
33496, 67.78257751464844, 84.37977600097656, -64.40154266357422, 0.0, 0.0, 92.8384017944336, 0.0, 0.0, 0.061798095703125, 0, 0, 0, 0, 0, 0, 9362.0, 30146.0, 35388.0, 9362.0, 8.112398147583008, -0.04758192226290703, -0.009365002624690533, 0.0412331223487854, 0.9980431795120239, 0.052047621458768845, 0.029396045953035355, -0.078310526907444, -0.021678924560546875, 1.494140625, 1.301513671875, 0.046966552734375, 1.494873046875, 0.0, 10.0, 1.401298464324817e-45, 1.401298464324817e-44
33506, 67.76250457763672, 84.3797378540039, -64.38232421875, 0.0, 0.0, 92.87813568115234, 0.0, 0.0, 0.896453857421875, 0, 0, 0, 0, 0, 0, 9362.0, 30146.0, 35388.0, 9362.0, 8.112398147583008, -0.04758192226290703, -0.009365002624690533, 0.0412331223487854, 0.9990715384483337, 0.04877813905477524, 0.024886751547455788, -0.078310526907444, -0.021678924560546875, 1.494140625, 1.39892578125, 0.0390167236328125, 1.494873046875, 0.0, 10.0, 1.401298464324817e-45, 1.401298464324817e-44
33516, 67.73963928222656, 84.38032531738281, -64.36082458496094, 0.0, 0.0, 92.87813568115234, 0.0, 0.0, 0.896453857421875, 0, 0, 0, 0, 0, 0, 9362.0, 30146.0, 35388.0, 9362.0, 8.112398147583008, -0.19715237617492676, 0.21654264628887177, 0.1521247774362564, 0.9990715384483337, 0.04877813905477524, 0.024886751547455788, -0.078310526907444, -0.021678924560546875, 1.494140625, 1.393798828125, 0.0344085693359375, 1.494873046875, 0.0, 10.0, 1.401298464324817e-45, 1.401298464324817e-44
33526, 67.6646728515625, 84.38028717041016, -64.28431701660156, 0.0, 0.0, 92.90281677246094, 0.0, 0.0, 1.1688232421875, 0, 0, 0, 0, 0, 0, 9362.0, 30146.0, 35388.0, 9362.0, 8.112398147583008, 0.07307776808738708, 0.3098285496234894, 0.1795218139886856, 0.9990715384483337, 0.04877813905477524, 0.024886751547455788, -0.078310526907444, -0.021678924560546875, 1.494140625, 1.424560546875, 0.0678253173828125, 1.494873046875, 0.0, 10.0, 1.401298464324817e-45, 1.401298464324817e-44
33536, 67.64256286621094, 84.37953186035156, -64.26277160644531, 0.0, 0.0, 92.90281677246094, 0.0, 0.0, 1.1688232421875, 0, 0, 0, 0, 0, 0, 9362.0, 30146.0, 35388.0, 9362.0, 8.112398147583008, -0.11481079459190369, 0.2888927757740021, -0.13913312554359436, 0.9990715384483337, 0.04877813905477524, 0.024886751547455788, -0.078310526907444, -0.021678924560546875, 1.494140625, 1.434814453125, 0.081787109375, 1.494873046875, 0.0, 10.0, 1.401298464324817e-45, 1.401298464324817e-44
33546, 67.58412170410156, 84.38136291503906, -64.2032699584961, 0.0, 0.0, 92.9134521484375, 0.0, 0.0, 0.5035400390625, 0, 0, 0, 0, 0, 0, 9362.0, 30146.0, 35388.0, 9362.0, 8.112398147583008, 0.0026947360020130873, 0.09777248650789261, 0.23053856194019318, 0.9990715384483337, 0.04877813905477524, 0.024886751547455788, -0.078310526907444, -0.021678924560546875, 1.494140625, 1.434814453125, 0.081787109375, 1.494873046875, 0.0, 10.0, 1.401298464324817e-45, 1.401298464324817e-44
33556, 67.57180786132812, 84.38227844238281, -64.19046020507812, 0.0, 0.0, 92.9134521484375, 0.0, 0.0, 0.5035400390625, 0, 0, 0, 0, 0, 0, 9362.0, 30146.0, 35388.0, 9362.0, 8.112398147583008, 0.1552383154630661, 0.11678502708673477, 0.13061383366584778, 0.9974347352981567, 0.04687787592411041, 0.022772250697016716, -0.078310526907444, -0.021678924560546875, 1.494140625, 1.452392578125, 0.10870361328125, 1.491943359375, 0.0, 10.0, 1.401298464324817e-45, 1.401298464324817e-44
33566, 67.5833969116211, 84.38032531738281, -64.201904296875, 0.0, 0.0, 92.9134521484375, 0.0, 0.0, 0.5035400390625, 0, 0, 0, 0, 0, 0, 9362.0, 30146.0, 35388.0, 9362.0, 8.112398147583008, -0.059548962861299515, 0.2287866771221161, -0.5716020464897156, 0.997035801410675, 0.04733854904770851, 0.025876296684145927, -0.078310526907444, -0.021678924560546875, 1.494140625, 1.355712890625, 0.0155029296875, 1.491943359375, 0.0, 10.0, 1.401298464324817e-45, 1.401298464324817e-44
33576, 67.63946533203125, 84.37969207763672, -64.25708770751953, 0.0, 0.0, 92.9134521484375, 0.0, 0.0, 0.5035400390625, 0, 0, 0, 0, 0, 0, 9362.0, 30146.0, 35388.0, 9362.0, 8.112398147583008, 0.20590700209140778, -0.14343146979808807, -0.1251755952835083, 0.997035801410675, 0.04733854904770851, 0.025876296684145927, -0.078310526907444, -0.021678924560546875, 1.494140625, 1.355712890625, 0.0155029296875, 1.491943359375, 0.0, 10.0, 1.401298464324817e-45, 1.401298464324817e-44
33596, 67.6582260131836, 84.37774658203125, -64.2740707397461, 0.0, 0.0, 92.87617492675781, 0.0, 0.0, -0.4791259765625, 0, 0, 0, 0, 0, 0, 9362.0, 30146.0, 35388.0, 9362.0, 8.112398147583008, 0.12267014384269714, -0.15618377923965454, -0.011776571162045002, 0.9987339973449707, 0.051839958876371384, 0.027691911906003952, -0.0742146447300911, 0.04104042053222656, 1.499267578125, 1.39453125, 0.035003662109375, 1.491943359375, 0.0, 10.0, 1.401298464324817e-45, 1.401298464324817e-44
33606, 67.63760375976562, 84.3775405883789, -64.25276184082031, 0.0, 0.0, 92.87617492675781, 0.0, 0.0, -0.4791259765625, 0, 0, 0, 0, 0, 0, 9362.0, 30146.0, 35388.0, 9362.0, 8.112398147583008, 0.21029075980186462, 0.057769324630498886, 0.11908142268657684, 0.9965482950210571, 0.053581323474645615, 0.02525472827255726, -0.0742146447300911, 0.04104042053222656, 1.499267578125, 1.41357421875, 0.0542449951171875, 1.491943359375, 0.0, 10.0, 1.401298464324817e-45, 1.401298464324817e-44
33616, 67.64752197265625, 84.37736511230469, -64.26201629638672, 0.0, 0.0, 92.87617492675781, 0.0, 0.0, -0.4791259765625, 0, 0, 0, 0, 0, 0, 9362.0, 30146.0, 35388.0, 9362.0, 8.112398147583008, 0.20439422130584717, -0.047375187277793884, -0.20850741863250732, 0.9965482950210571, 0.053581323474645615, 0.02525472827255726, -0.0742146447300911, 0.04104042053222656, 1.499267578125, 1.41357421875, 0.0542449951171875, 1.494873046875, 0.0, 10.0, 1.401298464324817e-45, 1.401298464324817e-44
33626, 67.66853332519531, 84.37764739990234, -64.2825698852539, 0.0, 0.0, 92.87617492675781, 0.0, 0.0, -0.4791259765625, 0, 0, 0, 0, 0, 0, 9362.0, 30146.0, 35388.0, 9362.0, 8.112398147583008, 0.04039239138364792, -0.09602139890193939, 0.08252380788326263, 0.9965482950210571, 0.053581323474645615, 0.02525472827255726, -0.0742146447300911, 0.04104042053222656, 1.499267578125, 1.4033203125, 0.043182373046875, 1.494873046875, 0.0, 10.0, 1.401298464324817e-45, 1.401298464324817e-44
33636, 67.66072082519531, 84.37960052490234, -64.2739028930664, 0.0, 0.0, 92.87617492675781, 0.0, 0.0, -0.4791259765625, 0, 0, 0, 0, 0, 0, 9362.0, 30146.0, 35388.0, 9362.0, 8.112398147583008, 0.032321590930223465, -0.05937729403376579, 0.43767252564430237, 0.9994116425514221, 0.045128852128982544, 0.02348119020462036, -0.0742146447300911, 0.04104042053222656, 1.499267578125, 1.408447265625, 0.0485382080078125, 1.494873046875, 0.0, 10.0, 1.401298464324817e-45, 1.401298464324817e-44
33646, 67.68980407714844, 84.3803939819336, -64.30302429199219, 0.0, 0.0, 92.87617492675781, 0.0, 0.0, -0.4791259765625, 0, 0, 0, 0, 0, 0, 9362.0, 30146.0, 35388.0, 9362.0, 8.112398147583008, -0.049698710441589355, -0.07404263317584991, -0.08877115696668625, 0.9994116425514221, 0.045128852128982544, 0.02348119020462036, -0.0742146447300911, 0.04104042053222656, 1.499267578125, 1.34326171875, 0.01605224609375, 1.494873046875, 0.0, 10.0, 1.401298464324817e-45, 1.401298464324817e-44
33656, 67.73690032958984, 84.38157653808594, -64.35012817382812, 0.0, 0.0, 92.87617492675781, 0.0, 0.0, -0.4791259765625, 0, 0, 0, 0, 0, 0, 9362.0, 30146.0, 35388.0, 9362.0, 8.112398147583008, -0.10133598744869232, -0.4920826852321625, 0.004083344712853432, 0.9994116425514221, 0.045128852128982544, 0.02348119020462036, -0.0742146447300911, 0.04104042053222656, 1.499267578125, 1.41357421875, 0.0542449951171875, 1.49267578125, 0.0, 10.0, 1.401298464324817e-45, 1.401298464324817e-44
33666, 67.69342803955078, 84.38078308105469, -64.30703735351562, 0.0, 0.0, 92.93289947509766, 0.0, 0.0, 1.1993408203125, 0, 0, 0, 0, 0, 0, 9362.0, 30146.0, 35388.0, 9362.0, 8.112398147583008, -0.22245198488235474, 0.4048859179019928, -0.2702544629573822, 0.9985178112983704, 0.04470233619213104, 0.024935046210885048, -0.0742146447300911, 0.04104042053222656, 1.499267578125, 1.4326171875, 0.0786895751953125, 1.49267578125, 0.0, 10.0, 1.401298464324817e-45, 1.401298464324817e-44
33676, 67.69940185546875, 84.3806381225586, -64.31200408935547, 0.0, 0.0, 92.93289947509766, 0.0, 0.0, 1.1993408203125, 0, 0, 0, 0, 0, 0, 9362.0, 30146.0, 35388.0, 9362.0, 8.112398147583008, 0.014678453095257282, -0.07002656906843185, -0.07535535097122192, 0.9985178112983704, 0.04470233619213104, 0.024935046210885048, -0.0742146447300911, 0.04104042053222656, 1.499267578125, 1.33447265625, 0.0186309814453125, 1.49267578125, 0.0, 10.0, 1.401298464324817e-45, 1.401298464324817e-44
33686, 67.6656265258789, 84.37906646728516, -64.2779541015625, 0.0, 0.0, 92.93574523925781, 0.0, 0.0, 0.135040283203125, 0, 0, 0, 0, 0, 0, 9362.0, 30146.0, 35388.0, 9362.0, 8.112398147583008, 0.014678453095257282, -0.07002656906843185, -0.07535535097122192, 0.9981973767280579, 0.051586493849754333, 0.028188049793243408, -0.08388060331344604, 0.0052013397216796875, 1.496337890625, 1.412109375, 0.0526123046875, 1.49267578125, 0.0, 10.0, 1.401298464324817e-45, 1.401298464324817e-44
33696, 67.63658142089844, 84.37847900390625, -64.2481460571289, 0.0, 0.0, 92.93574523925781, 0.0, 0.0, 0.135040283203125, 0, 0, 0, 0, 0, 0, 9362.0, 30146.0, 35388.0, 9362.0, 8.112398147583008, 0.014678453095257282, -0.07002656906843185, -0.07535535097122192, 0.996169924736023, 0.0523870512843132, 0.027939364314079285, -0.08388060331344604, 0.0052013397216796875, 1.496337890625, 1.412109375, 0.0526123046875, 1.48974609375, 0.0, 10.0, 1.401298464324817e-45, 1.401298464324817e-44
33706, 67.5902328491211, 84.37833404541016, -64.20079040527344, 0.0, 0.0, 92.9349365234375, 0.0, 0.0, -0.03814697265625, 0, 0, 0, 0, 0, 0, 9362.0, 30146.0, 35388.0, 9362.0, 8.112398147583008, 0.06219734624028206, 0.16228124499320984, 0.3200680911540985, 0.996169924736023, 0.0523870512843132, 0.027939364314079285, -0.08388060331344604, 0.0052013397216796875, 1.496337890625, 1.412109375, 0.0526123046875, 1.48974609375, 0.0, 10.0, 1.401298464324817e-45, 1.401298464324817e-44
33716, 67.54472351074219, 84.378173828125, -64.15605926513672, 0.0, 0.0, 92.9349365234375, 0.0, 0.0, -0.03814697265625, 0, 0, 0, 0, 0, 0, 9362.0, 30146.0, 35388.0, 9362.0, 8.112398147583008, -0.06331770867109299, 0.376152902841568, 0.20925095677375793, 1.0018717050552368, 0.05109491944313049, 0.02834179997444153, -0.08388060331344604, 0.0052013397216796875, 1.496337890625, 1.401123046875, 0.041015625, 1.48974609375, 0.0, 10.0, 1.401298464324817e-45, 1.401298464324817e-44
33726, 67.49385070800781, 84.37914276123047, -64.10588836669922, 0.0, 0.0, 92.94154357910156, 0.0, 0.0, 0.313568115234375, 0, 0, 0, 0, 0, 0, 9362.0, 30146.0, 35388.0, 9362.0, 8.112398147583008, -0.13152755796909332, 0.05303908511996269, 0.21460530161857605, 1.0018717050552368, 0.05109491944313049, 0.02834179997444153, -0.08388060331344604, 0.0052013397216796875, 1.496337890625, 1.401123046875, 0.041015625, 1.48974609375, 0.0, 10.0, 1.401298464324817e-45, 1.401298464324817e-44
33736, 67.51659393310547, 84.3787612915039, -64.1282730102539, 0.0, 0.0, 92.94154357910156, 0.0, 0.0, 0.313568115234375, 0, 0, 0, 0, 0, 0, 9362.0, 30146.0, 35388.0, 9362.0, 8.112398147583008, 0.09571526199579239, -0.067854143679142, -0.23527991771697998, 1.0018717050552368, 0.05109491944313049, 0.02834179997444153, -0.08388060331344604, 0.0052013397216796875, 1.496337890625, 1.401123046875, 0.041015625, 1.48974609375, 0.0, 10.0, 1.401298464324817e-45, 1.401298464324817e-44
33746, 67.55110168457031, 84.3804702758789, -64.1651611328125, 0.0, 0.0, 92.94154357910156, 0.0, 0.0, 0.313568115234375, 0, 0, 0, 0, 0, 0, 9362.0, 30146.0, 35388.0, 9362.0, 8.112398147583008, -0.36901605129241943, -0.31380495429039, 0.08475982397794724, 1.0004775524139404, 0.044748466461896896, 0.026702653616666794, -0.08388060331344604, 0.0052013397216796875, 1.496337890625, 1.4296875, 0.07464599609375, 1.48974609375, 0.0, 10.0, 1.401298464324817e-45, 1.401298464324817e-44
33756, 67.52448272705078, 84.3808822631836, -64.13798522949219, 0.0, 0.0, 92.94154357910156, 0.0, 0.0, 0.313568115234375, 0, 0, 0, 0, 0, 0, 9362.0, 30146.0, 35388.0, 9362.0, 8.112398147583008, 0.1529194712638855, 0.12102151662111282, -0.05064462870359421, 1.0004775524139404, 0.044748466461896896, 0.026702653616666794, -0.08388060331344604, 0.0052013397216796875, 1.496337890625, 1.40771484375, 0.0478363037109375, 1.48974609375, 0.0, 10.0, 1.401298464324817e-45, 1.401298464324817e-44
33766, 67.5084228515625, 84.3794937133789, -64.12124633789062, 0.0, 0.0, 92.94154357910156, 0.0, 0.0, 0.313568115234375, 0, 0, 0, 0, 0, 0, 9362.0, 30146.0, 35388.0, 9362.0, 8.112398147583008, 0.1269844025373459, 0.20676764845848083, -0.19909049570560455, 1.0001537799835205, 0.04796328395605087, 0.024685140699148178, -0.08388060331344604, 0.0052013397216796875, 1.496337890625, 1.4091796875, 0.04937744140625, 1.48974609375, 0.0, 10.0, 1.401298464324817e-45, 1.401298464324817e-44
33776, 67.52117156982422, 84.37889862060547, -64.13349151611328, 0.0, 0.0, 92.94154357910156, 0.0, 0.0, 0.313568115234375, 0, 0, 0, 0, 0, 0, 9362.0, 30146.0, 35388.0, 9362.0, 8.112398147583008, 0.02614418789744377, -0.2134748101234436, -0.23968501389026642, 0.9981907606124878, 0.047328799962997437, 0.028294609859585762, -0.08388060331344604, 0.0052013397216796875, 1.496337890625, 1.33447265625, 0.0186309814453125, 1.48974609375, 0.0, 10.0, 1.401298464324817e-45, 1.401298464324817e-44
33786, 67.5064468383789, 84.3799057006836, -64.11744689941406, 0.0, 0.0, 92.94154357910156, 0.0, 0.0, 0.313568115234375, 0, 0, 0, 0, 0, 0, 9362.0, 30146.0, 35388.0, 9362.0, 8.112398147583008, 0.28320547938346863, 0.1115015372633934, 0.221054807305336, 0.9952703714370728, 0.04934575781226158, 0.027507366612553596, -0.08388060331344604, 0.0052013397216796875, 1.496337890625, 1.360107421875, 0.0162506103515625, 1.48974609375, 0.0, 10.0, 1.401298464324817e-45, 1.401298464324817e-44
33796, 67.51783752441406, 84.37934875488281, -64.12793731689453, 0.0, 0.0, 92.94154357910156, 0.0, 0.0, 0.313568115234375, 0, 0, 0, 0, 0, 0, 9362.0, 30146.0, 35388.0, 9362.0, 8.112398147583008, 0.11120092868804932, 0.09152062237262726, -0.2135811746120453, 0.9990968108177185, 0.048419732600450516, 0.02414190024137497, -0.08388060331344604, 0.0052013397216796875, 1.496337890625, 1.360107421875, 0.0162506103515625, 1.491943359375, 0.0, 10.0, 1.401298464324817e-45, 1.401298464324817e-44
33806, 67.52947998046875, 84.38025665283203, -64.13990020751953, 0.0, 0.0, 92.94257354736328, 0.0, 0.0, 0.362396240234375, 0, 0, 0, 0, 0, 0, 9362.0, 30146.0, 35388.0, 9362.0, 8.112398147583008, -0.01670086197555065, 0.09360705316066742, 0.25555169582366943, 0.9990968108177185, 0.048419732600450516, 0.02414190024137497, -0.08388060331344604, 0.0052013397216796875, 1.496337890625, 1.360107421875, 0.0162506103515625, 1.491943359375, 0.0, 10.0, 1.401298464324817e-45, 1.401298464324817e-44
33816, 67.52558898925781, 84.38018798828125, -64.13430786132812, 0.0, 0.0, 92.94257354736328, 0.0, 0.0, 0.362396240234375, 0, 0, 0, 0, 0, 0, 9362.0, 30146.0, 35388.0, 9362.0, 8.112398147583008, 0.3092882037162781, 0.23378175497055054, -0.06269704550504684, 0.9990968108177185, 0.048419732600450516, 0.02414190024137497, -0.08388060331344604, 0.0052013397216796875, 1.496337890625, 1.345458984375, 0.0156707763671875, 1.49560546875, 0.0, 10.0, 1.401298464324817e-45, 1.401298464324817e-44
33826, 67.55738830566406, 84.38021850585938, -64.16587829589844, 0.0, 0.0, 92.93421936035156, 0.0, 0.0, -0.395965576171875, 0, 0, 0, 0, 0, 0, 9362.0, 30146.0, 35388.0, 9362.0, 8.112398147583008, 0.15002062916755676, -0.024821801111102104, 0.01850009709596634, 0.9991387724876404, 0.048497576266527176, 0.02565998025238514, -0.08388060331344604, 0.0052013397216796875, 1.496337890625, 1.3388671875, 0.017120361328125, 1.49560546875, 0.0, 10.0, 1.401298464324817e-45, 1.401298464324817e-44
33836, 67.52543640136719, 84.38028717041016, -64.13373565673828, 0.0, 0.0, 92.93421936035156, 0.0, 0.0, -0.395965576171875, 0, 0, 0, 0, 0, 0, 9362.0, 30146.0, 35388.0, 9362.0, 8.112398147583008, 0.07499516755342484, 0.2803177833557129, 0.1587381213903427, 0.9991387724876404, 0.048497576266527176, 0.02565998025238514, -0.08388060331344604, 0.0052013397216796875, 1.496337890625, 1.39892578125, 0.0390167236328125, 1.49560546875, 0.0, 10.0, 1.401298464324817e-45, 1.401298464324817e-44
33846, 67.51273345947266, 84.3797378540039, -64.12068176269531, 0.0, 0.0, 92.91603088378906, 0.0, 0.0, -0.861358642578125, 0, 0, 0, 0, 0, 0, 9362.0, 30146.0, 35388.0, 9362.0, 8.112398147583008, 0.03941332548856735, 0.0037915422581136227, 0.031488336622714996, 0.9991387724876404, 0.048497576266527176, 0.02565998025238514, -0.08388060331344604, 0.0052013397216796875, 1.496337890625, 1.4267578125, 0.070709228515625, 1.49560546875, 0.0, 10.0, 1.401298464324817e-45, 1.401298464324817e-44
33856, 67.49220275878906, 84.37969207763672, -64.09977722167969, 0.0, 0.0, 92.91603088378906, 0.0, 0.0, -0.861358642578125, 0, 0, 0, 0, 0, 0, 9362.0, 30146.0, 35388.0, 9362.0, 8.112398147583008, 0.01919596455991268, 0.29364076256752014, 0.05475691333413124, 0.998763382434845, 0.04821551963686943, 0.02762993611395359, -0.08388060331344604, 0.0052013397216796875, 1.496337890625, 1.318359375, 0.028656005859375, 1.493408203125, 0.0, 10.0, 1.401298464324817e-45, 1.401298464324817e-44
33866, 67.4749526977539, 84.38004302978516, -64.08240509033203, 0.0, 0.0, 92.91065216064453, 0.0, 0.0, -0.25482177734375, 0, 0, 0, 0, 0, 0, 9362.0, 30146.0, 35388.0, 9362.0, 8.112398147583008, 0.10756012797355652, 0.037553589791059494, -0.13928191363811493, 0.998763382434845, 0.04821551963686943, 0.02762993611395359, -0.08388060331344604, 0.0052013397216796875, 1.496337890625, 1.4267578125, 0.070709228515625, 1.493408203125, 0.0, 10.0, 1.401298464324817e-45, 1.401298464324817e-44
33876, 67.49468994140625, 84.38056945800781, -64.10111999511719, 0.0, 0.0, 92.91065216064453, 0.0, 0.0, -0.25482177734375, 0, 0, 0, 0, 0, 0, 9362.0, 30146.0, 35388.0, 9362.0, 8.112398147583008, 0.2401781976222992, -0.3239348232746124, -0.0805075541138649, 0.9973750710487366, 0.04823266342282295, 0.02852490171790123, -0.08388060331344604, 0.0052013397216796875, 1.496337890625, 1.46630859375, 0.132171630859375, 1.49853515625, 0.0, 10.0, 1.401298464324817e-45, 1.401298464324817e-44
33896, 67.52676391601562, 84.38164520263672, -64.13250732421875, 0.0, 0.0, 92.91065216064453, 0.0, 0.0, -0.25482177734375, 0, 0, 0, 0, 0, 0, 9362.0, 30146.0, 35388.0, 9362.0, 8.112398147583008, 0.11406169831752777, 0.016336798667907715, -0.2508886158466339, 0.998029351234436, 0.04746805876493454, 0.02613578923046589, -0.06392320990562439, -0.1739978790283203, 1.481689453125, 1.44873046875, 0.102813720703125, 1.494873046875, 0.0, 10.0, 1.401298464324817e-45, 1.401298464324817e-44
33906, 67.54914093017578, 84.38130187988281, -64.1530532836914, 0.0, 0.0, 92.92131805419922, 0.0, 0.0, 0.415802001953125, 0, 0, 0, 0, 0, 0, 9362.0, 30146.0, 35388.0, 9362.0, 8.112398147583008, 0.06836481392383575, 0.024064181372523308, -0.20459385216236115, 0.9986844062805176, 0.046622294932603836, 0.021807007491588593, -0.06392320990562439, -0.1739978790283203, 1.481689453125, 1.462646484375, 0.125823974609375, 1.494873046875, 0.0, 10.0, 1.401298464324817e-45, 1.401298464324817e-44
33916, 67.55260467529297, 84.38141632080078, -64.15699005126953, 0.0, 0.0, 92.92131805419922, 0.0, 0.0, 0.415802001953125, 0, 0, 0, 0, 0, 0, 9362.0, 30146.0, 35388.0, 9362.0, 8.112398147583008, -0.19905240833759308, -0.04101626202464104, -0.01937096379697323, 0.9993565082550049, 0.04817222058773041, 0.022103561088442802, -0.06392320990562439, -0.1739978790283203, 1.481689453125, 1.462646484375, 0.125823974609375, 1.4912109375, 0.0, 10.0, 1.401298464324817e-45, 1.401298464324817e-44
33926, 67.5433349609375, 84.38053894042969, -64.14643096923828, 0.0, 0.0, 92.92131805419922, 0.0, 0.0, 0.415802001953125, 0, 0, 0, 0, 0, 0, 9362.0, 30146.0, 35388.0, 9362.0, 8.112398147583008, 0.08121321350336075, 0.21347881853580475, -0.2037878781557083, 0.9978828430175781, 0.047937072813510895, 0.02387118898332119, -0.06392320990562439, -0.1739978790283203, 1.481689453125, 1.411376953125, 0.05181884765625, 1.4912109375, 0.0, 10.0, 1.401298464324817e-45, 1.401298464324817e-44
33936, 67.53971862792969, 84.38109588623047, -64.14253997802734, 0.0, 0.0, 92.92131805419922, 0.0, 0.0, 0.415802001953125, 0, 0, 0, 0, 0, 0, 9362.0, 30146.0, 35388.0, 9362.0, 8.112398147583008, 0.05879552289843559, 0.07485800981521606, 0.30781635642051697, 1.0006335973739624, 0.05117321386933327, 0.025616949424147606, -0.06392320990562439, -0.1739978790283203, 1.481689453125, 1.47216796875, 0.142547607421875, 1.4912109375, 0.0, 10.0, 1.401298464324817e-45, 1.401298464324817e-44
33946, 67.52729034423828, 84.37979888916016, -64.12948608398438, 0.0, 0.0, 92.92131805419922, 0.0, 0.0, 0.415802001953125, 0, 0, 0, 0, 0, 0, 9362.0, 30146.0, 35388.0, 9362.0, 8.112398147583008, 0.16525429487228394, 0.08076520264148712, -0.20693466067314148, 0.9988916516304016, 0.05059836804866791, 0.026836493983864784, -0.06392320990562439, -0.1739978790283203, 1.481689453125, 1.453125, 0.1099090576171875, 1.4912109375, 0.0, 10.0, 1.401298464324817e-45, 1.401298464324817e-44
33956, 67.54818725585938, 84.37977600097656, -64.150146484375, 0.0, 0.0, 92.92131805419922, 0.0, 0.0, 0.415802001953125, 0, 0, 0, 0, 0, 0, 9362.0, 30146.0, 35388.0, 9362.0, 8.112398147583008, 0.03942690044641495, -0.2304471880197525, -0.22722254693508148, 0.9974104166030884, 0.046661127358675, 0.030787788331508636, -0.06392320990562439, -0.1739978790283203, 1.481689453125, 1.458984375, 0.1195831298828125, 1.496337890625, 0.0, 10.0, 1.401298464324817e-45, 1.401298464324817e-44
33966, 67.50507354736328, 84.37879180908203, -64.1081314086914, 0.0, 0.0, 92.91593933105469, 0.0, 0.0, -0.252532958984375, 0, 0, 0, 0, 0, 0, 9362.0, 30146.0, 35388.0, 9362.0, 8.112398147583008, -0.2983613610267639, 0.3312470316886902, 0.020704980939626694, 0.9991743564605713, 0.05006055906414986, 0.029270650818943977, -0.06392320990562439, -0.1739978790283203, 1.481689453125, 1.439208984375, 0.0882415771484375, 1.496337890625, 0.0, 10.0, 1.401298464324817e-45, 1.401298464324817e-44
33976, 67.49172973632812, 84.37785339355469, -64.09371948242188, 0.0, 0.0, 92.91593933105469, 0.0, 0.0, -0.252532958984375, 0, 0, 0, 0, 0, 0, 9362.0, 30146.0, 35388.0, 9362.0, 8.112398147583008, 0.16444538533687592, 0.20251929759979248, -0.19654256105422974, 0.9991743564605713, 0.05006055906414986, 0.029270650818943977, -0.06392320990562439, -0.1739978790283203, 1.481689453125, 1.387939453125, 0.0297393798828125, 1.496337890625, 0.0, 10.0, 1.401298464324817e-45, 1.401298464324817e-44
33986, 67.50645446777344, 84.37704467773438, -64.11026763916016, 0.0, 0.0, 92.90225219726562, 0.0, 0.0, -0.64849853515625, 0, 0, 0, 0, 0, 0, 9362.0, 30146.0, 35388.0, 9362.0, 8.112398147583008, 0.16444538533687592, 0.20251929759979248, -0.19654256105422974, 0.9991743564605713, 0.05006055906414986, 0.029270650818943977, -0.08475134521722794, 0.03208160400390625, 1.49853515625, 1.48095703125, 0.1587677001953125, 1.496337890625, 0.0, 10.0, 1.401298464324817e-45, 1.401298464324817e-44
33996, 67.55901336669922, 84.37732696533203, -64.1617431640625, 0.0, 0.0, 92.90225219726562, 0.0, 0.0, -0.64849853515625, 0, 0, 0, 0, 0, 0, 9362.0, 30146.0, 35388.0, 9362.0, 8.112398147583008, 0.17364534735679626, -0.2808992564678192, -0.26424601674079895, 0.9991743564605713, 0.05006055906414986, 0.029270650818943977, -0.08475134521722794, 0.03208160400390625, 1.49853515625, 1.48095703125, 0.1587677001953125, 1.49853515625, 0.0, 10.0, 1.401298464324817e-45, 1.401298464324817e-44
34006, 67.586669921875, 84.37840270996094, -64.19042205810547, 0.0, 0.0, 92.89949035644531, 0.0, 0.0, -0.1312255859375, 0, 0, 0, 0, 0, 0, 9362.0, 30146.0, 35388.0, 9362.0, 8.112398147583008, -0.3429504632949829, -0.3575271666049957, -0.08131897449493408, 0.9991743564605713, 0.05006055906414986, 0.029270650818943977, -0.08475134521722794, 0.03208160400390625, 1.49853515625, 1.4619140625, 0.1246185302734375, 1.49853515625, 0.0, 10.0, 1.401298464324817e-45, 1.401298464324817e-44
34016, 67.5574722290039, 84.37896728515625, -64.16136169433594, 0.0, 0.0, 92.89949035644531, 0.0, 0.0, -0.1312255859375, 0, 0, 0, 0, 0, 0, 9362.0, 30146.0, 35388.0, 9362.0, 8.112398147583008, -0.09073153883218765, 0.1144099235534668, 0.06475532799959183, 0.9991743564605713, 0.05006055906414986, 0.029270650818943977, -0.08475134521722794, 0.03208160400390625, 1.49853515625, 1.4326171875, 0.0786895751953125, 1.49560546875, 0.0, 10.0, 1.401298464324817e-45, 1.401298464324817e-44
34026, 67.57109832763672, 84.37847900390625, -64.1755599975586, 0.0, 0.0, 92.88477325439453, 0.0, 0.0, -0.69732666015625, 0, 0, 0, 0, 0, 0, 9362.0, 30146.0, 35388.0, 9362.0, 8.112398147583008, -0.07929886877536774, -0.030351722612977028, -0.300832599401474, 0.9991403818130493, 0.04723846912384033, 0.02201395481824875, -0.08475134521722794, 0.03208160400390625, 1.49853515625, 1.484619140625, 0.1656646728515625, 1.49560546875, 0.0, 10.0, 1.401298464324817e-45, 1.401298464324817e-44
34036, 67.6240005493164, 84.3784408569336, -64.22758483886719, 0.0, 0.0, 92.88477325439453, 0.0, 0.0, -0.69732666015625, 0, 0, 0, 0, 0, 0, 9362.0, 30146.0, 35388.0, 9362.0, 8.112398147583008, 0.13515499234199524, -0.3524927794933319, -0.1712607443332672, 0.9991403818130493, 0.04723846912384033, 0.02201395481824875, -0.08475134521722794, 0.03208160400390625, 1.49853515625, 1.3740234375, 0.0210723876953125, 1.49560546875, 0.0, 10.0, 1.401298464324817e-45, 1.401298464324817e-44
34046, 67.64122009277344, 84.37785339355469, -64.24479675292969, 0.0, 0.0, 92.88116455078125, 0.0, 0.0, -0.1708984375, 0, 0, 0, 0, 0, 0, 9362.0, 30146.0, 35388.0, 9362.0, 8.112398147583008, -0.2118149846792221, 0.01096038892865181, 0.15224944055080414, 1.0001417398452759, 0.049349527806043625, 0.029295017942786217, -0.08475134521722794, 0.03208160400390625, 1.49853515625, 1.374755859375, 0.021392822265625, 1.49560546875, 0.0, 10.0, 1.401298464324817e-45, 1.401298464324817e-44
34056, 67.63751220703125, 84.37712097167969, -64.24150848388672, 0.0, 0.0, 92.88116455078125, 0.0, 0.0, -0.1708984375, 0, 0, 0, 0, 0, 0, 9362.0, 30146.0, 35388.0, 9362.0, 8.112398147583008, -0.10368327051401138, 0.008049712516367435, -0.04503124579787254, 0.999488353729248, 0.049417342990636826, 0.03101758472621441, -0.08475134521722794, 0.03208160400390625, 1.49853515625, 1.374755859375, 0.021392822265625, 1.491943359375, 0.0, 10.0, 1.401298464324817e-45, 1.401298464324817e-44
34066, 67.6197280883789, 84.37767791748047, -64.2237548828125, 0.0, 0.0, 92.88116455078125, 0.0, 0.0, -0.1708984375, 0, 0, 0, 0, 0, 0, 9362.0, 30146.0, 35388.0, 9362.0, 8.112398147583008, -0.08783851563930511, -0.041274771094322205, 0.04777878522872925, 0.9993515014648438, 0.04814524948596954, 0.028406158089637756, -0.08475134521722794, 0.03208160400390625, 1.49853515625, 1.352783203125, 0.015350341796875, 1.491943359375, 0.0, 10.0, 1.401298464324817e-45, 1.401298464324817e-44
34076, 67.63284301757812, 84.37808990478516, -64.23613739013672, 0.0, 0.0, 92.88116455078125, 0.0, 0.0, -0.1708984375, 0, 0, 0, 0, 0, 0, 9362.0, 30146.0, 35388.0, 9362.0, 8.112398147583008, 0.043327946215867996, -0.05485895648598671, 0.04483060538768768, 0.9998888373374939, 0.048039816319942474, 0.02432481199502945, -0.08475134521722794, 0.03208160400390625, 1.49853515625, 1.352783203125, 0.015350341796875, 1.49560546875, 0.0, 10.0, 1.401298464324817e-45, 1.401298464324817e-44
34086, 67.60606384277344, 84.37796020507812, -64.20892333984375, 0.0, 0.0, 92.89128112792969, 0.0, 0.0, 0.568389892578125, 0, 0, 0, 0, 0, 0, 9362.0, 30146.0, 35388.0, 9362.0, 8.112398147583008, 0.3113389015197754, 0.18760941922664642, -0.32483431696891785, 0.9998888373374939, 0.048039816319942474, 0.02432481199502945, -0.06714271754026413, -0.1291980743408203, 1.4853515625, 1.352783203125, 0.015350341796875, 1.49560546875, 0.0, 10.0, 1.401298464324817e-45, 1.401298464324817e-44
34096, 67.61383819580078, 84.37796020507812, -64.21611785888672, 0.0, 0.0, 92.89128112792969, 0.0, 0.0, 0.568389892578125, 0, 0, 0, 0, 0, 0, 9362.0, 30146.0, 35388.0, 9362.0, 8.112398147583008, 0.060419127345085144, -0.03744996339082718, -0.185672327876091, 0.9998888373374939, 0.048039816319942474, 0.02432481199502945, -0.06714271754026413, -0.1291980743408203, 1.4853515625, 1.352783203125, 0.015350341796875, 1.49560546875, 0.0, 10.0, 1.401298464324817e-45, 1.401298464324817e-44
34106, 67.67771911621094, 84.37725830078125, -64.2791519165039, 0.0, 0.0, 92.88957214355469, 0.0, 0.0, -0.08087158203125, 0, 0, 0, 0, 0, 0, 9362.0, 30146.0, 35388.0, 9362.0, 8.112398147583008, 0.14587031304836273, -0.21637704968452454, -0.2470657378435135, 0.9998888373374939, 0.048039816319942474, 0.02432481199502945, -0.06714271754026413, -0.1291980743408203, 1.4853515625, 1.40185546875, 0.0417938232421875, 1.49560546875, 0.0, 10.0, 1.401298464324817e-45, 1.401298464324817e-44
34116, 67.65576171875, 84.3775405883789, -64.25756072998047, 0.0, 0.0, 92.88957214355469, 0.0, 0.0, -0.08087158203125, 0, 0, 0, 0, 0, 0, 9362.0, 30146.0, 35388.0, 9362.0, 8.112398147583008, -0.040435779839754105, 0.18683376908302307, 0.20101621747016907, 0.9998888373374939, 0.048039816319942474, 0.02432481199502945, -0.06714271754026413, -0.1291980743408203, 1.4853515625, 1.452392578125, 0.10870361328125, 1.494873046875, 0.0, 10.0, 1.401298464324817e-45, 1.401298464324817e-44
34126, 67.6650619506836, 84.37861633300781, -64.26647186279297, 0.0, 0.0, 92.87156677246094, 0.0, 0.0, -0.85296630859375, 0, 0, 0, 0, 0, 0, 9362.0, 30146.0, 35388.0, 9362.0, 8.112398147583008, 0.042882040143013, -0.07408604770898819, 0.033896978944540024, 0.9985637664794922, 0.04902692511677742, 0.024951167404651642, -0.06714271754026413, -0.1291980743408203, 1.4853515625, 1.3681640625, 0.0185394287109375, 1.494873046875, 0.0, 10.0, 1.401298464324817e-45, 1.401298464324817e-44
34136, 67.63139343261719, 84.37889862060547, -64.23269653320312, 0.0, 0.0, 92.8720932006836, 0.0, 0.0, 0.052642822265625, 0, 0, 0, 0, 0, 0, 9362.0, 30146.0, 35388.0, 9362.0, 8.112398147583008, -0.02721424400806427, 0.32386356592178345, 0.003877373179420829, 0.9993295669555664, 0.04744117707014084, 0.022279279306530952, -0.06714271754026413, -0.1291980743408203, 1.4853515625, 1.42236328125, 0.0649566650390625, 1.494873046875, 0.0, 10.0, 1.401298464324817e-45, 1.401298464324817e-44
34146, 67.61614990234375, 84.3797378540039, -64.21817016601562, 0.0, 0.0, 92.87256622314453, 0.0, 0.0, 0.04730224609375, 0, 0, 0, 0, 0, 0, 9362.0, 30146.0, 35388.0, 9362.0, 8.112398147583008, -0.25458404421806335, -0.1073300838470459, 0.07472023367881775, 1.000598669052124, 0.048573270440101624, 0.025120262056589127, -0.06714271754026413, -0.1291980743408203, 1.4853515625, 1.437744140625, 0.086029052734375, 1.494873046875, 0.0, 10.0, 1.401298464324817e-45, 1.401298464324817e-44
34156, 67.64119720458984, 84.38021850585938, -64.2424545288086, 0.0, 0.0, 92.87256622314453, 0.0, 0.0, 0.04730224609375, 0, 0, 0, 0, 0, 0, 9362.0, 30146.0, 35388.0, 9362.0, 8.112398147583008, 0.0662945806980133, -0.11481906473636627, 0.0017891672905534506, 1.000419020652771, 0.04913938418030739, 0.025030845776200294, -0.06714271754026413, -0.1291980743408203, 1.4853515625, 1.456787109375, 0.115966796875, 1.4970703125, 0.0, 10.0, 1.401298464324817e-45, 1.401298464324817e-44
34166, 67.59696197509766, 84.38113403320312, -64.19744110107422, 0.0, 0.0, 92.87256622314453, 0.0, 0.0, 0.04730224609375, 0, 0, 0, 0, 0, 0, 9362.0, 30146.0, 35388.0, 9362.0, 8.112398147583008, -0.009177313186228275, 0.3389880955219269, 0.22444172203540802, 1.000419020652771, 0.04913938418030739, 0.025030845776200294, -0.06714271754026413, -0.1291980743408203, 1.4853515625, 1.380615234375, 0.024749755859375, 1.4970703125, 0.0, 10.0, 1.401298464324817e-45, 1.401298464324817e-44
34176, 67.59679412841797, 84.38092041015625, -64.19775390625, 0.0, 0.0, 92.87256622314453, 0.0, 0.0, 0.04730224609375, 0, 0, 0, 0, 0, 0, 9362.0, 30146.0, 35388.0, 9362.0, 8.112398147583008, -0.11212757974863052, 0.05744433403015137, -0.18863582611083984, 1.000419020652771, 0.04913938418030739, 0.025030845776200294, -0.06714271754026413, -0.1291980743408203, 1.4853515625, 1.462646484375, 0.125823974609375, 1.49560546875, 0.0, 10.0, 1.401298464324817e-45, 1.401298464324817e-44
34186, 67.57183074951172, 84.38265991210938, -64.17183685302734, 0.0, 0.0, 92.8892822265625, 0.0, 0.0, 0.408935546875, 0, 0, 0, 0, 0, 0, 9362.0, 30146.0, 35388.0, 9362.0, 8.112398147583008, -0.11212757974863052, 0.05744433403015137, -0.18863582611083984, 0.9985560178756714, 0.048260126262903214, 0.025456789880990982, -0.06714271754026413, -0.1291980743408203, 1.4853515625, 1.430419921875, 0.0756378173828125, 1.49560546875, 0.0, 10.0, 1.401298464324817e-45, 1.401298464324817e-44
34196, 67.55683898925781, 84.38304901123047, -64.15615844726562, 0.0, 0.0, 92.8892822265625, 0.0, 0.0, 0.408935546875, 0, 0, 0, 0, 0, 0, 9362.0, 30146.0, 35388.0, 9362.0, 8.112398147583008, -0.10608991980552673, 0.0019946573302149773, -0.05495906248688698, 0.9986304640769958, 0.049972083419561386, 0.02488538809120655, -0.06714271754026413, -0.1291980743408203, 1.4853515625, 1.408447265625, 0.0485382080078125, 1.49560546875, 0.0, 10.0, 1.401298464324817e-45, 1.401298464324817e-44
34206, 67.5447998046875, 84.38426971435547, -64.14461517333984, 0.0, 0.0, 92.90770721435547, 0.0, 0.0, 0.872802734375, 0, 0, 0, 0, 0, 0, 9362.0, 30146.0, 35388.0, 9362.0, 8.112398147583008, -0.15817686915397644, -0.14137044548988342, 0.33488792181015015, 0.9986304640769958, 0.049972083419561386, 0.02488538809120655, -0.06714271754026413, -0.1291980743408203, 1.4853515625, 1.408447265625, 0.0485382080078125, 1.49560546875, 0.0, 10.0, 1.401298464324817e-45, 1.401298464324817e-44
34216, 67.54997253417969, 84.38475799560547, -64.14923858642578, 0.0, 0.0, 92.90770721435547, 0.0, 0.0, 0.872802734375, 0, 0, 0, 0, 0, 0, 9362.0, 30146.0, 35388.0, 9362.0, 8.112398147583008, 0.01739734224975109, 0.21796460449695587, 0.18974721431732178, 0.9986304640769958, 0.049972083419561386, 0.02488538809120655, -0.06714271754026413, -0.1291980743408203, 1.4853515625, 1.450927734375, 0.1063690185546875, 1.4970703125, 0.0, 10.0, 1.401298464324817e-45, 1.401298464324817e-44
34226, 67.58552551269531, 84.38465881347656, -64.18382263183594, 0.0, 0.0, 92.92054748535156, 0.0, 0.0, 0.608062744140625, 0, 0, 0, 0, 0, 0, 9362.0, 30146.0, 35388.0, 9362.0, 8.112398147583008, 0.03569330275058746, 0.0795881450176239, 0.06635818630456924, 0.9986304640769958, 0.049972083419561386, 0.02488538809120655, -0.06714271754026413, -0.1291980743408203, 1.4853515625, 1.420166015625, 0.0621337890625, 1.4970703125, 0.0, 10.0, 1.401298464324817e-45, 1.401298464324817e-44
34236, 67.58180236816406, 84.3848648071289, -64.17927551269531, 0.0, 0.0, 92.92054748535156, 0.0, 0.0, 0.608062744140625, 0, 0, 0, 0, 0, 0, 9362.0, 30146.0, 35388.0, 9362.0, 8.112398147583008, 0.1573161482810974, 0.021106356754899025, 0.06525478512048721, 1.0002174377441406, 0.047931697219610214, 0.027029918506741524, -0.06714271754026413, -0.1291980743408203, 1.4853515625, 1.421630859375, 0.0640716552734375, 1.4970703125, 0.0, 10.0, 1.401298464324817e-45, 1.401298464324817e-44
34246, 67.55618286132812, 84.38374328613281, -64.15214538574219, 0.0, 0.0, 92.94342041015625, 0.0, 0.0, 1.0833740234375, 0, 0, 0, 0, 0, 0, 9362.0, 30146.0, 35388.0, 9362.0, 8.112398147583008, 0.1573161482810974, 0.021106356754899025, 0.06525478512048721, 1.0002174377441406, 0.047931697219610214, 0.027029918506741524, -0.06714271754026413, -0.1291980743408203, 1.4853515625, 1.421630859375, 0.0640716552734375, 1.4970703125, 0.0, 10.0, 1.401298464324817e-45, 1.401298464324817e-44
34256, 67.57260131835938, 84.3833999633789, -64.1682357788086, 0.0, 0.0, 92.94342041015625, 0.0, 0.0, 1.0833740234375, 0, 0, 0, 0, 0, 0, 9362.0, 30146.0, 35388.0, 9362.0, 8.112398147583008, 0.06511299312114716, -0.16937637329101562, -0.1298547387123108, 1.0002174377441406, 0.047931697219610214, 0.027029918506741524, -0.06714271754026413, -0.1291980743408203, 1.4853515625, 1.43994140625, 0.089324951171875, 1.49560546875, 0.0, 10.0, 1.401298464324817e-45, 1.401298464324817e-44
34266, 67.5230712890625, 84.38262939453125, -64.11918640136719, 0.0, 0.0, 92.94342041015625, 0.0, 0.0, 1.0833740234375, 0, 0, 0, 0, 0, 0, 9362.0, 30146.0, 35388.0, 9362.0, 8.112398147583008, 0.06682825833559036, 0.2889721989631653, 0.023191403597593307, 0.9981826543807983, 0.049813032150268555, 0.025676976889371872, -0.06714271754026413, -0.1291980743408203, 1.4853515625, 1.415771484375, 0.0568695068359375, 1.49560546875, 0.0, 10.0, 1.401298464324817e-45, 1.401298464324817e-44
34276, 67.5305404663086, 84.38116455078125, -64.12672424316406, 0.0, 0.0, 92.94342041015625, 0.0, 0.0, 1.0833740234375, 0, 0, 0, 0, 0, 0, 9362.0, 30146.0, 35388.0, 9362.0, 8.112398147583008, 0.054616402834653854, 0.057763393968343735, -0.40203404426574707, 0.9985267519950867, 0.04693206772208214, 0.02677752636373043, -0.06714271754026413, -0.1291980743408203, 1.4853515625, 1.415771484375, 0.0568695068359375, 1.49560546875, 0.0, 10.0, 1.401298464324817e-45, 1.401298464324817e-44
34286, 67.5311279296875, 84.38164520263672, -64.12702941894531, 0.0, 0.0, 92.94342041015625, 0.0, 0.0, 1.0833740234375, 0, 0, 0, 0, 0, 0, 9362.0, 30146.0, 35388.0, 9362.0, 8.112398147583008, 0.13536347448825836, -0.14159348607063293, 0.08233426511287689, 0.9983150362968445, 0.04616433382034302, 0.02771972119808197, -0.08339308202266693, -0.01271820068359375, 1.494873046875, 1.3681640625, 0.0185394287109375, 1.49560546875, 0.0, 10.0, 1.401298464324817e-45, 1.401298464324817e-44
34296, 67.5678939819336, 84.38148498535156, -64.1639404296875, 0.0, 0.0, 92.94342041015625, 0.0, 0.0, 1.0833740234375, 0, 0, 0, 0, 0, 0, 9362.0, 30146.0, 35388.0, 9362.0, 8.112398147583008, -0.0729045420885086, -0.30143430829048157, -0.26058781147003174, 0.9988487362861633, 0.052451662719249725, 0.025738906115293503, -0.08339308202266693, -0.01271820068359375, 1.494873046875, 1.3681640625, 0.0185394287109375, 1.49560546875, 0.0, 10.0, 1.401298464324817e-45, 1.401298464324817e-44
34306, 67.5890121459961, 84.38252258300781, -64.18496704101562, 0.0, 0.0, 93.02567291259766, 0.0, 0.0, 1.324462890625, 0, 0, 0, 0, 0, 0, 9362.0, 30146.0, 35388.0, 9362.0, 8.112398147583008, -0.044769227504730225, -0.2258753925561905, -0.27064618468284607, 0.9959332346916199, 0.0454554446041584, 0.02419537678360939, -0.08339308202266693, -0.01271820068359375, 1.494873046875, 1.458984375, 0.1195831298828125, 1.49560546875, 0.0, 10.0, 1.401298464324817e-45, 1.401298464324817e-44
34316, 67.62017822265625, 84.38301086425781, -64.21712493896484, 0.0, 0.0, 93.02227783203125, 0.0, 0.0, -0.339508056640625, 0, 0, 0, 0, 0, 0, 9362.0, 30146.0, 35388.0, 9362.0, 8.112398147583008, -0.2382468432188034, -0.2957395911216736, 0.09647008776664734, 1.001283884048462, 0.04839685931801796, 0.025387195870280266, -0.08339308202266693, -0.01271820068359375, 1.494873046875, 1.453857421875, 0.1110687255859375, 1.491943359375, 0.0, 10.0, 1.401298464324817e-45, 1.401298464324817e-44
34326, 67.60784149169922, 84.38230895996094, -64.2054214477539, 0.0, 0.0, 93.01921844482422, 0.0, 0.0, -0.305938720703125, 0, 0, 0, 0, 0, 0, 9362.0, 30146.0, 35388.0, 9362.0, 8.112398147583008, -0.1726866066455841, 0.4306086301803589, -0.26462042331695557, 1.001283884048462, 0.04839685931801796, 0.025387195870280266, -0.08339308202266693, -0.01271820068359375, 1.494873046875, 1.3974609375, 0.03759765625, 1.491943359375, 0.0, 10.0, 1.401298464324817e-45, 1.401298464324817e-44
34336, 67.62611389160156, 84.38329315185547, -64.22288513183594, 0.0, 0.0, 93.01921844482422, 0.0, 0.0, -0.305938720703125, 0, 0, 0, 0, 0, 0, 9362.0, 30146.0, 35388.0, 9362.0, 8.112398147583008, 0.06896749138832092, -0.09799793362617493, 0.18630902469158173, 0.998708188533783, 0.04916553944349289, 0.02791481837630272, -0.08339308202266693, -0.01271820068359375, 1.494873046875, 1.368896484375, 0.01885986328125, 1.494873046875, 0.0, 10.0, 1.401298464324817e-45, 1.401298464324817e-44
34346, 67.65584564208984, 84.38294219970703, -64.25343322753906, 0.0, 0.0, 93.00048828125, 0.0, 0.0, -0.887298583984375, 0, 0, 0, 0, 0, 0, 9362.0, 30146.0, 35388.0, 9362.0, 8.112398147583008, -0.22253388166427612, -0.21142368018627167, -0.269442617893219, 1.0020067691802979, 0.05063052102923393, 0.028244242072105408, -0.08339308202266693, -0.01271820068359375, 1.494873046875, 1.3857421875, 0.0280914306640625, 1.494873046875, 0.0, 10.0, 1.401298464324817e-45, 1.401298464324817e-44
34356, 67.61760711669922, 84.38458251953125, -64.2149429321289, 0.0, 0.0, 93.00048828125, 0.0, 0.0, -0.887298583984375, 0, 0, 0, 0, 0, 0, 9362.0, 30146.0, 35388.0, 9362.0, 8.112398147583008, -0.03468858823180199, 0.21375814080238342, 0.29952436685562134, 0.9963557720184326, 0.04666604474186897, 0.025449704378843307, -0.08339308202266693, -0.01271820068359375, 1.494873046875, 1.46630859375, 0.132171630859375, 1.496337890625, 0.0, 10.0, 1.401298464324817e-45, 1.401298464324817e-44
