timeTick, roll, pitch, yaw, stateX, stateY, stateZ, stateVX, stateVY, stateVZ, otX0, otY0, otZ0, otRoll0, otPitch0, otYaw0, left wing, pitch motor, yaw motor, right wing, voltage, roll rate, pitch rate, yaw rate, A_x, A_y, A_z, current, i_raw, v_raw, airflow_voltage, airflow_speed, pot_Pitch, voltage_nKF, kFFx, state, State, volt_KF
33444, -0.9484360218048096, -3.61415696144104, -0.11260794848203659, 0, 0, 0, 0, 0, 0, 0, 0, 0, 0, 0, 0, 0, 0, 0, 0, 0, 0, 0, 0, 0, 0, 0, 0, 0, 0, 0, 0, 0, 0, 0, 0, 0, 0
33454, -0.950238049030304, -3.6111230850219727, -0.11470372974872589, 0.0, 0.0, 89.40969848632812, 0.0, 0.0, -0.566864013671875, 0, 0, 0, 0, 0, 0, 9362.0, 30146.0, 35388.0, 9362.0, 0, -0.21086570620536804, -0.3995744585990906, -0.10909619182348251, -0.06250154972076416, -0.01762104593217373, 0.9983738660812378, 0, 0, 0, 0, 0, 0, 0, 0, 0, 0, 0
33464, -0.9509740471839905, -3.609797954559326, -0.11539821326732635, 0.0, 0.0, 89.40897369384766, 0.0, 0.0, -0.072479248046875, 0, 0, 0, 0, 0, 0, 9362.0, 30146.0, 35388.0, 9362.0, 0, -0.043531786650419235, -0.2458309829235077, -0.04222872480750084, -0.06097279116511345, -0.01781376078724861, 0.9943841099739075, 0, 0, 0, 1.365966796875, 0.017791748046875, 0, 1.373291015625, 10.0, 1.401298464324817e-45, 1.401298464324817e-44, 1.3846912384033203
33474, -0.9489854574203491, -3.6123111248016357, -0.11586121469736099, 0.0, 0.0, 89.40831756591797, 0.0, 0.0, -0.06561279296875, 0, 0, 0, 0, 0, 0, 9362.0, 30146.0, 35388.0, 9362.0, 0, 0.2904151976108551, 0.32322806119918823, -0.025614293292164803, -0.05928754806518555, -0.017523733898997307, 0.9943442940711975, 0, 0, 0, 1.385009765625, 0.0276336669921875, 1.494140625, 1.404052734375, 10.0, 1.401298464324817e-45, 1.401298464324817e-44, 1.3847824335098267
33484, -0.9495257139205933, -3.613734245300293, -0.1153508871793747, 0.0, 0.0, 89.40718078613281, 0.0, 0.0, -0.113677978515625, 0, 0, 0, 0, 0, 0, 9362.0, 30146.0, 35388.0, 9362.0, 0, 0.010826783254742622, 0.16315233707427979, -0.03458195552229881, -0.062230970710515976, -0.018636073917150497, 0.996635913848877, 0, 0, 0, 1.3828125, 0.0261077880859375, 1.494140625, 1.3388671875, 10.0, 1.401298464324817e-45, 1.401298464324817e-44, 1.3847947120666504
33494, -0.9502385258674622, -3.614877223968506, -0.11546169221401215, 0.0, 0.0, 89.40615844726562, 0.0, 0.0, -0.10223388671875, 0, 0, 0, 0, 0, 0, 9362.0, 30146.0, 35388.0, 9362.0, 0, -0.07333647459745407, 0.13830414414405823, -0.012671477161347866, -0.061475951224565506, -0.01794131100177765, 0.9980745911598206, 0, 0, 0, 1.41943359375, 0.0612945556640625, 1.491943359375, 1.387939453125, 10.0, 1.401298464324817e-45, 1.401298464324817e-44, 1.3847029209136963
33504, -0.9495044350624084, -3.613715171813965, -0.11734994500875473, 0.0, 0.0, 89.40250396728516, 0.0, 0.0, -0.365447998046875, 0, 0, 0, 0, 0, 0, 9362.0, 30146.0, 35388.0, 9362.0, 0, 0.22209221124649048, -0.18007495999336243, -0.3662976324558258, -0.06105037033557892, -0.01822504773736, 0.9972197413444519, 0, 0, 0, 1.35205078125, 0.015380859375, 1.491943359375, 1.383544921875, 10.0, 1.401298464324817e-45, 1.401298464324817e-44, 1.384650707244873
33514, -0.9500677585601807, -3.6135807037353516, -0.11942016333341599, 0.0, 0.0, 89.39921569824219, 0.0, 0.0, -0.328826904296875, 0, 0, 0, 0, 0, 0, 9362.0, 30146.0, 35388.0, 9362.0, 0, -0.17604108154773712, 0.07294060289859772, -0.1979895830154419, -0.06055019795894623, -0.016519151628017426, 0.9976199865341187, 0, 0, 0, 1.36669921875, 0.01806640625, 1.493408203125, 1.3740234375, 10.0, 1.401298464324817e-45, 1.401298464324817e-44, 1.3847050666809082
33524, -0.9500522613525391, -3.6143319606781006, -0.11937780678272247, 0.0, 0.0, 89.38969421386719, 0.0, 0.0, -0.9521484375, 0, 0, 0, 0, 0, 0, 9362.0, 30146.0, 35388.0, 9362.0, 0, 0.046876098960638046, 0.25155434012413025, 0.04963931813836098, -0.05830264464020729, -0.018002714961767197, 0.9963679313659668, 0, 0, 0, 1.398193359375, 0.03826904296875, 1.493408203125, 1.40185546875, 10.0, 1.401298464324817e-45, 1.401298464324817e-44, 1.384812355041504
33534, -0.9485832452774048, -3.6140527725219727, -0.12132332473993301, 0.0, 0.0, 89.3811264038086, 0.0, 0.0, -0.856781005859375, 0, 0, 0, 0, 0, 0, 9362.0, 30146.0, 35388.0, 9362.0, 0, 0.19735243916511536, 0.05638379603624344, -0.10335081070661545, -0.06160053610801697, -0.01655750535428524, 0.9978066086769104, 0, 0, 0, 1.34765625, 0.0154571533203125, 1.48974609375, 1.421630859375, 10.0, 1.401298464324817e-45, 1.401298464324817e-44, 1.3849632740020752
33544, -0.9488168358802795, -3.6137754917144775, -0.12201376259326935, 0.0, 0.0, 89.36576080322266, 0.0, 0.0, -1.53656005859375, 0, 0, 0, 0, 0, 0, 9362.0, 30146.0, 35388.0, 9362.0, 7.99338960647583, 0.01719173975288868, -0.01676417514681816, 0.042323291301727295, -0.059913765639066696, -0.01736755669116974, 0.9989370703697205, -0.08709315210580826, 0.0052013397216796875, 1.496337890625, 1.379150390625, 0.0238189697265625, 1.48974609375, 1.409912109375, 10.0, 1.401298464324817e-45, 1.401298464324817e-44, 1.3849749565124512
33554, -0.9496326446533203, -3.613605260848999, -0.1228439062833786, 0.0, 0.0, 89.3519287109375, 0.0, 0.0, -1.383209228515625, 0, 0, 0, 0, 0, 0, 9362.0, 30146.0, 35388.0, 9362.0, 7.99338960647583, 0.09544825553894043, 0.06323360651731491, -0.018299706280231476, -0.06204630434513092, -0.016672644764184952, 0.9996451139450073, -0.08709315210580826, 0.0052013397216796875, 1.496337890625, 1.39453125, 0.035003662109375, 1.494140625, 1.4267578125, 10.0, 1.401298464324817e-45, 1.401298464324817e-44, 1.3850051164627075
33564, -0.9483815431594849, -3.611527442932129, -0.12481530010700226, 0.0, 0.0, 89.34986877441406, 0.0, 0.0, -0.20599365234375, 0, 0, 0, 0, 0, 0, 9362.0, 30146.0, 35388.0, 9362.0, 7.99338960647583, 0.19158563017845154, -0.009476801380515099, -0.1982189118862152, -0.061246853321790695, -0.0162359569221735, 0.996704638004303, -0.08709315210580826, 0.0052013397216796875, 1.496337890625, 1.36376953125, 0.017181396484375, 1.494140625, 1.39453125, 10.0, 1.401298464324817e-45, 1.401298464324817e-44, 1.3850860595703125
33574, -0.9496539235115051, -3.608808994293213, -0.12466540932655334, 0.0, 0.0, 89.34801483154297, 0.0, 0.0, -0.185394287109375, 0, 0, 0, 0, 0, 0, 9362.0, 30146.0, 35388.0, 9362.0, 7.99338960647583, 0.024895692244172096, -0.0871666893362999, 0.16582855582237244, -0.05980530381202698, -0.01775233820080757, 0.9967370629310608, -0.08709315210580826, 0.0052013397216796875, 1.496337890625, 1.421630859375, 0.0640716552734375, 1.493408203125, 1.38720703125, 10.0, 1.401298464324817e-45, 1.401298464324817e-44, 1.3851343393325806
33584, -0.9495576024055481, -3.608630418777466, -0.12507501244544983, 0.0, 0.0, 89.35400390625, 0.0, 0.0, 0.598907470703125, 0, 0, 0, 0, 0, 0, 9362.0, 30146.0, 35388.0, 9362.0, 7.99338960647583, 0.11380542069673538, -0.001760592102073133, -0.028313463553786278, -0.06280206143856049, -0.017715858295559883, 0.9974855184555054, -0.08709315210580826, 0.0052013397216796875, 1.496337890625, 1.38720703125, 0.0291900634765625, 1.493408203125, 1.42529296875, 10.0, 1.401298464324817e-45, 1.401298464324817e-44, 1.385270357131958
33594, -0.9493463039398193, -3.6110262870788574, -0.1259719729423523, 0.0, 0.0, 89.35939025878906, 0.0, 0.0, 0.53863525390625, 0, 0, 0, 0, 0, 0, 9362.0, 30146.0, 35388.0, 9362.0, 7.99338960647583, 0.07313217222690582, 5.425812560133636e-05, -0.09949211776256561, -0.06369851529598236, -0.016175784170627594, 0.9991805553436279, -0.08709315210580826, 0.0052013397216796875, 1.496337890625, 1.400390625, 0.04034423828125, 1.494140625, 1.376220703125, 10.0, 1.401298464324817e-45, 1.401298464324817e-44, 1.3851678371429443
33604, -0.9489092826843262, -3.608523368835449, -0.12668950855731964, 0.0, 0.0, 89.35986328125, 0.0, 0.0, 0.04730224609375, 0, 0, 0, 0, 0, 0, 9362.0, 30146.0, 35388.0, 9362.0, 7.99338960647583, 0.10149891674518585, -0.3179815411567688, -0.10053844004869461, -0.062431491911411285, -0.01793908141553402, 0.998798131942749, -0.08709315210580826, 0.0052013397216796875, 1.496337890625, 1.406982421875, 0.046966552734375, 1.494140625, 1.35205078125, 10.0, 1.401298464324817e-45, 1.401298464324817e-44, 1.385271430015564
33614, -0.9490946531295776, -3.608262777328491, -0.12861745059490204, 0.0, 0.0, 89.36029052734375, 0.0, 0.0, 0.042724609375, 0, 0, 0, 0, 0, 0, 9362.0, 30146.0, 35388.0, 9362.0, 7.99338960647583, -0.11244618892669678, 0.03987908363342285, -0.11516772210597992, -0.06276620179414749, -0.017511077225208282, 0.9969835877418518, -0.08709315210580826, 0.0052013397216796875, 1.496337890625, 1.3916015625, 0.0325927734375, 1.493408203125, 1.348388671875, 10.0, 1.401298464324817e-45, 1.401298464324817e-44, 1.3851457834243774
33624, -0.9494576454162598, -3.608806848526001, -0.1288386732339859, 0.0, 0.0, 89.36177062988281, 0.0, 0.0, 0.14801025390625, 0, 0, 0, 0, 0, 0, 9362.0, 30146.0, 35388.0, 9362.0, 7.99338960647583, -0.21163204312324524, 0.01883968710899353, -0.04516604170203209, -0.060428086668252945, -0.015628891065716743, 0.9966221451759338, -0.08709315210580826, 0.0052013397216796875, 1.496337890625, 1.406982421875, 0.046966552734375, 1.493408203125, 1.418701171875, 10.0, 1.401298464324817e-45, 1.401298464324817e-44, 1.3851014375686646
33634, -0.9503547549247742, -3.607679605484009, -0.12928509712219238, 0.0, 0.0, 89.36309814453125, 0.0, 0.0, 0.13275146484375, 0, 0, 0, 0, 0, 0, 9362.0, 30146.0, 35388.0, 9362.0, 7.99338960647583, -0.12917637825012207, -0.049088478088378906, -0.007031472399830818, -0.060502953827381134, -0.015530458651483059, 0.9940431714057922, -0.08709315210580826, 0.0052013397216796875, 1.496337890625, 1.421630859375, 0.0640716552734375, 1.5, 1.36083984375, 10.0, 1.401298464324817e-45, 1.401298464324817e-44, 1.3849624395370483
33644, -0.9504108428955078, -3.6106231212615967, -0.12719273567199707, 0.0, 0.0, 89.359375, 0.0, 0.0, -0.372314453125, 0, 0, 0, 0, 0, 0, 9362.0, 30146.0, 35388.0, 9362.0, 7.99338960647583, 0.01829284429550171, 0.3476670980453491, 0.24174852669239044, -0.06145480275154114, -0.017390724271535873, 0.9972341656684875, -0.06354045867919922, 0.1396007537841797, 1.50732421875, 1.39599609375, 0.0362701416015625, 1.5, 1.31689453125, 10.0, 1.401298464324817e-45, 1.401298464324817e-44, 1.3849787712097168
33654, -0.9517323970794678, -3.6121065616607666, -0.12645381689071655, 0.0, 0.0, 89.35602569580078, 0.0, 0.0, -0.334930419921875, 0, 0, 0, 0, 0, 0, 9362.0, 30146.0, 35388.0, 9362.0, 7.99338960647583, -0.1508176326751709, 0.03386427089571953, 0.1261734664440155, -0.06200888380408287, -0.017729906365275383, 0.9973363876342773, -0.06354045867919922, 0.1396007537841797, 1.50732421875, 1.4326171875, 0.0786895751953125, 1.49267578125, 1.414306640625, 10.0, 1.401298464324817e-45, 1.401298464324817e-44, 1.3850876092910767
33664, -0.9514379501342773, -3.6120150089263916, -0.12768910825252533, 0.0, 0.0, 89.35191345214844, 0.0, 0.0, -0.411224365234375, 0, 0, 0, 0, 0, 0, 9362.0, 30146.0, 35388.0, 9362.0, 7.99338960647583, 0.13845793902873993, -0.06693003326654434, -0.2876523733139038, -0.06409454345703125, -0.01863853819668293, 0.9978306889533997, -0.06354045867919922, 0.1396007537841797, 1.50732421875, 1.37109375, 0.0197906494140625, 1.49267578125, 1.41796875, 10.0, 1.401298464324817e-45, 1.401298464324817e-44, 1.3849161863327026
33674, -0.9534898996353149, -3.611072301864624, -0.12827865779399872, 0.0, 0.0, 89.34821319580078, 0.0, 0.0, -0.370025634765625, 0, 0, 0, 0, 0, 0, 9362.0, 30146.0, 35388.0, 9362.0, 7.99338960647583, -0.2313847541809082, -0.019984934478998184, -0.11005839705467224, -0.06187646463513374, -0.01984320394694805, 0.9982514381408691, -0.06354045867919922, 0.1396007537841797, 1.50732421875, 1.38427734375, 0.027099609375, 1.49267578125, 1.37109375, 10.0, 1.401298464324817e-45, 1.401298464324817e-44, 1.3850529193878174
33684, -0.953853189945221, -3.612248420715332, -0.1298920065164566, 0.0, 0.0, 89.3399658203125, 0.0, 0.0, -0.824737548828125, 0, 0, 0, 0, 0, 0, 9362.0, 30146.0, 35388.0, 9362.0, 7.99338960647583, 0.04822284355759621, 0.23374901711940765, -0.1662171483039856, -0.05917047709226608, -0.019709281623363495, 0.9957894682884216, -0.06354045867919922, 0.1396007537841797, 1.50732421875, 1.431884765625, 0.07769775390625, 1.49267578125, 1.382080078125, 10.0, 1.401298464324817e-45, 1.401298464324817e-44, 1.38502037525177
33694, -0.953941822052002, -3.610628128051758, -0.13063229620456696, 0.0, 0.0, 89.3325424194336, 0.0, 0.0, -0.742340087890625, 0, 0, 0, 0, 0, 0, 9362.0, 30146.0, 35388.0, 9362.0, 7.99338960647583, -0.1442788988351822, -0.05382366105914116, -0.008996362797915936, -0.05867772921919823, -0.019627859815955162, 0.9968541264533997, -0.06354045867919922, 0.1396007537841797, 1.50732421875, 1.40771484375, 0.0478363037109375, 1.49560546875, 1.376220703125, 10.0, 1.401298464324817e-45, 1.401298464324817e-44, 1.3850688934326172
33704, -0.954982578754425, -3.6107566356658936, -0.13034559786319733, 0.0, 0.0, 89.33023834228516, 0.0, 0.0, -0.23040771484375, 0, 0, 0, 0, 0, 0, 9362.0, 30146.0, 35388.0, 9362.0, 7.99338960647583, -0.17068500816822052, 0.08627631515264511, 0.018159236758947372, -0.05991697311401367, -0.017270661890506744, 1.000048279762268, -0.06354045867919922, 0.1396007537841797, 1.50732421875, 1.40771484375, 0.0478363037109375, 1.49560546875, 1.401123046875, 10.0, 1.401298464324817e-45, 1.401298464324817e-44, 1.3851889371871948
33714, -0.9544289708137512, -3.6103978157043457, -0.12940280139446259, 0.0, 0.0, 89.32816314697266, 0.0, 0.0, -0.20751953125, 0, 0, 0, 0, 0, 0, 9362.0, 30146.0, 35388.0, 9362.0, 7.99338960647583, 0.07628025114536285, 0.019727855920791626, 0.08973906189203262, -0.06474868953227997, -0.017405467107892036, 0.9970175623893738, -0.06354045867919922, 0.1396007537841797, 1.50732421875, 1.430419921875, 0.0756378173828125, 1.49560546875, 1.40478515625, 10.0, 1.401298464324817e-45, 1.401298464324817e-44, 1.3853224515914917
33724, -0.9545053243637085, -3.611466407775879, -0.12975342571735382, 0.0, 0.0, 89.32793426513672, 0.0, 0.0, -0.02288818359375, 0, 0, 0, 0, 0, 0, 9362.0, 30146.0, 35388.0, 9362.0, 7.99338960647583, 0.04317469522356987, 0.19546552002429962, -0.015091760084033012, -0.06283167749643326, -0.020119978114962578, 0.9983333945274353, -0.06354045867919922, 0.1396007537841797, 1.50732421875, 1.4208984375, 0.063079833984375, 1.49560546875, 1.31396484375, 10.0, 1.401298464324817e-45, 1.401298464324817e-44, 1.3854069709777832
33734, -0.9551346898078918, -3.6122264862060547, -0.1316772997379303, 0.0, 0.0, 89.32772827148438, 0.0, 0.0, -0.020599365234375, 0, 0, 0, 0, 0, 0, 9362.0, 30146.0, 35388.0, 9362.0, 7.99338960647583, -0.0022282074205577374, 0.1456451714038849, -0.26698699593544006, -0.06098632514476776, -0.018761295825242996, 0.9978786110877991, -0.06354045867919922, 0.1396007537841797, 1.50732421875, 1.406982421875, 0.046966552734375, 1.4912109375, 1.38720703125, 10.0, 1.401298464324817e-45, 1.401298464324817e-44, 1.385424256324768
33744, -0.9565123319625854, -3.6129872798919678, -0.13040810823440552, 0.0, 0.0, 89.32754516601562, 0.0, 0.0, -0.018310546875, 0, 0, 0, 0, 0, 0, 9362.0, 30146.0, 35388.0, 9362.0, 7.99338960647583, -0.31179729104042053, 0.2702105939388275, 0.17986291646957397, -0.06122933700680733, -0.017507482320070267, 0.9986053109169006, -0.08260165899991989, -0.09335899353027344, 1.48828125, 1.3857421875, 0.0280914306640625, 1.4912109375, 1.34765625, 10.0, 1.401298464324817e-45, 1.401298464324817e-44, 1.3852657079696655
33754, -0.9569928050041199, -3.6112945079803467, -0.13102583587169647, 0.0, 0.0, 89.32737731933594, 0.0, 0.0, -0.01678466796875, 0, 0, 0, 0, 0, 0, 9362.0, 30146.0, 35388.0, 9362.0, 7.99338960647583, -0.12918396294116974, -0.12902237474918365, -0.07654843479394913, -0.06122933700680733, -0.017507482320070267, 0.9986053109169006, -0.08260165899991989, -0.09335899353027344, 1.48828125, 1.34912109375, 0.015380859375, 1.493408203125, 1.34765625, 10.0, 1.401298464324817e-45, 1.401298464324817e-44, 1.3852657079696655
33764, -0.9578224420547485, -3.6111576557159424, -0.13264840841293335, 0.0, 0.0, 89.32737731933594, 0.0, 0.0, -0.01678466796875, 0, 0, 0, 0, 0, 0, 9362.0, 30146.0, 35388.0, 9362.0, 7.99338960647583, -0.020652053877711296, -0.08433223515748978, -0.221510648727417, -0.06142887473106384, -0.017370570451021194, 0.9966136813163757, -0.08260165899991989, -0.09335899353027344, 1.48828125, 1.405517578125, 0.0454254150390625, 1.493408203125, 1.34765625, 10.0, 1.401298464324817e-45, 1.401298464324817e-44, 1.3852657079696655
33774, -0.9577460885047913, -3.610417366027832, -0.1329440027475357, 0.0, 0.0, 89.32737731933594, 0.0, 0.0, -0.01678466796875, 0, 0, 0, 0, 0, 0, 9362.0, 30146.0, 35388.0, 9362.0, 7.99338960647583, 0.015607623383402824, -0.12340372800827026, -0.056607719510793686, -0.06142887473106384, -0.017370570451021194, 0.9966136813163757, -0.08260165899991989, -0.09335899353027344, 1.48828125, 1.405517578125, 0.0454254150390625, 1.494140625, 1.34765625, 10.0, 1.401298464324817e-45, 1.401298464324817e-44, 1.3854894638061523
33784, -0.9583038091659546, -3.6122639179229736, -0.1313302218914032, 0.0, 0.0, 89.32737731933594, 0.0, 0.0, -0.01678466796875, 0, 0, 0, 0, 0, 0, 9362.0, 30146.0, 35388.0, 9362.0, 7.99338960647583, -0.07468545436859131, 0.3758023679256439, 0.25333768129348755, -0.06344949454069138, -0.020155711099505424, 1.0001449584960938, -0.08260165899991989, -0.09335899353027344, 1.48828125, 1.402587890625, 0.0425262451171875, 1.494140625, 1.34765625, 10.0, 1.401298464324817e-45, 1.401298464324817e-44, 1.3854894638061523
33794, -0.9592055082321167, -3.611478090286255, -0.132036030292511, 0.0, 0.0, 89.32737731933594, 0.0, 0.0, -0.01678466796875, 0, 0, 0, 0, 0, 0, 9362.0, 30146.0, 35388.0, 9362.0, 7.99338960647583, -0.04138210043311119, -0.1082979142665863, -0.2547757625579834, -0.06204221025109291, -0.018436560407280922, 0.9981300830841064, -0.08260165899991989, -0.09335899353027344, 1.48828125, 1.41650390625, 0.0577545166015625, 1.494140625, 1.34765625, 10.0, 1.401298464324817e-45, 1.401298464324817e-44, 1.3854894638061523
33804, -0.9596796631813049, -3.6099460124969482, -0.13284438848495483, 0.0, 0.0, 89.32737731933594, 0.0, 0.0, -0.01678466796875, 0, 0, 0, 0, 0, 0, 9362.0, 30146.0, 35388.0, 9362.0, 7.99338960647583, -0.16743744909763336, -0.0974823534488678, -0.11050199717283249, -0.06204221025109291, -0.018436560407280922, 0.9981300830841064, -0.08260165899991989, -0.09335899353027344, 1.48828125, 1.38427734375, 0.027099609375, 1.494140625, 1.34765625, 10.0, 1.401298464324817e-45, 1.401298464324817e-44, 1.3855775594711304
33814, -0.9593173265457153, -3.6089844703674316, -0.13293522596359253, 0.0, 0.0, 89.32737731933594, 0.0, 0.0, -0.01678466796875, 0, 0, 0, 0, 0, 0, 9362.0, 30146.0, 35388.0, 9362.0, 7.99338960647583, -0.05368727073073387, 0.11930730938911438, 0.1431582272052765, -0.060797788202762604, -0.015939967706799507, 0.9981164932250977, -0.08260165899991989, -0.09335899353027344, 1.48828125, 1.412109375, 0.0526123046875, 1.494140625, 1.34765625, 10.0, 1.401298464324817e-45, 1.401298464324817e-44, 1.3855775594711304
33824, -0.958331286907196, -3.6084401607513428, -0.13306739926338196, 0.0, 0.0, 89.32737731933594, 0.0, 0.0, -0.01678466796875, 0, 0, 0, 0, 0, 0, 9362.0, 30146.0, 35388.0, 9362.0, 7.99338960647583, 0.12656620144844055, 0.000758955895435065, 0.13162603974342346, -0.06355231255292892, -0.016182418912649155, 0.9983128905296326, -0.08260165899991989, -0.09335899353027344, 1.48828125, 1.3857421875, 0.0280914306640625, 1.494140625, 1.34765625, 10.0, 1.401298464324817e-45, 1.401298464324817e-44, 1.3855775594711304
33834, -0.9578344821929932, -3.6060914993286133, -0.1357918381690979, 0.0, 0.0, 89.32737731933594, 0.0, 0.0, -0.01678466796875, 0, 0, 0, 0, 0, 0, 9362.0, 30146.0, 35388.0, 9362.0, 7.99338960647583, 0.23627252876758575, -0.17648588120937347, -0.40244442224502563, -0.06264868378639221, -0.018858928233385086, 0.9972304105758667, -0.08260165899991989, -0.09335899353027344, 1.48828125, 1.412841796875, 0.0534515380859375, 1.4970703125, 1.34765625, 10.0, 1.401298464324817e-45, 1.401298464324817e-44, 1.3855775594711304
33844, -0.9579046368598938, -3.604269504547119, -0.1364879012107849, 0.0, 0.0, 89.32737731933594, 0.0, 0.0, -0.01678466796875, 0, 0, 0, 0, 0, 0, 9362.0, 30146.0, 35388.0, 9362.0, 7.99338960647583, 0.23627252876758575, -0.17648588120937347, -0.40244442224502563, -0.06264868378639221, -0.018858928233385086, 0.9972304105758667, -0.08260165899991989, -0.09335899353027344, 1.48828125, 1.382080078125, 0.0256195068359375, 1.4970703125, 1.34765625, 10.0, 1.401298464324817e-45, 1.401298464324817e-44, 1.3855775594711304
33854, -0.9585403203964233, -3.6036295890808105, -0.13757139444351196, 0.0, 0.0, 89.32737731933594, 0.0, 0.0, -0.01678466796875, 0, 0, 0, 0, 0, 0, 9362.0, 30146.0, 35388.0, 9362.0, 7.99338960647583, -0.06771209090948105, 0.11619865149259567, -0.0537680983543396, -0.06075672805309296, -0.01684616133570671, 0.9958945512771606, -0.08260165899991989, -0.09335899353027344, 1.48828125, 1.382080078125, 0.0256195068359375, 1.496337890625, 1.34765625, 10.0, 1.401298464324817e-45, 1.401298464324817e-44, 1.3855775594711304
33864, -0.9574729204177856, -3.603257656097412, -0.13858923316001892, 0.0, 0.0, 89.32737731933594, 0.0, 0.0, -0.01678466796875, 0, 0, 0, 0, 0, 0, 9362.0, 30146.0, 35388.0, 9362.0, 7.99338960647583, 0.19455872476100922, -0.16081495583057404, -0.13482750952243805, -0.062188681215047836, -0.017796998843550682, 0.997565507888794, -0.08260165899991989, -0.09335899353027344, 1.48828125, 1.38427734375, 0.027099609375, 1.496337890625, 1.34765625, 10.0, 1.401298464324817e-45, 1.401298464324817e-44, 1.3855775594711304
33874, -0.9571030139923096, -3.6076576709747314, -0.13773272931575775, 0.0, 0.0, 89.32737731933594, 0.0, 0.0, -0.01678466796875, 0, 0, 0, 0, 0, 0, 9362.0, 30146.0, 35388.0, 9362.0, 7.99338960647583, -0.0320938304066658, 0.1455761343240738, -0.002413237700238824, -0.0629313662648201, -0.016814647242426872, 0.9991753101348877, -0.08260165899991989, -0.09335899353027344, 1.48828125, 1.37255859375, 0.02044677734375, 1.496337890625, 1.34765625, 10.0, 1.401298464324817e-45, 1.401298464324817e-44, 1.3855775594711304
33884, -0.956806480884552, -3.6080503463745117, -0.1384713500738144, 0.0, 0.0, 89.27934265136719, 0.0, 0.0, -0.15106201171875, 0, 0, 0, 0, 0, 0, 9362.0, 30146.0, 35388.0, 9362.0, 7.99338960647583, 0.06347177177667618, -0.01077271904796362, -0.24017459154129028, -0.0629313662648201, -0.016814647242426872, 0.9991753101348877, -0.08260165899991989, -0.09335899353027344, 1.48828125, 1.37255859375, 0.02044677734375, 1.496337890625, 1.34765625, 10.0, 1.401298464324817e-45, 1.401298464324817e-44, 1.385749101638794
33894, -0.9564290642738342, -3.6067657470703125, -0.13921871781349182, 0.0, 0.0, 89.27934265136719, 0.0, 0.0, -0.15106201171875, 0, 0, 0, 0, 0, 0, 9362.0, 30146.0, 35388.0, 9362.0, 7.99338960647583, 0.12048265337944031, 0.12609101831912994, -0.1294538527727127, -0.06067203730344772, -0.018518928438425064, 0.9965382814407349, -0.08260165899991989, -0.09335899353027344, 1.48828125, 1.404052734375, 0.04400634765625, 1.496337890625, 1.34765625, 10.0, 1.401298464324817e-45, 1.401298464324817e-44, 1.385749101638794
33904, -0.9549121260643005, -3.6054329872131348, -0.13753478229045868, 0.0, 0.0, 89.27894592285156, 0.0, 0.0, 0.09613037109375, 0, 0, 0, 0, 0, 0, 9362.0, 30146.0, 35388.0, 9362.0, 7.99338960647583, 0.19194607436656952, -0.17961855232715607, 0.14257872104644775, -0.06213192641735077, -0.01736401580274105, 0.9966212511062622, -0.08260165899991989, -0.09335899353027344, 1.48828125, 1.404052734375, 0.04400634765625, 1.496337890625, 1.34765625, 10.0, 1.401298464324817e-45, 1.401298464324817e-44, 1.3858970403671265
33914, -0.9551194310188293, -3.603604555130005, -0.13915550708770752, 0.0, 0.0, 89.27894592285156, 0.0, 0.0, 0.09613037109375, 0, 0, 0, 0, 0, 0, 9362.0, 30146.0, 35388.0, 9362.0, 7.99338960647583, -0.09252122044563293, -0.15770678222179413, -0.2866000235080719, -0.06213192641735077, -0.01736401580274105, 0.9966212511062622, -0.08260165899991989, -0.09335899353027344, 1.48828125, 1.404052734375, 0.04400634765625, 1.494873046875, 1.34765625, 10.0, 1.401298464324817e-45, 1.401298464324817e-44, 1.3859196901321411
33924, -0.954828143119812, -3.604586601257324, -0.14115412533283234, 0.0, 0.0, 89.27894592285156, 0.0, 0.0, 0.09613037109375, 0, 0, 0, 0, 0, 0, 9362.0, 30146.0, 35388.0, 9362.0, 7.99338960647583, -0.09403157979249954, 0.20003655552864075, -0.4347009062767029, -0.05780792608857155, -0.016366751864552498, 0.9972708821296692, -0.08260165899991989, -0.09335899353027344, 1.48828125, 1.402587890625, 0.0425262451171875, 1.494873046875, 1.34765625, 10.0, 1.401298464324817e-45, 1.401298464324817e-44, 1.3859196901321411
33934, -0.955467164516449, -3.6017255783081055, -0.14070498943328857, 0.0, 0.0, 89.27894592285156, 0.0, 0.0, 0.09613037109375, 0, 0, 0, 0, 0, 0, 9362.0, 30146.0, 35388.0, 9362.0, 7.99338960647583, -0.05067243054509163, -0.25952038168907166, 0.11226708441972733, -0.06137240678071976, -0.017756979912519455, 0.9970377683639526, -0.08260165899991989, -0.09335899353027344, 1.48828125, 1.380615234375, 0.024749755859375, 1.494873046875, 1.34765625, 10.0, 1.401298464324817e-45, 1.401298464324817e-44, 1.3859196901321411
33944, -0.95534348487854, -3.5998449325561523, -0.14130741357803345, 0.0, 0.0, 89.27894592285156, 0.0, 0.0, 0.09613037109375, 0, 0, 0, 0, 0, 0, 9362.0, 30146.0, 35388.0, 9362.0, 7.99338960647583, 0.07564359158277512, -0.19443030655384064, -0.12877872586250305, -0.06294603645801544, -0.01897595450282097, 0.9987506866455078, -0.08260165899991989, -0.09335899353027344, 1.48828125, 1.38134765625, 0.025177001953125, 1.494873046875, 1.34765625, 10.0, 1.401298464324817e-45, 1.401298464324817e-44, 1.3859212398529053
33954, -0.9556413888931274, -3.597930431365967, -0.14022701978683472, 0.0, 0.0, 89.27894592285156, 0.0, 0.0, 0.09613037109375, 0, 0, 0, 0, 0, 0, 9362.0, 30146.0, 35388.0, 9362.0, 7.99338960647583, 0.09627721458673477, -0.2188727706670761, -0.0528031624853611, -0.06294603645801544, -0.01897595450282097, 0.9987506866455078, -0.08260165899991989, -0.09335899353027344, 1.48828125, 1.38134765625, 0.025177001953125, 1.49267578125, 1.34765625, 10.0, 1.401298464324817e-45, 1.401298464324817e-44, 1.3859553337097168
33964, -0.9549282193183899, -3.5983612537384033, -0.14144165813922882, 0.0, 0.0, 89.32352447509766, 0.0, 0.0, 1.605987548828125, 0, 0, 0, 0, 0, 0, 9362.0, 30146.0, 35388.0, 9362.0, 7.99338960647583, 0.07269101589918137, 0.3204191327095032, -0.04260803759098053, -0.06294603645801544, -0.01897595450282097, 0.9987506866455078, -0.08260165899991989, -0.09335899353027344, 1.48828125, 1.402587890625, 0.0425262451171875, 1.49267578125, 1.34765625, 10.0, 1.401298464324817e-45, 1.401298464324817e-44, 1.3858020305633545
33974, -0.9541747570037842, -3.597168207168579, -0.1420823186635971, 0.0, 0.0, 89.32352447509766, 0.0, 0.0, 1.605987548828125, 0, 0, 0, 0, 0, 0, 9362.0, 30146.0, 35388.0, 9362.0, 7.99338960647583, 0.048269324004650116, -0.2824000120162964, -0.041689109057188034, -0.061258018016815186, -0.01614362746477127, 0.9957022070884705, -0.08260165899991989, -0.09335899353027344, 1.48828125, 1.380615234375, 0.024749755859375, 1.49267578125, 1.34765625, 10.0, 1.401298464324817e-45, 1.401298464324817e-44, 1.3858020305633545
33984, -0.953862726688385, -3.5970380306243896, -0.14350324869155884, 0.0, 0.0, 89.32352447509766, 0.0, 0.0, 1.605987548828125, 0, 0, 0, 0, 0, 0, 9362.0, 30146.0, 35388.0, 9362.0, 7.99338960647583, 0.1646142303943634, 0.020207542926073074, -0.2698059380054474, -0.05950355529785156, -0.015668243169784546, 0.9970172047615051, -0.08260165899991989, -0.09335899353027344, 1.48828125, 1.396728515625, 0.0370025634765625, 1.49267578125, 1.34765625, 10.0, 1.401298464324817e-45, 1.401298464324817e-44, 1.3858020305633545
33994, -0.9538779854774475, -3.5961132049560547, -0.14271730184555054, 0.0, 0.0, 89.32352447509766, 0.0, 0.0, 1.605987548828125, 0, 0, 0, 0, 0, 0, 9362.0, 30146.0, 35388.0, 9362.0, 7.99338960647583, 0.12633705139160156, 0.0443362295627594, -0.1071959063410759, -0.05950355529785156, -0.015668243169784546, 0.9970172047615051, -0.08260165899991989, -0.09335899353027344, 1.48828125, 1.396728515625, 0.0370025634765625, 1.4970703125, 1.34765625, 10.0, 1.401298464324817e-45, 1.401298464324817e-44, 1.385854721069336
34004, -0.9540925025939941, -3.5966408252716064, -0.14144857227802277, 0.0, 0.0, 89.3543472290039, 0.0, 0.0, 0.412750244140625, 0, 0, 0, 0, 0, 0, 9362.0, 30146.0, 35388.0, 9362.0, 7.99338960647583, -0.16541287302970886, -0.01998409628868103, 0.19009068608283997, -0.05950355529785156, -0.015668243169784546, 0.9970172047615051, -0.08260165899991989, -0.09335899353027344, 1.48828125, 1.396728515625, 0.0370025634765625, 1.4970703125, 1.34765625, 10.0, 1.401298464324817e-45, 1.401298464324817e-44, 1.3857942819595337
34014, -0.9531326293945312, -3.598231077194214, -0.1411396861076355, 0.0, 0.0, 89.3543472290039, 0.0, 0.0, 0.412750244140625, 0, 0, 0, 0, 0, 0, 9362.0, 30146.0, 35388.0, 9362.0, 7.99338960647583, -0.16541287302970886, -0.01998409628868103, 0.19009068608283997, -0.062499068677425385, -0.018124539405107498, 0.9971762895584106, -0.08260165899991989, -0.09335899353027344, 1.48828125, 1.430419921875, 0.0756378173828125, 1.5, 1.34765625, 10.0, 1.401298464324817e-45, 1.401298464324817e-44, 1.3856738805770874
34024, -0.9540034532546997, -3.598357915878296, -0.1414349377155304, 0.0, 0.0, 89.3543472290039, 0.0, 0.0, 0.412750244140625, 0, 0, 0, 0, 0, 0, 9362.0, 30146.0, 35388.0, 9362.0, 7.99338960647583, -0.05948205292224884, -0.06350582838058472, -0.0725046917796135, -0.062499068677425385, -0.018124539405107498, 0.9971762895584106, -0.08260165899991989, -0.09335899353027344, 1.48828125, 1.401123046875, 0.041015625, 1.5, 1.34765625, 10.0, 1.401298464324817e-45, 1.401298464324817e-44, 1.3856738805770874
34034, -0.9543520212173462, -3.597118616104126, -0.13956834375858307, 0.0, 0.0, 89.3543472290039, 0.0, 0.0, 0.412750244140625, 0, 0, 0, 0, 0, 0, 9362.0, 30146.0, 35388.0, 9362.0, 7.99338960647583, 0.17791412770748138, -0.21119268238544464, 0.09177683293819427, -0.062499068677425385, -0.018124539405107498, 0.9971762895584106, -0.08260165899991989, -0.09335899353027344, 1.48828125, 1.4267578125, 0.070709228515625, 1.49560546875, 1.34765625, 10.0, 1.401298464324817e-45, 1.401298464324817e-44, 1.3857688903808594
34044, -0.9543455243110657, -3.597606658935547, -0.1392013132572174, 0.0, 0.0, 89.37007904052734, 0.0, 0.0, 0.359344482421875, 0, 0, 0, 0, 0, 0, 9362.0, 30146.0, 35388.0, 9362.0, 7.99338960647583, 0.06027737632393837, 0.14022208750247955, -0.05200924351811409, -0.062499068677425385, -0.018124539405107498, 0.9971762895584106, -0.09637079387903214, -0.1739978790283203, 1.481689453125, 1.3974609375, 0.03759765625, 1.49560546875, 1.34765625, 10.0, 1.401298464324817e-45, 1.401298464324817e-44, 1.3856092691421509
34054, -0.9540579319000244, -3.598762273788452, -0.1394999623298645, 0.0, 0.0, 89.37007904052734, 0.0, 0.0, 0.359344482421875, 0, 0, 0, 0, 0, 0, 9362.0, 30146.0, 35388.0, 9362.0, 7.99338960647583, 0.107224240899086, 0.03714364767074585, 0.09272933751344681, -0.061946067959070206, -0.017360329627990723, 0.9977585077285767, -0.09637079387903214, -0.1739978790283203, 1.481689453125, 1.3974609375, 0.03759765625, 1.496337890625, 1.34765625, 10.0, 1.401298464324817e-45, 1.401298464324817e-44, 1.385632872581482
34064, -0.9520909786224365, -3.599078416824341, -0.13947556912899017, 0.0, 0.0, 89.37007904052734, 0.0, 0.0, 0.359344482421875, 0, 0, 0, 0, 0, 0, 9362.0, 30146.0, 35388.0, 9362.0, 7.99338960647583, 0.25502514839172363, 0.035275109112262726, -0.0320572592318058, -0.061946067959070206, -0.017360329627990723, 0.9977585077285767, -0.09637079387903214, -0.1739978790283203, 1.481689453125, 1.367431640625, 0.0183258056640625, 1.496337890625, 1.34765625, 10.0, 1.401298464324817e-45, 1.401298464324817e-44, 1.385632872581482
34074, -0.9514459371566772, -3.599916458129883, -0.1376030594110489, 0.0, 0.0, 89.37007904052734, 0.0, 0.0, 0.359344482421875, 0, 0, 0, 0, 0, 0, 9362.0, 30146.0, 35388.0, 9362.0, 7.99338960647583, 0.11190636456012726, 0.10334697365760803, 0.12220059335231781, -0.061946067959070206, -0.017360329627990723, 0.9977585077285767, -0.09637079387903214, -0.1739978790283203, 1.481689453125, 1.404052734375, 0.04400634765625, 1.494140625, 1.34765625, 10.0, 1.401298464324817e-45, 1.401298464324817e-44, 1.3858897686004639
34084, -0.9509738087654114, -3.6016135215759277, -0.1397278755903244, 0.0, 0.0, 89.3939208984375, 0.0, 0.0, 0.884246826171875, 0, 0, 0, 0, 0, 0, 9362.0, 30146.0, 35388.0, 9362.0, 7.99338960647583, 0.04707298427820206, 0.4012161195278168, -0.2895604372024536, -0.061946067959070206, -0.017360329627990723, 0.9977585077285767, -0.09637079387903214, -0.1739978790283203, 1.481689453125, 1.39453125, 0.035003662109375, 1.494140625, 1.34765625, 10.0, 1.401298464324817e-45, 1.401298464324817e-44, 1.3858939409255981
34094, -0.9520403146743774, -3.601351261138916, -0.14205625653266907, 0.0, 0.0, 89.3939208984375, 0.0, 0.0, 0.884246826171875, 0, 0, 0, 0, 0, 0, 9362.0, 30146.0, 35388.0, 9362.0, 7.99338960647583, 0.007493047043681145, 0.049748003482818604, -0.16961561143398285, -0.060112226754426956, -0.017506718635559082, 0.9994605779647827, -0.09637079387903214, -0.1739978790283203, 1.481689453125, 1.38720703125, 0.0291900634765625, 1.494140625, 1.34765625, 10.0, 1.401298464324817e-45, 1.401298464324817e-44, 1.385879635810852
34104, -0.9520794153213501, -3.5990869998931885, -0.14339624345302582, 0.0, 0.0, 89.3939208984375, 0.0, 0.0, 0.884246826171875, 0, 0, 0, 0, 0, 0, 9362.0, 30146.0, 35388.0, 9362.0, 7.99338960647583, 0.03320862352848053, -0.290426641702652, -0.26174697279930115, -0.06186562776565552, -0.017006613314151764, 0.9982278943061829, -0.09637079387903214, -0.1739978790283203, 1.481689453125, 1.3330078125, 0.0191650390625, 1.494140625, 1.34765625, 10.0, 1.401298464324817e-45, 1.401298464324817e-44, 1.385879635810852
34114, -0.9510816335678101, -3.5980448722839355, -0.1457078903913498, 0.0, 0.0, 89.3939208984375, 0.0, 0.0, 0.884246826171875, 0, 0, 0, 0, 0, 0, 9362.0, 30146.0, 35388.0, 9362.0, 7.99338960647583, 0.14215949177742004, -0.12120915204286575, -0.23452536761760712, -0.061527319252491, -0.017868002876639366, 0.9980157017707825, -0.09637079387903214, -0.1739978790283203, 1.481689453125, 1.3330078125, 0.0191650390625, 1.494140625, 1.34765625, 10.0, 1.401298464324817e-45, 1.401298464324817e-44, 1.385879635810852
34124, -0.9519245028495789, -3.596937417984009, -0.14572319388389587, 0.0, 0.0, 89.3939208984375, 0.0, 0.0, 0.884246826171875, 0, 0, 0, 0, 0, 0, 9362.0, 30146.0, 35388.0, 9362.0, 7.99338960647583, -0.025103554129600525, -0.3650258779525757, 0.06017771363258362, -0.061527319252491, -0.017868002876639366, 0.9980157017707825, -0.09637079387903214, -0.1739978790283203, 1.481689453125, 1.395263671875, 0.035675048828125, 1.494140625, 1.34765625, 10.0, 1.401298464324817e-45, 1.401298464324817e-44, 1.3858989477157593
34134, -0.9507280588150024, -3.6025891304016113, -0.14464911818504333, 0.0, 0.0, 89.42890167236328, 0.0, 0.0, 0.1922607421875, 0, 0, 0, 0, 0, 0, 9362.0, 30146.0, 35388.0, 9362.0, 7.99338960647583, 0.2868589758872986, 0.4059906601905823, 0.26895785331726074, -0.061527319252491, -0.017868002876639366, 0.9980157017707825, -0.09637079387903214, -0.1739978790283203, 1.481689453125, 1.41064453125, 0.0509490966796875, 1.494140625, 1.34765625, 10.0, 1.401298464324817e-45, 1.401298464324817e-44, 1.3859840631484985
34144, -0.9512609839439392, -3.6006476879119873, -0.1453367918729782, 0.0, 0.0, 89.42890167236328, 0.0, 0.0, 0.1922607421875, 0, 0, 0, 0, 0, 0, 9362.0, 30146.0, 35388.0, 9362.0, 7.99338960647583, -0.10124728828668594, -0.24478358030319214, -0.19178836047649384, -0.061527319252491, -0.017868002876639366, 0.9980157017707825, -0.08546057343482971, 0.07688140869140625, 1.502197265625, 1.4296875, 0.07464599609375, 1.494140625, 1.34765625, 10.0, 1.401298464324817e-45, 1.401298464324817e-44, 1.3859840631484985
34154, -0.9522032737731934, -3.599698781967163, -0.147118479013443, 0.0, 0.0, 89.42890167236328, 0.0, 0.0, 0.1922607421875, 0, 0, 0, 0, 0, 0, 9362.0, 30146.0, 35388.0, 9362.0, 7.99338960647583, 0.004993013571947813, 0.03175605088472366, -0.22401663661003113, -0.061527319252491, -0.017868002876639366, 0.9980157017707825, -0.08546057343482971, 0.07688140869140625, 1.502197265625, 1.4296875, 0.07464599609375, 1.491943359375, 1.34765625, 10.0, 1.401298464324817e-45, 1.401298464324817e-44, 1.3859045505523682
34164, -0.952496349811554, -3.6010844707489014, -0.1473575085401535, 0.0, 0.0, 89.42671966552734, 0.0, 0.0, -0.026702880859375, 0, 0, 0, 0, 0, 0, 9362.0, 30146.0, 35388.0, 9362.0, 7.99338960647583, 0.004993013571947813, 0.03175605088472366, -0.22401663661003113, -0.06295736879110336, -0.01722758635878563, 0.9975079894065857, -0.08546057343482971, 0.07688140869140625, 1.502197265625, 1.423095703125, 0.06591796875, 1.491943359375, 1.34765625, 10.0, 1.401298464324817e-45, 1.401298464324817e-44, 1.3858346939086914
34174, -0.9529687762260437, -3.6054298877716064, -0.14661914110183716, 0.0, 0.0, 89.42671966552734, 0.0, 0.0, -0.026702880859375, 0, 0, 0, 0, 0, 0, 9362.0, 30146.0, 35388.0, 9362.0, 7.99338960647583, 0.004993013571947813, 0.03175605088472366, -0.22401663661003113, -0.06305432319641113, -0.016780374571681023, 0.9969609379768372, -0.08546057343482971, 0.07688140869140625, 1.502197265625, 1.417236328125, 0.058624267578125, 1.4970703125, 1.34765625, 10.0, 1.401298464324817e-45, 1.401298464324817e-44, 1.385725736618042
34184, -0.9524816274642944, -3.6067652702331543, -0.1466340571641922, 0.0, 0.0, 89.42671966552734, 0.0, 0.0, -0.026702880859375, 0, 0, 0, 0, 0, 0, 9362.0, 30146.0, 35388.0, 9362.0, 7.99338960647583, 0.004993013571947813, 0.03175605088472366, -0.22401663661003113, -0.06380990892648697, -0.015996968373656273, 0.9978318214416504, -0.08546057343482971, 0.07688140869140625, 1.502197265625, 1.405517578125, 0.0454254150390625, 1.4970703125, 1.34765625, 10.0, 1.401298464324817e-45, 1.401298464324817e-44, 1.385728120803833
34194, -0.952496349811554, -3.607572555541992, -0.14658373594284058, 0.0, 0.0, 89.42671966552734, 0.0, 0.0, -0.026702880859375, 0, 0, 0, 0, 0, 0, 9362.0, 30146.0, 35388.0, 9362.0, 7.99338960647583, 0.004993013571947813, 0.03175605088472366, -0.22401663661003113, -0.061815183609724045, -0.01676490716636181, 0.998490035533905, -0.08546057343482971, 0.07688140869140625, 1.502197265625, 1.399658203125, 0.0396575927734375, 1.4970703125, 1.34765625, 10.0, 1.401298464324817e-45, 1.401298464324817e-44, 1.3856796026229858
34204, -0.9524064660072327, -3.6077027320861816, -0.14526015520095825, 0.0, 0.0, 89.42671966552734, 0.0, 0.0, -0.026702880859375, 0, 0, 0, 0, 0, 0, 9362.0, 30146.0, 35388.0, 9362.0, 7.99338960647583, 0.004993013571947813, 0.03175605088472366, -0.22401663661003113, -0.06267902255058289, -0.017371157184243202, 0.9984089136123657, -0.08546057343482971, 0.07688140869140625, 1.502197265625, 1.3974609375, 0.03759765625, 1.4970703125, 1.34765625, 10.0, 1.401298464324817e-45, 1.401298464324817e-44, 1.3856890201568604
34214, -0.9523854851722717, -3.6080360412597656, -0.14540819823741913, 0.0, 0.0, 89.42671966552734, 0.0, 0.0, -0.026702880859375, 0, 0, 0, 0, 0, 0, 9362.0, 30146.0, 35388.0, 9362.0, 7.99338960647583, -0.12265194207429886, 0.027800031006336212, -0.030689137056469917, -0.0641070231795311, -0.01593460515141487, 0.9985754489898682, -0.08546057343482971, 0.07688140869140625, 1.502197265625, 1.41357421875, 0.0542449951171875, 1.4970703125, 1.34765625, 10.0, 1.401298464324817e-45, 1.401298464324817e-44, 1.3856890201568604
34224, -0.9533123970031738, -3.6083006858825684, -0.14787127077579498, 0.0, 0.0, 89.42671966552734, 0.0, 0.0, -0.026702880859375, 0, 0, 0, 0, 0, 0, 9362.0, 30146.0, 35388.0, 9362.0, 7.99338960647583, -0.10483752936124802, 0.2869841158390045, -0.22526368498802185, -0.06320476531982422, -0.018334902822971344, 0.9986045360565186, -0.08546057343482971, 0.07688140869140625, 1.502197265625, 1.398193359375, 0.03826904296875, 1.4970703125, 1.34765625, 10.0, 1.401298464324817e-45, 1.401298464324817e-44, 1.385754108428955
34234, -0.9527562856674194, -3.606064558029175, -0.14872010052204132, 0.0, 0.0, 89.42671966552734, 0.0, 0.0, -0.026702880859375, 0, 0, 0, 0, 0, 0, 9362.0, 30146.0, 35388.0, 9362.0, 7.99338960647583, 0.10506153106689453, -0.2124546617269516, 0.053165536373853683, -0.059959787875413895, -0.01796022430062294, 0.998288631439209, -0.08546057343482971, 0.07688140869140625, 1.502197265625, 1.371826171875, 0.02008056640625, 1.4970703125, 1.34765625, 10.0, 1.401298464324817e-45, 1.401298464324817e-44, 1.385754108428955
34244, -0.9528289437294006, -3.6050217151641846, -0.15008759498596191, 0.0, 0.0, 89.42671966552734, 0.0, 0.0, -0.026702880859375, 0, 0, 0, 0, 0, 0, 9362.0, 30146.0, 35388.0, 9362.0, 7.99338960647583, 0.024543676525354385, -0.02925802581012249, -0.15536129474639893, -0.059959787875413895, -0.01796022430062294, 0.998288631439209, -0.0997343584895134, -0.12023735046386719, 1.486083984375, 1.371826171875, 0.02008056640625, 1.4970703125, 1.34765625, 10.0, 1.401298464324817e-45, 1.401298464324817e-44, 1.385754108428955
34254, -0.9531644582748413, -3.6049537658691406, -0.14945819973945618, 0.0, 0.0, 89.42671966552734, 0.0, 0.0, -0.026702880859375, 0, 0, 0, 0, 0, 0, 9362.0, 30146.0, 35388.0, 9362.0, 7.99338960647583, -0.09527900069952011, -0.11139104515314102, 0.028775684535503387, -0.06114029884338379, -0.018825756385922432, 0.9984106421470642, -0.0997343584895134, -0.12023735046386719, 1.486083984375, 1.371826171875, 0.02008056640625, 1.494873046875, 1.34765625, 10.0, 1.401298464324817e-45, 1.401298464324817e-44, 1.385754108428955
34264, -0.9527469277381897, -3.6050946712493896, -0.15009517967700958, 0.0, 0.0, 89.42671966552734, 0.0, 0.0, -0.026702880859375, 0, 0, 0, 0, 0, 0, 9362.0, 30146.0, 35388.0, 9362.0, 7.99338960647583, 0.224594846367836, 0.18383468687534332, -0.19942861795425415, -0.060825057327747345, -0.017576076090335846, 0.9972575306892395, -0.0997343584895134, -0.12023735046386719, 1.486083984375, 1.3798828125, 0.0243377685546875, 1.494873046875, 1.34765625, 10.0, 1.401298464324817e-45, 1.401298464324817e-44, 1.385754108428955
34274, -0.9505883455276489, -3.6031222343444824, -0.1507827490568161, 0.0, 0.0, 89.42671966552734, 0.0, 0.0, -0.026702880859375, 0, 0, 0, 0, 0, 0, 9362.0, 30146.0, 35388.0, 9362.0, 7.99338960647583, 0.12185247242450714, 0.01949669048190117, -0.0711110308766365, -0.06132917478680611, -0.01427080761641264, 0.9973753690719604, -0.0997343584895134, -0.12023735046386719, 1.486083984375, 1.37109375, 0.0197906494140625, 1.494873046875, 1.34765625, 10.0, 1.401298464324817e-45, 1.401298464324817e-44, 1.385754108428955
34284, -0.9518625140190125, -3.603389024734497, -0.14947491884231567, 0.0, 0.0, 89.36600494384766, 0.0, 0.0, -0.445556640625, 0, 0, 0, 0, 0, 0, 9362.0, 30146.0, 35388.0, 9362.0, 7.99338960647583, -0.18093425035476685, -0.006373437121510506, 0.12109564244747162, -0.06132917478680611, -0.01427080761641264, 0.9973753690719604, -0.0997343584895134, -0.12023735046386719, 1.486083984375, 1.37109375, 0.0197906494140625, 1.494873046875, 1.34765625, 10.0, 1.401298464324817e-45, 1.401298464324817e-44, 1.3863203525543213
34294, -0.9527774453163147, -3.601555347442627, -0.15056101977825165, 0.0, 0.0, 89.36199188232422, 0.0, 0.0, -0.40130615234375, 0, 0, 0, 0, 0, 0, 9362.0, 30146.0, 35388.0, 9362.0, 7.99338960647583, -0.18093425035476685, -0.006373437121510506, 0.12109564244747162, -0.06253352016210556, -0.01812049373984337, 0.9995287656784058, -0.0997343584895134, -0.12023735046386719, 1.486083984375, 1.427490234375, 0.0716400146484375, 1.494873046875, 1.34765625, 10.0, 1.401298464324817e-45, 1.401298464324817e-44, 1.386383295059204
34304, -0.953657329082489, -3.6012678146362305, -0.1500079482793808, 0.0, 0.0, 89.36199188232422, 0.0, 0.0, -0.40130615234375, 0, 0, 0, 0, 0, 0, 9362.0, 30146.0, 35388.0, 9362.0, 7.99338960647583, -0.16930964589118958, -0.010986603796482086, 0.036568451672792435, -0.06245652586221695, -0.015727540478110313, 0.9971958994865417, -0.0997343584895134, -0.12023735046386719, 1.486083984375, 1.364501953125, 0.0173492431640625, 1.494873046875, 1.34765625, 10.0, 1.401298464324817e-45, 1.401298464324817e-44, 1.386383295059204
34314, -0.953387439250946, -3.5994415283203125, -0.15139085054397583, 0.0, 0.0, 89.36199188232422, 0.0, 0.0, -0.40130615234375, 0, 0, 0, 0, 0, 0, 9362.0, 30146.0, 35388.0, 9362.0, 7.99338960647583, -0.1559828221797943, -0.13634741306304932, -0.014568413607776165, -0.061827048659324646, -0.016201188787817955, 0.9968478083610535, -0.0997343584895134, -0.12023735046386719, 1.486083984375, 1.417236328125, 0.058624267578125, 1.493408203125, 1.34765625, 10.0, 1.401298464324817e-45, 1.401298464324817e-44, 1.386383295059204
34324, -0.9537717700004578, -3.601053476333618, -0.15195982158184052, 0.0, 0.0, 89.36199188232422, 0.0, 0.0, -0.40130615234375, 0, 0, 0, 0, 0, 0, 9362.0, 30146.0, 35388.0, 9362.0, 7.99338960647583, 0.03738945350050926, 0.2798050343990326, -0.07029380649328232, -0.06138404831290245, -0.019640453159809113, 0.9976881742477417, -0.0997343584895134, -0.12023735046386719, 1.486083984375, 1.385009765625, 0.0276336669921875, 1.493408203125, 1.34765625, 10.0, 1.401298464324817e-45, 1.401298464324817e-44, 1.386383295059204
34334, -0.9536952376365662, -3.6030783653259277, -0.15200519561767578, 0.0, 0.0, 89.36199188232422, 0.0, 0.0, -0.40130615234375, 0, 0, 0, 0, 0, 0, 9362.0, 30146.0, 35388.0, 9362.0, 7.99338960647583, 0.03738945350050926, 0.2798050343990326, -0.07029380649328232, -0.06392722576856613, -0.01777985505759716, 0.9964436292648315, -0.0997343584895134, -0.12023735046386719, 1.486083984375, 1.38427734375, 0.027099609375, 1.491943359375, 1.34765625, 10.0, 1.401298464324817e-45, 1.401298464324817e-44, 1.3866103887557983
34344, -0.9543331861495972, -3.6016666889190674, -0.15187065303325653, 0.0, 0.0, 89.36199188232422, 0.0, 0.0, -0.40130615234375, 0, 0, 0, 0, 0, 0, 9362.0, 30146.0, 35388.0, 9362.0, 7.99338960647583, 0.03738945350050926, 0.2798050343990326, -0.07029380649328232, -0.06123654171824455, -0.01693814806640148, 0.9973548054695129, -0.0997343584895134, -0.12023735046386719, 1.486083984375, 1.368896484375, 0.01885986328125, 1.491943359375, 1.34765625, 10.0, 1.401298464324817e-45, 1.401298464324817e-44, 1.3866103887557983
34354, -0.952255129814148, -3.6035287380218506, -0.14973270893096924, 0.0, 0.0, 89.36199188232422, 0.0, 0.0, -0.40130615234375, 0, 0, 0, 0, 0, 0, 9362.0, 30146.0, 35388.0, 9362.0, 7.99338960647583, 0.14563168585300446, 0.291486531496048, 0.15128718316555023, -0.060141436755657196, -0.01616567000746727, 0.998193621635437, -0.0997343584895134, -0.12023735046386719, 1.486083984375, 1.40478515625, 0.0446624755859375, 1.491943359375, 1.34765625, 10.0, 1.401298464324817e-45, 1.401298464324817e-44, 1.3866103887557983
34364, -0.951204776763916, -3.603609800338745, -0.15145248174667358, 0.0, 0.0, 89.36199188232422, 0.0, 0.0, -0.40130615234375, 0, 0, 0, 0, 0, 0, 9362.0, 30146.0, 35388.0, 9362.0, 7.99338960647583, 0.2792662978172302, 0.004955510143190622, -0.30390962958335876, -0.060141436755657196, -0.01616567000746727, 0.998193621635437, -0.0997343584895134, -0.12023735046386719, 1.486083984375, 1.38427734375, 0.027099609375, 1.491943359375, 1.34765625, 10.0, 1.401298464324817e-45, 1.401298464324817e-44, 1.3868625164031982
34374, -0.9527532458305359, -3.605980157852173, -0.1474781483411789, 0.0, 0.0, 89.36199188232422, 0.0, 0.0, -0.40130615234375, 0, 0, 0, 0, 0, 0, 9362.0, 30146.0, 35388.0, 9362.0, 7.99338960647583, -0.1166045144200325, 0.26861217617988586, 0.4191440939903259, -0.060141436755657196, -0.01616567000746727, 0.998193621635437, -0.0997343584895134, -0.12023735046386719, 1.486083984375, 1.390869140625, 0.0319671630859375, 1.491943359375, 1.34765625, 10.0, 1.401298464324817e-45, 1.401298464324817e-44, 1.3868266344070435
34384, -0.953572154045105, -3.6079282760620117, -0.1455134004354477, 0.0, 0.0, 89.35130310058594, 0.0, 0.0, -0.7080078125, 0, 0, 0, 0, 0, 0, 9362.0, 30146.0, 35388.0, 9362.0, 7.99338960647583, -0.1166045144200325, 0.26861217617988586, 0.4191440939903259, -0.06429862231016159, -0.015640104189515114, 0.9995530843734741, -0.0997343584895134, -0.12023735046386719, 1.486083984375, 1.37109375, 0.0197906494140625, 1.491943359375, 1.34765625, 10.0, 1.401298464324817e-45, 1.401298464324817e-44, 1.3867700099945068
34394, -0.9544373750686646, -3.6078033447265625, -0.14529505372047424, 0.0, 0.0, 89.35130310058594, 0.0, 0.0, -0.7080078125, 0, 0, 0, 0, 0, 0, 9362.0, 30146.0, 35388.0, 9362.0, 7.99338960647583, -0.014341967180371284, 0.09943588078022003, -0.15815900266170502, -0.06429862231016159, -0.015640104189515114, 0.9995530843734741, -0.0997343584895134, -0.12023735046386719, 1.486083984375, 1.37109375, 0.0197906494140625, 1.5, 1.34765625, 10.0, 1.401298464324817e-45, 1.401298464324817e-44, 1.3868083953857422
34404, -0.9550127387046814, -3.609586477279663, -0.1453520655632019, 0.0, 0.0, 89.34247589111328, 0.0, 0.0, -0.24566650390625, 0, 0, 0, 0, 0, 0, 9362.0, 30146.0, 35388.0, 9362.0, 7.99338960647583, -0.015513896942138672, -0.09365332126617432, -0.08860695362091064, -0.06429862231016159, -0.015640104189515114, 0.9995530843734741, -0.0997343584895134, -0.12023735046386719, 1.486083984375, 1.41650390625, 0.0577545166015625, 1.5, 1.346923828125, 10.0, 1.401298464324817e-45, 1.401298464324817e-44, 1.3868083953857422
34414, -0.9551099538803101, -3.6111209392547607, -0.144741490483284, 0.0, 0.0, 89.34247589111328, 0.0, 0.0, -0.24566650390625, 0, 0, 0, 0, 0, 0, 9362.0, 30146.0, 35388.0, 9362.0, 7.99338960647583, -0.13661636412143707, -0.0882304385304451, 0.15466733276844025, -0.06480256468057632, -0.018701259046792984, 0.9984483122825623, -0.0997343584895134, -0.12023735046386719, 1.486083984375, 1.392333984375, 0.03314208984375, 1.49853515625, 1.346923828125, 10.0, 1.401298464324817e-45, 1.401298464324817e-44, 1.3868083953857422
34424, -0.9547107815742493, -3.613806962966919, -0.14526377618312836, 0.0, 0.0, 89.3366470336914, 0.0, 0.0, -0.362396240234375, 0, 0, 0, 0, 0, 0, 9362.0, 30146.0, 35388.0, 9362.0, 7.99338960647583, 0.04930877313017845, 0.2630035877227783, -0.12911100685596466, -0.06480256468057632, -0.018701259046792984, 0.9984483122825623, -0.0997343584895134, -0.12023735046386719, 1.486083984375, 1.392333984375, 0.03314208984375, 1.49853515625, 1.346923828125, 10.0, 1.401298464324817e-45, 1.401298464324817e-44, 1.3866302967071533
34434, -0.9545472264289856, -3.6153602600097656, -0.14608269929885864, 0.0, 0.0, 89.3366470336914, 0.0, 0.0, -0.362396240234375, 0, 0, 0, 0, 0, 0, 9362.0, 30146.0, 35388.0, 9362.0, 7.99338960647583, 0.05131816118955612, 0.18568529188632965, -0.1936696320772171, -0.06480256468057632, -0.018701259046792984, 0.9984483122825623, -0.0997343584895134, -0.12023735046386719, 1.486083984375, 1.401123046875, 0.041015625, 1.49853515625, 1.346923828125, 10.0, 1.401298464324817e-45, 1.401298464324817e-44, 1.3866205215454102
34444, -0.9534192681312561, -3.615320920944214, -0.1454831212759018, 0.0, 0.0, 89.3366470336914, 0.0, 0.0, -0.362396240234375, 0, 0, 0, 0, 0, 0, 9362.0, 30146.0, 35388.0, 9362.0, 7.99338960647583, 0.11867654323577881, 0.08726796507835388, 0.15991522371768951, -0.06480256468057632, -0.018701259046792984, 0.9984483122825623, -0.07637731730937958, -0.15607833862304688, 1.483154296875, 1.399658203125, 0.0396575927734375, 1.49853515625, 1.346923828125, 10.0, 1.401298464324817e-45, 1.401298464324817e-44, 1.3866205215454102
34454, -0.9542995095252991, -3.6145474910736084, -0.14556217193603516, 0.0, 0.0, 89.3366470336914, 0.0, 0.0, -0.362396240234375, 0, 0, 0, 0, 0, 0, 9362.0, 30146.0, 35388.0, 9362.0, 7.99338960647583, -0.03588734567165375, 0.012738317251205444, -0.061954252421855927, -0.06294432282447815, -0.016691580414772034, 1.0010392665863037, -0.07637731730937958, -0.15607833862304688, 1.483154296875, 1.399658203125, 0.0396575927734375, 1.49853515625, 1.346923828125, 10.0, 1.401298464324817e-45, 1.401298464324817e-44, 1.3866205215454102
34464, -0.9551998972892761, -3.614441394805908, -0.14538082480430603, 0.0, 0.0, 89.3366470336914, 0.0, 0.0, -0.362396240234375, 0, 0, 0, 0, 0, 0, 9362.0, 30146.0, 35388.0, 9362.0, 7.99338960647583, -0.04989183321595192, 0.0906907394528389, 0.052377138286828995, -0.060860369354486465, -0.017734864726662636, 0.9996737837791443, -0.07637731730937958, -0.15607833862304688, 1.483154296875, 1.37548828125, 0.021820068359375, 1.49853515625, 1.346923828125, 10.0, 1.401298464324817e-45, 1.401298464324817e-44, 1.3866205215454102
34474, -0.9559482336044312, -3.6140224933624268, -0.14540599286556244, 0.0, 0.0, 89.3366470336914, 0.0, 0.0, -0.362396240234375, 0, 0, 0, 0, 0, 0, 9362.0, 30146.0, 35388.0, 9362.0, 7.99338960647583, -0.08487538248300552, -0.015007611364126205, 0.10605188459157944, -0.06103713810443878, -0.01839011162519455, 0.9978270530700684, -0.07637731730937958, -0.15607833862304688, 1.483154296875, 1.348388671875, 0.0154571533203125, 1.49853515625, 1.346923828125, 10.0, 1.401298464324817e-45, 1.401298464324817e-44, 1.3867567777633667
34484, -0.9556370377540588, -3.612961769104004, -0.1464516669511795, 0.0, 0.0, 89.3366470336914, 0.0, 0.0, -0.362396240234375, 0, 0, 0, 0, 0, 0, 9362.0, 30146.0, 35388.0, 9362.0, 7.99338960647583, 0.015437105670571327, -0.19175730645656586, -0.15405365824699402, -0.062269363552331924, -0.016997916623950005, 0.9984502196311951, -0.07637731730937958, -0.15607833862304688, 1.483154296875, 1.39306640625, 0.0337982177734375, 1.49853515625, 1.346923828125, 10.0, 1.401298464324817e-45, 1.401298464324817e-44, 1.3867998123168945
34494, -0.9555439949035645, -3.613257884979248, -0.14774052798748016, 0.0, 0.0, 89.3366470336914, 0.0, 0.0, -0.362396240234375, 0, 0, 0, 0, 0, 0, 9362.0, 30146.0, 35388.0, 9362.0, 7.99338960647583, -0.012207492254674435, 0.194393128156662, -0.17330090701580048, -0.062269363552331924, -0.016997916623950005, 0.9984502196311951, -0.07637731730937958, -0.15607833862304688, 1.483154296875, 1.37109375, 0.0197906494140625, 1.49853515625, 1.346923828125, 10.0, 1.401298464324817e-45, 1.401298464324817e-44, 1.3868612051010132
34504, -0.9544637203216553, -3.611839771270752, -0.14808493852615356, 0.0, 0.0, 89.3366470336914, 0.0, 0.0, -0.362396240234375, 0, 0, 0, 0, 0, 0, 9362.0, 30146.0, 35388.0, 9362.0, 7.99338960647583, 0.1498705893754959, -0.12213167548179626, -0.016901222988963127, -0.06220990791916847, -0.016306880861520767, 0.9978898167610168, -0.07637731730937958, -0.15607833862304688, 1.483154296875, 1.37109375, 0.0197906494140625, 1.49853515625, 1.346923828125, 10.0, 1.401298464324817e-45, 1.401298464324817e-44, 1.3868612051010132
34514, -0.9543082118034363, -3.6117796897888184, -0.14758259057998657, 0.0, 0.0, 89.3366470336914, 0.0, 0.0, -0.362396240234375, 0, 0, 0, 0, 0, 0, 9362.0, 30146.0, 35388.0, 9362.0, 7.99338960647583, 0.1498705893754959, -0.12213167548179626, -0.016901222988963127, -0.06189385801553726, -0.017479028552770615, 0.9974164962768555, -0.07637731730937958, -0.15607833862304688, 1.483154296875, 1.37109375, 0.0197906494140625, 1.4970703125, 1.346923828125, 10.0, 1.401298464324817e-45, 1.401298464324817e-44, 1.3871148824691772
34524, -0.955418586730957, -3.6120731830596924, -0.1466120034456253, 0.0, 0.0, 89.3366470336914, 0.0, 0.0, -0.362396240234375, 0, 0, 0, 0, 0, 0, 9362.0, 30146.0, 35388.0, 9362.0, 7.99338960647583, -0.24624375998973846, 0.06987854093313217, 0.14230334758758545, -0.06189385801553726, -0.017479028552770615, 0.9974164962768555, -0.07637731730937958, -0.15607833862304688, 1.483154296875, 1.38427734375, 0.027099609375, 1.4970703125, 1.346923828125, 10.0, 1.401298464324817e-45, 1.401298464324817e-44, 1.3871148824691772
34534, -0.9558345675468445, -3.6125993728637695, -0.14440684020519257, 0.0, 0.0, 89.3366470336914, 0.0, 0.0, -0.362396240234375, 0, 0, 0, 0, 0, 0, 9362.0, 30146.0, 35388.0, 9362.0, 7.99338960647583, -0.17818571627140045, -0.0012983696069568396, 0.3060925304889679, -0.06189385801553726, -0.017479028552770615, 0.9974164962768555, -0.07637731730937958, -0.15607833862304688, 1.483154296875, 1.386474609375, 0.028656005859375, 1.497802734375, 1.346923828125, 10.0, 1.401298464324817e-45, 1.401298464324817e-44, 1.3870898485183716
34544, -0.954175591468811, -3.6134464740753174, -0.1455679088830948, 0.0, 0.0, 89.3366470336914, 0.0, 0.0, -0.362396240234375, 0, 0, 0, 0, 0, 0, 9362.0, 30146.0, 35388.0, 9362.0, 7.99338960647583, 0.23410919308662415, 0.12110994011163712, -0.2534409761428833, -0.06189385801553726, -0.017479028552770615, 0.9974164962768555, -0.07637731730937958, -0.15607833862304688, 1.483154296875, 1.359375, 0.0160980224609375, 1.497802734375, 1.346923828125, 10.0, 1.401298464324817e-45, 1.401298464324817e-44, 1.387113332748413
34554, -0.9534638524055481, -3.611410140991211, -0.14768852293491364, 0.0, 0.0, 89.3366470336914, 0.0, 0.0, -0.362396240234375, 0, 0, 0, 0, 0, 0, 9362.0, 30146.0, 35388.0, 9362.0, 7.99338960647583, -0.06882236152887344, -0.13052938878536224, -0.3807278573513031, -0.06189385801553726, -0.017479028552770615, 0.9974164962768555, -0.07637731730937958, -0.15607833862304688, 1.483154296875, 1.364501953125, 0.0173492431640625, 1.497802734375, 1.346923828125, 10.0, 1.401298464324817e-45, 1.401298464324817e-44, 1.387113332748413
34564, -0.9529532194137573, -3.612379789352417, -0.14726506173610687, 0.0, 0.0, 89.29890441894531, 0.0, 0.0, 0.542449951171875, 0, 0, 0, 0, 0, 0, 9362.0, 30146.0, 35388.0, 9362.0, 7.99338960647583, 0.03540525957942009, -0.009110371582210064, 0.07638857513666153, -0.06189385801553726, -0.017479028552770615, 0.9974164962768555, -0.07637731730937958, -0.15607833862304688, 1.483154296875, 1.388671875, 0.03033447265625, 1.497802734375, 1.346923828125, 10.0, 1.401298464324817e-45, 1.401298464324817e-44, 1.38721764087677
34574, -0.9539293646812439, -3.6120595932006836, -0.14666958153247833, 0.0, 0.0, 89.29890441894531, 0.0, 0.0, 0.542449951171875, 0, 0, 0, 0, 0, 0, 9362.0, 30146.0, 35388.0, 9362.0, 7.99338960647583, -0.034945908933877945, -0.18160761892795563, 0.009288551285862923, -0.06112096831202507, -0.017740629613399506, 0.9974740147590637, -0.07637731730937958, -0.15607833862304688, 1.483154296875, 1.3447265625, 0.0158538818359375, 1.497802734375, 1.346923828125, 10.0, 1.401298464324817e-45, 1.401298464324817e-44, 1.38721764087677
34584, -0.9528389573097229, -3.612062454223633, -0.14671535789966583, 0.0, 0.0, 89.29890441894531, 0.0, 0.0, 0.542449951171875, 0, 0, 0, 0, 0, 0, 9362.0, 30146.0, 35388.0, 9362.0, 7.99338960647583, 0.0878944993019104, 0.07995212823152542, 0.08578557521104813, -0.06038247421383858, -0.016108635812997818, 0.9964575171470642, -0.07637731730937958, -0.15607833862304688, 1.483154296875, 1.35498046875, 0.01556396484375, 1.497802734375, 1.346923828125, 10.0, 1.401298464324817e-45, 1.401298464324817e-44, 1.3873029947280884
34594, -0.9516998529434204, -3.612257242202759, -0.14529526233673096, 0.0, 0.0, 89.29890441894531, 0.0, 0.0, 0.542449951171875, 0, 0, 0, 0, 0, 0, 9362.0, 30146.0, 35388.0, 9362.0, 7.99338960647583, 0.18127143383026123, 0.18842566013336182, 0.29464513063430786, -0.06155216693878174, -0.017341190949082375, 0.9954193234443665, -0.07637731730937958, -0.15607833862304688, 1.483154296875, 1.36962890625, 0.01910400390625, 1.497802734375, 1.346923828125, 10.0, 1.401298464324817e-45, 1.401298464324817e-44, 1.3873029947280884
34604, -0.9504782557487488, -3.611931085586548, -0.14802110195159912, 0.0, 0.0, 89.29752349853516, 0.0, 0.0, -0.110626220703125, 0, 0, 0, 0, 0, 0, 9362.0, 30146.0, 35388.0, 9362.0, 7.99338960647583, 0.2053707093000412, -0.06283403187990189, -0.43159186840057373, -0.06259375810623169, -0.017270945012569427, 0.9988160729408264, -0.07637731730937958, -0.15607833862304688, 1.483154296875, 1.36962890625, 0.01910400390625, 1.497802734375, 1.346923828125, 10.0, 1.401298464324817e-45, 1.401298464324817e-44, 1.3873900175094604
