timeTick, roll, pitch, yaw, stateX, stateY, stateZ, stateVX, stateVY, stateVZ, otX0, otY0, otZ0, otRoll0, otPitch0, otYaw0, left wing, pitch motor, yaw motor, right wing, voltage, roll rate, pitch rate, yaw rate, A_x, A_y, A_z, current, i_raw, v_raw, airflow_voltage, airflow_speed, pot_Pitch, voltage_nKF, kFFx, state, State, volt_KF
12561, 11.539840698242188, 71.58174896240234, -8.441079139709473, 0, 0, 0, 0, 0, 0, 0, 0, 0, 0, 0, 0, 0, 0, 0, 0, 0, 0, 0, 0, 0, 0, 0, 0, 0, 0, 0, 0, 0, 0, 0, 0, 0, 0
12571, 11.588912963867188, 71.654296875, -8.48962688446045, 0.0, 0.0, 89.40644073486328, 0.0, 0.0, -0.087738037109375, 0, 0, 0, 0, 0, 0, 9362.0, 30146.0, 35388.0, 9362.0, 0, -0.14458245038986206, -0.11779582500457764, -0.07851532101631165, 0.994878888130188, 0.06337454169988632, 0.025911496952176094, 0, 0, 0, 0, 0, 0, 0, 0, 0, 0, 0
12581, 11.631583213806152, 71.701904296875, -8.530867576599121, 0.0, 0.0, 89.40569305419922, 0.0, 0.0, -0.07476806640625, 0, 0, 0, 0, 0, 0, 9362.0, 30146.0, 35388.0, 9362.0, 0, 0.14190153777599335, 0.01257749367505312, -0.3795357346534729, 0.9973599314689636, 0.06228389963507652, 0.027741778641939163, 0, 0, 0, 1.382080078125, 0.0256195068359375, 0, 1.339599609375, 10.0, 1.401298464324817e-45, 1.401298464324817e-44, 1.3974283933639526
12591, 11.691953659057617, 71.77101135253906, -8.591018676757812, 0.0, 0.0, 89.40452575683594, 0.0, 0.0, -0.116729736328125, 0, 0, 0, 0, 0, 0, 9362.0, 30146.0, 35388.0, 9362.0, 0, -0.20046918094158173, 0.13311068713665009, -0.336214154958725, 0.9982507824897766, 0.0664486289024353, 0.0245701614767313, 0, 0, 0, 1.40771484375, 0.0478363037109375, 1.491943359375, 1.360107421875, 10.0, 1.401298464324817e-45, 1.401298464324817e-44, 1.397304892539978
12601, 11.728988647460938, 71.81895446777344, -8.626111030578613, 0.0, 0.0, 89.40351104736328, 0.0, 0.0, -0.101470947265625, 0, 0, 0, 0, 0, 0, 9362.0, 30146.0, 35388.0, 9362.0, 0, -0.08823627233505249, -0.05248898267745972, 0.03693171590566635, 0.9965035319328308, 0.0692802369594574, 0.027052681893110275, 0, 0, 0, 1.371826171875, 0.02008056640625, 1.491943359375, 1.36669921875, 10.0, 1.401298464324817e-45, 1.401298464324817e-44, 1.3972035646438599
12611, 11.775561332702637, 71.88963317871094, -8.668047904968262, 0.0, 0.0, 89.4010238647461, 0.0, 0.0, -0.24871826171875, 0, 0, 0, 0, 0, 0, 9362.0, 30146.0, 35388.0, 9362.0, 0, 0.2254219502210617, -0.049519650638103485, 0.1722630262374878, 0.9985476136207581, 0.062378544360399246, 0.033061373978853226, 0, 0, 0, 1.370361328125, 0.0194549560546875, 1.49560546875, 1.40478515625, 10.0, 1.401298464324817e-45, 1.401298464324817e-44, 1.3972285985946655
12621, 11.805198669433594, 71.93518829345703, -8.695075988769531, 0.0, 0.0, 89.39881896972656, 0.0, 0.0, -0.220489501953125, 0, 0, 0, 0, 0, 0, 9362.0, 30146.0, 35388.0, 9362.0, 0, 0.03724236413836479, 0.10085857659578323, 0.21681936085224152, 0.997610330581665, 0.06296104192733765, 0.03320809453725815, 0, 0, 0, 1.41796875, 0.05950927734375, 1.49560546875, 1.41650390625, 10.0, 1.401298464324817e-45, 1.401298464324817e-44, 1.3972923755645752
12631, 11.8480224609375, 72.00152587890625, -8.734101295471191, 0.0, 0.0, 89.39907836914062, 0.0, 0.0, 0.02593994140625, 0, 0, 0, 0, 0, 0, 9362.0, 30146.0, 35388.0, 9362.0, 0, 0.2615995705127716, 0.32044729590415955, 0.4741608500480652, 0.9987971186637878, 0.061462339013814926, 0.03279295563697815, 0, 0, 0, 1.3974609375, 0.03759765625, 1.494140625, 1.3916015625, 10.0, 1.401298464324817e-45, 1.401298464324817e-44, 1.3972735404968262
12641, 11.880121231079102, 72.04805755615234, -8.7645263671875, 0.0, 0.0, 89.39935302734375, 0.0, 0.0, 0.0274658203125, 0, 0, 0, 0, 0, 0, 9362.0, 30146.0, 35388.0, 9362.0, 0, -0.052147913724184036, -0.3115077018737793, -0.0066604516468942165, 0.9980779886245728, 0.0579005591571331, 0.029300780966877937, 0, 0, 0, 1.40185546875, 0.0417938232421875, 1.494140625, 1.38720703125, 10.0, 1.401298464324817e-45, 1.401298464324817e-44, 1.3972402811050415
12651, 11.929458618164062, 72.11680603027344, -8.81285285949707, 0.0, 0.0, 89.399658203125, 0.0, 0.0, 0.030517578125, 0, 0, 0, 0, 0, 0, 9362.0, 30146.0, 35388.0, 9362.0, 0, -0.12004616856575012, 0.07072990387678146, -0.1589626669883728, 0.9945930242538452, 0.06090729311108589, 0.02507137879729271, 0, 0, 0, 1.41357421875, 0.0542449951171875, 1.493408203125, 1.34033203125, 10.0, 1.401298464324817e-45, 1.401298464324817e-44, 1.39705228805542
12661, 11.965489387512207, 72.16398620605469, -8.846921920776367, 0.0, 0.0, 89.39997100830078, 0.0, 0.0, 0.031280517578125, 0, 0, 0, 0, 0, 0, 9362.0, 30146.0, 35388.0, 9362.0, 8.05289363861084, 0.002460896037518978, -0.3737446963787079, 0.10964152216911316, 0.9969795346260071, 0.06414259970188141, 0.026024749502539635, -0.05071303993463516, -0.03959846496582031, 1.49267578125, 1.4033203125, 0.043182373046875, 1.493408203125, 1.359375, 10.0, 1.401298464324817e-45, 1.401298464324817e-44, 1.396927833557129
12671, 12.008590698242188, 72.23096466064453, -8.888030052185059, 0.0, 0.0, 89.39756774902344, 0.0, 0.0, -0.240325927734375, 0, 0, 0, 0, 0, 0, 9362.0, 30146.0, 35388.0, 9362.0, 8.05289363861084, -0.07219168543815613, 0.3078129291534424, 0.19764024019241333, 0.9986264705657959, 0.06434855610132217, 0.028793418779969215, -0.05071303993463516, -0.03959846496582031, 1.49267578125, 1.398193359375, 0.03826904296875, 1.494140625, 1.37548828125, 10.0, 1.401298464324817e-45, 1.401298464324817e-44, 1.3968570232391357
12681, 12.045774459838867, 72.27477264404297, -8.922855377197266, 0.0, 0.0, 89.39543914794922, 0.0, 0.0, -0.212860107421875, 0, 0, 0, 0, 0, 0, 9362.0, 30146.0, 35388.0, 9362.0, 8.05289363861084, 0.1299677938222885, 0.23316404223442078, -0.15597723424434662, 0.9950622916221619, 0.06524240225553513, 0.02715189754962921, -0.05071303993463516, -0.03959846496582031, 1.49267578125, 1.411376953125, 0.05181884765625, 1.494140625, 1.40185546875, 10.0, 1.401298464324817e-45, 1.401298464324817e-44, 1.3968734741210938
12691, 12.103754043579102, 72.34112548828125, -8.978172302246094, 0.0, 0.0, 89.3919448852539, 0.0, 0.0, -0.34942626953125, 0, 0, 0, 0, 0, 0, 9362.0, 30146.0, 35388.0, 9362.0, 8.05289363861084, -0.09759446233510971, 0.14625994861125946, 0.027482880279421806, 0.9956300258636475, 0.06510549038648605, 0.029952991753816605, -0.05071303993463516, -0.03959846496582031, 1.49267578125, 1.3798828125, 0.0243377685546875, 1.48828125, 1.414306640625, 10.0, 1.401298464324817e-45, 1.401298464324817e-44, 1.3969310522079468
12701, 12.140861511230469, 72.3857421875, -9.012693405151367, 0.0, 0.0, 89.38882446289062, 0.0, 0.0, -0.312042236328125, 0, 0, 0, 0, 0, 0, 9362.0, 30146.0, 35388.0, 9362.0, 8.05289363861084, -0.012493421323597431, -0.03948110714554787, 0.19554182887077332, 1.0009772777557373, 0.06679021567106247, 0.03267749771475792, -0.05071303993463516, -0.03959846496582031, 1.49267578125, 1.396728515625, 0.0370025634765625, 1.48828125, 1.41357421875, 10.0, 1.401298464324817e-45, 1.401298464324817e-44, 1.3969860076904297
12711, 12.189824104309082, 72.4521713256836, -9.058341026306152, 0.0, 0.0, 89.38443756103516, 0.0, 0.0, -0.438690185546875, 0, 0, 0, 0, 0, 0, 9362.0, 30146.0, 35388.0, 9362.0, 8.05289363861084, 0.21106918156147003, -0.07987915724515915, -0.1479947417974472, 0.9960327744483948, 0.0639689713716507, 0.033234648406505585, -0.05071303993463516, -0.03959846496582031, 1.49267578125, 1.38427734375, 0.027099609375, 1.494140625, 1.4033203125, 10.0, 1.401298464324817e-45, 1.401298464324817e-44, 1.397006869316101
12721, 12.222591400146484, 72.49723815917969, -9.089527130126953, 0.0, 0.0, 89.38052368164062, 0.0, 0.0, -0.391387939453125, 0, 0, 0, 0, 0, 0, 9362.0, 30146.0, 35388.0, 9362.0, 8.05289363861084, -0.19151610136032104, 0.056944042444229126, 0.2349517047405243, 0.9941361546516418, 0.061759352684020996, 0.03014513850212097, -0.05071303993463516, -0.03959846496582031, 1.49267578125, 1.412109375, 0.0526123046875, 1.494140625, 1.377685546875, 10.0, 1.401298464324817e-45, 1.401298464324817e-44, 1.396943211555481
12731, 12.273043632507324, 72.56318664550781, -9.136661529541016, 0.0, 0.0, 89.38580322265625, 0.0, 0.0, 0.5279541015625, 0, 0, 0, 0, 0, 0, 9362.0, 30146.0, 35388.0, 9362.0, 8.05289363861084, 0.10802081972360611, 0.35672783851623535, -0.013567933812737465, 0.9959930777549744, 0.0597417838871479, 0.030751315876841545, -0.05071303993463516, -0.03959846496582031, 1.49267578125, 1.399658203125, 0.0396575927734375, 1.493408203125, 1.405517578125, 10.0, 1.401298464324817e-45, 1.401298464324817e-44, 1.3969714641571045
12741, 12.30831527709961, 72.6089859008789, -9.170735359191895, 0.0, 0.0, 89.39058685302734, 0.0, 0.0, 0.478363037109375, 0, 0, 0, 0, 0, 0, 9362.0, 30146.0, 35388.0, 9362.0, 8.05289363861084, -0.08569641411304474, -0.21390071511268616, 0.05640270560979843, 0.9981461763381958, 0.0642973929643631, 0.030772875994443893, -0.05071303993463516, -0.03959846496582031, 1.49267578125, 1.401123046875, 0.041015625, 1.493408203125, 1.388671875, 10.0, 1.401298464324817e-45, 1.401298464324817e-44, 1.3969441652297974
12751, 12.36680793762207, 72.6734619140625, -9.22748851776123, 0.0, 0.0, 89.39494323730469, 0.0, 0.0, 0.435638427734375, 0, 0, 0, 0, 0, 0, 9362.0, 30146.0, 35388.0, 9362.0, 8.05289363861084, -0.10869140923023224, 0.10920745879411697, -0.1782284677028656, 0.9982337355613708, 0.06178805232048035, 0.030381890013813972, -0.05071303993463516, -0.03959846496582031, 1.49267578125, 1.39453125, 0.035003662109375, 1.491943359375, 1.38427734375, 10.0, 1.401298464324817e-45, 1.401298464324817e-44, 1.3969024419784546
12761, 12.415093421936035, 72.71758270263672, -9.27499771118164, 0.0, 0.0, 89.3989028930664, 0.0, 0.0, 0.395965576171875, 0, 0, 0, 0, 0, 0, 9362.0, 30146.0, 35388.0, 9362.0, 8.05289363861084, -0.045638538897037506, -0.32729750871658325, -0.2695876955986023, 0.9979963302612305, 0.06352506577968597, 0.029923656955361366, -0.06275620311498642, -0.1739978790283203, 1.481689453125, 1.40185546875, 0.0417938232421875, 1.491943359375, 1.368896484375, 10.0, 1.401298464324817e-45, 1.401298464324817e-44, 1.3968101739883423
12771, 12.469076156616211, 72.78333282470703, -9.327688217163086, 0.0, 0.0, 89.40415954589844, 0.0, 0.0, 0.525665283203125, 0, 0, 0, 0, 0, 0, 9362.0, 30146.0, 35388.0, 9362.0, 8.05289363861084, -0.17269888520240784, 0.07800828665494919, -0.4088495671749115, 1.0037521123886108, 0.06497872620820999, 0.030480798333883286, -0.06275620311498642, -0.1739978790283203, 1.481689453125, 1.39892578125, 0.0390167236328125, 1.49267578125, 1.417236328125, 10.0, 1.401298464324817e-45, 1.401298464324817e-44, 1.396877408027649
12781, 12.505191802978516, 72.82731628417969, -9.362077713012695, 0.0, 0.0, 89.40892028808594, 0.0, 0.0, 0.47607421875, 0, 0, 0, 0, 0, 0, 9362.0, 30146.0, 35388.0, 9362.0, 8.05289363861084, 0.09654878824949265, 0.0791781097650528, -0.29678088426589966, 0.9987456798553467, 0.0632435530424118, 0.022963881492614746, -0.06275620311498642, -0.1739978790283203, 1.481689453125, 1.426025390625, 0.069732666015625, 1.49267578125, 1.3505859375, 10.0, 1.401298464324817e-45, 1.401298464324817e-44, 1.396725058555603
12791, 12.557193756103516, 72.89546966552734, -9.411980628967285, 0.0, 0.0, 89.40779876708984, 0.0, 0.0, -0.112152099609375, 0, 0, 0, 0, 0, 0, 9362.0, 30146.0, 35388.0, 9362.0, 8.05289363861084, 0.06163147836923599, -0.05671443045139313, -0.16981036961078644, 0.9931991696357727, 0.06164856627583504, 0.023857373744249344, -0.06275620311498642, -0.1739978790283203, 1.481689453125, 1.36376953125, 0.017181396484375, 1.49267578125, 1.40185546875, 10.0, 1.401298464324817e-45, 1.401298464324817e-44, 1.3967419862747192
12801, 12.583879470825195, 72.93891906738281, -9.437923431396484, 0.0, 0.0, 89.40682220458984, 0.0, 0.0, -0.09765625, 0, 0, 0, 0, 0, 0, 9362.0, 30146.0, 35388.0, 9362.0, 8.05289363861084, -0.10250566899776459, 0.17622748017311096, 0.1074737086892128, 0.9975875616073608, 0.06152959540486336, 0.02544119581580162, -0.06275620311498642, -0.1739978790283203, 1.481689453125, 1.389404296875, 0.03082275390625, 1.49267578125, 1.402587890625, 10.0, 1.401298464324817e-45, 1.401298464324817e-44, 1.396761178970337
12811, 12.643773078918457, 73.0041275024414, -9.49532699584961, 0.0, 0.0, 89.40817260742188, 0.0, 0.0, 0.135040283203125, 0, 0, 0, 0, 0, 0, 9362.0, 30146.0, 35388.0, 9362.0, 8.05289363861084, 0.03888964653015137, 0.13816985487937927, -0.1526944935321808, 0.9991166591644287, 0.06451132893562317, 0.029627013951539993, -0.06275620311498642, -0.1739978790283203, 1.481689453125, 1.39599609375, 0.0362701416015625, 1.49267578125, 1.341796875, 10.0, 1.401298464324817e-45, 1.401298464324817e-44, 1.3965803384780884
12821, 12.683404922485352, 73.04901123046875, -9.53320026397705, 0.0, 0.0, 89.409423828125, 0.0, 0.0, 0.1251220703125, 0, 0, 0, 0, 0, 0, 9362.0, 30146.0, 35388.0, 9362.0, 8.05289363861084, 0.10479140281677246, -0.4209898114204407, 0.06696552038192749, 0.9939357042312622, 0.06501810252666473, 0.03130744770169258, -0.06275620311498642, -0.1739978790283203, 1.481689453125, 1.41357421875, 0.0542449951171875, 1.49267578125, 1.4267578125, 10.0, 1.401298464324817e-45, 1.401298464324817e-44, 1.3966796398162842
12831, 12.744986534118652, 73.11046600341797, -9.593401908874512, 0.0, 0.0, 89.40840911865234, 0.0, 0.0, -0.101470947265625, 0, 0, 0, 0, 0, 0, 9362.0, 30146.0, 35388.0, 9362.0, 8.05289363861084, -0.2979860305786133, -0.0847296193242073, -0.3281811475753784, 0.9978266954421997, 0.0664399191737175, 0.03835391253232956, -0.06275620311498642, -0.1739978790283203, 1.481689453125, 1.395263671875, 0.035675048828125, 1.49267578125, 1.37255859375, 10.0, 1.401298464324817e-45, 1.401298464324817e-44, 1.396600365638733
12841, 12.785375595092773, 73.14946746826172, -9.631717681884766, 0.0, 0.0, 89.40753173828125, 0.0, 0.0, -0.087738037109375, 0, 0, 0, 0, 0, 0, 9362.0, 30146.0, 35388.0, 9362.0, 8.05289363861084, 0.027610953897237778, 0.2892535328865051, -0.18450576066970825, 1.0011876821517944, 0.07048113644123077, 0.040123216807842255, -0.06275620311498642, -0.1739978790283203, 1.481689453125, 1.374755859375, 0.021392822265625, 1.49267578125, 1.3681640625, 10.0, 1.401298464324817e-45, 1.401298464324817e-44, 1.396506905555725
12851, 12.840462684631348, 73.2105941772461, -9.683823585510254, 0.0, 0.0, 89.40734100341797, 0.0, 0.0, -0.019073486328125, 0, 0, 0, 0, 0, 0, 9362.0, 30146.0, 35388.0, 9362.0, 8.05289363861084, 0.08771439641714096, -0.13263510167598724, 0.2427663803100586, 0.9990682601928711, 0.06850577890872955, 0.03816968575119972, -0.06275620311498642, -0.1739978790283203, 1.481689453125, 1.4326171875, 0.0786895751953125, 1.494140625, 1.3916015625, 10.0, 1.401298464324817e-45, 1.401298464324817e-44, 1.3964908123016357
12861, 12.87998104095459, 73.25130462646484, -9.720966339111328, 0.0, 0.0, 89.4072036743164, 0.0, 0.0, -0.01373291015625, 0, 0, 0, 0, 0, 0, 9362.0, 30146.0, 35388.0, 9362.0, 8.05289363861084, 0.05287410318851471, -0.1355166733264923, -0.1556398719549179, 0.9969358444213867, 0.06526340544223785, 0.03244299441576004, -0.06318105757236481, -0.10231781005859375, 1.487548828125, 1.405517578125, 0.0454254150390625, 1.494140625, 1.365966796875, 10.0, 1.401298464324817e-45, 1.401298464324817e-44, 1.3963905572891235
12871, 12.950806617736816, 73.3163833618164, -9.78750991821289, 0.0, 0.0, 89.40713500976562, 0.0, 0.0, -0.006866455078125, 0, 0, 0, 0, 0, 0, 9362.0, 30146.0, 35388.0, 9362.0, 8.05289363861084, 0.27948954701423645, -0.28206947445869446, -0.24444764852523804, 1.000647783279419, 0.06494314223527908, 0.02797074243426323, -0.06318105757236481, -0.10231781005859375, 1.487548828125, 1.401123046875, 0.041015625, 1.491943359375, 1.387939453125, 10.0, 1.401298464324817e-45, 1.401298464324817e-44, 1.3963627815246582
12881, 12.993054389953613, 73.35838317871094, -9.827362060546875, 0.0, 0.0, 89.4071044921875, 0.0, 0.0, -0.0030517578125, 0, 0, 0, 0, 0, 0, 9362.0, 30146.0, 35388.0, 9362.0, 8.05289363861084, -0.004910020157694817, 0.08037400990724564, -0.04725131392478943, 0.9963598847389221, 0.06356233358383179, 0.020790746435523033, -0.06318105757236481, -0.10231781005859375, 1.487548828125, 1.386474609375, 0.028656005859375, 1.491943359375, 1.43994140625, 10.0, 1.401298464324817e-45, 1.401298464324817e-44, 1.3965058326721191
12891, 13.049601554870605, 73.42283630371094, -9.880839347839355, 0.0, 0.0, 89.41094970703125, 0.0, 0.0, 0.384521484375, 0, 0, 0, 0, 0, 0, 9362.0, 30146.0, 35388.0, 9362.0, 8.05289363861084, 0.17811830341815948, -0.035624273121356964, -0.03381437808275223, 0.9947478771209717, 0.06244383379817009, 0.01827283389866352, -0.06318105757236481, -0.10231781005859375, 1.487548828125, 1.38134765625, 0.025177001953125, 1.496337890625, 1.4033203125, 10.0, 1.401298464324817e-45, 1.401298464324817e-44, 1.3965282440185547
12901, 13.090068817138672, 73.46342468261719, -9.920391082763672, 0.0, 0.0, 89.41444396972656, 0.0, 0.0, 0.34942626953125, 0, 0, 0, 0, 0, 0, 9362.0, 30146.0, 35388.0, 9362.0, 8.05289363861084, 0.037176091223955154, 0.2920989692211151, -0.1950744092464447, 0.9978132843971252, 0.06010034307837486, 0.022685084491968155, -0.06318105757236481, -0.10231781005859375, 1.487548828125, 1.360107421875, 0.0162506103515625, 1.496337890625, 1.42529296875, 10.0, 1.401298464324817e-45, 1.401298464324817e-44, 1.396622657775879
12911, 13.156783103942871, 73.52765655517578, -9.986089706420898, 0.0, 0.0, 89.41162109375, 0.0, 0.0, -0.28228759765625, 0, 0, 0, 0, 0, 0, 9362.0, 30146.0, 35388.0, 9362.0, 8.05289363861084, 0.05844508111476898, -0.37644293904304504, -0.44241243600845337, 0.9997775554656982, 0.06262285262346268, 0.027721397578716278, -0.06318105757236481, -0.10231781005859375, 1.487548828125, 1.4208984375, 0.063079833984375, 1.49267578125, 1.415771484375, 10.0, 1.401298464324817e-45, 1.401298464324817e-44, 1.3966854810714722
12921, 13.197737693786621, 73.56900024414062, -10.025479316711426, 0.0, 0.0, 89.40911102294922, 0.0, 0.0, -0.251007080078125, 0, 0, 0, 0, 0, 0, 9362.0, 30146.0, 35388.0, 9362.0, 8.05289363861084, 0.004023933317512274, -0.1196444034576416, -0.20987331867218018, 0.9985324144363403, 0.062101323157548904, 0.03129398077726364, -0.06318105757236481, -0.10231781005859375, 1.487548828125, 1.3857421875, 0.0280914306640625, 1.49267578125, 1.41064453125, 10.0, 1.401298464324817e-45, 1.401298464324817e-44, 1.3967312574386597
12931, 13.239171028137207, 73.62529754638672, -10.06580924987793, 0.0, 0.0, 89.4063491821289, 0.0, 0.0, -0.27618408203125, 0, 0, 0, 0, 0, 0, 9362.0, 30146.0, 35388.0, 9362.0, 8.05289363861084, 0.0038083286490291357, 0.3027975857257843, 0.18043752014636993, 0.9994854927062988, 0.06444468349218369, 0.03504388406872749, -0.06318105757236481, -0.10231781005859375, 1.487548828125, 1.43115234375, 0.0766143798828125, 1.48974609375, 1.406982421875, 10.0, 1.401298464324817e-45, 1.401298464324817e-44, 1.396764874458313
12941, 13.275444030761719, 73.66500854492188, -10.1016263961792, 0.0, 0.0, 89.40389251708984, 0.0, 0.0, -0.24566650390625, 0, 0, 0, 0, 0, 0, 9362.0, 30146.0, 35388.0, 9362.0, 8.05289363861084, -0.08086506277322769, -0.07908158004283905, 0.027985164895653725, 0.9982204437255859, 0.06324192136526108, 0.0353577621281147, -0.06318105757236481, -0.10231781005859375, 1.487548828125, 1.349853515625, 0.015350341796875, 1.48974609375, 1.39599609375, 10.0, 1.401298464324817e-45, 1.401298464324817e-44, 1.3967623710632324
12951, 13.326761245727539, 73.72602081298828, -10.148807525634766, 0.0, 0.0, 89.40389251708984, 0.0, 0.0, -0.24566650390625, 0, 0, 0, 0, 0, 0, 9362.0, 30146.0, 35388.0, 9362.0, 8.05289363861084, 0.057531535625457764, -0.3160398602485657, -0.005006668623536825, 0.9982204437255859, 0.06324192136526108, 0.0353577621281147, -0.06318105757236481, -0.10231781005859375, 1.487548828125, 1.393798828125, 0.0344085693359375, 1.491943359375, 1.39599609375, 10.0, 1.401298464324817e-45, 1.401298464324817e-44, 1.3967623710632324
12981, 13.469122886657715, 73.87327575683594, -10.284878730773926, 0.0, 0.0, 89.38097381591797, 0.0, 0.0, -0.399017333984375, 0, 0, 0, 0, 0, 0, 9362.0, 30146.0, 35388.0, 9362.0, 8.05289363861084, 0.057531535625457764, -0.3160398602485657, -0.005006668623536825, 0.9963361024856567, 0.06346471607685089, 0.02480793371796608, -0.06318105757236481, -0.10231781005859375, 1.487548828125, 1.40185546875, 0.0417938232421875, 1.491943359375, 1.402587890625, 10.0, 1.401298464324817e-45, 1.401298464324817e-44, 1.3967623710632324
12991, 13.534414291381836, 73.93566131591797, -10.348954200744629, 0.0, 0.0, 89.38097381591797, 0.0, 0.0, -0.399017333984375, 0, 0, 0, 0, 0, 0, 9362.0, 30146.0, 35388.0, 9362.0, 8.05289363861084, 0.07112757861614227, -0.11847998201847076, -0.0783657655119896, 0.9963361024856567, 0.06346471607685089, 0.02480793371796608, -0.06318105757236481, -0.10231781005859375, 1.487548828125, 1.400390625, 0.04034423828125, 1.491943359375, 1.380615234375, 10.0, 1.401298464324817e-45, 1.401298464324817e-44, 1.3967623710632324
13001, 13.567536354064941, 73.97509765625, -10.380029678344727, 0.0, 0.0, 89.3763427734375, 0.0, 0.0, -0.217437744140625, 0, 0, 0, 0, 0, 0, 9362.0, 30146.0, 35388.0, 9362.0, 8.05289363861084, 0.24570876359939575, 0.3455529808998108, 0.25659748911857605, 0.9963361024856567, 0.06346471607685089, 0.02480793371796608, -0.06318105757236481, -0.10231781005859375, 1.487548828125, 1.39599609375, 0.0362701416015625, 1.491943359375, 1.380615234375, 10.0, 1.401298464324817e-45, 1.401298464324817e-44, 1.3967623710632324
13011, 13.620589256286621, 74.03243255615234, -10.430882453918457, 0.0, 0.0, 89.3763427734375, 0.0, 0.0, -0.217437744140625, 0, 0, 0, 0, 0, 0, 9362.0, 30146.0, 35388.0, 9362.0, 8.05289363861084, -0.02233489230275154, 0.34661510586738586, -0.109305240213871, 0.9963361024856567, 0.06346471607685089, 0.02480793371796608, -0.06318105757236481, -0.10231781005859375, 1.487548828125, 1.39599609375, 0.0362701416015625, 1.49267578125, 1.380615234375, 10.0, 1.401298464324817e-45, 1.401298464324817e-44, 1.39653742313385
13021, 13.666313171386719, 74.07038116455078, -10.47374439239502, 0.0, 0.0, 89.3763427734375, 0.0, 0.0, -0.217437744140625, 0, 0, 0, 0, 0, 0, 9362.0, 30146.0, 35388.0, 9362.0, 8.05289363861084, 0.25526365637779236, 0.2079930156469345, -0.14004939794540405, 0.9951345324516296, 0.061815883964300156, 0.0314055010676384, -0.06318105757236481, -0.10231781005859375, 1.487548828125, 1.3974609375, 0.03759765625, 1.49267578125, 1.455322265625, 10.0, 1.401298464324817e-45, 1.401298464324817e-44, 1.39653742313385
13041, 13.75293254852295, 74.16851806640625, -10.557413101196289, 0.0, 0.0, 89.3425521850586, 0.0, 0.0, -0.738525390625, 0, 0, 0, 0, 0, 0, 9362.0, 30146.0, 35388.0, 9362.0, 8.05289363861084, -0.06126953661441803, 0.06429827958345413, 0.12105967849493027, 0.9991334676742554, 0.060650553554296494, 0.032108958810567856, -0.06318105757236481, -0.10231781005859375, 1.487548828125, 1.42529296875, 0.0688018798828125, 1.49267578125, 1.39306640625, 10.0, 1.401298464324817e-45, 1.401298464324817e-44, 1.39653742313385
13051, 13.799991607666016, 74.22551727294922, -10.601274490356445, 0.0, 0.0, 89.3425521850586, 0.0, 0.0, -0.738525390625, 0, 0, 0, 0, 0, 0, 9362.0, 30146.0, 35388.0, 9362.0, 8.05289363861084, 0.09028471261262894, 0.12696565687656403, 0.16469234228134155, 0.9991334676742554, 0.060650553554296494, 0.032108958810567856, -0.06318105757236481, -0.10231781005859375, 1.487548828125, 1.42529296875, 0.0688018798828125, 1.4970703125, 1.434814453125, 10.0, 1.401298464324817e-45, 1.401298464324817e-44, 1.39653742313385
13061, 13.842576026916504, 74.26512145996094, -10.643550872802734, 0.0, 0.0, 89.3425521850586, 0.0, 0.0, -0.738525390625, 0, 0, 0, 0, 0, 0, 9362.0, 30146.0, 35388.0, 9362.0, 8.05289363861084, 0.09028471261262894, 0.12696565687656403, 0.16469234228134155, 0.9985277652740479, 0.06220456585288048, 0.030346760526299477, -0.06318105757236481, -0.10231781005859375, 1.487548828125, 1.405517578125, 0.0454254150390625, 1.4970703125, 1.41357421875, 10.0, 1.401298464324817e-45, 1.401298464324817e-44, 1.39653742313385
13071, 13.904027938842773, 74.3255844116211, -10.703299522399902, 0.0, 0.0, 89.3425521850586, 0.0, 0.0, -0.738525390625, 0, 0, 0, 0, 0, 0, 9362.0, 30146.0, 35388.0, 9362.0, 8.05289363861084, 0.022826625034213066, -0.3577103614807129, 0.05207781121134758, 0.9992327690124512, 0.06438462436199188, 0.028357869014143944, -0.06318105757236481, -0.10231781005859375, 1.487548828125, 1.405517578125, 0.0454254150390625, 1.49267578125, 1.41357421875, 10.0, 1.401298464324817e-45, 1.401298464324817e-44, 1.39653742313385
13081, 13.947301864624023, 74.36406707763672, -10.744573593139648, 0.0, 0.0, 89.28890991210938, 0.0, 0.0, -1.15966796875, 0, 0, 0, 0, 0, 0, 9362.0, 30146.0, 35388.0, 9362.0, 8.05289363861084, 0.024423522874712944, -0.15336614847183228, -0.0206785686314106, 0.9983655214309692, 0.06681814789772034, 0.029256166890263557, -0.06318105757236481, -0.10231781005859375, 1.487548828125, 1.405517578125, 0.0454254150390625, 1.49267578125, 1.41357421875, 10.0, 1.401298464324817e-45, 1.401298464324817e-44, 1.39653742313385
13091, 14.014986038208008, 74.42182159423828, -10.80991268157959, 0.0, 0.0, 89.28890991210938, 0.0, 0.0, -1.15966796875, 0, 0, 0, 0, 0, 0, 9362.0, 30146.0, 35388.0, 9362.0, 8.05289363861084, -0.015129092149436474, -0.05822550505399704, -0.0513247549533844, 0.9983655214309692, 0.06681814789772034, 0.029256166890263557, -0.06318105757236481, -0.10231781005859375, 1.487548828125, 1.380615234375, 0.024749755859375, 1.49267578125, 1.41357421875, 10.0, 1.401298464324817e-45, 1.401298464324817e-44, 1.3967700004577637
13101, 14.04686450958252, 74.45858001708984, -10.84064769744873, 0.0, 0.0, 89.27439880371094, 0.0, 0.0, -0.685882568359375, 0, 0, 0, 0, 0, 0, 9362.0, 30146.0, 35388.0, 9362.0, 8.05289363861084, -0.09473609924316406, 0.2580103874206543, 0.4087316691875458, 0.9971528649330139, 0.0670396015048027, 0.030897175893187523, -0.06318105757236481, -0.10231781005859375, 1.487548828125, 1.39599609375, 0.0362701416015625, 1.49267578125, 1.41357421875, 10.0, 1.401298464324817e-45, 1.401298464324817e-44, 1.3967700004577637
13111, 14.101105690002441, 74.51317596435547, -10.89148998260498, 0.0, 0.0, 89.27439880371094, 0.0, 0.0, -0.685882568359375, 0, 0, 0, 0, 0, 0, 9362.0, 30146.0, 35388.0, 9362.0, 8.05289363861084, -0.04041484743356705, 0.288112074136734, 0.08744046092033386, 0.994253933429718, 0.06485181301832199, 0.03151989355683327, -0.06318105757236481, -0.10231781005859375, 1.487548828125, 1.39599609375, 0.0362701416015625, 1.4970703125, 1.423095703125, 10.0, 1.401298464324817e-45, 1.401298464324817e-44, 1.3967700004577637
13121, 14.131441116333008, 74.55036163330078, -10.921354293823242, 0.0, 0.0, 89.27439880371094, 0.0, 0.0, -0.685882568359375, 0, 0, 0, 0, 0, 0, 9362.0, 30146.0, 35388.0, 9362.0, 8.05289363861084, -0.37567615509033203, 0.06626573950052261, 0.24932949244976044, 0.994253933429718, 0.06485181301832199, 0.03151989355683327, -0.06318105757236481, -0.10231781005859375, 1.487548828125, 1.398193359375, 0.03826904296875, 1.4970703125, 1.39013671875, 10.0, 1.401298464324817e-45, 1.401298464324817e-44, 1.3967700004577637
13131, 14.195878028869629, 74.60661315917969, -10.984294891357422, 0.0, 0.0, 89.25772094726562, 0.0, 0.0, -0.609588623046875, 0, 0, 0, 0, 0, 0, 9362.0, 30146.0, 35388.0, 9362.0, 8.05289363861084, 0.016689689829945564, -0.0022499575279653072, 0.00167282170150429, 0.99751877784729, 0.06175442785024643, 0.029759949073195457, -0.06318105757236481, -0.10231781005859375, 1.487548828125, 1.417236328125, 0.058624267578125, 1.4970703125, 1.39013671875, 10.0, 1.401298464324817e-45, 1.401298464324817e-44, 1.3967700004577637
13141, 14.240918159484863, 74.6460189819336, -11.029318809509277, 0.0, 0.0, 89.25772094726562, 0.0, 0.0, -0.609588623046875, 0, 0, 0, 0, 0, 0, 9362.0, 30146.0, 35388.0, 9362.0, 8.05289363861084, -0.018555743619799614, -0.27230021357536316, -0.2918552756309509, 0.998695433139801, 0.06098741665482521, 0.026772629469633102, -0.06318105757236481, -0.10231781005859375, 1.487548828125, 1.3681640625, 0.0185394287109375, 1.4970703125, 1.4208984375, 10.0, 1.401298464324817e-45, 1.401298464324817e-44, 1.3967700004577637
13151, 14.293608665466309, 74.70098114013672, -11.079597473144531, 0.0, 0.0, 89.25772094726562, 0.0, 0.0, -0.609588623046875, 0, 0, 0, 0, 0, 0, 9362.0, 30146.0, 35388.0, 9362.0, 8.05289363861084, -0.018555743619799614, -0.27230021357536316, -0.2918552756309509, 0.9976394772529602, 0.06147679314017296, 0.028148651123046875, -0.06318105757236481, -0.10231781005859375, 1.487548828125, 1.3681640625, 0.0185394287109375, 1.49560546875, 1.4208984375, 10.0, 1.401298464324817e-45, 1.401298464324817e-44, 1.397042989730835
13171, 14.399933815002441, 74.79344940185547, -11.182872772216797, 0.0, 0.0, 89.25772094726562, 0.0, 0.0, -0.609588623046875, 0, 0, 0, 0, 0, 0, 9362.0, 30146.0, 35388.0, 9362.0, 8.05289363861084, 0.09934217482805252, -0.06807292997837067, 0.13790404796600342, 0.9976394772529602, 0.06147679314017296, 0.028148651123046875, -0.0615825355052948, -0.0037593841552734375, 1.49560546875, 1.42529296875, 0.0688018798828125, 1.49560546875, 1.43701171875, 10.0, 1.401298464324817e-45, 1.401298464324817e-44, 1.397042989730835
13181, 14.438237190246582, 74.82987213134766, -11.221124649047852, 0.0, 0.0, 89.25275421142578, 0.0, 0.0, 0.069427490234375, 0, 0, 0, 0, 0, 0, 9362.0, 30146.0, 35388.0, 9362.0, 8.05289363861084, -0.2041291892528534, 0.08244641125202179, -0.07627043128013611, 0.9986386895179749, 0.06423677504062653, 0.029783355072140694, -0.0615825355052948, -0.0037593841552734375, 1.49560546875, 1.38134765625, 0.025177001953125, 1.49560546875, 1.43701171875, 10.0, 1.401298464324817e-45, 1.401298464324817e-44, 1.397042989730835
13191, 14.50792407989502, 74.88106536865234, -11.287790298461914, 0.0, 0.0, 89.25275421142578, 0.0, 0.0, 0.069427490234375, 0, 0, 0, 0, 0, 0, 9362.0, 30146.0, 35388.0, 9362.0, 8.05289363861084, -0.03881390020251274, 0.18079936504364014, -0.32475996017456055, 0.9986386895179749, 0.06423677504062653, 0.029783355072140694, -0.0615825355052948, -0.0037593841552734375, 1.49560546875, 1.39599609375, 0.0362701416015625, 1.49560546875, 1.412841796875, 10.0, 1.401298464324817e-45, 1.401298464324817e-44, 1.397042989730835
13221, 14.669960021972656, 75.00651550292969, -11.443427085876465, 0.0, 0.0, 89.30045318603516, 0.0, 0.0, 1.560211181640625, 0, 0, 0, 0, 0, 0, 9362.0, 30146.0, 35388.0, 9362.0, 8.05289363861084, 0.04929515719413757, -0.23486855626106262, -0.05218777805566788, 0.999286949634552, 0.06891041994094849, 0.03364831954240799, -0.0615825355052948, -0.0037593841552734375, 1.49560546875, 1.42236328125, 0.0649566650390625, 1.4970703125, 1.398193359375, 10.0, 1.401298464324817e-45, 1.401298464324817e-44, 1.3972270488739014
13231, 14.747952461242676, 75.06108093261719, -11.520060539245605, 0.0, 0.0, 89.30045318603516, 0.0, 0.0, 1.560211181640625, 0, 0, 0, 0, 0, 0, 9362.0, 30146.0, 35388.0, 9362.0, 8.05289363861084, 0.15327046811580658, -0.4927346110343933, -0.2882680296897888, 0.9965047836303711, 0.06586289405822754, 0.030535675585269928, -0.0615825355052948, -0.0037593841552734375, 1.49560546875, 1.41650390625, 0.0577545166015625, 1.497802734375, 1.398193359375, 10.0, 1.401298464324817e-45, 1.401298464324817e-44, 1.3972270488739014
13241, 14.783843994140625, 75.09600067138672, -11.554241180419922, 0.0, 0.0, 89.31269073486328, 0.0, 0.0, 0.58135986328125, 0, 0, 0, 0, 0, 0, 9362.0, 30146.0, 35388.0, 9362.0, 8.05289363861084, -0.014103236608207226, 0.22046591341495514, 0.4596713185310364, 0.9972342848777771, 0.0653519481420517, 0.02953353337943554, -0.0615825355052948, -0.0037593841552734375, 1.49560546875, 1.41650390625, 0.0577545166015625, 1.497802734375, 1.398193359375, 10.0, 1.401298464324817e-45, 1.401298464324817e-44, 1.3972270488739014
13251, 14.835741996765137, 75.14852142333984, -11.604499816894531, 0.0, 0.0, 89.31269073486328, 0.0, 0.0, 0.58135986328125, 0, 0, 0, 0, 0, 0, 9362.0, 30146.0, 35388.0, 9362.0, 8.05289363861084, -0.014103236608207226, 0.22046591341495514, 0.4596713185310364, 0.9997828006744385, 0.06277308613061905, 0.027781570330262184, -0.0615825355052948, -0.0037593841552734375, 1.49560546875, 1.36083984375, 0.016387939453125, 1.497802734375, 1.41064453125, 10.0, 1.401298464324817e-45, 1.401298464324817e-44, 1.3972270488739014
13271, 14.919536590576172, 75.23565673828125, -11.683300971984863, 0.0, 0.0, 89.30089569091797, 0.0, 0.0, -0.55694580078125, 0, 0, 0, 0, 0, 0, 9362.0, 30146.0, 35388.0, 9362.0, 8.05289363861084, 0.136867955327034, 0.1395590603351593, 0.11257181316614151, 0.9949600696563721, 0.05599021166563034, 0.025574781000614166, -0.0615825355052948, -0.0037593841552734375, 1.49560546875, 1.36083984375, 0.016387939453125, 1.49560546875, 1.41064453125, 10.0, 1.401298464324817e-45, 1.401298464324817e-44, 1.3972270488739014
13281, 14.952486038208008, 75.27184295654297, -11.714804649353027, 0.0, 0.0, 89.3039321899414, 0.0, 0.0, 0.14495849609375, 0, 0, 0, 0, 0, 0, 9362.0, 30146.0, 35388.0, 9362.0, 8.05289363861084, 0.0992077887058258, 0.011023151688277721, 0.15194958448410034, 0.9949600696563721, 0.05599021166563034, 0.025574781000614166, -0.0615825355052948, -0.0037593841552734375, 1.49560546875, 1.36083984375, 0.016387939453125, 1.49560546875, 1.41064453125, 10.0, 1.401298464324817e-45, 1.401298464324817e-44, 1.3972270488739014
13291, 15.00422191619873, 75.32383728027344, -11.765326499938965, 0.0, 0.0, 89.3039321899414, 0.0, 0.0, 0.14495849609375, 0, 0, 0, 0, 0, 0, 9362.0, 30146.0, 35388.0, 9362.0, 8.05289363861084, -0.13457509875297546, 0.10649348050355911, 0.40552136301994324, 1.0000933408737183, 0.05972616747021675, 0.030637819319963455, -0.0615825355052948, -0.0037593841552734375, 1.49560546875, 1.3798828125, 0.0243377685546875, 1.49560546875, 1.42529296875, 10.0, 1.401298464324817e-45, 1.401298464324817e-44, 1.3972270488739014
13301, 15.03985595703125, 75.35830688476562, -11.800370216369629, 0.0, 0.0, 89.28987121582031, 0.0, 0.0, -0.664520263671875, 0, 0, 0, 0, 0, 0, 9362.0, 30146.0, 35388.0, 9362.0, 8.05289363861084, -0.11789829283952713, 0.05049927160143852, -0.023259202018380165, 0.9979369044303894, 0.062229279428720474, 0.03263489902019501, -0.0615825355052948, -0.0037593841552734375, 1.49560546875, 1.368896484375, 0.01885986328125, 1.49560546875, 1.42529296875, 10.0, 1.401298464324817e-45, 1.401298464324817e-44, 1.3972270488739014
13311, 15.094133377075195, 75.40558624267578, -11.852964401245117, 0.0, 0.0, 89.28987121582031, 0.0, 0.0, -0.664520263671875, 0, 0, 0, 0, 0, 0, 9362.0, 30146.0, 35388.0, 9362.0, 8.05289363861084, -0.0021618891041725874, 0.21455273032188416, -0.005026927683502436, 0.9964036345481873, 0.06450159102678299, 0.03367599472403526, -0.0615825355052948, -0.0037593841552734375, 1.49560546875, 1.388671875, 0.03033447265625, 1.49560546875, 1.42529296875, 10.0, 1.401298464324817e-45, 1.401298464324817e-44, 1.3972270488739014
13321, 15.137322425842285, 75.44219207763672, -11.894331932067871, 0.0, 0.0, 89.28067779541016, 0.0, 0.0, -0.434112548828125, 0, 0, 0, 0, 0, 0, 9362.0, 30146.0, 35388.0, 9362.0, 8.05289363861084, 0.062132641673088074, -0.6725924611091614, -0.10448963940143585, 0.9985249638557434, 0.06525421142578125, 0.033490341156721115, -0.0615825355052948, -0.0037593841552734375, 1.49560546875, 1.406982421875, 0.046966552734375, 1.49560546875, 1.37255859375, 10.0, 1.401298464324817e-45, 1.401298464324817e-44, 1.3972270488739014
13331, 15.197267532348633, 75.4903793334961, -11.950776100158691, 0.0, 0.0, 89.28067779541016, 0.0, 0.0, -0.434112548828125, 0, 0, 0, 0, 0, 0, 9362.0, 30146.0, 35388.0, 9362.0, 8.05289363861084, 0.31805166602134705, 0.4136817753314972, 0.24728716909885406, 0.9983497262001038, 0.06582288444042206, 0.030172763392329216, -0.0615825355052948, -0.0037593841552734375, 1.49560546875, 1.396728515625, 0.0370025634765625, 1.49560546875, 1.4267578125, 10.0, 1.401298464324817e-45, 1.401298464324817e-44, 1.3972270488739014
13341, 15.245038032531738, 75.52312469482422, -11.997631072998047, 0.0, 0.0, 89.28372955322266, 0.0, 0.0, 0.145721435546875, 0, 0, 0, 0, 0, 0, 9362.0, 30146.0, 35388.0, 9362.0, 8.05289363861084, -0.08820728957653046, 0.27611875534057617, -0.2817001938819885, 0.9983497262001038, 0.06582288444042206, 0.030172763392329216, -0.0615825355052948, -0.0037593841552734375, 1.49560546875, 1.39599609375, 0.0362701416015625, 1.49560546875, 1.4267578125, 10.0, 1.401298464324817e-45, 1.401298464324817e-44, 1.397115707397461
13351, 15.310942649841309, 75.5707778930664, -12.061792373657227, 0.0, 0.0, 89.28372955322266, 0.0, 0.0, 0.145721435546875, 0, 0, 0, 0, 0, 0, 9362.0, 30146.0, 35388.0, 9362.0, 8.05289363861084, -0.02030666545033455, 0.2998785078525543, -0.13791555166244507, 0.9983497262001038, 0.06582288444042206, 0.030172763392329216, -0.0615825355052948, -0.0037593841552734375, 1.49560546875, 1.42236328125, 0.0649566650390625, 1.49267578125, 1.414306640625, 10.0, 1.401298464324817e-45, 1.401298464324817e-44, 1.397115707397461
13371, 15.417420387268066, 75.65888977050781, -12.165523529052734, 0.0, 0.0, 89.29151916503906, 0.0, 0.0, 0.370025634765625, 0, 0, 0, 0, 0, 0, 9362.0, 30146.0, 35388.0, 9362.0, 8.05289363861084, 0.2517484724521637, 0.08430851250886917, 0.20048761367797852, 0.9984966516494751, 0.06236279755830765, 0.028559284284710884, -0.059117261320352554, -0.13815879821777344, 1.484619140625, 1.404052734375, 0.04400634765625, 1.494873046875, 1.40771484375, 10.0, 1.401298464324817e-45, 1.401298464324817e-44, 1.397115707397461
13381, 15.463129043579102, 75.69402313232422, -12.2107515335083, 0.0, 0.0, 89.29151916503906, 0.0, 0.0, 0.370025634765625, 0, 0, 0, 0, 0, 0, 9362.0, 30146.0, 35388.0, 9362.0, 8.05289363861084, -0.10823342949151993, -0.23401281237602234, 0.07077784091234207, 0.9986311793327332, 0.06430618464946747, 0.029599938541650772, -0.059117261320352554, -0.13815879821777344, 1.484619140625, 1.374755859375, 0.021392822265625, 1.494873046875, 1.4267578125, 10.0, 1.401298464324817e-45, 1.401298464324817e-44, 1.397115707397461
13391, 15.526545524597168, 75.74250793457031, -12.272881507873535, 0.0, 0.0, 89.29151916503906, 0.0, 0.0, 0.370025634765625, 0, 0, 0, 0, 0, 0, 9362.0, 30146.0, 35388.0, 9362.0, 8.05289363861084, 0.038028523325920105, -0.03609106317162514, 0.03689321130514145, 0.9984496831893921, 0.06502186506986618, 0.029637616127729416, -0.059117261320352554, -0.13815879821777344, 1.484619140625, 1.37109375, 0.0197906494140625, 1.494873046875, 1.388671875, 10.0, 1.401298464324817e-45, 1.401298464324817e-44, 1.397115707397461
13401, 15.570813179016113, 75.77690124511719, -12.315275192260742, 0.0, 0.0, 89.30258178710938, 0.0, 0.0, 0.3204345703125, 0, 0, 0, 0, 0, 0, 9362.0, 30146.0, 35388.0, 9362.0, 8.05289363861084, 0.23690682649612427, -0.06544854491949081, -0.10456164181232452, 0.9984496831893921, 0.06502186506986618, 0.029637616127729416, -0.059117261320352554, -0.13815879821777344, 1.484619140625, 1.383544921875, 0.026611328125, 1.494873046875, 1.388671875, 10.0, 1.401298464324817e-45, 1.401298464324817e-44, 1.3971571922302246
13411, 15.634994506835938, 75.82144927978516, -12.377497673034668, 0.0, 0.0, 89.30258178710938, 0.0, 0.0, 0.3204345703125, 0, 0, 0, 0, 0, 0, 9362.0, 30146.0, 35388.0, 9362.0, 8.05289363861084, -0.10062316805124283, 0.4278494417667389, -0.16854514181613922, 0.9984496831893921, 0.06502186506986618, 0.029637616127729416, -0.059117261320352554, -0.13815879821777344, 1.484619140625, 1.415771484375, 0.0568695068359375, 1.494873046875, 1.388671875, 10.0, 1.401298464324817e-45, 1.401298464324817e-44, 1.3971867561340332
13421, 15.673812866210938, 75.85338592529297, -12.41341495513916, 0.0, 0.0, 89.3091812133789, 0.0, 0.0, 0.313568115234375, 0, 0, 0, 0, 0, 0, 9362.0, 30146.0, 35388.0, 9362.0, 8.05289363861084, 0.2060326635837555, 0.10663783550262451, 0.05641802400350571, 0.9960176348686218, 0.062928207218647, 0.0284101702272892, -0.059117261320352554, -0.13815879821777344, 1.484619140625, 1.4150390625, 0.05596923828125, 1.494873046875, 1.388671875, 10.0, 1.401298464324817e-45, 1.401298464324817e-44, 1.397078275680542
13441, 15.787843704223633, 75.93771362304688, -12.52441120147705, 0.0, 0.0, 89.31047821044922, 0.0, 0.0, 0.06256103515625, 0, 0, 0, 0, 0, 0, 9362.0, 30146.0, 35388.0, 9362.0, 8.05289363861084, -0.014359420165419579, 0.03642942011356354, 0.16899634897708893, 0.9981303811073303, 0.06406275928020477, 0.029180437326431274, -0.059117261320352554, -0.13815879821777344, 1.484619140625, 1.41943359375, 0.0612945556640625, 1.4970703125, 1.388671875, 10.0, 1.401298464324817e-45, 1.401298464324817e-44, 1.3971604108810425
13451, 15.856268882751465, 75.98756408691406, -12.591846466064453, 0.0, 0.0, 89.31047821044922, 0.0, 0.0, 0.06256103515625, 0, 0, 0, 0, 0, 0, 9362.0, 30146.0, 35388.0, 9362.0, 8.05289363861084, 0.03459598869085312, -0.12247396260499954, -0.04615084081888199, 0.9968757033348083, 0.0639747679233551, 0.027184687554836273, -0.059117261320352554, -0.13815879821777344, 1.484619140625, 1.400390625, 0.04034423828125, 1.4970703125, 1.41943359375, 10.0, 1.401298464324817e-45, 1.401298464324817e-44, 1.3971604108810425
13471, 15.975790023803711, 76.06716918945312, -12.709135055541992, 0.0, 0.0, 89.31047821044922, 0.0, 0.0, 0.06256103515625, 0, 0, 0, 0, 0, 0, 9362.0, 30146.0, 35388.0, 9362.0, 8.05289363861084, 0.03554992750287056, -0.22556501626968384, -0.0611899271607399, 0.9966817498207092, 0.0652351900935173, 0.031243031844496727, -0.07930583506822586, -0.01271820068359375, 1.494873046875, 1.41650390625, 0.0577545166015625, 1.4970703125, 1.37548828125, 10.0, 1.401298464324817e-45, 1.401298464324817e-44, 1.3971604108810425
13481, 16.016237258911133, 76.09931945800781, -12.748406410217285, 0.0, 0.0, 89.32681274414062, 0.0, 0.0, 0.621795654296875, 0, 0, 0, 0, 0, 0, 9362.0, 30146.0, 35388.0, 9362.0, 8.05289363861084, 0.0920497477054596, -0.005905251484364271, 0.12519676983356476, 0.9981949925422668, 0.06312170624732971, 0.033713798969984055, -0.07930583506822586, -0.01271820068359375, 1.494873046875, 1.41650390625, 0.0577545166015625, 1.4970703125, 1.37548828125, 10.0, 1.401298464324817e-45, 1.401298464324817e-44, 1.3971869945526123
13491, 16.082197189331055, 76.14633178710938, -12.813444137573242, 0.0, 0.0, 89.32681274414062, 0.0, 0.0, 0.621795654296875, 0, 0, 0, 0, 0, 0, 9362.0, 30146.0, 35388.0, 9362.0, 8.05289363861084, -0.16504120826721191, -0.017284231260418892, 0.0008448962471447885, 0.9987399578094482, 0.0625232607126236, 0.03135405108332634, -0.07930583506822586, -0.01271820068359375, 1.494873046875, 1.41650390625, 0.0577545166015625, 1.49267578125, 1.37548828125, 10.0, 1.401298464324817e-45, 1.401298464324817e-44, 1.3971869945526123
13501, 16.117359161376953, 76.1784439086914, -12.84623908996582, 0.0, 0.0, 89.32681274414062, 0.0, 0.0, 0.621795654296875, 0, 0, 0, 0, 0, 0, 9362.0, 30146.0, 35388.0, 9362.0, 8.05289363861084, 0.0673995316028595, -0.07892482727766037, 0.09095016121864319, 0.9987399578094482, 0.0625232607126236, 0.03135405108332634, -0.07930583506822586, -0.01271820068359375, 1.494873046875, 1.38134765625, 0.025177001953125, 1.49267578125, 1.42822265625, 10.0, 1.401298464324817e-45, 1.401298464324817e-44, 1.3971869945526123
13511, 16.174007415771484, 76.22743225097656, -12.900227546691895, 0.0, 0.0, 89.32681274414062, 0.0, 0.0, 0.621795654296875, 0, 0, 0, 0, 0, 0, 9362.0, 30146.0, 35388.0, 9362.0, 8.05289363861084, 0.30222442746162415, 0.09727289527654648, 0.41433367133140564, 0.998617947101593, 0.06005023047327995, 0.026206834241747856, -0.07930583506822586, -0.01271820068359375, 1.494873046875, 1.405517578125, 0.0454254150390625, 1.491943359375, 1.42822265625, 10.0, 1.401298464324817e-45, 1.401298464324817e-44, 1.3971869945526123
13521, 16.21533203125, 76.25862121582031, -12.940672874450684, 0.0, 0.0, 89.32681274414062, 0.0, 0.0, 0.621795654296875, 0, 0, 0, 0, 0, 0, 9362.0, 30146.0, 35388.0, 9362.0, 8.05289363861084, 0.30222442746162415, 0.09727289527654648, 0.41433367133140564, 0.9985352158546448, 0.05918201059103012, 0.023664338514208794, -0.07930583506822586, -0.01271820068359375, 1.494873046875, 1.3857421875, 0.0280914306640625, 1.491943359375, 1.4091796875, 10.0, 1.401298464324817e-45, 1.401298464324817e-44, 1.3971869945526123
13531, 16.27808952331543, 76.30631256103516, -13.00143814086914, 0.0, 0.0, 89.32681274414062, 0.0, 0.0, 0.621795654296875, 0, 0, 0, 0, 0, 0, 9362.0, 30146.0, 35388.0, 9362.0, 8.05289363861084, -0.01944085955619812, 0.06862010061740875, -0.03338347747921944, 0.9965194463729858, 0.06111147254705429, 0.026981420814990997, -0.07930583506822586, -0.01271820068359375, 1.494873046875, 1.426025390625, 0.069732666015625, 1.4912109375, 1.4091796875, 10.0, 1.401298464324817e-45, 1.401298464324817e-44, 1.3971869945526123
13541, 16.33275032043457, 76.33698272705078, -13.055601119995117, 0.0, 0.0, 89.32681274414062, 0.0, 0.0, 0.621795654296875, 0, 0, 0, 0, 0, 0, 9362.0, 30146.0, 35388.0, 9362.0, 8.05289363861084, -0.027501286938786507, -0.004958622623234987, -0.14340680837631226, 0.9965194463729858, 0.06111147254705429, 0.026981420814990997, -0.07930583506822586, -0.01271820068359375, 1.494873046875, 1.38720703125, 0.0291900634765625, 1.4912109375, 1.411376953125, 10.0, 1.401298464324817e-45, 1.401298464324817e-44, 1.3971869945526123
13551, 16.392175674438477, 76.38247680664062, -13.113693237304688, 0.0, 0.0, 89.32681274414062, 0.0, 0.0, 0.621795654296875, 0, 0, 0, 0, 0, 0, 9362.0, 30146.0, 35388.0, 9362.0, 8.05289363861084, -0.027501286938786507, -0.004958622623234987, -0.14340680837631226, 0.9965194463729858, 0.06111147254705429, 0.026981420814990997, -0.07930583506822586, -0.01271820068359375, 1.494873046875, 1.374755859375, 0.021392822265625, 1.494140625, 1.41357421875, 10.0, 1.401298464324817e-45, 1.401298464324817e-44, 1.3971869945526123
13561, 16.443115234375, 76.41300964355469, -13.165575981140137, 0.0, 0.0, 89.36664581298828, 0.0, 0.0, 0.384521484375, 0, 0, 0, 0, 0, 0, 9362.0, 30146.0, 35388.0, 9362.0, 8.05289363861084, -0.21394678950309753, -0.08308761566877365, -0.18115642666816711, 0.9965194463729858, 0.06111147254705429, 0.026981420814990997, -0.07930583506822586, -0.01271820068359375, 1.494873046875, 1.4208984375, 0.063079833984375, 1.494140625, 1.41357421875, 10.0, 1.401298464324817e-45, 1.401298464324817e-44, 1.3971869945526123
13571, 16.52519416809082, 76.45809173583984, -13.243699073791504, 0.0, 0.0, 89.36664581298828, 0.0, 0.0, 0.384521484375, 0, 0, 0, 0, 0, 0, 9362.0, 30146.0, 35388.0, 9362.0, 8.05289363861084, 0.19594277441501617, -0.23887138068675995, 0.19344331324100494, 0.9973073601722717, 0.06846192479133606, 0.03453514724969864, -0.07930583506822586, -0.01271820068359375, 1.494873046875, 1.388671875, 0.03033447265625, 1.494140625, 1.42529296875, 10.0, 1.401298464324817e-45, 1.401298464324817e-44, 1.3971869945526123
13591, 16.629369735717773, 76.53631591796875, -13.34402084350586, 0.0, 0.0, 89.36664581298828, 0.0, 0.0, 0.384521484375, 0, 0, 0, 0, 0, 0, 9362.0, 30146.0, 35388.0, 9362.0, 8.05289363861084, 0.03815856948494911, -0.08349700272083282, 0.05069510266184807, 0.9970738291740417, 0.06498102843761444, 0.030887097120285034, -0.07930583506822586, -0.01271820068359375, 1.494873046875, 1.4384765625, 0.0871429443359375, 1.49267578125, 1.42529296875, 10.0, 1.401298464324817e-45, 1.401298464324817e-44, 1.3974732160568237
13601, 16.67404556274414, 76.56810760498047, -13.388236045837402, 0.0, 0.0, 89.36664581298828, 0.0, 0.0, 0.384521484375, 0, 0, 0, 0, 0, 0, 9362.0, 30146.0, 35388.0, 9362.0, 8.05289363861084, -0.07738342881202698, -0.3135526180267334, 0.10666293650865555, 0.9964239597320557, 0.061707887798547745, 0.026767341420054436, -0.07930583506822586, -0.01271820068359375, 1.494873046875, 1.38720703125, 0.0291900634765625, 1.49267578125, 1.41796875, 10.0, 1.401298464324817e-45, 1.401298464324817e-44, 1.3974732160568237
13611, 16.748126983642578, 76.61370849609375, -13.460991859436035, 0.0, 0.0, 89.36664581298828, 0.0, 0.0, 0.384521484375, 0, 0, 0, 0, 0, 0, 9362.0, 30146.0, 35388.0, 9362.0, 8.05289363861084, 0.20122487843036652, 0.02109341137111187, -0.4893239140510559, 0.9964507818222046, 0.06141192838549614, 0.026690689846873283, -0.07930583506822586, -0.01271820068359375, 1.494873046875, 1.38720703125, 0.0291900634765625, 1.490478515625, 1.389404296875, 10.0, 1.401298464324817e-45, 1.401298464324817e-44, 1.3974732160568237
13621, 16.794694900512695, 76.64591979980469, -13.506499290466309, 0.0, 0.0, 89.36664581298828, 0.0, 0.0, 0.384521484375, 0, 0, 0, 0, 0, 0, 9362.0, 30146.0, 35388.0, 9362.0, 8.05289363861084, 0.034116458147764206, -0.08578072488307953, 0.3783711791038513, 0.9964507818222046, 0.06141192838549614, 0.026690689846873283, -0.07930583506822586, -0.01271820068359375, 1.494873046875, 1.38720703125, 0.0291900634765625, 1.490478515625, 1.398193359375, 10.0, 1.401298464324817e-45, 1.401298464324817e-44, 1.3974732160568237
13631, 16.86928367614746, 76.69335174560547, -13.579597473144531, 0.0, 0.0, 89.36664581298828, 0.0, 0.0, 0.384521484375, 0, 0, 0, 0, 0, 0, 9362.0, 30146.0, 35388.0, 9362.0, 8.05289363861084, -0.016672851517796516, -0.3223733603954315, -0.003693266771733761, 0.9965722560882568, 0.06327900290489197, 0.02770339697599411, -0.07930583506822586, -0.01271820068359375, 1.494873046875, 1.4208984375, 0.063079833984375, 1.490478515625, 1.428955078125, 10.0, 1.401298464324817e-45, 1.401298464324817e-44, 1.3974732160568237
13641, 16.907167434692383, 76.72266387939453, -13.61667537689209, 0.0, 0.0, 89.36664581298828, 0.0, 0.0, 0.384521484375, 0, 0, 0, 0, 0, 0, 9362.0, 30146.0, 35388.0, 9362.0, 8.05289363861084, 0.10286260396242142, 0.20263168215751648, 0.13777001202106476, 0.9965722560882568, 0.06327900290489197, 0.02770339697599411, -0.07930583506822586, -0.01271820068359375, 1.494873046875, 1.3857421875, 0.0280914306640625, 1.490478515625, 1.428955078125, 10.0, 1.401298464324817e-45, 1.401298464324817e-44, 1.39780855178833
13651, 16.97553253173828, 76.76653289794922, -13.683640480041504, 0.0, 0.0, 89.36664581298828, 0.0, 0.0, 0.384521484375, 0, 0, 0, 0, 0, 0, 9362.0, 30146.0, 35388.0, 9362.0, 8.05289363861084, 0.188011035323143, -0.11960183829069138, 0.1343362033367157, 0.9969196915626526, 0.062260713428258896, 0.03106970340013504, -0.07930583506822586, -0.01271820068359375, 1.494873046875, 1.3798828125, 0.0243377685546875, 1.490478515625, 1.4267578125, 10.0, 1.401298464324817e-45, 1.401298464324817e-44, 1.39780855178833
13661, 17.013389587402344, 76.79647064208984, -13.721803665161133, 0.0, 0.0, 89.35330200195312, 0.0, 0.0, -0.170135498046875, 0, 0, 0, 0, 0, 0, 9362.0, 30146.0, 35388.0, 9362.0, 8.05289363861084, 0.188011035323143, -0.11960183829069138, 0.1343362033367157, 0.9994608163833618, 0.06364402920007706, 0.033361271023750305, -0.07930583506822586, -0.01271820068359375, 1.494873046875, 1.3798828125, 0.0243377685546875, 1.490478515625, 1.4267578125, 10.0, 1.401298464324817e-45, 1.401298464324817e-44, 1.39780855178833
13671, 17.073183059692383, 76.84064483642578, -13.78034782409668, 0.0, 0.0, 89.35330200195312, 0.0, 0.0, -0.170135498046875, 0, 0, 0, 0, 0, 0, 9362.0, 30146.0, 35388.0, 9362.0, 8.05289363861084, -0.101711206138134, 0.14820237457752228, 0.26401594281196594, 0.9962217211723328, 0.06343018263578415, 0.03013669326901436, -0.07930583506822586, -0.01271820068359375, 1.494873046875, 1.3798828125, 0.0243377685546875, 1.490478515625, 1.4267578125, 10.0, 1.401298464324817e-45, 1.401298464324817e-44, 1.39780855178833
13681, 17.115863800048828, 76.86993408203125, -13.821564674377441, 0.0, 0.0, 89.35330200195312, 0.0, 0.0, -0.170135498046875, 0, 0, 0, 0, 0, 0, 9362.0, 30146.0, 35388.0, 9362.0, 8.05289363861084, 0.12568502128124237, 0.1976621150970459, 0.09488455206155777, 0.9970465302467346, 0.06343652307987213, 0.029144776985049248, -0.07930583506822586, -0.01271820068359375, 1.494873046875, 1.406982421875, 0.046966552734375, 1.490478515625, 1.44140625, 10.0, 1.401298464324817e-45, 1.401298464324817e-44, 1.39780855178833
13691, 17.17645835876465, 76.91316223144531, -13.88089370727539, 0.0, 0.0, 89.35330200195312, 0.0, 0.0, -0.170135498046875, 0, 0, 0, 0, 0, 0, 9362.0, 30146.0, 35388.0, 9362.0, 8.05289363861084, -0.1536494940519333, 0.13917812705039978, 0.2143654078245163, 0.9987202882766724, 0.06361851096153259, 0.02858784794807434, -0.07930583506822586, -0.01271820068359375, 1.494873046875, 1.406982421875, 0.046966552734375, 1.4970703125, 1.40185546875, 10.0, 1.401298464324817e-45, 1.401298464324817e-44, 1.39780855178833
13701, 17.219289779663086, 76.9421615600586, -13.921525955200195, 0.0, 0.0, 89.34300231933594, 0.0, 0.0, -0.106048583984375, 0, 0, 0, 0, 0, 0, 9362.0, 30146.0, 35388.0, 9362.0, 8.05289363861084, 0.3276252746582031, -0.18556538224220276, 0.04203285649418831, 0.9981628656387329, 0.06369121372699738, 0.02643473632633686, -0.07930583506822586, -0.01271820068359375, 1.494873046875, 1.409912109375, 0.0501251220703125, 1.4970703125, 1.40185546875, 10.0, 1.401298464324817e-45, 1.401298464324817e-44, 1.39780855178833
13711, 17.293407440185547, 76.98741912841797, -13.993780136108398, 0.0, 0.0, 89.34300231933594, 0.0, 0.0, -0.106048583984375, 0, 0, 0, 0, 0, 0, 9362.0, 30146.0, 35388.0, 9362.0, 8.05289363861084, -0.02586590312421322, -0.03752591833472252, -0.04372408986091614, 0.9975030422210693, 0.06466978788375854, 0.027096375823020935, -0.07930583506822586, -0.01271820068359375, 1.494873046875, 1.388671875, 0.03033447265625, 1.4970703125, 1.42236328125, 10.0, 1.401298464324817e-45, 1.401298464324817e-44, 1.39780855178833
13721, 17.34221649169922, 77.01836395263672, -14.042174339294434, 0.0, 0.0, 89.34300231933594, 0.0, 0.0, -0.106048583984375, 0, 0, 0, 0, 0, 0, 9362.0, 30146.0, 35388.0, 9362.0, 8.05289363861084, -0.14757099747657776, -0.24059690535068512, 0.031746212393045425, 0.9967606663703918, 0.06395378708839417, 0.029130805283784866, -0.07930583506822586, -0.01271820068359375, 1.494873046875, 1.400390625, 0.04034423828125, 1.4970703125, 1.414306640625, 10.0, 1.401298464324817e-45, 1.401298464324817e-44, 1.39780855178833
13731, 17.411151885986328, 77.06188201904297, -14.110333442687988, 0.0, 0.0, 89.34300231933594, 0.0, 0.0, -0.106048583984375, 0, 0, 0, 0, 0, 0, 9362.0, 30146.0, 35388.0, 9362.0, 8.05289363861084, -0.11398866027593613, -0.13573838770389557, 0.19400165975093842, 0.9967581629753113, 0.06530693918466568, 0.03190292418003082, -0.07930583506822586, -0.01271820068359375, 1.494873046875, 1.41943359375, 0.0612945556640625, 1.4970703125, 1.42236328125, 10.0, 1.401298464324817e-45, 1.401298464324817e-44, 1.39780855178833
13741, 17.450944900512695, 77.08831024169922, -14.149243354797363, 0.0, 0.0, 89.34300231933594, 0.0, 0.0, -0.106048583984375, 0, 0, 0, 0, 0, 0, 9362.0, 30146.0, 35388.0, 9362.0, 8.05289363861084, -0.015255085192620754, 0.3296430706977844, 0.15269845724105835, 0.9967581629753113, 0.06530693918466568, 0.03190292418003082, -0.07930583506822586, -0.01271820068359375, 1.494873046875, 1.428955078125, 0.073577880859375, 1.4970703125, 1.4326171875, 10.0, 1.401298464324817e-45, 1.401298464324817e-44, 1.39780855178833
13751, 17.512989044189453, 77.13136291503906, -14.210570335388184, 0.0, 0.0, 89.34300231933594, 0.0, 0.0, -0.106048583984375, 0, 0, 0, 0, 0, 0, 9362.0, 30146.0, 35388.0, 9362.0, 8.05289363861084, -0.14611591398715973, -0.3682383894920349, -0.1821422576904297, 0.9968518614768982, 0.061007533222436905, 0.03342052176594734, -0.07930583506822586, -0.01271820068359375, 1.494873046875, 1.4326171875, 0.0786895751953125, 1.49853515625, 1.4326171875, 10.0, 1.401298464324817e-45, 1.401298464324817e-44, 1.39780855178833
13771, 17.61855125427246, 77.20164489746094, -14.314664840698242, 0.0, 0.0, 89.37620544433594, 0.0, 0.0, -0.21820068359375, 0, 0, 0, 0, 0, 0, 9362.0, 30146.0, 35388.0, 9362.0, 8.05289363861084, -0.08429574221372604, -0.34473302960395813, -0.057839445769786835, 0.9944985508918762, 0.06111445650458336, 0.029579175636172295, -0.0661337599158287, 0.07688140869140625, 1.502197265625, 1.3974609375, 0.03759765625, 1.49853515625, 1.421630859375, 10.0, 1.401298464324817e-45, 1.401298464324817e-44, 1.3985168933868408
13781, 17.65761947631836, 77.22889709472656, -14.35309886932373, 0.0, 0.0, 89.38605499267578, 0.0, 0.0, 0.467681884765625, 0, 0, 0, 0, 0, 0, 9362.0, 30146.0, 35388.0, 9362.0, 8.05289363861084, -0.042306702584028244, 0.17233458161354065, 0.03595416992902756, 0.9944985508918762, 0.06111445650458336, 0.029579175636172295, -0.0661337599158287, 0.07688140869140625, 1.502197265625, 1.3974609375, 0.03759765625, 1.49853515625, 1.421630859375, 10.0, 1.401298464324817e-45, 1.401298464324817e-44, 1.3986541032791138
13791, 17.726707458496094, 77.27072143554688, -14.4212646484375, 0.0, 0.0, 89.38605499267578, 0.0, 0.0, 0.467681884765625, 0, 0, 0, 0, 0, 0, 9362.0, 30146.0, 35388.0, 9362.0, 8.05289363861084, -0.042306702584028244, 0.17233458161354065, 0.03595416992902756, 0.9944985508918762, 0.06111445650458336, 0.029579175636172295, -0.0661337599158287, 0.07688140869140625, 1.502197265625, 1.41650390625, 0.0577545166015625, 1.49853515625, 1.4208984375, 10.0, 1.401298464324817e-45, 1.401298464324817e-44, 1.3986541032791138
13801, 17.769062042236328, 77.29731750488281, -14.46336555480957, 0.0, 0.0, 89.37747955322266, 0.0, 0.0, -0.405120849609375, 0, 0, 0, 0, 0, 0, 9362.0, 30146.0, 35388.0, 9362.0, 8.05289363861084, -0.15767672657966614, 0.1749648153781891, 0.2769777774810791, 1.0007885694503784, 0.06530026346445084, 0.028240961953997612, -0.0661337599158287, 0.07688140869140625, 1.502197265625, 1.44873046875, 0.102813720703125, 1.49853515625, 1.4208984375, 10.0, 1.401298464324817e-45, 1.401298464324817e-44, 1.3986541032791138
13811, 17.842741012573242, 77.33604431152344, -14.535614013671875, 0.0, 0.0, 89.37747955322266, 0.0, 0.0, -0.405120849609375, 0, 0, 0, 0, 0, 0, 9362.0, 30146.0, 35388.0, 9362.0, 8.05289363861084, 0.1669790893793106, 0.09597697854042053, -0.17776663601398468, 1.0001130104064941, 0.06692012399435043, 0.02788708359003067, -0.0661337599158287, 0.07688140869140625, 1.502197265625, 1.37548828125, 0.021820068359375, 1.49853515625, 1.4091796875, 10.0, 1.401298464324817e-45, 1.401298464324817e-44, 1.3986541032791138
13821, 17.88625717163086, 77.36160278320312, -14.578760147094727, 0.0, 0.0, 89.38308715820312, 0.0, 0.0, 0.26702880859375, 0, 0, 0, 0, 0, 0, 9362.0, 30146.0, 35388.0, 9362.0, 8.05289363861084, -0.0012586930533871055, 0.38122597336769104, 0.014301719143986702, 1.0001130104064941, 0.06692012399435043, 0.02788708359003067, -0.0661337599158287, 0.07688140869140625, 1.502197265625, 1.37548828125, 0.021820068359375, 1.49853515625, 1.4091796875, 10.0, 1.401298464324817e-45, 1.401298464324817e-44, 1.3989351987838745
13831, 17.965835571289062, 77.40325164794922, -14.657135009765625, 0.0, 0.0, 89.38308715820312, 0.0, 0.0, 0.26702880859375, 0, 0, 0, 0, 0, 0, 9362.0, 30146.0, 35388.0, 9362.0, 8.05289363861084, -0.1091834157705307, -0.3843388259410858, -0.1455099731683731, 0.9960981607437134, 0.06595351547002792, 0.03264569863677025, -0.0661337599158287, 0.07688140869140625, 1.502197265625, 1.39892578125, 0.0390167236328125, 1.49853515625, 1.4091796875, 10.0, 1.401298464324817e-45, 1.401298464324817e-44, 1.3990249633789062
13851, 18.066673278808594, 77.46586608886719, -14.754106521606445, 0.0, 0.0, 89.38308715820312, 0.0, 0.0, 0.26702880859375, 0, 0, 0, 0, 0, 0, 9362.0, 30146.0, 35388.0, 9362.0, 8.05289363861084, -0.05241801217198372, 0.41895461082458496, 0.18741276860237122, 0.9981805682182312, 0.06449905782938004, 0.03398190811276436, -0.0661337599158287, 0.07688140869140625, 1.502197265625, 1.393798828125, 0.0344085693359375, 1.49853515625, 1.423828125, 10.0, 1.401298464324817e-45, 1.401298464324817e-44, 1.3993192911148071
13871, 18.180761337280273, 77.5330810546875, -14.863829612731934, 0.0, 0.0, 89.36255645751953, 0.0, 0.0, -0.6500244140625, 0, 0, 0, 0, 0, 0, 9362.0, 30146.0, 35388.0, 9362.0, 8.05289363861084, -0.05241801217198372, 0.41895461082458496, 0.18741276860237122, 0.9957643747329712, 0.06208229437470436, 0.029908256605267525, -0.0689527690410614, -0.05751800537109375, 1.4912109375, 1.4296875, 0.07464599609375, 1.494873046875, 1.423828125, 10.0, 1.401298464324817e-45, 1.401298464324817e-44, 1.3994786739349365
