timeTick, roll, pitch, yaw, stateX, stateY, stateZ, stateVX, stateVY, stateVZ, otX0, otY0, otZ0, otRoll0, otPitch0, otYaw0, left wing, pitch motor, yaw motor, right wing, voltage, roll rate, pitch rate, yaw rate, A_x, A_y, A_z, current, i_raw, v_raw, airflow_voltage, airflow_speed, pot_Pitch, voltage_nKF, kFFx, state, State, volt_KF
51544, -0.6825345754623413, -2.918941020965576, -174.46742248535156, 0, 0, 0, 0, 0, 0, 0, 0, 0, 0, 0, 0, 0, 0, 0, 0, 0, 0, 0, 0, 0, 0, 0, 0, 0, 0, 0, 0, 0, 0, 0, 0, 0, 0
51554, -0.6818415522575378, -2.9196908473968506, -174.4652862548828, 0.0, 0.0, 90.84010314941406, 0.0, 0.0, -0.362396240234375, 0, 0, 0, 0, 0, 0, 9362.0, 30146.0, 35388.0, 9362.0, 0, 0.17318187654018402, -0.0158937256783247, 0.16001811623573303, -0.05915859341621399, -0.010696099139750004, 0.959463357925415, 0, 0, 0, 1.47509765625, 0.147857666015625, 0, 0, 0, 0, 0, 0
51564, -0.6831437349319458, -2.918774366378784, -174.46556091308594, 0.0, 0.0, 90.83684539794922, 0.0, 0.0, -0.325775146484375, 0, 0, 0, 0, 0, 0, 9362.0, 30146.0, 35388.0, 9362.0, 0, -0.1677856147289276, -0.105697862803936, -0.09777595847845078, -0.05630140379071236, -0.012272393330931664, 0.9601951837539673, 0, 0, 0, 1.48681640625, 0.1698150634765625, 0, 1.43994140625, 10.0, 1.0, 10.0, 1.4619616270065308
51574, -0.6830909252166748, -2.918473958969116, -174.46620178222656, 0.0, 0.0, 90.8311767578125, 0.0, 0.0, -0.566864013671875, 0, 0, 0, 0, 0, 0, 9362.0, 30146.0, 35388.0, 9362.0, 0, 0.07671219855546951, 0.10467167943716049, -0.06389779597520828, -0.056210365146398544, -0.012001674622297287, 0.9604731798171997, 0, 0, 0, 1.428955078125, 0.073577880859375, 1.48828125, 1.414306640625, 10.0, 1.0, 10.0, 1.4618343114852905
51584, -0.6832717657089233, -2.9184505939483643, -174.4674835205078, 0.0, 0.0, 90.82608032226562, 0.0, 0.0, -0.5096435546875, 0, 0, 0, 0, 0, 0, 9362.0, 30146.0, 35388.0, 9362.0, 0, -0.06590025871992111, -0.014887510798871517, -0.13998082280158997, -0.05675669014453888, -0.012596230953931808, 0.9631573557853699, 0, 0, 0, 1.434814453125, 0.081787109375, 1.48828125, 1.4384765625, 10.0, 1.0, 10.0, 1.4617975950241089
51594, -0.6824429035186768, -2.9211113452911377, -174.46693420410156, 0.0, 0.0, 90.82312774658203, 0.0, 0.0, -0.295257568359375, 0, 0, 0, 0, 0, 0, 9362.0, 30146.0, 35388.0, 9362.0, 0, 0.2220575362443924, 0.3479633927345276, 0.15319834649562836, -0.05766602233052254, -0.0117281349375844, 0.9605048894882202, 0, 0, 0, 1.499267578125, 0.1941070556640625, 1.49267578125, 1.40625, 10.0, 1.0, 10.0, 1.4618395566940308
51604, -0.6823752522468567, -2.920802593231201, -174.4674072265625, 0.0, 0.0, 90.82047271728516, 0.0, 0.0, -0.2655029296875, 0, 0, 0, 0, 0, 0, 9362.0, 30146.0, 35388.0, 9362.0, 0, 0.059180110692977905, -0.10778885334730148, -0.17031563818454742, -0.056399837136268616, -0.010822371579706669, 0.9621781706809998, 0, 0, 0, 1.468505859375, 0.13604736328125, 1.49267578125, 1.470703125, 10.0, 1.0, 10.0, 1.4619415998458862
51614, -0.6824092864990234, -2.9202382564544678, -174.46841430664062, 0.0, 0.0, 90.82027435302734, 0.0, 0.0, -0.01983642578125, 0, 0, 0, 0, 0, 0, 9362.0, 30146.0, 35388.0, 9362.0, 0, 0.08074307441711426, 0.03876437991857529, -0.3203422427177429, -0.055529866367578506, -0.011724079959094524, 0.962479829788208, 0, 0, 0, 1.483154296875, 0.162841796875, 1.491943359375, 1.46044921875, 10.0, 1.0, 10.0, 1.46198308467865
51624, -0.6828435659408569, -2.9206907749176025, -174.46875, 0.0, 0.0, 90.8200912475586, 0.0, 0.0, -0.018310546875, 0, 0, 0, 0, 0, 0, 9362.0, 30146.0, 35388.0, 9362.0, 0, -0.11109521239995956, 0.15165317058563232, -0.030465831980109215, -0.0551978163421154, -0.012457274831831455, 0.9625747203826904, 0, 0, 0, 1.456787109375, 0.115966796875, 1.491943359375, 1.44140625, 10.0, 1.0, 10.0, 1.462024450302124
51634, -0.682499349117279, -2.9207098484039307, -174.47000122070312, 0.0, 0.0, 90.81719207763672, 0.0, 0.0, -0.2899169921875, 0, 0, 0, 0, 0, 0, 9362.0, 30146.0, 35388.0, 9362.0, 0, -0.06525759398937225, 0.08325780183076859, -0.01857651397585869, -0.05781082063913345, -0.011062970384955406, 0.9616680145263672, 0, 0, 0, 1.434814453125, 0.081787109375, 1.489013671875, 1.4736328125, 10.0, 1.0, 10.0, 1.4620541334152222
51644, -0.6828176975250244, -2.92033314704895, -174.46888732910156, 0.0, 0.0, 90.81458282470703, 0.0, 0.0, -0.26092529296875, 0, 0, 0, 0, 0, 0, 9362.0, 30146.0, 35388.0, 9362.0, 7.933885097503662, 0.016516409814357758, 0.014757323078811169, 0.29939159750938416, -0.05687832087278366, -0.013683855533599854, 0.9593363404273987, -0.08061785995960236, -0.021678924560546875, 1.494140625, 1.46630859375, 0.132171630859375, 1.489013671875, 1.482421875, 10.0, 1.0, 10.0, 1.4620929956436157
51654, -0.6823021769523621, -2.921718120574951, -174.46878051757812, 0.0, 0.0, 90.81442260742188, 0.0, 0.0, -0.016021728515625, 0, 0, 0, 0, 0, 0, 9362.0, 30146.0, 35388.0, 9362.0, 7.933885097503662, 0.14445456862449646, 0.24383454024791718, 0.08175253868103027, -0.05755588784813881, -0.012738816440105438, 0.9617296457290649, -0.08061785995960236, -0.021678924560546875, 1.494140625, 1.49853515625, 0.1927032470703125, 1.49267578125, 1.49853515625, 10.0, 1.0, 10.0, 1.4619998931884766
51664, -0.6816197037696838, -2.9216434955596924, -174.46824645996094, 0.0, 0.0, 90.81427764892578, 0.0, 0.0, -0.014495849609375, 0, 0, 0, 0, 0, 0, 9362.0, 30146.0, 35388.0, 9362.0, 7.933885097503662, 0.004275627434253693, 0.09606494009494781, 0.11394356191158295, -0.054808951914310455, -0.012374790385365486, 0.962579607963562, -0.08061785995960236, -0.021678924560546875, 1.494140625, 1.470703125, 0.1399383544921875, 1.49267578125, 1.461181640625, 10.0, 1.0, 10.0, 1.462001919746399
51674, -0.6817256212234497, -2.9226739406585693, -174.4685821533203, 0.0, 0.0, 90.814697265625, 0.0, 0.0, 0.041961669921875, 0, 0, 0, 0, 0, 0, 9362.0, 30146.0, 35388.0, 9362.0, 7.933885097503662, 0.031135790050029755, 0.16074654459953308, -0.10982494801282883, -0.0553346648812294, -0.011962725780904293, 0.9619478583335876, -0.08061785995960236, -0.021678924560546875, 1.494140625, 1.4326171875, 0.0786895751953125, 1.491943359375, 1.4443359375, 10.0, 1.0, 10.0, 1.4620755910873413
51684, -0.6800391674041748, -2.9246582984924316, -174.4702606201172, 0.0, 0.0, 90.81507110595703, 0.0, 0.0, 0.037384033203125, 0, 0, 0, 0, 0, 0, 9362.0, 30146.0, 35388.0, 9362.0, 7.933885097503662, 0.2513233721256256, 0.41617587208747864, -0.23348365724086761, -0.056242141872644424, -0.012205301783978939, 0.9643435478210449, -0.08061785995960236, -0.021678924560546875, 1.494140625, 1.458984375, 0.1195831298828125, 1.491943359375, 1.453125, 10.0, 1.0, 10.0, 1.4622068405151367
51694, -0.679546594619751, -2.9252500534057617, -174.4692840576172, 0.0, 0.0, 90.81267547607422, 0.0, 0.0, -0.23956298828125, 0, 0, 0, 0, 0, 0, 9362.0, 30146.0, 35388.0, 9362.0, 7.933885097503662, -0.011843914166092873, 0.1638733297586441, 0.14286194741725922, -0.05685962364077568, -0.013160170055925846, 0.9621509909629822, -0.08061785995960236, -0.021678924560546875, 1.494140625, 1.471435546875, 0.14129638671875, 1.49267578125, 1.465576171875, 10.0, 1.0, 10.0, 1.462173581123352
51704, -0.6793821454048157, -2.9265859127044678, -174.47076416015625, 0.0, 0.0, 90.81051635742188, 0.0, 0.0, -0.215911865234375, 0, 0, 0, 0, 0, 0, 9362.0, 30146.0, 35388.0, 9362.0, 7.933885097503662, 0.029001381248235703, 0.2026415914297104, -0.15883496403694153, -0.05744721367955208, -0.012154785916209221, 0.9615063071250916, -0.08061785995960236, -0.021678924560546875, 1.494140625, 1.436279296875, 0.0838775634765625, 1.49267578125, 1.452392578125, 10.0, 1.0, 10.0, 1.462050199508667
51714, -0.6783552169799805, -2.926985263824463, -174.47048950195312, 0.0, 0.0, 90.81021881103516, 0.0, 0.0, -0.029754638671875, 0, 0, 0, 0, 0, 0, 9362.0, 30146.0, 35388.0, 9362.0, 7.933885097503662, 0.021493036299943924, 0.12452401220798492, 0.19054941833019257, -0.05614091083407402, -0.012346810661256313, 0.9624180793762207, -0.08061785995960236, -0.021678924560546875, 1.494140625, 1.4736328125, 0.1452178955078125, 1.4912109375, 1.449462890625, 10.0, 1.0, 10.0, 1.462035894393921
51724, -0.6780896186828613, -2.924975872039795, -174.47096252441406, 0.0, 0.0, 90.80995178222656, 0.0, 0.0, -0.026702880859375, 0, 0, 0, 0, 0, 0, 9362.0, 30146.0, 35388.0, 9362.0, 7.933885097503662, 0.040541183203458786, -0.31552255153656006, -0.07129129767417908, -0.05571417510509491, -0.012562761083245277, 0.9621075391769409, -0.08061785995960236, -0.021678924560546875, 1.494140625, 1.496337890625, 0.1883087158203125, 1.4912109375, 1.508056640625, 10.0, 1.0, 10.0, 1.4620401859283447
51734, -0.6775324940681458, -2.922527551651001, -174.4743194580078, 0.0, 0.0, 90.81353759765625, 0.0, 0.0, 0.35858154296875, 0, 0, 0, 0, 0, 0, 9362.0, 30146.0, 35388.0, 9362.0, 7.933885097503662, -0.09721232205629349, -0.3156980574131012, -0.07644088566303253, -0.055802907794713974, -0.012339793145656586, 0.9626531600952148, -0.08061785995960236, -0.021678924560546875, 1.494140625, 1.49267578125, 0.1811065673828125, 1.491943359375, 1.500732421875, 10.0, 1.0, 10.0, 1.4620836973190308
51744, -0.6749996542930603, -2.924808979034424, -174.47381591796875, 0.0, 0.0, 90.81676483154297, 0.0, 0.0, 0.322723388671875, 0, 0, 0, 0, 0, 0, 9362.0, 30146.0, 35388.0, 9362.0, 7.9140496253967285, 0.2662156820297241, 0.29853934049606323, 0.10903714597225189, -0.058100953698158264, -0.012053175829350948, 0.963979959487915, -0.09078866988420486, -0.09335899353027344, 1.48828125, 1.491943359375, 0.179656982421875, 1.491943359375, 1.483154296875, 10.0, 1.0, 10.0, 1.4620507955551147
51754, -0.6759501099586487, -2.922182559967041, -174.47425842285156, 0.0, 0.0, 90.82514190673828, 0.0, 0.0, 0.83770751953125, 0, 0, 0, 0, 0, 0, 9362.0, 30146.0, 35388.0, 9362.0, 7.9140496253967285, -0.04337732866406441, -0.3938813805580139, -0.19825004041194916, -0.05587802827358246, -0.012140490114688873, 0.9611111879348755, -0.09078866988420486, -0.09335899353027344, 1.48828125, 1.458251953125, 0.1184234619140625, 1.493408203125, 1.434814453125, 10.0, 1.0, 10.0, 1.4619486331939697
51764, -0.6760842204093933, -2.9212028980255127, -174.47412109375, 0.0, 0.0, 90.83267974853516, 0.0, 0.0, 0.7537841796875, 0, 0, 0, 0, 0, 0, 9362.0, 30146.0, 35388.0, 9362.0, 7.9140496253967285, 0.06079713627696037, -0.020557107403874397, 0.048517461866140366, -0.05739130079746246, -0.013805460184812546, 0.9612658023834229, -0.09078866988420486, -0.09335899353027344, 1.48828125, 1.447998046875, 0.1016693115234375, 1.493408203125, 1.45751953125, 10.0, 1.0, 10.0, 1.4620063304901123
51774, -0.6770192384719849, -2.9204916954040527, -174.4757537841797, 0.0, 0.0, 90.83454895019531, 0.0, 0.0, 0.186920166015625, 0, 0, 0, 0, 0, 0, 9362.0, 30146.0, 35388.0, 9362.0, 7.9140496253967285, -0.03138415887951851, 0.060301523655653, -0.3684959411621094, -0.05441676452755928, -0.0126264076679945, 0.9626457095146179, -0.09078866988420486, -0.09335899353027344, 1.48828125, 1.494873046875, 0.185455322265625, 1.48974609375, 1.4736328125, 10.0, 1.0, 10.0, 1.4620893001556396
51784, -0.6767842173576355, -2.918666124343872, -174.47621154785156, 0.0, 0.0, 90.83622741699219, 0.0, 0.0, 0.1678466796875, 0, 0, 0, 0, 0, 0, 9362.0, 30146.0, 35388.0, 9362.0, 7.9140496253967285, -0.02255888283252716, -0.08858045190572739, -0.08653583377599716, -0.05566827580332756, -0.012485736981034279, 0.9611183404922485, -0.09078866988420486, -0.09335899353027344, 1.48828125, 1.505859375, 0.2073974609375, 1.48974609375, 1.470703125, 10.0, 1.0, 10.0, 1.462065577507019
51794, -0.6767715811729431, -2.9160420894622803, -174.4761505126953, 0.0, 0.0, 90.82844543457031, 0.0, 0.0, -0.7781982421875, 0, 0, 0, 0, 0, 0, 9362.0, 30146.0, 35388.0, 9362.0, 7.9140496253967285, -0.1529940515756607, -0.3992629647254944, -0.03456232696771622, -0.05742047354578972, -0.01312949787825346, 0.9617854952812195, -0.09078866988420486, -0.09335899353027344, 1.48828125, 1.4501953125, 0.1050872802734375, 1.48974609375, 1.452392578125, 10.0, 1.0, 10.0, 1.461889386177063
51804, -0.6783233880996704, -2.913104772567749, -174.4766845703125, 0.0, 0.0, 90.82144165039062, 0.0, 0.0, -0.70037841796875, 0, 0, 0, 0, 0, 0, 9362.0, 30146.0, 35388.0, 9362.0, 7.9140496253967285, -0.10817261785268784, -0.420813649892807, -0.022610176354646683, -0.0570763535797596, -0.014004898257553577, 0.9608656167984009, -0.09078866988420486, -0.09335899353027344, 1.48828125, 1.4619140625, 0.1246185302734375, 1.48974609375, 1.483154296875, 10.0, 1.0, 10.0, 1.4616929292678833
51814, -0.6788394451141357, -2.912985324859619, -174.4788055419922, 0.0, 0.0, 90.81951141357422, 0.0, 0.0, -0.193023681640625, 0, 0, 0, 0, 0, 0, 9362.0, 30146.0, 35388.0, 9362.0, 7.9140496253967285, 0.060089923441410065, -0.03875606134533882, -0.206276535987854, -0.05686771497130394, -0.013038788922131062, 0.9602077007293701, -0.09078866988420486, -0.09335899353027344, 1.48828125, 1.40625, 0.04620361328125, 1.493408203125, 1.439208984375, 10.0, 1.0, 10.0, 1.4618324041366577
51824, -0.6791706681251526, -2.9157464504241943, -174.4794464111328, 0.0, 0.0, 90.8177719116211, 0.0, 0.0, -0.1739501953125, 0, 0, 0, 0, 0, 0, 9362.0, 30146.0, 35388.0, 9362.0, 7.9140496253967285, -0.10508187115192413, 0.431197851896286, -0.10228428244590759, -0.05779775232076645, -0.012061531655490398, 0.9618154168128967, -0.09078866988420486, -0.09335899353027344, 1.48828125, 1.5, 0.19561767578125, 1.493408203125, 1.47802734375, 10.0, 1.0, 10.0, 1.4618719816207886
51834, -0.6780503988265991, -2.914552688598633, -174.47972106933594, 0.0, 0.0, 90.8156509399414, 0.0, 0.0, -0.21209716796875, 0, 0, 0, 0, 0, 0, 9362.0, 30146.0, 35388.0, 9362.0, 7.9140496253967285, 0.12154530733823776, 0.05358071252703667, 0.04700807109475136, -0.05605977401137352, -0.012374370358884335, 0.9620550274848938, -0.09078866988420486, -0.09335899353027344, 1.48828125, 1.482421875, 0.161529541015625, 1.48681640625, 1.447265625, 10.0, 1.0, 10.0, 1.4616917371749878
51844, -0.6792447566986084, -2.91180419921875, -174.47914123535156, 0.0, 0.0, 90.8137435913086, 0.0, 0.0, -0.19073486328125, 0, 0, 0, 0, 0, 0, 9362.0, 30146.0, 35388.0, 9362.0, 7.9140496253967285, -0.1592680960893631, -0.33532407879829407, 0.19316349923610687, -0.05594848468899727, -0.012748125940561295, 0.9602370858192444, -0.10391929745674133, -0.030637741088867188, 1.493408203125, 1.411376953125, 0.05181884765625, 1.48681640625, 1.461181640625, 10.0, 1.0, 10.0, 1.4617016315460205
51854, -0.680851399898529, -2.909351110458374, -174.4789276123047, 0.0, 0.0, 90.80437469482422, 0.0, 0.0, -0.9368896484375, 0, 0, 0, 0, 0, 0, 9362.0, 30146.0, 35388.0, 9362.0, 7.9140496253967285, -0.04934053122997284, 0.1521453559398651, 0.15647171437740326, -0.055178310722112656, -0.012112441472709179, 0.9610651731491089, -0.10391929745674133, -0.030637741088867188, 1.493408203125, 1.45458984375, 0.11224365234375, 1.491943359375, 1.487548828125, 10.0, 1.0, 10.0, 1.4618202447891235
51864, -0.6811642646789551, -2.908827304840088, -174.4790802001953, 0.0, 0.0, 90.79593658447266, 0.0, 0.0, -0.84381103515625, 0, 0, 0, 0, 0, 0, 9362.0, 30146.0, 35388.0, 9362.0, 7.9140496253967285, 0.023618562147021294, -0.008334297686815262, 0.005670901853591204, -0.0561683289706707, -0.012906689196825027, 0.961136519908905, -0.10391929745674133, -0.030637741088867188, 1.493408203125, 1.486083984375, 0.16845703125, 1.491943359375, 1.4736328125, 10.0, 1.0, 10.0, 1.4619060754776
51874, -0.6811767220497131, -2.909440755844116, -174.4791717529297, 0.0, 0.0, 90.79435729980469, 0.0, 0.0, -0.157928466796875, 0, 0, 0, 0, 0, 0, 9362.0, 30146.0, 35388.0, 9362.0, 7.9140496253967285, 0.023618562147021294, -0.008334297686815262, 0.005670901853591204, -0.0561683289706707, -0.012906689196825027, 0.961136519908905, -0.10391929745674133, -0.030637741088867188, 1.493408203125, 1.468505859375, 0.13604736328125, 1.491943359375, 1.483154296875, 10.0, 1.0, 10.0, 1.461855173110962
51914, -0.6823841333389282, -2.906839370727539, -174.4806365966797, 0.0, 0.0, 90.80304718017578, 0.0, 0.0, 0.110626220703125, 0, 0, 0, 0, 0, 0, 9362.0, 30146.0, 35388.0, 9362.0, 7.9140496253967285, -0.17121171951293945, -0.058562569320201874, -0.06339145451784134, -0.05610031634569168, -0.012146208435297012, 0.960879385471344, -0.10391929745674133, -0.030637741088867188, 1.493408203125, 1.4677734375, 0.1347198486328125, 1.491943359375, 1.48828125, 10.0, 1.0, 10.0, 1.4618650674819946
51924, -0.6828373074531555, -2.9075379371643066, -174.47987365722656, 0.0, 0.0, 90.80403900146484, 0.0, 0.0, 0.09918212890625, 0, 0, 0, 0, 0, 0, 9362.0, 30146.0, 35388.0, 9362.0, 7.9140496253967285, -0.11590663343667984, 0.03708271682262421, 0.1116890013217926, -0.05798269808292389, -0.012553215958178043, 0.9633952975273132, -0.10391929745674133, -0.030637741088867188, 1.493408203125, 1.44873046875, 0.102813720703125, 1.491943359375, 1.48828125, 10.0, 1.0, 10.0, 1.4618650674819946
51934, -0.6821725368499756, -2.907144784927368, -174.48190307617188, 0.0, 0.0, 90.7978286743164, 0.0, 0.0, -0.62103271484375, 0, 0, 0, 0, 0, 0, 9362.0, 30146.0, 35388.0, 9362.0, 7.9140496253967285, 0.20228806138038635, 0.09312509000301361, -0.08222270011901855, -0.05798269808292389, -0.012553215958178043, 0.9633952975273132, -0.10391929745674133, -0.030637741088867188, 1.493408203125, 1.44287109375, 0.0936279296875, 1.491943359375, 1.426025390625, 10.0, 1.0, 10.0, 1.4617433547973633
51954, -0.6827839612960815, -2.9085352420806885, -174.4818572998047, 0.0, 0.0, 90.78829956054688, 0.0, 0.0, -0.3936767578125, 0, 0, 0, 0, 0, 0, 9362.0, 30146.0, 35388.0, 9362.0, 7.933885097503662, -0.05535025894641876, -0.163002148270607, 0.10392159968614578, -0.05888858065009117, -0.011729798279702663, 0.9593278765678406, -0.09365624189376831, 0.09480094909667969, 1.503662109375, 1.502197265625, 0.20001220703125, 1.4912109375, 1.481689453125, 10.0, 1.0, 10.0, 1.4617433547973633
51964, -0.683624804019928, -2.9076287746429443, -174.48265075683594, 0.0, 0.0, 90.78475189208984, 0.0, 0.0, -0.354766845703125, 0, 0, 0, 0, 0, 0, 9362.0, 30146.0, 35388.0, 9362.0, 7.933885097503662, -0.09517906606197357, -0.16899095475673676, -0.1291479766368866, -0.05888858065009117, -0.011729798279702663, 0.9593278765678406, -0.09365624189376831, 0.09480094909667969, 1.503662109375, 1.46044921875, 0.12200927734375, 1.4912109375, 1.481689453125, 10.0, 1.0, 10.0, 1.4618676900863647
51974, -0.6854172945022583, -2.9092085361480713, -174.48204040527344, 0.0, 0.0, 90.77992248535156, 0.0, 0.0, -0.482940673828125, 0, 0, 0, 0, 0, 0, 9362.0, 30146.0, 35388.0, 9362.0, 7.933885097503662, -0.05894272401928902, 0.33797356486320496, 0.048380132764577866, -0.05888858065009117, -0.011729798279702663, 0.9593278765678406, -0.09365624189376831, 0.09480094909667969, 1.503662109375, 1.44287109375, 0.0936279296875, 1.4970703125, 1.481689453125, 10.0, 1.0, 10.0, 1.461696743965149
51984, -0.6856456995010376, -2.9107096195220947, -174.48085021972656, 0.0, 0.0, 90.77557373046875, 0.0, 0.0, -0.43487548828125, 0, 0, 0, 0, 0, 0, 9362.0, 30146.0, 35388.0, 9362.0, 7.933885097503662, 0.056265369057655334, 0.1524685174226761, 0.21902862191200256, -0.05888858065009117, -0.011729798279702663, 0.9593278765678406, -0.09365624189376831, 0.09480094909667969, 1.503662109375, 1.469970703125, 0.1386566162109375, 1.4970703125, 1.4560546875, 10.0, 1.0, 10.0, 1.4616719484329224
51994, -0.6854764223098755, -2.910773277282715, -174.48048400878906, 0.0, 0.0, 90.77549743652344, 0.0, 0.0, -0.00762939453125, 0, 0, 0, 0, 0, 0, 9362.0, 30146.0, 35388.0, 9362.0, 7.933885097503662, 0.056265369057655334, 0.1524685174226761, 0.21902862191200256, -0.05457841977477074, -0.014922468923032284, 0.961586594581604, -0.09365624189376831, 0.09480094909667969, 1.503662109375, 1.423095703125, 0.06591796875, 1.491943359375, 1.4677734375, 10.0, 1.0, 10.0, 1.4615269899368286
52004, -0.6870890855789185, -2.9115498065948486, -174.48048400878906, 0.0, 0.0, 90.77549743652344, 0.0, 0.0, -0.00762939453125, 0, 0, 0, 0, 0, 0, 9362.0, 30146.0, 35388.0, 9362.0, 7.933885097503662, 0.056265369057655334, 0.1524685174226761, 0.21902862191200256, -0.05525117367506027, -0.012987647205591202, 0.9621487855911255, -0.09365624189376831, 0.09480094909667969, 1.503662109375, 1.51171875, 0.21942138671875, 1.491943359375, 1.47509765625, 10.0, 1.0, 10.0, 1.4615269899368286
52014, -0.687221348285675, -2.910315990447998, -174.48248291015625, 0.0, 0.0, 90.77549743652344, 0.0, 0.0, -0.00762939453125, 0, 0, 0, 0, 0, 0, 9362.0, 30146.0, 35388.0, 9362.0, 7.933885097503662, 0.15656428039073944, -0.020584797486662865, -0.14953897893428802, -0.05525117367506027, -0.012987647205591202, 0.9621487855911255, -0.09365624189376831, 0.09480094909667969, 1.503662109375, 1.446533203125, 0.09930419921875, 1.494873046875, 1.47509765625, 10.0, 1.0, 10.0, 1.4615269899368286
52024, -0.6866407990455627, -2.9095616340637207, -174.48255920410156, 0.0, 0.0, 90.76907348632812, 0.0, 0.0, -0.301361083984375, 0, 0, 0, 0, 0, 0, 9362.0, 30146.0, 35388.0, 9362.0, 7.933885097503662, 0.15656428039073944, -0.020584797486662865, -0.14953897893428802, -0.05525117367506027, -0.012987647205591202, 0.9621487855911255, -0.09365624189376831, 0.09480094909667969, 1.503662109375, 1.49560546875, 0.1868743896484375, 1.494873046875, 1.47509765625, 10.0, 1.0, 10.0, 1.4615999460220337
52034, -0.6868273615837097, -2.9100074768066406, -174.4844207763672, 0.0, 0.0, 90.76907348632812, 0.0, 0.0, -0.301361083984375, 0, 0, 0, 0, 0, 0, 9362.0, 30146.0, 35388.0, 9362.0, 7.933885097503662, 0.14810432493686676, 0.03033934347331524, -0.21047037839889526, -0.05646730959415436, -0.013563096523284912, 0.9621118307113647, -0.09365624189376831, 0.09480094909667969, 1.503662109375, 1.493408203125, 0.1825714111328125, 1.493408203125, 1.47509765625, 10.0, 1.0, 10.0, 1.4615999460220337
52044, -0.6875232458114624, -2.910883903503418, -174.48263549804688, 0.0, 0.0, 90.77223205566406, 0.0, 0.0, 0.1495361328125, 0, 0, 0, 0, 0, 0, 9362.0, 30146.0, 35388.0, 9362.0, 7.933885097503662, -0.0701582133769989, 0.10482525825500488, 0.28884440660476685, -0.05646730959415436, -0.013563096523284912, 0.9621118307113647, -0.07000337541103363, -0.01271820068359375, 1.494873046875, 1.434814453125, 0.081787109375, 1.493408203125, 1.47509765625, 10.0, 1.0, 10.0, 1.4615423679351807
52054, -0.6887252330780029, -2.9144856929779053, -174.4820556640625, 0.0, 0.0, 90.77223205566406, 0.0, 0.0, 0.1495361328125, 0, 0, 0, 0, 0, 0, 9362.0, 30146.0, 35388.0, 9362.0, 7.933885097503662, 0.087269626557827, 0.32358965277671814, 0.04327934607863426, -0.05614197999238968, -0.011711171828210354, 0.961053192615509, -0.07000337541103363, -0.01271820068359375, 1.494873046875, 1.4150390625, 0.05596923828125, 1.4912109375, 1.46337890625, 10.0, 1.0, 10.0, 1.4615423679351807
52064, -0.6880373954772949, -2.9135661125183105, -174.48272705078125, 0.0, 0.0, 90.78518676757812, 0.0, 0.0, 0.6134033203125, 0, 0, 0, 0, 0, 0, 9362.0, 30146.0, 35388.0, 9362.0, 7.933885097503662, 0.22905763983726501, -0.10671056807041168, -0.12722398340702057, -0.056801848113536835, -0.012137500569224358, 0.9615450501441956, -0.07000337541103363, -0.01271820068359375, 1.494873046875, 1.459716796875, 0.120849609375, 1.4912109375, 1.455322265625, 10.0, 1.0, 10.0, 1.4615423679351807
52074, -0.688683807849884, -2.914083957672119, -174.48419189453125, 0.0, 0.0, 90.78414916992188, 0.0, 0.0, -0.103759765625, 0, 0, 0, 0, 0, 0, 9362.0, 30146.0, 35388.0, 9362.0, 7.933885097503662, -0.03018324449658394, 0.005545378662645817, -0.2219209522008896, -0.05672731250524521, -0.014794404618442059, 0.9620139598846436, -0.07000337541103363, -0.01271820068359375, 1.494873046875, 1.475830078125, 0.1492767333984375, 1.4912109375, 1.46484375, 10.0, 1.0, 10.0, 1.4615423679351807
52084, -0.6897082328796387, -2.914124011993408, -174.48660278320312, 0.0, 0.0, 90.78321075439453, 0.0, 0.0, -0.093841552734375, 0, 0, 0, 0, 0, 0, 9362.0, 30146.0, 35388.0, 9362.0, 7.933885097503662, -0.17591571807861328, 0.0007537335623055696, -0.3072323799133301, -0.05672731250524521, -0.014794404618442059, 0.9620139598846436, -0.07000337541103363, -0.01271820068359375, 1.494873046875, 1.475830078125, 0.1492767333984375, 1.4912109375, 1.503662109375, 10.0, 1.0, 10.0, 1.4615614414215088
52094, -0.6894049048423767, -2.9114580154418945, -174.48941040039062, 0.0, 0.0, 90.78455352783203, 0.0, 0.0, 0.13427734375, 0, 0, 0, 0, 0, 0, 9362.0, 30146.0, 35388.0, 9362.0, 7.933885097503662, -0.03517196699976921, -0.21205967664718628, -0.06411346048116684, -0.055928897112607956, -0.014032592065632343, 0.9611114263534546, -0.07000337541103363, -0.01271820068359375, 1.494873046875, 1.489013671875, 0.174041748046875, 1.490478515625, 1.494140625, 10.0, 1.0, 10.0, 1.4615614414215088
52114, -0.6903676986694336, -2.910768747329712, -174.48760986328125, 0.0, 0.0, 90.79122924804688, 0.0, 0.0, 0.5462646484375, 0, 0, 0, 0, 0, 0, 9362.0, 30146.0, 35388.0, 9362.0, 7.933885097503662, -0.062438756227493286, 0.09815571457147598, 0.0002723183133639395, -0.054463788866996765, -0.011677386239171028, 0.9613165855407715, -0.07000337541103363, -0.01271820068359375, 1.494873046875, 1.443603515625, 0.0948486328125, 1.493408203125, 1.440673828125, 10.0, 1.0, 10.0, 1.4613066911697388
52124, -0.6905719637870789, -2.909672975540161, -174.48765563964844, 0.0, 0.0, 90.79615020751953, 0.0, 0.0, 0.492095947265625, 0, 0, 0, 0, 0, 0, 9362.0, 30146.0, 35388.0, 9362.0, 7.933885097503662, 0.05807369202375412, -0.10267092287540436, -0.026702404022216797, -0.057522647082805634, -0.011926745995879173, 0.9605173468589783, -0.07000337541103363, -0.01271820068359375, 1.494873046875, 1.484619140625, 0.1656646728515625, 1.493408203125, 1.4267578125, 10.0, 1.0, 10.0, 1.4613571166992188
52144, -0.6913266777992249, -2.909177780151367, -174.48599243164062, 0.0, 0.0, 90.8087158203125, 0.0, 0.0, 0.5950927734375, 0, 0, 0, 0, 0, 0, 9362.0, 30146.0, 35388.0, 9362.0, 7.933885097503662, -0.018740832805633545, 0.13908110558986664, 0.1401977837085724, -0.05563269183039665, -0.012470015324652195, 0.9623997211456299, -0.07606793940067291, -0.1739978790283203, 1.481689453125, 1.43994140625, 0.089324951171875, 1.4970703125, 1.4267578125, 10.0, 1.0, 10.0, 1.4613889455795288
52154, -0.6923465728759766, -2.9085984230041504, -174.48489379882812, 0.0, 0.0, 90.8087158203125, 0.0, 0.0, 0.5950927734375, 0, 0, 0, 0, 0, 0, 9362.0, 30146.0, 35388.0, 9362.0, 7.933885097503662, 0.07836556434631348, -0.152648463845253, 0.1733134686946869, -0.05563269183039665, -0.012470015324652195, 0.9623997211456299, -0.07606793940067291, -0.1739978790283203, 1.481689453125, 1.491943359375, 0.179656982421875, 1.493408203125, 1.4267578125, 10.0, 1.0, 10.0, 1.4613877534866333
52164, -0.6926862001419067, -2.9098541736602783, -174.48583984375, 0.0, 0.0, 90.8087158203125, 0.0, 0.0, 0.5950927734375, 0, 0, 0, 0, 0, 0, 9362.0, 30146.0, 35388.0, 9362.0, 7.933885097503662, -0.10204053670167923, 0.08796344697475433, -0.12077972292900085, -0.05762050673365593, -0.012088112533092499, 0.9630157947540283, -0.07606793940067291, -0.1739978790283203, 1.481689453125, 1.5029296875, 0.201446533203125, 1.493408203125, 1.4677734375, 10.0, 1.0, 10.0, 1.4613877534866333
52174, -0.6921013593673706, -2.908869743347168, -174.48635864257812, 0.0, 0.0, 90.8087158203125, 0.0, 0.0, 0.5950927734375, 0, 0, 0, 0, 0, 0, 9362.0, 30146.0, 35388.0, 9362.0, 7.933885097503662, -0.10204053670167923, 0.08796344697475433, -0.12077972292900085, -0.05762050673365593, -0.012088112533092499, 0.9630157947540283, -0.07606793940067291, -0.1739978790283203, 1.481689453125, 1.491943359375, 0.179656982421875, 1.48974609375, 1.5029296875, 10.0, 1.0, 10.0, 1.461490511894226
52194, -0.6917951107025146, -2.9101662635803223, -174.48562622070312, 0.0, 0.0, 90.80891418457031, 0.0, 0.0, 0.835418701171875, 0, 0, 0, 0, 0, 0, 9362.0, 30146.0, 35388.0, 9362.0, 7.933885097503662, -0.20365643501281738, 0.18471719324588776, 0.028705274686217308, -0.05569658428430557, -0.011381104588508606, 0.9628560543060303, -0.07606793940067291, -0.1739978790283203, 1.481689453125, 1.465576171875, 0.130889892578125, 1.48974609375, 1.480224609375, 10.0, 1.0, 10.0, 1.4615046977996826
52214, -0.6936683654785156, -2.9135870933532715, -174.48277282714844, 0.0, 0.0, 90.80891418457031, 0.0, 0.0, 0.835418701171875, 0, 0, 0, 0, 0, 0, 9362.0, 30146.0, 35388.0, 9362.0, 7.933885097503662, -0.20365643501281738, 0.18471719324588776, 0.028705274686217308, -0.05702385678887367, -0.013425684534013271, 0.9617246985435486, -0.07606793940067291, -0.1739978790283203, 1.481689453125, 1.474365234375, 0.14654541015625, 1.494873046875, 1.4853515625, 10.0, 1.0, 10.0, 1.4615625143051147
52234, -0.6931692361831665, -2.9118731021881104, -174.4834747314453, 0.0, 0.0, 90.82184600830078, 0.0, 0.0, 0.08544921875, 0, 0, 0, 0, 0, 0, 9362.0, 30146.0, 35388.0, 9362.0, 7.933885097503662, 0.03038850612938404, 0.0333295576274395, 0.022754449397325516, -0.055132217705249786, -0.014197208918631077, 0.9631214141845703, -0.07606793940067291, -0.1739978790283203, 1.481689453125, 1.45166015625, 0.107452392578125, 1.493408203125, 1.4853515625, 10.0, 1.0, 10.0, 1.4615625143051147
52244, -0.6933900713920593, -2.9148662090301514, -174.48333740234375, 0.0, 0.0, 90.82184600830078, 0.0, 0.0, 0.08544921875, 0, 0, 0, 0, 0, 0, 9362.0, 30146.0, 35388.0, 9362.0, 7.9140496253967285, 0.03038850612938404, 0.0333295576274395, 0.022754449397325516, -0.055132217705249786, -0.014197208918631077, 0.9631214141845703, -0.11085290461778641, -0.030637741088867188, 1.493408203125, 1.45166015625, 0.107452392578125, 1.493408203125, 1.4853515625, 10.0, 1.0, 10.0, 1.4616281986236572
52254, -0.6937845945358276, -2.9178075790405273, -174.48272705078125, 0.0, 0.0, 90.82184600830078, 0.0, 0.0, 0.08544921875, 0, 0, 0, 0, 0, 0, 9362.0, 30146.0, 35388.0, 9362.0, 7.9140496253967285, 0.03038850612938404, 0.0333295576274395, 0.022754449397325516, -0.055132217705249786, -0.014197208918631077, 0.9631214141845703, -0.11085290461778641, -0.030637741088867188, 1.493408203125, 1.45458984375, 0.11224365234375, 1.494873046875, 1.51611328125, 10.0, 1.0, 10.0, 1.4615920782089233
52264, -0.6943292617797852, -2.917118549346924, -174.48391723632812, 0.0, 0.0, 90.80626678466797, 0.0, 0.0, -0.774383544921875, 0, 0, 0, 0, 0, 0, 9362.0, 30146.0, 35388.0, 9362.0, 7.9140496253967285, -0.02794070914387703, -0.14815428853034973, -0.28888827562332153, -0.055132217705249786, -0.014197208918631077, 0.9631214141845703, -0.11085290461778641, -0.030637741088867188, 1.493408203125, 1.458251953125, 0.1184234619140625, 1.494873046875, 1.51611328125, 10.0, 1.0, 10.0, 1.4615920782089233
52284, -0.6956726312637329, -2.9191362857818604, -174.4832305908203, 0.0, 0.0, 90.79718017578125, 0.0, 0.0, -0.4302978515625, 0, 0, 0, 0, 0, 0, 9362.0, 30146.0, 35388.0, 9362.0, 7.9140496253967285, -0.02794070914387703, -0.14815428853034973, -0.28888827562332153, -0.055132217705249786, -0.014197208918631077, 0.9631214141845703, -0.11085290461778641, -0.030637741088867188, 1.493408203125, 1.49267578125, 0.1811065673828125, 1.491943359375, 1.46630859375, 10.0, 1.0, 10.0, 1.4616224765777588
52324, -0.6948205828666687, -2.9185073375701904, -174.48377990722656, 0.0, 0.0, 90.79096984863281, 0.0, 0.0, 0.00457763671875, 0, 0, 0, 0, 0, 0, 9362.0, 30146.0, 35388.0, 9362.0, 7.9140496253967285, -0.015699326992034912, -0.12835705280303955, 0.0326620452105999, -0.05756634101271629, -0.011439194902777672, 0.9624248743057251, -0.11085290461778641, -0.030637741088867188, 1.493408203125, 1.414306640625, 0.05517578125, 1.487548828125, 1.49853515625, 10.0, 1.0, 10.0, 1.4616214036941528
52394, -0.6941525340080261, -2.9206607341766357, -174.4864501953125, 0.0, 0.0, 90.80378723144531, 0.0, 0.0, 0.286865234375, 0, 0, 0, 0, 0, 0, 9362.0, 30146.0, 35388.0, 9362.0, 7.9140496253967285, 0.11209999769926071, 0.21357083320617676, -0.024964114651083946, -0.05697738006711006, -0.01333597395569086, 0.9636951088905334, -0.11085290461778641, -0.030637741088867188, 1.493408203125, 1.470703125, 0.1399383544921875, 1.496337890625, 1.46630859375, 10.0, 1.0, 10.0, 1.4618034362792969
52424, -0.6948176026344299, -2.915287971496582, -174.48895263671875, 0.0, 0.0, 90.7770004272461, 0.0, 0.0, -0.812530517578125, 0, 0, 0, 0, 0, 0, 9362.0, 30146.0, 35388.0, 9362.0, 7.9140496253967285, 0.1207982674241066, -0.29485586285591125, -0.20826458930969238, -0.056565068662166595, -0.01350768469274044, 0.9604597091674805, -0.11085290461778641, -0.030637741088867188, 1.493408203125, 1.48681640625, 0.1698150634765625, 1.496337890625, 1.46630859375, 10.0, 1.0, 10.0, 1.461832046508789
52434, -0.6974234580993652, -2.9142003059387207, -174.49160766601562, 0.0, 0.0, 90.7770004272461, 0.0, 0.0, -0.812530517578125, 0, 0, 0, 0, 0, 0, 9362.0, 30146.0, 35388.0, 9362.0, 7.9140496253967285, 0.1207982674241066, -0.29485586285591125, -0.20826458930969238, -0.056565068662166595, -0.01350768469274044, 0.9604597091674805, -0.11085290461778641, -0.030637741088867188, 1.493408203125, 1.468505859375, 0.13604736328125, 1.496337890625, 1.443603515625, 10.0, 1.0, 10.0, 1.4619618654251099
52444, -0.6975849866867065, -2.9135093688964844, -174.49217224121094, 0.0, 0.0, 90.7770004272461, 0.0, 0.0, -0.812530517578125, 0, 0, 0, 0, 0, 0, 9362.0, 30146.0, 35388.0, 9362.0, 7.9140496253967285, -0.031153874471783638, -0.0897621139883995, -0.04115856811404228, -0.056565068662166595, -0.01350768469274044, 0.9604597091674805, -0.10920939594507217, -0.2635974884033203, 1.474365234375, 1.468505859375, 0.13604736328125, 1.496337890625, 1.443603515625, 10.0, 1.0, 10.0, 1.4619618654251099
52454, -0.6977558135986328, -2.915576696395874, -174.49224853515625, 0.0, 0.0, 90.7770004272461, 0.0, 0.0, -0.812530517578125, 0, 0, 0, 0, 0, 0, 9362.0, 30146.0, 35388.0, 9362.0, 7.9140496253967285, -0.031153874471783638, -0.0897621139883995, -0.04115856811404228, -0.056565068662166595, -0.01350768469274044, 0.9604597091674805, -0.10920939594507217, -0.2635974884033203, 1.474365234375, 1.470703125, 0.1399383544921875, 1.494873046875, 1.5, 10.0, 1.0, 10.0, 1.4617583751678467
52474, -0.698853611946106, -2.916177749633789, -174.493896484375, 0.0, 0.0, 90.78050231933594, 0.0, 0.0, 0.4852294921875, 0, 0, 0, 0, 0, 0, 9362.0, 30146.0, 35388.0, 9362.0, 7.9140496253967285, -0.031153874471783638, -0.0897621139883995, -0.04115856811404228, -0.056565068662166595, -0.01350768469274044, 0.9604597091674805, -0.10920939594507217, -0.2635974884033203, 1.474365234375, 1.45458984375, 0.11224365234375, 1.491943359375, 1.447265625, 10.0, 1.0, 10.0, 1.461717963218689
52484, -0.7000002861022949, -2.918346643447876, -174.49545288085938, 0.0, 0.0, 90.78486633300781, 0.0, 0.0, 0.4364013671875, 0, 0, 0, 0, 0, 0, 9362.0, 30146.0, 35388.0, 9362.0, 7.9140496253967285, -0.2057635337114334, 0.34507691860198975, -0.19261090457439423, -0.05742315948009491, -0.011234719306230545, 0.9618695974349976, -0.10920939594507217, -0.2635974884033203, 1.474365234375, 1.45458984375, 0.11224365234375, 1.491943359375, 1.447265625, 10.0, 1.0, 10.0, 1.461717963218689
52504, -0.6994146704673767, -2.9182279109954834, -174.4969482421875, 0.0, 0.0, 90.80998992919922, 0.0, 0.0, 1.190185546875, 0, 0, 0, 0, 0, 0, 9362.0, 30146.0, 35388.0, 9362.0, 7.9140496253967285, -0.2057635337114334, 0.34507691860198975, -0.19261090457439423, -0.05742315948009491, -0.011234719306230545, 0.9618695974349976, -0.10920939594507217, -0.2635974884033203, 1.474365234375, 1.50146484375, 0.1985626220703125, 1.493408203125, 1.44140625, 10.0, 1.0, 10.0, 1.461637258529663
52534, -0.6986321806907654, -2.9200873374938965, -174.49435424804688, 0.0, 0.0, 90.81600189208984, 0.0, 0.0, -0.39520263671875, 0, 0, 0, 0, 0, 0, 9362.0, 30146.0, 35388.0, 9362.0, 7.9140496253967285, 0.17895250022411346, 0.27670496702194214, -0.04026848077774048, -0.056842852383852005, -0.01120311114937067, 0.9621087312698364, -0.10920939594507217, -0.2635974884033203, 1.474365234375, 1.486083984375, 0.16845703125, 1.493408203125, 1.415771484375, 10.0, 1.0, 10.0, 1.461438775062561
52544, -0.6982806324958801, -2.920387029647827, -174.49395751953125, 0.0, 0.0, 90.81600189208984, 0.0, 0.0, -0.39520263671875, 0, 0, 0, 0, 0, 0, 9362.0, 30146.0, 35388.0, 9362.0, 7.9140496253967285, 0.1754101663827896, 0.024250458925962448, 0.04578087478876114, -0.056842852383852005, -0.01120311114937067, 0.9621087312698364, -0.10159236937761307, -0.06647872924804688, 1.490478515625, 1.486083984375, 0.16845703125, 1.493408203125, 1.415771484375, 10.0, 1.0, 10.0, 1.4614750146865845
52564, -0.6958674788475037, -2.9205074310302734, -174.49159240722656, 0.0, 0.0, 90.79804229736328, 0.0, 0.0, -0.68206787109375, 0, 0, 0, 0, 0, 0, 9362.0, 30146.0, 35388.0, 9362.0, 7.9140496253967285, 0.1211666390299797, 0.12827831506729126, 0.10356814414262772, -0.05475693941116333, -0.010602334514260292, 0.9616546630859375, -0.10159236937761307, -0.06647872924804688, 1.490478515625, 1.459716796875, 0.120849609375, 1.49267578125, 1.415771484375, 10.0, 1.0, 10.0, 1.4614750146865845
52584, -0.695584237575531, -2.9181067943573, -174.49256896972656, 0.0, 0.0, 90.79884338378906, 0.0, 0.0, 0.03814697265625, 0, 0, 0, 0, 0, 0, 9362.0, 30146.0, 35388.0, 9362.0, 7.9140496253967285, 0.054206982254981995, -0.5084406137466431, -0.16342706978321075, -0.05584540590643883, -0.012236548587679863, 0.9608097672462463, -0.10159236937761307, -0.06647872924804688, 1.490478515625, 1.447998046875, 0.1016693115234375, 1.49267578125, 1.395263671875, 10.0, 1.0, 10.0, 1.4614750146865845
52604, -0.6957075595855713, -2.920722484588623, -174.49356079101562, 0.0, 0.0, 90.79430389404297, 0.0, 0.0, -0.21514892578125, 0, 0, 0, 0, 0, 0, 9362.0, 30146.0, 35388.0, 9362.0, 7.9140496253967285, -0.21288295090198517, 0.15163083374500275, -0.23208355903625488, -0.05709841474890709, -0.01288948766887188, 0.9622822999954224, -0.10159236937761307, -0.06647872924804688, 1.490478515625, 1.475830078125, 0.1492767333984375, 1.491943359375, 1.478759765625, 10.0, 1.0, 10.0, 1.4613324403762817
52664, -0.6974849104881287, -2.9154741764068604, -174.49472045898438, 0.0, 0.0, 90.76042938232422, 0.0, 0.0, -0.081634521484375, 0, 0, 0, 0, 0, 0, 9362.0, 30146.0, 35388.0, 9362.0, 7.9140496253967285, 0.07539680600166321, -0.09523125737905502, -0.20417100191116333, -0.053909193724393845, -0.012880893424153328, 0.9608299136161804, -0.10159236937761307, -0.06647872924804688, 1.490478515625, 1.4736328125, 0.1452178955078125, 1.49267578125, 1.481689453125, 10.0, 1.0, 10.0, 1.4612535238265991
52684, -0.6973774433135986, -2.9180424213409424, -174.4917449951172, 0.0, 0.0, 90.76630401611328, 0.0, 0.0, 0.278472900390625, 0, 0, 0, 0, 0, 0, 9362.0, 30146.0, 35388.0, 9362.0, 7.9140496253967285, 0.0833398774266243, 0.42452725768089294, 0.20046864449977875, -0.05604645609855652, -0.013024196960031986, 0.9605023264884949, -0.10159236937761307, -0.06647872924804688, 1.490478515625, 1.474365234375, 0.14654541015625, 1.4912109375, 1.445068359375, 10.0, 1.0, 10.0, 1.4609664678573608
52694, -0.6969889402389526, -2.9175586700439453, -174.49273681640625, 0.0, 0.0, 90.76630401611328, 0.0, 0.0, 0.278472900390625, 0, 0, 0, 0, 0, 0, 9362.0, 30146.0, 35388.0, 9362.0, 7.9140496253967285, 0.07567582279443741, -0.18883663415908813, -0.16728855669498444, -0.05604645609855652, -0.013024196960031986, 0.9605023264884949, -0.10159236937761307, -0.06647872924804688, 1.490478515625, 1.4326171875, 0.0786895751953125, 1.490478515625, 1.445068359375, 10.0, 1.0, 10.0, 1.4610203504562378
52704, -0.6970184445381165, -2.9194164276123047, -174.49192810058594, 0.0, 0.0, 90.76630401611328, 0.0, 0.0, 0.278472900390625, 0, 0, 0, 0, 0, 0, 9362.0, 30146.0, 35388.0, 9362.0, 7.9140496253967285, 0.07567582279443741, -0.18883663415908813, -0.16728855669498444, -0.0560319758951664, -0.010937822982668877, 0.961341142654419, -0.10159236937761307, -0.06647872924804688, 1.490478515625, 1.430419921875, 0.0756378173828125, 1.490478515625, 1.421630859375, 10.0, 1.0, 10.0, 1.4610203504562378
52714, -0.6973807215690613, -2.9211232662200928, -174.4910125732422, 0.0, 0.0, 90.76630401611328, 0.0, 0.0, 0.278472900390625, 0, 0, 0, 0, 0, 0, 9362.0, 30146.0, 35388.0, 9362.0, 7.9140496253967285, 0.07567582279443741, -0.18883663415908813, -0.16728855669498444, -0.05877431482076645, -0.012214066460728645, 0.9621349573135376, -0.10159236937761307, -0.06647872924804688, 1.490478515625, 1.44140625, 0.0914459228515625, 1.4912109375, 1.417236328125, 10.0, 1.0, 10.0, 1.4610203504562378
52754, -0.6983972787857056, -2.9236180782318115, -174.49598693847656, 0.0, 0.0, 90.82858276367188, 0.0, 0.0, 0.5584716796875, 0, 0, 0, 0, 0, 0, 9362.0, 30146.0, 35388.0, 9362.0, 7.9140496253967285, 0.08528580516576767, 0.14560191333293915, -0.23097282648086548, -0.058875322341918945, -0.014000842347741127, 0.9621502161026001, -0.10159236937761307, -0.06647872924804688, 1.490478515625, 1.439208984375, 0.0882415771484375, 1.4912109375, 1.3974609375, 10.0, 1.0, 10.0, 1.4610203504562378
52764, -0.6986133456230164, -2.9193031787872314, -174.4943084716797, 0.0, 0.0, 90.82858276367188, 0.0, 0.0, 0.5584716796875, 0, 0, 0, 0, 0, 0, 9362.0, 30146.0, 35388.0, 9362.0, 7.9140496253967285, 0.08528580516576767, 0.14560191333293915, -0.23097282648086548, -0.056216686964035034, -0.011396887712180614, 0.9615212082862854, -0.10159236937761307, -0.06647872924804688, 1.490478515625, 1.439208984375, 0.0882415771484375, 1.4912109375, 1.431884765625, 10.0, 1.0, 10.0, 1.460554599761963
52774, -0.6987816691398621, -2.920334815979004, -174.49502563476562, 0.0, 0.0, 90.83321380615234, 0.0, 0.0, -0.0396728515625, 0, 0, 0, 0, 0, 0, 9362.0, 30146.0, 35388.0, 9362.0, 7.9140496253967285, -0.00451804930344224, 0.14954708516597748, -0.042478661984205246, -0.058118000626564026, -0.012774810194969177, 0.9575740098953247, -0.10159236937761307, -0.06647872924804688, 1.490478515625, 1.439208984375, 0.0882415771484375, 1.4912109375, 1.431884765625, 10.0, 1.0, 10.0, 1.460554599761963
52784, -0.6992834806442261, -2.9219884872436523, -174.49337768554688, 0.0, 0.0, 90.83321380615234, 0.0, 0.0, -0.0396728515625, 0, 0, 0, 0, 0, 0, 9362.0, 30146.0, 35388.0, 9362.0, 7.9140496253967285, -0.00451804930344224, 0.14954708516597748, -0.042478661984205246, -0.058118000626564026, -0.012774810194969177, 0.9575740098953247, -0.10159236937761307, -0.06647872924804688, 1.490478515625, 1.47216796875, 0.142547607421875, 1.4912109375, 1.4326171875, 10.0, 1.0, 10.0, 1.4603509902954102
52804, -0.7002675533294678, -2.921490430831909, -174.4920654296875, 0.0, 0.0, 90.84260559082031, 0.0, 0.0, 0.46234130859375, 0, 0, 0, 0, 0, 0, 9362.0, 30146.0, 35388.0, 9362.0, 7.9140496253967285, -0.030272850766777992, -0.03205295279622078, 0.19783525168895721, -0.05968748778104782, -0.012830064631998539, 0.9610134363174438, -0.10159236937761307, -0.06647872924804688, 1.490478515625, 1.46923828125, 0.137359619140625, 1.48974609375, 1.4326171875, 10.0, 1.0, 10.0, 1.4603509902954102
52814, -0.7011125087738037, -2.9226834774017334, -174.49154663085938, 0.0, 0.0, 90.84260559082031, 0.0, 0.0, 0.46234130859375, 0, 0, 0, 0, 0, 0, 9362.0, 30146.0, 35388.0, 9362.0, 7.9140496253967285, -0.030272850766777992, -0.03205295279622078, 0.19783525168895721, -0.05968748778104782, -0.012830064631998539, 0.9610134363174438, -0.10159236937761307, -0.06647872924804688, 1.490478515625, 1.4443359375, 0.0959930419921875, 1.48974609375, 1.483154296875, 10.0, 1.0, 10.0, 1.4602413177490234
52824, -0.7014521956443787, -2.9246838092803955, -174.4915771484375, 0.0, 0.0, 90.85778045654297, 0.0, 0.0, 0.71868896484375, 0, 0, 0, 0, 0, 0, 9362.0, 30146.0, 35388.0, 9362.0, 7.9140496253967285, -0.01996314525604248, 0.25825127959251404, 0.07156577706336975, -0.05641932785511017, -0.012553076259791851, 0.9636532664299011, -0.10159236937761307, -0.06647872924804688, 1.490478515625, 1.4443359375, 0.0959930419921875, 1.48974609375, 1.4208984375, 10.0, 1.0, 10.0, 1.4602413177490234
52834, -0.7013029456138611, -2.925177574157715, -174.49034118652344, 0.0, 0.0, 90.86370849609375, 0.0, 0.0, 0.592803955078125, 0, 0, 0, 0, 0, 0, 9362.0, 30146.0, 35388.0, 9362.0, 7.9140496253967285, -0.005859105847775936, 0.3197294771671295, -0.060602590441703796, -0.05580589547753334, -0.011613826267421246, 0.9644577503204346, -0.10159236937761307, -0.06647872924804688, 1.490478515625, 1.486083984375, 0.16845703125, 1.48974609375, 1.415771484375, 10.0, 1.0, 10.0, 1.4602413177490234
52844, -0.6997749209403992, -2.9240949153900146, -174.49032592773438, 0.0, 0.0, 90.8690414428711, 0.0, 0.0, 0.533294677734375, 0, 0, 0, 0, 0, 0, 9362.0, 30146.0, 35388.0, 9362.0, 7.9140496253967285, 0.19038788974285126, -0.13585896790027618, -0.017087247222661972, -0.05580589547753334, -0.011613826267421246, 0.9644577503204346, -0.10385656356811523, -0.2994365692138672, 1.471435546875, 1.486083984375, 0.16845703125, 1.48974609375, 1.415771484375, 10.0, 1.0, 10.0, 1.4600656032562256
52854, -0.7003535628318787, -2.928462028503418, -174.49032592773438, 0.0, 0.0, 90.87110900878906, 0.0, 0.0, 0.206756591796875, 0, 0, 0, 0, 0, 0, 9362.0, 30146.0, 35388.0, 9362.0, 7.9140496253967285, 0.19038788974285126, -0.13585896790027618, -0.017087247222661972, -0.05792681500315666, -0.015235056169331074, 0.96071857213974, -0.10385656356811523, -0.2994365692138672, 1.471435546875, 1.45458984375, 0.11224365234375, 1.4912109375, 1.428955078125, 10.0, 1.0, 10.0, 1.4601339101791382
52874, -0.7031964063644409, -2.927379608154297, -174.48748779296875, 0.0, 0.0, 90.8686294555664, 0.0, 0.0, -0.434112548828125, 0, 0, 0, 0, 0, 0, 9362.0, 30146.0, 35388.0, 9362.0, 7.9140496253967285, -0.1959170401096344, -0.09363045543432236, 0.007577978074550629, -0.0572395883500576, -0.013795985840260983, 0.9632903933525085, -0.10385656356811523, -0.2994365692138672, 1.471435546875, 1.4677734375, 0.1347198486328125, 1.4912109375, 1.459716796875, 10.0, 1.0, 10.0, 1.4599742889404297
52914, -0.7063851952552795, -2.926006317138672, -174.487060546875, 0.0, 0.0, 90.86478424072266, 0.0, 0.0, 0.154876708984375, 0, 0, 0, 0, 0, 0, 9362.0, 30146.0, 35388.0, 9362.0, 7.9140496253967285, -0.2180134356021881, -0.17634838819503784, 0.051493361592292786, -0.05793800577521324, -0.013065434992313385, 0.9599838852882385, -0.10385656356811523, -0.2994365692138672, 1.471435546875, 1.439208984375, 0.0882415771484375, 1.4912109375, 1.44873046875, 10.0, 1.0, 10.0, 1.4599742889404297
52924, -0.7058432102203369, -2.9272756576538086, -174.48789978027344, 0.0, 0.0, 90.86618041992188, 0.0, 0.0, 0.139617919921875, 0, 0, 0, 0, 0, 0, 9362.0, 30146.0, 35388.0, 9362.0, 7.9140496253967285, 0.12032990157604218, 0.099558986723423, -0.057227201759815216, -0.05793800577521324, -0.013065434992313385, 0.9599838852882385, -0.10385656356811523, -0.2994365692138672, 1.471435546875, 1.447998046875, 0.1016693115234375, 1.4912109375, 1.442138671875, 10.0, 1.0, 10.0, 1.4599742889404297
52934, -0.7051264047622681, -2.9293978214263916, -174.48773193359375, 0.0, 0.0, 90.86618041992188, 0.0, 0.0, 0.139617919921875, 0, 0, 0, 0, 0, 0, 9362.0, 30146.0, 35388.0, 9362.0, 7.9140496253967285, 0.18112005293369293, 0.23607298731803894, -0.014811817556619644, -0.05882116034626961, -0.011105178855359554, 0.9609124660491943, -0.10385656356811523, -0.2994365692138672, 1.471435546875, 1.447998046875, 0.1016693115234375, 1.49560546875, 1.4736328125, 10.0, 1.0, 10.0, 1.4599742889404297
52954, -0.7066916227340698, -2.9287359714508057, -174.48660278320312, 0.0, 0.0, 90.86437225341797, 0.0, 0.0, 0.09918212890625, 0, 0, 0, 0, 0, 0, 9362.0, 30146.0, 35388.0, 9362.0, 7.9140496253967285, -0.1477954238653183, -0.46637827157974243, -0.22897201776504517, -0.0561898797750473, -0.011711719445884228, 0.9631739854812622, -0.10385656356811523, -0.2994365692138672, 1.471435546875, 1.414306640625, 0.05517578125, 1.49560546875, 1.4736328125, 10.0, 1.0, 10.0, 1.4599742889404297
52984, -0.7033097147941589, -2.9248244762420654, -174.48988342285156, 0.0, 0.0, 90.86388397216797, 0.0, 0.0, -0.138092041015625, 0, 0, 0, 0, 0, 0, 9362.0, 30146.0, 35388.0, 9362.0, 7.9140496253967285, -0.1066749095916748, 0.13456350564956665, -0.13474172353744507, -0.05620817467570305, -0.011303509585559368, 0.9612568020820618, -0.10385656356811523, -0.2994365692138672, 1.471435546875, 1.48974609375, 0.1755218505859375, 1.49560546875, 1.449462890625, 10.0, 1.0, 10.0, 1.4595893621444702
52994, -0.7038269639015198, -2.9230129718780518, -174.48890686035156, 0.0, 0.0, 90.86388397216797, 0.0, 0.0, -0.138092041015625, 0, 0, 0, 0, 0, 0, 9362.0, 30146.0, 35388.0, 9362.0, 7.9140496253967285, 0.027319366112351418, -0.29758065938949585, -0.010972998104989529, -0.05620817467570305, -0.011303509585559368, 0.9612568020820618, -0.10385656356811523, -0.2994365692138672, 1.471435546875, 1.430419921875, 0.0756378173828125, 1.49560546875, 1.449462890625, 10.0, 1.0, 10.0, 1.4595893621444702
53024, -0.7023975849151611, -2.922302484512329, -174.4844970703125, 0.0, 0.0, 90.88020324707031, 0.0, 0.0, 0.83465576171875, 0, 0, 0, 0, 0, 0, 9362.0, 30146.0, 35388.0, 9362.0, 7.9140496253967285, 0.08629505336284637, -0.00023008834978099912, 0.37512287497520447, -0.05775477737188339, -0.01150511298328638, 0.9622235894203186, -0.10385656356811523, -0.2994365692138672, 1.471435546875, 1.468505859375, 0.13604736328125, 1.494140625, 1.46337890625, 10.0, 1.0, 10.0, 1.4596084356307983
53034, -0.7028362154960632, -2.9241933822631836, -174.4840850830078, 0.0, 0.0, 90.88020324707031, 0.0, 0.0, 0.83465576171875, 0, 0, 0, 0, 0, 0, 9362.0, 30146.0, 35388.0, 9362.0, 7.9140496253967285, 0.08629505336284637, -0.00023008834978099912, 0.37512287497520447, -0.05775477737188339, -0.01150511298328638, 0.9622235894203186, -0.10385656356811523, -0.2994365692138672, 1.471435546875, 1.46484375, 0.1295928955078125, 1.494873046875, 1.46484375, 10.0, 1.0, 10.0, 1.4597455263137817
53054, -0.7021700143814087, -2.924199104309082, -174.48313903808594, 0.0, 0.0, 90.89720153808594, 0.0, 0.0, 0.585174560546875, 0, 0, 0, 0, 0, 0, 9362.0, 30146.0, 35388.0, 9362.0, 7.9140496253967285, -0.04475880414247513, -0.039105940610170364, 0.0638226568698883, -0.0560462586581707, -0.012233562767505646, 0.9626355767250061, -0.10385656356811523, -0.2994365692138672, 1.471435546875, 1.4560546875, 0.1147003173828125, 1.494873046875, 1.446533203125, 10.0, 1.0, 10.0, 1.459625005722046
53064, -0.7016224265098572, -2.9236440658569336, -174.48431396484375, 0.0, 0.0, 90.89720153808594, 0.0, 0.0, 0.585174560546875, 0, 0, 0, 0, 0, 0, 9362.0, 30146.0, 35388.0, 9362.0, 7.9140496253967285, -0.04475880414247513, -0.039105940610170364, 0.0638226568698883, -0.0560462586581707, -0.012233562767505646, 0.9626355767250061, -0.10385656356811523, -0.2994365692138672, 1.471435546875, 1.42822265625, 0.0726470947265625, 1.494873046875, 1.5029296875, 10.0, 1.0, 10.0, 1.4596900939941406
53104, -0.7014495730400085, -2.923811674118042, -174.4845428466797, 0.0, 0.0, 90.9334716796875, 0.0, 0.0, 0.304412841796875, 0, 0, 0, 0, 0, 0, 9362.0, 30146.0, 35388.0, 9362.0, 7.9140496253967285, 0.09074487537145615, -0.1290884017944336, -0.320599228143692, -0.05386190861463547, -0.012480909004807472, 0.9602875113487244, -0.10385656356811523, -0.2994365692138672, 1.471435546875, 1.4736328125, 0.1452178955078125, 1.49267578125, 1.447265625, 10.0, 1.0, 10.0, 1.4601346254348755
53124, -0.7007203102111816, -2.9257752895355225, -174.48529052734375, 0.0, 0.0, 90.9334716796875, 0.0, 0.0, 0.304412841796875, 0, 0, 0, 0, 0, 0, 9362.0, 30146.0, 35388.0, 9362.0, 7.9140496253967285, 0.09074487537145615, -0.1290884017944336, -0.320599228143692, -0.056465450674295425, -0.013006895780563354, 0.9588320851325989, -0.10385656356811523, -0.2994365692138672, 1.471435546875, 1.45166015625, 0.107452392578125, 1.49267578125, 1.44140625, 10.0, 1.0, 10.0, 1.4599472284317017
53154, -0.7008096575737, -2.929929256439209, -174.48593139648438, 0.0, 0.0, 90.92631530761719, 0.0, 0.0, -0.467681884765625, 0, 0, 0, 0, 0, 0, 9362.0, 30146.0, 35388.0, 9362.0, 7.9140496253967285, -0.051733195781707764, 0.037581395357847214, -0.13781018555164337, -0.05753935128450394, -0.012578386813402176, 0.9635761976242065, -0.10385656356811523, -0.2994365692138672, 1.471435546875, 1.46484375, 0.1295928955078125, 1.491943359375, 1.4267578125, 10.0, 1.0, 10.0, 1.4602172374725342
53164, -0.6992426514625549, -2.9307491779327393, -174.48638916015625, 0.0, 0.0, 90.92631530761719, 0.0, 0.0, -0.467681884765625, 0, 0, 0, 0, 0, 0, 9362.0, 30146.0, 35388.0, 9362.0, 7.9140496253967285, 0.22699697315692902, 0.13428980112075806, 0.03980547562241554, -0.056079499423503876, -0.011720435693860054, 0.9619368314743042, -0.10385656356811523, -0.2994365692138672, 1.471435546875, 1.487548828125, 0.1712188720703125, 1.491943359375, 1.4267578125, 10.0, 1.0, 10.0, 1.4602172374725342
53174, -0.7004677653312683, -2.9294862747192383, -174.48780822753906, 0.0, 0.0, 90.92631530761719, 0.0, 0.0, -0.467681884765625, 0, 0, 0, 0, 0, 0, 9362.0, 30146.0, 35388.0, 9362.0, 7.9140496253967285, 0.012804454192519188, -0.014132908545434475, 0.011123058386147022, -0.056079499423503876, -0.011720435693860054, 0.9619368314743042, -0.10385656356811523, -0.2994365692138672, 1.471435546875, 1.455322265625, 0.1134796142578125, 1.4912109375, 1.4267578125, 10.0, 1.0, 10.0, 1.4602172374725342
53194, -0.7005212306976318, -2.928335189819336, -174.48883056640625, 0.0, 0.0, 90.92057037353516, 0.0, 0.0, -0.160980224609375, 0, 0, 0, 0, 0, 0, 9362.0, 30146.0, 35388.0, 9362.0, 7.9140496253967285, 0.053088679909706116, -0.06708727777004242, -0.17629750072956085, -0.056079499423503876, -0.011720435693860054, 0.9619368314743042, -0.10385656356811523, -0.2994365692138672, 1.471435546875, 1.424560546875, 0.0678253173828125, 1.4912109375, 1.4326171875, 10.0, 1.0, 10.0, 1.4603900909423828
53224, -0.6984894871711731, -2.9349334239959717, -174.4866180419922, 0.0, 0.0, 90.91976165771484, 0.0, 0.0, 0.030517578125, 0, 0, 0, 0, 0, 0, 9362.0, 30146.0, 35388.0, 9362.0, 7.9140496253967285, 0.16719487309455872, -0.23226319253444672, -0.16115857660770416, -0.058540619909763336, -0.013269332237541676, 0.9613752365112305, -0.10385656356811523, -0.2994365692138672, 1.471435546875, 1.48828125, 0.172576904296875, 1.487548828125, 1.44287109375, 10.0, 1.0, 10.0, 1.46043860912323
53234, -0.6984513998031616, -2.93686580657959, -174.48753356933594, 0.0, 0.0, 90.91976165771484, 0.0, 0.0, 0.030517578125, 0, 0, 0, 0, 0, 0, 9362.0, 30146.0, 35388.0, 9362.0, 7.9140496253967285, 0.15580156445503235, 0.14680315554141998, 0.0041936603374779224, -0.055960334837436676, -0.012236334383487701, 0.961423397064209, -0.10385656356811523, -0.2994365692138672, 1.471435546875, 1.48828125, 0.172576904296875, 1.487548828125, 1.44287109375, 10.0, 1.0, 10.0, 1.46043860912323
53254, -0.6991952657699585, -2.9357099533081055, -174.48887634277344, 0.0, 0.0, 90.93460083007812, 0.0, 0.0, 0.290679931640625, 0, 0, 0, 0, 0, 0, 9362.0, 30146.0, 35388.0, 9362.0, 7.9140496253967285, 0.15691369771957397, 0.3419136703014374, -0.18936525285243988, -0.05813724920153618, -0.013195128180086613, 0.9619328379631042, -0.09127812832593918, -0.030637741088867188, 1.493408203125, 1.48828125, 0.172576904296875, 1.487548828125, 1.44287109375, 10.0, 1.0, 10.0, 1.4604337215423584
53274, -0.6987802982330322, -2.935973644256592, -174.4893341064453, 0.0, 0.0, 90.93355560302734, 0.0, 0.0, -0.3662109375, 0, 0, 0, 0, 0, 0, 9362.0, 30146.0, 35388.0, 9362.0, 7.9140496253967285, 0.16247685253620148, -0.10216471552848816, -0.13134531676769257, -0.059290144592523575, -0.014302604831755161, 0.9632644057273865, -0.09127812832593918, -0.030637741088867188, 1.493408203125, 1.47802734375, 0.1532745361328125, 1.487548828125, 1.436279296875, 10.0, 1.0, 10.0, 1.4604337215423584
53294, -0.699937641620636, -2.934196949005127, -174.49151611328125, 0.0, 0.0, 90.93355560302734, 0.0, 0.0, -0.3662109375, 0, 0, 0, 0, 0, 0, 9362.0, 30146.0, 35388.0, 9362.0, 7.9140496253967285, -0.14713303744792938, -0.16186335682868958, -0.22679755091667175, -0.05505727604031563, -0.013527017086744308, 0.9626336693763733, -0.09127812832593918, -0.030637741088867188, 1.493408203125, 1.480224609375, 0.157379150390625, 1.494140625, 1.469970703125, 10.0, 1.0, 10.0, 1.460252285003662
53314, -0.6984807848930359, -2.936577320098877, -174.49484252929688, 0.0, 0.0, 90.90780639648438, 0.0, 0.0, -0.7476806640625, 0, 0, 0, 0, 0, 0, 9362.0, 30146.0, 35388.0, 9362.0, 7.9140496253967285, -0.13871553540229797, 0.20886211097240448, 0.1957412213087082, -0.055515605956315994, -0.012510322965681553, 0.9618878364562988, -0.09127812832593918, -0.030637741088867188, 1.493408203125, 1.37841796875, 0.023406982421875, 1.494140625, 1.404052734375, 10.0, 1.0, 10.0, 1.460252285003662
53324, -0.6980180740356445, -2.9359142780303955, -174.4955596923828, 0.0, 0.0, 90.90780639648438, 0.0, 0.0, -0.7476806640625, 0, 0, 0, 0, 0, 0, 9362.0, 30146.0, 35388.0, 9362.0, 7.9140496253967285, -0.13871553540229797, 0.20886211097240448, 0.1957412213087082, -0.055515605956315994, -0.012510322965681553, 0.9618878364562988, -0.09127812832593918, -0.030637741088867188, 1.493408203125, 1.46484375, 0.1295928955078125, 1.494140625, 1.4853515625, 10.0, 1.0, 10.0, 1.4601662158966064
53334, -0.6968812346458435, -2.938324451446533, -174.49386596679688, 0.0, 0.0, 90.90780639648438, 0.0, 0.0, -0.7476806640625, 0, 0, 0, 0, 0, 0, 9362.0, 30146.0, 35388.0, 9362.0, 7.9140496253967285, 0.06801449507474899, 0.16729065775871277, 0.03924424946308136, -0.05884595215320587, -0.012299022637307644, 0.9615642428398132, -0.09127812832593918, -0.030637741088867188, 1.493408203125, 1.462646484375, 0.125823974609375, 1.49560546875, 1.4853515625, 10.0, 1.0, 10.0, 1.4601662158966064
53354, -0.6977282166481018, -2.9394519329071045, -174.49423217773438, 0.0, 0.0, 90.87512969970703, 0.0, 0.0, -1.235198974609375, 0, 0, 0, 0, 0, 0, 9362.0, 30146.0, 35388.0, 9362.0, 7.9140496253967285, 0.007825705222785473, -0.11064701527357101, -0.12782283127307892, -0.05694342404603958, -0.012971560470759869, 0.963194727897644, -0.09127812832593918, -0.030637741088867188, 1.493408203125, 1.456787109375, 0.115966796875, 1.49560546875, 1.4853515625, 10.0, 1.0, 10.0, 1.4601662158966064
53394, -0.7004627585411072, -2.9407997131347656, -174.49203491210938, 0.0, 0.0, 90.85520935058594, 0.0, 0.0, -0.22430419921875, 0, 0, 0, 0, 0, 0, 9362.0, 30146.0, 35388.0, 9362.0, 7.9140496253967285, -0.001534388167783618, -0.038137778639793396, -0.1406175196170807, -0.0557532012462616, -0.012719828635454178, 0.9614737629890442, -0.09127812832593918, -0.030637741088867188, 1.493408203125, 1.4560546875, 0.1147003173828125, 1.49560546875, 1.428955078125, 10.0, 1.0, 10.0, 1.4597342014312744
53414, -0.6987635493278503, -2.9428765773773193, -174.49124145507812, 0.0, 0.0, 90.8541030883789, 0.0, 0.0, 0.091552734375, 0, 0, 0, 0, 0, 0, 9362.0, 30146.0, 35388.0, 9362.0, 7.9140496253967285, -0.05159823223948479, 0.04887319356203079, 0.11372923105955124, -0.05714981257915497, -0.010117297992110252, 0.9613361954689026, -0.09127812832593918, -0.030637741088867188, 1.493408203125, 1.42822265625, 0.0726470947265625, 1.49560546875, 1.493408203125, 10.0, 1.0, 10.0, 1.4597086906433105
53424, -0.6982136964797974, -2.943284749984741, -174.4907684326172, 0.0, 0.0, 90.8541030883789, 0.0, 0.0, 0.091552734375, 0, 0, 0, 0, 0, 0, 9362.0, 30146.0, 35388.0, 9362.0, 7.9140496253967285, -0.05159823223948479, 0.04887319356203079, 0.11372923105955124, -0.05714981257915497, -0.010117297992110252, 0.9613361954689026, -0.09127812832593918, -0.030637741088867188, 1.493408203125, 1.47216796875, 0.142547607421875, 1.49560546875, 1.478759765625, 10.0, 1.0, 10.0, 1.4597524404525757
53434, -0.6996983885765076, -2.942873477935791, -174.49288940429688, 0.0, 0.0, 90.8541030883789, 0.0, 0.0, 0.091552734375, 0, 0, 0, 0, 0, 0, 9362.0, 30146.0, 35388.0, 9362.0, 7.9140496253967285, -0.1692688763141632, -0.10368061810731888, -0.28618815541267395, -0.05523189902305603, -0.01351950503885746, 0.9603869915008545, -0.09127812832593918, -0.030637741088867188, 1.493408203125, 1.47216796875, 0.142547607421875, 1.49560546875, 1.478759765625, 10.0, 1.0, 10.0, 1.4597524404525757
