timeTick, roll, pitch, yaw, stateX, stateY, stateZ, stateVX, stateVY, stateVZ, otX0, otY0, otZ0, otRoll0, otPitch0, otYaw0, left wing, pitch motor, yaw motor, right wing, voltage, roll rate, pitch rate, yaw rate, A_x, A_y, A_z, current, i_raw, v_raw, airflow_voltage, airflow_speed, pot_Pitch, voltage_nKF, kFFx, state, State
157071, 0.0, 0.0, 0.0, 0, 0, 0, 0, 0, 0, 0, 0, 0, 0, 0, 0, 0, 0, 0, 0, 0, 0, 0, 0, 0, 0, 0, 0, 0, 0, 0, 0, 0, 0, 0, 0, 0
157081, 0.0, 0.0, 0.0, 0.0, 0.0, 0.0, 0.0, 0.0, 0.0, 0, 0, 0, 0, 0, 0, 0.0, 0.0, 0.0, 0.0, 0, -0.3033784031867981, -0.11610040068626404, 0.044758427888154984, -0.9715485572814941, -0.041798580437898636, 0.04158078506588936, 0, 0, 0, 0, 0, 0, 0, 0, 0, 0
157091, 0.0, 0.0, 0.0, 0.0, 0.0, 0.0, 0.0, 0.0, 0.0, 0, 0, 0, 0, 0, 0, 0.0, 0.0, 0.0, 0.0, 0, -0.3033784031867981, -0.11610040068626404, 0.044758427888154984, -0.9715485572814941, -0.041798580437898636, 0.04158078506588936, 0, 0, 0, 1.4150390625, 0.05596923828125, 0, 0.0, 0.0, 0.0, 0.0
157101, 0.0, 0.0, 0.0, 0.0, 0.0, 0.0, 0.0, 0.0, 0.0, 0, 0, 0, 0, 0, 0, 0.0, 0.0, 0.0, 0.0, 0, -0.3033784031867981, -0.11610040068626404, 0.044758427888154984, -0.9715485572814941, -0.041798580437898636, 0.04158078506588936, 0, 0, 0, 1.440673828125, 0.090423583984375, 1.490478515625, 0.0, 0.0, 0.0, 0.0
157111, 0.0, 0.0, 0.0, 0.0, 0.0, 0.0, 0.0, 0.0, 0.0, 0, 0, 0, 0, 0, 0, 0.0, 0.0, 0.0, 0.0, 0, -0.3033784031867981, -0.11610040068626404, 0.044758427888154984, -0.9715485572814941, -0.041798580437898636, 0.04158078506588936, 0, 0, 0, 1.357177734375, 0.0157928466796875, 1.490478515625, 0.0, 0.0, 0.0, 0.0
157121, 0.0, 0.0, 0.0, 0.0, 0.0, 0.0, 0.0, 0.0, 0.0, 0, 0, 0, 0, 0, 0, 0.0, 0.0, 0.0, 0.0, 0, -0.3033784031867981, -0.11610040068626404, 0.044758427888154984, -0.9715485572814941, -0.041798580437898636, 0.04158078506588936, 0, 0, 0, 1.377685546875, 0.023040771484375, 1.4912109375, 0.0, 0.0, 0.0, 0.0
157131, 0.0, 0.0, 0.0, 0.0, 0.0, 0.0, 0.0, 0.0, 0.0, 0, 0, 0, 0, 0, 0, 0.0, 0.0, 0.0, 0.0, 0, -0.3033784031867981, -0.11610040068626404, 0.044758427888154984, -0.9715485572814941, -0.041798580437898636, 0.04158078506588936, 0, 0, 0, 1.286865234375, 0.070281982421875, 1.4912109375, 0.0, 0.0, 0.0, 0.0
157141, 0.0, 0.0, 0.0, 0.0, 0.0, 0.0, 0.0, 0.0, 0.0, 0, 0, 0, 0, 0, 0, 0.0, 0.0, 0.0, 0.0, 0, -0.3033784031867981, -0.11610040068626404, 0.044758427888154984, -0.9715485572814941, -0.041798580437898636, 0.04158078506588936, 0, 0, 0, 1.434814453125, 0.081787109375, 1.4912109375, 0.0, 0.0, 0.0, 0.0
157151, 0.0, 0.0, 0.0, 0.0, 0.0, 0.0, 0.0, 0.0, 0.0, 0, 0, 0, 0, 0, 0, 0.0, 0.0, 0.0, 0.0, 0, -0.3033784031867981, -0.11610040068626404, 0.044758427888154984, -0.9715485572814941, -0.041798580437898636, 0.04158078506588936, 0, 0, 0, 1.412109375, 0.0526123046875, 1.4912109375, 0.0, 0.0, 0.0, 0.0
157161, 0.0, 0.0, 0.0, 0.0, 0.0, 0.0, 0.0, 0.0, 0.0, 0, 0, 0, 0, 0, 0, 0.0, 0.0, 0.0, 0.0, 0, -0.3033784031867981, -0.11610040068626404, 0.044758427888154984, -0.9715485572814941, -0.041798580437898636, 0.04158078506588936, 0, 0, 0, 1.30078125, 0.048004150390625, 1.489013671875, 0.0, 0.0, 0.0, 0.0
157171, 0.0, 0.0, 0.0, 0.0, 0.0, 0.0, 0.0, 0.0, 0.0, 0, 0, 0, 0, 0, 0, 0.0, 0.0, 0.0, 0.0, 8.271075248718262, -0.3033784031867981, -0.11610040068626404, 0.044758427888154984, -0.9715485572814941, -0.041798580437898636, 0.04158078506588936, -0.08826471120119095, -0.0037593841552734375, 1.49560546875, 1.357177734375, 0.0157928466796875, 1.489013671875, 0.0, 0.0, 0.0, 0.0
157181, 0.0, 0.0, 0.0, 0.0, 0.0, 0.0, 0.0, 0.0, 0.0, 0, 0, 0, 0, 0, 0, 0.0, 0.0, 0.0, 0.0, 8.271075248718262, -0.3033784031867981, -0.11610040068626404, 0.044758427888154984, -0.9715485572814941, -0.041798580437898636, 0.04158078506588936, -0.08826471120119095, -0.0037593841552734375, 1.49560546875, 1.364501953125, 0.0173492431640625, 1.493408203125, 0.0, 0.0, 0.0, 0.0
157191, 0.0, 0.0, 0.0, 0.0, 0.0, 0.0, 0.0, 0.0, 0.0, 0, 0, 0, 0, 0, 0, 0.0, 0.0, 0.0, 0.0, 8.271075248718262, -0.3033784031867981, -0.11610040068626404, 0.044758427888154984, -0.9715485572814941, -0.041798580437898636, 0.04158078506588936, -0.08826471120119095, -0.0037593841552734375, 1.49560546875, 1.23779296875, 0.2061920166015625, 1.493408203125, 0.0, 0.0, 0.0, 0.0
157201, 0.0, 0.0, 0.0, 0.0, 0.0, 0.0, 0.0, 0.0, 0.0, 0, 0, 0, 0, 0, 0, 0.0, 0.0, 0.0, 0.0, 8.271075248718262, -0.3033784031867981, -0.11610040068626404, 0.044758427888154984, -0.9715485572814941, -0.041798580437898636, 0.04158078506588936, -0.08826471120119095, -0.0037593841552734375, 1.49560546875, 1.270751953125, 0.104522705078125, 1.48974609375, 0.0, 0.0, 0.0, 0.0
157211, 0.0, 0.0, 0.0, 0.0, 0.0, 0.0, 0.0, 0.0, 0.0, 0, 0, 0, 0, 0, 0, 0.0, 0.0, 0.0, 0.0, 8.271075248718262, -0.3033784031867981, -0.11610040068626404, 0.044758427888154984, -0.9715485572814941, -0.041798580437898636, 0.04158078506588936, -0.08826471120119095, -0.0037593841552734375, 1.49560546875, 1.465576171875, 0.130889892578125, 1.48974609375, 0.0, 0.0, 0.0, 0.0
157221, 0.0, 0.0, 0.0, 0.0, 0.0, 0.0, 0.0, 0.0, 0.0, 0, 0, 0, 0, 0, 0, 0.0, 0.0, 0.0, 0.0, 8.271075248718262, -0.3033784031867981, -0.11610040068626404, 0.044758427888154984, -0.9715485572814941, -0.041798580437898636, 0.04158078506588936, -0.08826471120119095, -0.0037593841552734375, 1.49560546875, 1.349853515625, 0.015350341796875, 1.494140625, 0.0, 0.0, 0.0, 0.0
157231, 0.0, 0.0, 0.0, 0.0, 0.0, 0.0, 0.0, 0.0, 0.0, 0, 0, 0, 0, 0, 0, 0.0, 0.0, 0.0, 0.0, 8.271075248718262, -0.3033784031867981, -0.11610040068626404, 0.044758427888154984, -0.9715485572814941, -0.041798580437898636, 0.04158078506588936, -0.08826471120119095, -0.0037593841552734375, 1.49560546875, 1.399658203125, 0.0396575927734375, 1.494140625, 0.0, 0.0, 0.0, 0.0
157241, 0.0, 0.0, 0.0, 0.0, 0.0, 0.0, 0.0, 0.0, 0.0, 0, 0, 0, 0, 0, 0, 0.0, 0.0, 0.0, 0.0, 8.271075248718262, -0.3033784031867981, -0.11610040068626404, 0.044758427888154984, -0.9715485572814941, -0.041798580437898636, 0.04158078506588936, -0.08826471120119095, -0.0037593841552734375, 1.49560546875, 1.352783203125, 0.015350341796875, 1.497802734375, 0.0, 0.0, 0.0, 0.0
157251, 0.0, 0.0, 0.0, 0.0, 0.0, 0.0, 0.0, 0.0, 0.0, 0, 0, 0, 0, 0, 0, 0.0, 0.0, 0.0, 0.0, 8.271075248718262, -0.3033784031867981, -0.11610040068626404, 0.044758427888154984, -0.9715485572814941, -0.041798580437898636, 0.04158078506588936, -0.08826471120119095, -0.0037593841552734375, 1.49560546875, 1.423095703125, 0.06591796875, 1.497802734375, 0.0, 0.0, 0.0, 0.0
157261, 0.0, 0.0, 0.0, 0.0, 0.0, 0.0, 0.0, 0.0, 0.0, 0, 0, 0, 0, 0, 0, 0.0, 0.0, 0.0, 0.0, 8.271075248718262, -0.3033784031867981, -0.11610040068626404, 0.044758427888154984, -0.9715485572814941, -0.041798580437898636, 0.04158078506588936, -0.08826471120119095, -0.0037593841552734375, 1.49560546875, 1.29931640625, 0.0500640869140625, 1.493408203125, 0.0, 0.0, 0.0, 0.0
157271, 0.0, 0.0, 0.0, 0.0, 0.0, 0.0, 0.0, 0.0, 0.0, 0, 0, 0, 0, 0, 0, 0.0, 0.0, 0.0, 0.0, 8.271075248718262, -0.3033784031867981, -0.11610040068626404, 0.044758427888154984, -0.9715485572814941, -0.041798580437898636, 0.04158078506588936, -0.09624147415161133, -0.1650371551513672, 1.482421875, 1.45166015625, 0.107452392578125, 1.493408203125, 0.0, 0.0, 0.0, 0.0
157281, 0.0, 0.0, 0.0, 0.0, 0.0, 0.0, 0.0, 0.0, 0.0, 0, 0, 0, 0, 0, 0, 0.0, 0.0, 0.0, 0.0, 8.271075248718262, -0.3033784031867981, -0.11610040068626404, 0.044758427888154984, -0.9715485572814941, -0.041798580437898636, 0.04158078506588936, -0.09624147415161133, -0.1650371551513672, 1.482421875, 1.4560546875, 0.1147003173828125, 1.493408203125, 0.0, 0.0, 0.0, 0.0
157291, 0.0, 0.0, 0.0, 0.0, 0.0, 0.0, 0.0, 0.0, 0.0, 0, 0, 0, 0, 0, 0, 0.0, 0.0, 0.0, 0.0, 8.271075248718262, -0.3033784031867981, -0.11610040068626404, 0.044758427888154984, -0.9715485572814941, -0.041798580437898636, 0.04158078506588936, -0.09624147415161133, -0.1650371551513672, 1.482421875, 1.39453125, 0.035003662109375, 1.493408203125, 0.0, 0.0, 0.0, 0.0
157301, 0.0, 0.0, 0.0, 0.0, 0.0, 0.0, 0.0, 0.0, 0.0, 0, 0, 0, 0, 0, 0, 0.0, 0.0, 0.0, 0.0, 8.271075248718262, -0.3033784031867981, -0.11610040068626404, 0.044758427888154984, -0.9715485572814941, -0.041798580437898636, 0.04158078506588936, -0.09624147415161133, -0.1650371551513672, 1.482421875, 1.424560546875, 0.0678253173828125, 1.49267578125, 0.0, 0.0, 0.0, 0.0
157311, 0.0, 0.0, 0.0, 0.0, 0.0, 0.0, 0.0, 0.0, 0.0, 0, 0, 0, 0, 0, 0, 0.0, 0.0, 0.0, 0.0, 8.271075248718262, -0.3033784031867981, -0.11610040068626404, 0.044758427888154984, -0.9715485572814941, -0.041798580437898636, 0.04158078506588936, -0.09624147415161133, -0.1650371551513672, 1.482421875, 1.409912109375, 0.0501251220703125, 1.49267578125, 0.0, 0.0, 0.0, 0.0
157321, 0.0, 0.0, 0.0, 0.0, 0.0, 0.0, 0.0, 0.0, 0.0, 0, 0, 0, 0, 0, 0, 0.0, 0.0, 0.0, 0.0, 8.271075248718262, -0.3033784031867981, -0.11610040068626404, 0.044758427888154984, -0.9715485572814941, -0.041798580437898636, 0.04158078506588936, -0.09624147415161133, -0.1650371551513672, 1.482421875, 1.426025390625, 0.069732666015625, 1.491943359375, 0.0, 0.0, 0.0, 0.0
157331, 0.0, 0.0, 0.0, 0.0, 0.0, 0.0, 0.0, 0.0, 0.0, 0, 0, 0, 0, 0, 0, 0.0, 0.0, 0.0, 0.0, 8.271075248718262, -0.3033784031867981, -0.11610040068626404, 0.044758427888154984, -0.9715485572814941, -0.041798580437898636, 0.04158078506588936, -0.09624147415161133, -0.1650371551513672, 1.482421875, 1.44873046875, 0.102813720703125, 1.491943359375, 0.0, 0.0, 0.0, 0.0
157341, 0.0, 0.0, 0.0, 0.0, 0.0, 0.0, 0.0, 0.0, 0.0, 0, 0, 0, 0, 0, 0, 0.0, 0.0, 0.0, 0.0, 8.271075248718262, -0.3033784031867981, -0.11610040068626404, 0.044758427888154984, -0.9715485572814941, -0.041798580437898636, 0.04158078506588936, -0.09624147415161133, -0.1650371551513672, 1.482421875, 1.294189453125, 0.0578155517578125, 1.48828125, 0.0, 0.0, 0.0, 0.0
157351, 0.0, 0.0, 0.0, 0.0, 0.0, 0.0, 0.0, 0.0, 0.0, 0, 0, 0, 0, 0, 0, 0.0, 0.0, 0.0, 0.0, 8.271075248718262, -0.3033784031867981, -0.11610040068626404, 0.044758427888154984, -0.9715485572814941, -0.041798580437898636, 0.04158078506588936, -0.09624147415161133, -0.1650371551513672, 1.482421875, 1.44287109375, 0.0936279296875, 1.48828125, 0.0, 0.0, 0.0, 0.0
157361, 0.0, 0.0, 0.0, 0.0, 0.0, 0.0, 0.0, 0.0, 0.0, 0, 0, 0, 0, 0, 0, 0.0, 0.0, 0.0, 0.0, 8.271075248718262, -0.3033784031867981, -0.11610040068626404, 0.044758427888154984, -0.9715485572814941, -0.041798580437898636, 0.04158078506588936, -0.09624147415161133, -0.1650371551513672, 1.482421875, 1.36083984375, 0.016387939453125, 1.491943359375, 0.0, 0.0, 0.0, 0.0
157371, 0.0, 0.0, 0.0, 0.0, 0.0, 0.0, 0.0, 0.0, 0.0, 0, 0, 0, 0, 0, 0, 0.0, 0.0, 0.0, 0.0, 8.271075248718262, -0.3033784031867981, -0.11610040068626404, 0.044758427888154984, -0.9715485572814941, -0.041798580437898636, 0.04158078506588936, -0.09531854838132858, -0.18295860290527344, 1.48095703125, 1.253173828125, 0.15313720703125, 1.491943359375, 0.0, 0.0, 0.0, 0.0
157401, 0.0, 0.0, 0.0, 0.0, 0.0, 0.0, 0.0, 0.0, 0.0, 0, 0, 0, 0, 0, 0, 0.0, 0.0, 0.0, 0.0, 8.271075248718262, -0.3033784031867981, -0.11610040068626404, 0.044758427888154984, -0.9715485572814941, -0.041798580437898636, 0.04158078506588936, -0.09531854838132858, -0.18295860290527344, 1.48095703125, 1.311767578125, 0.0348052978515625, 1.4912109375, 0.0, 0.0, 0.0, 0.0
157431, 0.0, 0.0, 0.0, 0.0, 0.0, 0.0, 0.0, 0.0, 0.0, 0, 0, 0, 0, 0, 0, 0.0, 0.0, 0.0, 0.0, 8.271075248718262, -0.3033784031867981, -0.11610040068626404, 0.044758427888154984, -0.9715485572814941, -0.041798580437898636, 0.04158078506588936, -0.09531854838132858, -0.18295860290527344, 1.48095703125, 1.24951171875, 0.1648101806640625, 1.493408203125, 0.0, 0.0, 0.0, 0.0
157481, 0.0, 0.0, 0.0, 0.0, 0.0, 0.0, 0.0, 0.0, 0.0, 0, 0, 0, 0, 0, 0, 0.0, 0.0, 0.0, 0.0, 8.271075248718262, -0.3033784031867981, -0.11610040068626404, 0.044758427888154984, -0.9715485572814941, -0.041798580437898636, 0.04158078506588936, -0.09531854838132858, -0.18295860290527344, 1.48095703125, 1.28173828125, 0.0802001953125, 1.48974609375, 0.0, 0.0, 0.0, 0.0
157531, 0.0, 0.0, 0.0, 0.0, 0.0, 0.0, 0.0, 0.0, 0.0, 0, 0, 0, 0, 0, 0, 0.0, 0.0, 0.0, 0.0, 8.271075248718262, -0.3033784031867981, -0.11610040068626404, 0.044758427888154984, -0.9715485572814941, -0.041798580437898636, 0.04158078506588936, -0.09531854838132858, -0.18295860290527344, 1.48095703125, 1.342529296875, 0.0161895751953125, 1.4912109375, 0.0, 0.0, 0.0, 0.0
157541, 0.0, 0.0, 0.0, 0.0, 0.0, 0.0, 0.0, 0.0, 0.0, 0, 0, 0, 0, 0, 0, 0.0, 0.0, 0.0, 0.0, 8.271075248718262, -0.3033784031867981, -0.11610040068626404, 0.044758427888154984, -0.9715485572814941, -0.041798580437898636, 0.04158078506588936, -0.09531854838132858, -0.18295860290527344, 1.48095703125, 1.342529296875, 0.0161895751953125, 1.489013671875, 0.0, 0.0, 0.0, 0.0
157551, 0.0, 0.0, 0.0, 0.0, 0.0, 0.0, 0.0, 0.0, 0.0, 0, 0, 0, 0, 0, 0, 0.0, 0.0, 0.0, 0.0, 8.271075248718262, -0.3033784031867981, -0.11610040068626404, 0.044758427888154984, -0.9715485572814941, -0.041798580437898636, 0.04158078506588936, -0.09531854838132858, -0.18295860290527344, 1.48095703125, 1.400390625, 0.04034423828125, 1.489013671875, 0.0, 0.0, 0.0, 0.0
157561, 0.0, 0.0, 0.0, 0.0, 0.0, 0.0, 0.0, 0.0, 0.0, 0, 0, 0, 0, 0, 0, 0.0, 0.0, 0.0, 0.0, 8.271075248718262, -0.3033784031867981, -0.11610040068626404, 0.044758427888154984, -0.9715485572814941, -0.041798580437898636, 0.04158078506588936, -0.09531854838132858, -0.18295860290527344, 1.48095703125, 1.27294921875, 0.099334716796875, 1.49560546875, 0.0, 0.0, 0.0, 0.0
157581, 0.0, 0.0, 0.0, 0.0, 0.0, 0.0, 0.0, 0.0, 0.0, 0, 0, 0, 0, 0, 0, 0.0, 0.0, 0.0, 0.0, 8.271075248718262, -0.3033784031867981, -0.11610040068626404, 0.044758427888154984, -0.9715485572814941, -0.041798580437898636, 0.04158078506588936, -0.10479973256587982, -0.13815879821777344, 1.484619140625, 1.35498046875, 0.01556396484375, 1.491943359375, 0.0, 0.0, 0.0, 0.0
157591, 0.0, 0.0, 0.0, 0.0, 0.0, 0.0, 0.0, 0.0, 0.0, 0, 0, 0, 0, 0, 0, 0.0, 0.0, 0.0, 0.0, 8.271075248718262, -0.3033784031867981, -0.11610040068626404, 0.044758427888154984, -0.9715485572814941, -0.041798580437898636, 0.04158078506588936, -0.10479973256587982, -0.13815879821777344, 1.484619140625, 1.37548828125, 0.021820068359375, 1.491943359375, 0.0, 0.0, 0.0, 0.0
157601, 0.0, 0.0, 0.0, 0.0, 0.0, 0.0, 0.0, 0.0, 0.0, 0, 0, 0, 0, 0, 0, 0.0, 0.0, 0.0, 0.0, 8.271075248718262, -0.3033784031867981, -0.11610040068626404, 0.044758427888154984, -0.9715485572814941, -0.041798580437898636, 0.04158078506588936, -0.10479973256587982, -0.13815879821777344, 1.484619140625, 1.2919921875, 0.0613250732421875, 1.494873046875, 0.0, 0.0, 0.0, 0.0
157611, 0.0, 0.0, 0.0, 0.0, 0.0, 0.0, 0.0, 0.0, 0.0, 0, 0, 0, 0, 0, 0, 0.0, 0.0, 0.0, 0.0, 8.271075248718262, -0.3033784031867981, -0.11610040068626404, 0.044758427888154984, -0.9715485572814941, -0.041798580437898636, 0.04158078506588936, -0.10479973256587982, -0.13815879821777344, 1.484619140625, 1.283935546875, 0.075897216796875, 1.494873046875, 0.0, 0.0, 0.0, 0.0
157621, 0.0, 0.0, 0.0, 0.0, 0.0, 0.0, 0.0, 0.0, 0.0, 0, 0, 0, 0, 0, 0, 0.0, 0.0, 0.0, 0.0, 8.271075248718262, -0.3033784031867981, -0.11610040068626404, 0.044758427888154984, -0.9715485572814941, -0.041798580437898636, 0.04158078506588936, -0.10479973256587982, -0.13815879821777344, 1.484619140625, 1.440673828125, 0.090423583984375, 1.494140625, 0.0, 0.0, 0.0, 0.0
157631, 0.0, 0.0, 0.0, 0.0, 0.0, 0.0, 0.0, 0.0, 0.0, 0, 0, 0, 0, 0, 0, 0.0, 0.0, 0.0, 0.0, 8.271075248718262, -0.3033784031867981, -0.11610040068626404, 0.044758427888154984, -0.9715485572814941, -0.041798580437898636, 0.04158078506588936, -0.10479973256587982, -0.13815879821777344, 1.484619140625, 1.365234375, 0.0175933837890625, 1.494140625, 0.0, 0.0, 0.0, 0.0
157641, 0.0, 0.0, 0.0, 0.0, 0.0, 0.0, 0.0, 0.0, 0.0, 0, 0, 0, 0, 0, 0, 0.0, 0.0, 0.0, 0.0, 8.271075248718262, -0.3033784031867981, -0.11610040068626404, 0.044758427888154984, -0.9715485572814941, -0.041798580437898636, 0.04158078506588936, -0.10479973256587982, -0.13815879821777344, 1.484619140625, 1.42236328125, 0.0649566650390625, 1.494140625, 0.0, 0.0, 0.0, 0.0
157651, 0.0, 0.0, 0.0, 0.0, 0.0, 0.0, 0.0, 0.0, 0.0, 0, 0, 0, 0, 0, 0, 0.0, 0.0, 0.0, 0.0, 8.271075248718262, -0.3033784031867981, -0.11610040068626404, 0.044758427888154984, -0.9715485572814941, -0.041798580437898636, 0.04158078506588936, -0.10479973256587982, -0.13815879821777344, 1.484619140625, 1.2978515625, 0.05224609375, 1.494140625, 0.0, 0.0, 0.0, 0.0
157661, 0.0, 0.0, 0.0, 0.0, 0.0, 0.0, 0.0, 0.0, 0.0, 0, 0, 0, 0, 0, 0, 0.0, 0.0, 0.0, 0.0, 8.271075248718262, -0.3033784031867981, -0.11610040068626404, 0.044758427888154984, -0.9715485572814941, -0.041798580437898636, 0.04158078506588936, -0.10479973256587982, -0.13815879821777344, 1.484619140625, 1.404052734375, 0.04400634765625, 1.489013671875, 0.0, 0.0, 0.0, 0.0
157681, 0.0, 0.0, 0.0, 0.0, 0.0, 0.0, 0.0, 0.0, 0.0, 0, 0, 0, 0, 0, 0, 0.0, 0.0, 0.0, 0.0, 8.271075248718262, -0.3033784031867981, -0.11610040068626404, 0.044758427888154984, -0.9715485572814941, -0.041798580437898636, 0.04158078506588936, -0.10479973256587982, -0.13815879821777344, 1.484619140625, 1.22021484375, 0.2799530029296875, 1.490478515625, 0.0, 0.0, 0.0, 0.0
157701, 0.0, 0.0, 0.0, 0.0, 0.0, 0.0, 0.0, 0.0, 0.0, 0, 0, 0, 0, 0, 0, 0.0, 0.0, 0.0, 0.0, 8.271075248718262, -0.3033784031867981, -0.11610040068626404, 0.044758427888154984, -0.9715485572814941, -0.041798580437898636, 0.04158078506588936, -0.10479973256587982, -0.13815879821777344, 1.484619140625, 1.22021484375, 0.2799530029296875, 1.4912109375, 0.0, 0.0, 0.0, 0.0
157721, 0.0, 0.0, 0.0, 0.0, 0.0, 0.0, 0.0, 0.0, 0.0, 0, 0, 0, 0, 0, 0, 0.0, 0.0, 0.0, 0.0, 8.271075248718262, -0.3033784031867981, -0.11610040068626404, 0.044758427888154984, -0.9715485572814941, -0.041798580437898636, 0.04158078506588936, -0.10479973256587982, -0.13815879821777344, 1.484619140625, 1.39013671875, 0.0314483642578125, 1.4912109375, 0.0, 0.0, 0.0, 0.0
157731, 0.0, 0.0, 0.0, 0.0, 0.0, 0.0, 0.0, 0.0, 0.0, 0, 0, 0, 0, 0, 0, 0.0, 0.0, 0.0, 0.0, 8.271075248718262, -0.3033784031867981, -0.11610040068626404, 0.044758427888154984, -0.9715485572814941, -0.041798580437898636, 0.04158078506588936, -0.10479973256587982, -0.13815879821777344, 1.484619140625, 1.207763671875, 0.341400146484375, 1.4912109375, 0.0, 0.0, 0.0, 0.0
157741, 0.0, 0.0, 0.0, 0.0, 0.0, 0.0, 0.0, 0.0, 0.0, 0, 0, 0, 0, 0, 0, 0.0, 0.0, 0.0, 0.0, 8.271075248718262, -0.3033784031867981, -0.11610040068626404, 0.044758427888154984, -0.9715485572814941, -0.041798580437898636, 0.04158078506588936, -0.10479973256587982, -0.13815879821777344, 1.484619140625, 1.207763671875, 0.341400146484375, 1.493408203125, 0.0, 0.0, 0.0, 0.0
157751, 0.0, 0.0, 0.0, 0.0, 0.0, 0.0, 0.0, 0.0, 0.0, 0, 0, 0, 0, 0, 0, 0.0, 0.0, 0.0, 0.0, 8.271075248718262, -0.3033784031867981, -0.11610040068626404, 0.044758427888154984, -0.9715485572814941, -0.041798580437898636, 0.04158078506588936, -0.10479973256587982, -0.13815879821777344, 1.484619140625, 1.207763671875, 0.341400146484375, 1.493408203125, 0.0, 0.0, 0.0, 0.0
157761, 0.0, 0.0, 0.0, 0.0, 0.0, 0.0, 0.0, 0.0, 0.0, 0, 0, 0, 0, 0, 0, 0.0, 0.0, 0.0, 0.0, 8.271075248718262, -0.3033784031867981, -0.11610040068626404, 0.044758427888154984, -0.9715485572814941, -0.041798580437898636, 0.04158078506588936, -0.10479973256587982, -0.13815879821777344, 1.484619140625, 1.207763671875, 0.341400146484375, 1.491943359375, 0.0, 0.0, 0.0, 0.0
157781, 0.0, 0.0, 0.0, 0.0, 0.0, 0.0, 0.0, 0.0, 0.0, 0, 0, 0, 0, 0, 0, 0.0, 0.0, 0.0, 0.0, 8.271075248718262, -0.3033784031867981, -0.11610040068626404, 0.044758427888154984, -0.9715485572814941, -0.041798580437898636, 0.04158078506588936, -0.10479973256587982, -0.13815879821777344, 1.484619140625, 1.320556640625, 0.02685546875, 1.490478515625, 0.0, 0.0, 0.0, 0.0
157791, 0.0, 0.0, 0.0, 0.0, 0.0, 0.0, 0.0, 0.0, 0.0, 0, 0, 0, 0, 0, 0, 0.0, 0.0, 0.0, 0.0, 8.271075248718262, -0.3033784031867981, -0.11610040068626404, 0.044758427888154984, -0.9715485572814941, -0.041798580437898636, 0.04158078506588936, -0.10479973256587982, -0.13815879821777344, 1.484619140625, 1.320556640625, 0.02685546875, 1.490478515625, 0.0, 0.0, 0.0, 0.0
157801, 0.0, 0.0, 0.0, 0.0, 0.0, 0.0, 0.0, 0.0, 0.0, 0, 0, 0, 0, 0, 0, 0.0, 0.0, 0.0, 0.0, 8.271075248718262, -0.3033784031867981, -0.11610040068626404, 0.044758427888154984, -0.9715485572814941, -0.041798580437898636, 0.04158078506588936, -0.10479973256587982, -0.13815879821777344, 1.484619140625, 1.320556640625, 0.02685546875, 1.491943359375, 0.0, 0.0, 0.0, 0.0
157811, 0.0, 0.0, 0.0, 0.0, 0.0, 0.0, 0.0, 0.0, 0.0, 0, 0, 0, 0, 0, 0, 0.0, 0.0, 0.0, 0.0, 8.271075248718262, -0.3033784031867981, -0.11610040068626404, 0.044758427888154984, -0.9715485572814941, -0.041798580437898636, 0.04158078506588936, -0.10479973256587982, -0.13815879821777344, 1.484619140625, 1.320556640625, 0.02685546875, 1.491943359375, 0.0, 0.0, 0.0, 0.0
157831, 0.0, 0.0, 0.0, 0.0, 0.0, 0.0, 0.0, 0.0, 0.0, 0, 0, 0, 0, 0, 0, 0.0, 0.0, 0.0, 0.0, 8.271075248718262, -0.3033784031867981, -0.11610040068626404, 0.044758427888154984, -0.9715485572814941, -0.041798580437898636, 0.04158078506588936, -0.10479973256587982, -0.13815879821777344, 1.484619140625, 1.320556640625, 0.02685546875, 1.48974609375, 0.0, 0.0, 0.0, 0.0
157841, 0.0, 0.0, 0.0, 0.0, 0.0, 0.0, 0.0, 0.0, 0.0, 0, 0, 0, 0, 0, 0, 0.0, 0.0, 0.0, 0.0, 8.271075248718262, -0.3033784031867981, -0.11610040068626404, 0.044758427888154984, -0.9715485572814941, -0.041798580437898636, 0.04158078506588936, -0.10479973256587982, -0.13815879821777344, 1.484619140625, 1.320556640625, 0.02685546875, 1.48974609375, 0.0, 0.0, 0.0, 0.0
157851, 0.0, 0.0, 0.0, 0.0, 0.0, 0.0, 0.0, 0.0, 0.0, 0, 0, 0, 0, 0, 0, 0.0, 0.0, 0.0, 0.0, 8.271075248718262, -0.3033784031867981, -0.11610040068626404, 0.044758427888154984, -0.9715485572814941, -0.041798580437898636, 0.04158078506588936, -0.10479973256587982, -0.13815879821777344, 1.484619140625, 1.320556640625, 0.02685546875, 1.48974609375, 0.0, 0.0, 0.0, 0.0
157881, 0.0, 0.0, 0.0, 0.0, 0.0, 0.0, 0.0, 0.0, 0.0, 0, 0, 0, 0, 0, 0, 0.0, 0.0, 0.0, 0.0, 8.271075248718262, -0.3033784031867981, -0.11610040068626404, 0.044758427888154984, -0.9715485572814941, -0.041798580437898636, 0.04158078506588936, -0.08990413695573807, -0.27255821228027344, 1.4736328125, 1.306640625, 0.040557861328125, 1.489013671875, 0.0, 0.0, 0.0, 0.0
157921, 0.0, 0.0, 0.0, 0.0, 0.0, 0.0, 0.0, 0.0, 0.0, 0, 0, 0, 0, 0, 0, 0.0, 0.0, 0.0, 0.0, 8.271075248718262, -0.3033784031867981, -0.11610040068626404, 0.044758427888154984, -0.9715485572814941, -0.041798580437898636, 0.04158078506588936, -0.08990413695573807, -0.27255821228027344, 1.4736328125, 1.346923828125, 0.015472412109375, 1.48828125, 0.0, 0.0, 0.0, 0.0
157941, 0.0, 0.0, 0.0, 0.0, 0.0, 0.0, 0.0, 0.0, 0.0, 0, 0, 0, 0, 0, 0, 0.0, 0.0, 0.0, 0.0, 8.271075248718262, -0.3033784031867981, -0.11610040068626404, 0.044758427888154984, -0.9715485572814941, -0.041798580437898636, 0.04158078506588936, -0.08990413695573807, -0.27255821228027344, 1.4736328125, 1.270751953125, 0.104522705078125, 1.49267578125, 0.0, 0.0, 0.0, 0.0
157961, 0.0, 0.0, 0.0, 0.0, 0.0, 0.0, 0.0, 0.0, 0.0, 0, 0, 0, 0, 0, 0, 0.0, 0.0, 0.0, 0.0, 8.271075248718262, -0.3033784031867981, -0.11610040068626404, 0.044758427888154984, -0.9715485572814941, -0.041798580437898636, 0.04158078506588936, -0.08990413695573807, -0.27255821228027344, 1.4736328125, 1.307373046875, 0.039581298828125, 1.48974609375, 0.0, 0.0, 0.0, 0.0
158011, 0.0, 0.0, 0.0, 0.0, 0.0, 0.0, 0.0, 0.0, 0.0, 0, 0, 0, 0, 0, 0, 0.0, 0.0, 0.0, 0.0, 8.271075248718262, -0.3033784031867981, -0.11610040068626404, 0.044758427888154984, -0.9715485572814941, -0.041798580437898636, 0.04158078506588936, -0.0854625478386879, -0.1291980743408203, 1.4853515625, 1.364501953125, 0.0173492431640625, 1.4970703125, 0.0, 0.0, 0.0, 0.0
158041, 0.0, 0.0, 0.0, 0.0, 0.0, 0.0, 0.0, 0.0, 0.0, 0, 0, 0, 0, 0, 0, 0.0, 0.0, 0.0, 0.0, 8.271075248718262, -0.3033784031867981, -0.11610040068626404, 0.044758427888154984, -0.9715485572814941, -0.041798580437898636, 0.04158078506588936, -0.0854625478386879, -0.1291980743408203, 1.4853515625, 1.29638671875, 0.0542755126953125, 1.491943359375, 0.0, 0.0, 0.0, 0.0
158061, 0.0, 0.0, 0.0, 0.0, 0.0, 0.0, 0.0, 0.0, 0.0, 0, 0, 0, 0, 0, 0, 0.0, 0.0, 0.0, 0.0, 8.271075248718262, -0.3033784031867981, -0.11610040068626404, 0.044758427888154984, -0.9715485572814941, -0.041798580437898636, 0.04158078506588936, -0.0854625478386879, -0.1291980743408203, 1.4853515625, 1.286865234375, 0.070281982421875, 1.491943359375, 0.0, 0.0, 0.0, 0.0
158081, 0.0, 0.0, 0.0, 0.0, 0.0, 0.0, 0.0, 0.0, 0.0, 0, 0, 0, 0, 0, 0, 0.0, 0.0, 0.0, 0.0, 8.271075248718262, -0.3033784031867981, -0.11610040068626404, 0.044758427888154984, -0.9715485572814941, -0.041798580437898636, 0.04158078506588936, -0.0854625478386879, -0.1291980743408203, 1.4853515625, 1.283935546875, 0.075897216796875, 1.493408203125, 0.0, 0.0, 0.0, 0.0
158111, 0.0, 0.0, 0.0, 0.0, 0.0, 0.0, 0.0, 0.0, 0.0, 0, 0, 0, 0, 0, 0, 0.0, 0.0, 0.0, 0.0, 8.271075248718262, -0.3033784031867981, -0.11610040068626404, 0.044758427888154984, -0.9715485572814941, -0.041798580437898636, 0.04158078506588936, -0.0854625478386879, -0.1291980743408203, 1.4853515625, 1.27587890625, 0.092620849609375, 1.494873046875, 0.0, 0.0, 0.0, 0.0
158131, 0.0, 0.0, 0.0, 0.0, 0.0, 0.0, 0.0, 0.0, 0.0, 0, 0, 0, 0, 0, 0, 0.0, 0.0, 0.0, 0.0, 8.271075248718262, -0.3033784031867981, -0.11610040068626404, 0.044758427888154984, -0.9715485572814941, -0.041798580437898636, 0.04158078506588936, -0.0854625478386879, -0.1291980743408203, 1.4853515625, 1.351318359375, 0.0153350830078125, 1.49560546875, 0.0, 0.0, 0.0, 0.0
158141, 0.0, 0.0, 0.0, 0.0, 0.0, 0.0, 0.0, 0.0, 0.0, 0, 0, 0, 0, 0, 0, 0.0, 0.0, 0.0, 0.0, 8.271075248718262, -0.3033784031867981, -0.11610040068626404, 0.044758427888154984, -0.9715485572814941, -0.041798580437898636, 0.04158078506588936, -0.0854625478386879, -0.1291980743408203, 1.4853515625, 1.351318359375, 0.0153350830078125, 1.491943359375, 0.0, 0.0, 0.0, 0.0
158231, 0.0, 0.0, 0.0, 0.0, 0.0, 0.0, 0.0, 0.0, 0.0, 0, 0, 0, 0, 0, 0, 0.0, 0.0, 0.0, 0.0, 8.271075248718262, -0.3033784031867981, -0.11610040068626404, 0.044758427888154984, -0.9715485572814941, -0.041798580437898636, 0.04158078506588936, -0.0854625478386879, -0.1291980743408203, 1.4853515625, 1.377685546875, 0.023040771484375, 1.49267578125, 0.0, 0.0, 0.0, 0.0
158251, 0.0, 0.0, 0.0, 0.0, 0.0, 0.0, 0.0, 0.0, 0.0, 0, 0, 0, 0, 0, 0, 0.0, 0.0, 0.0, 0.0, 8.271075248718262, -0.3033784031867981, -0.11610040068626404, 0.044758427888154984, -0.9715485572814941, -0.041798580437898636, 0.04158078506588936, -0.0854625478386879, -0.1291980743408203, 1.4853515625, 1.388671875, 0.03033447265625, 1.49267578125, 0.0, 0.0, 0.0, 0.0
158261, 0.0, 0.0, 0.0, 0.0, 0.0, 0.0, 0.0, 0.0, 0.0, 0, 0, 0, 0, 0, 0, 0.0, 0.0, 0.0, 0.0, 8.271075248718262, -0.3033784031867981, -0.11610040068626404, 0.044758427888154984, -0.9715485572814941, -0.041798580437898636, 0.04158078506588936, -0.0854625478386879, -0.1291980743408203, 1.4853515625, 1.388671875, 0.03033447265625, 1.487548828125, 0.0, 0.0, 0.0, 0.0
158271, 0.0, 0.0, 0.0, 0.0, 0.0, 0.0, 0.0, 0.0, 0.0, 0, 0, 0, 0, 0, 0, 0.0, 0.0, 0.0, 0.0, 8.271075248718262, -0.3033784031867981, -0.11610040068626404, 0.044758427888154984, -0.9715485572814941, -0.041798580437898636, 0.04158078506588936, -0.0854625478386879, -0.1291980743408203, 1.4853515625, 1.388671875, 0.03033447265625, 1.487548828125, 0.0, 0.0, 0.0, 0.0
158281, 0.0, 0.0, 0.0, 0.0, 0.0, 0.0, 0.0, 0.0, 0.0, 0, 0, 0, 0, 0, 0, 0.0, 0.0, 0.0, 0.0, 8.271075248718262, -0.3033784031867981, -0.11610040068626404, 0.044758427888154984, -0.9715485572814941, -0.041798580437898636, 0.04158078506588936, -0.0854625478386879, -0.1291980743408203, 1.4853515625, 1.388671875, 0.03033447265625, 1.49267578125, 0.0, 0.0, 0.0, 0.0
158381, 0.0, 0.0, 0.0, 0.0, 0.0, 0.0, 0.0, 0.0, 0.0, 0, 0, 0, 0, 0, 0, 0.0, 0.0, 0.0, 0.0, 8.271075248718262, -0.3033784031867981, -0.11610040068626404, 0.044758427888154984, -0.9715485572814941, -0.041798580437898636, 0.04158078506588936, -0.10407175868749619, 0.11272048950195312, 1.505126953125, 1.42236328125, 0.0649566650390625, 1.48974609375, 0.0, 0.0, 0.0, 0.0
158401, 0.0, 0.0, 0.0, 0.0, 0.0, 0.0, 0.0, 0.0, 0.0, 0, 0, 0, 0, 0, 0, 0.0, 0.0, 0.0, 0.0, 8.271075248718262, -0.3033784031867981, -0.11610040068626404, 0.044758427888154984, -0.9715485572814941, -0.041798580437898636, 0.04158078506588936, -0.10407175868749619, 0.11272048950195312, 1.505126953125, 1.382080078125, 0.0256195068359375, 1.49560546875, 0.0, 0.0, 0.0, 0.0
158411, 0.0, 0.0, 0.0, 0.0, 0.0, 0.0, 0.0, 0.0, 0.0, 0, 0, 0, 0, 0, 0, 0.0, 0.0, 0.0, 0.0, 8.271075248718262, -0.3033784031867981, -0.11610040068626404, 0.044758427888154984, -0.9715485572814941, -0.041798580437898636, 0.04158078506588936, -0.10407175868749619, 0.11272048950195312, 1.505126953125, 1.382080078125, 0.0256195068359375, 1.49560546875, 0.0, 0.0, 0.0, 0.0
158421, 0.0, 0.0, 0.0, 0.0, 0.0, 0.0, 0.0, 0.0, 0.0, 0, 0, 0, 0, 0, 0, 0.0, 0.0, 0.0, 0.0, 8.271075248718262, -0.3033784031867981, -0.11610040068626404, 0.044758427888154984, -0.9715485572814941, -0.041798580437898636, 0.04158078506588936, -0.10407175868749619, 0.11272048950195312, 1.505126953125, 1.382080078125, 0.0256195068359375, 1.49267578125, 0.0, 0.0, 0.0, 0.0
158431, 0.0, 0.0, 0.0, 0.0, 0.0, 0.0, 0.0, 0.0, 0.0, 0, 0, 0, 0, 0, 0, 0.0, 0.0, 0.0, 0.0, 8.271075248718262, -0.3033784031867981, -0.11610040068626404, 0.044758427888154984, -0.9715485572814941, -0.041798580437898636, 0.04158078506588936, -0.10407175868749619, 0.11272048950195312, 1.505126953125, 1.382080078125, 0.0256195068359375, 1.49267578125, 0.0, 0.0, 0.0, 0.0
158451, 0.0, 0.0, 0.0, 0.0, 0.0, 0.0, 0.0, 0.0, 0.0, 0, 0, 0, 0, 0, 0, 0.0, 0.0, 0.0, 0.0, 8.271075248718262, -0.3033784031867981, -0.11610040068626404, 0.044758427888154984, -0.9715485572814941, -0.041798580437898636, 0.04158078506588936, -0.10407175868749619, 0.11272048950195312, 1.505126953125, 1.3828125, 0.0261077880859375, 1.494140625, 0.0, 0.0, 0.0, 0.0
158481, 0.0, 0.0, 0.0, 0.0, 0.0, 0.0, 0.0, 0.0, 0.0, 0, 0, 0, 0, 0, 0, 0.0, 0.0, 0.0, 0.0, 8.271075248718262, -0.3033784031867981, -0.11610040068626404, 0.044758427888154984, -0.9715485572814941, -0.041798580437898636, 0.04158078506588936, -0.10407175868749619, 0.11272048950195312, 1.505126953125, 1.34619140625, 0.015594482421875, 1.4970703125, 0.0, 0.0, 0.0, 0.0
158511, 0.0, 0.0, 0.0, 0.0, 0.0, 0.0, 0.0, 0.0, 0.0, 0, 0, 0, 0, 0, 0, 0.0, 0.0, 0.0, 0.0, 8.271075248718262, -0.3033784031867981, -0.11610040068626404, 0.044758427888154984, -0.9715485572814941, -0.041798580437898636, 0.04158078506588936, -0.10407175868749619, 0.11272048950195312, 1.505126953125, 1.39306640625, 0.0337982177734375, 1.496337890625, 0.0, 0.0, 0.0, 0.0
158531, 0.0, 0.0, 0.0, 0.0, 0.0, 0.0, 0.0, 0.0, 0.0, 0, 0, 0, 0, 0, 0, 0.0, 0.0, 0.0, 0.0, 8.271075248718262, -0.3033784031867981, -0.11610040068626404, 0.044758427888154984, -0.9715485572814941, -0.041798580437898636, 0.04158078506588936, -0.10407175868749619, 0.11272048950195312, 1.505126953125, 1.329345703125, 0.02105712890625, 1.49267578125, 0.0, 0.0, 0.0, 0.0
158561, 0.0, 0.0, 0.0, 0.0, 0.0, 0.0, 0.0, 0.0, 0.0, 0, 0, 0, 0, 0, 0, 0.0, 0.0, 0.0, 0.0, 8.271075248718262, -0.3033784031867981, -0.11610040068626404, 0.044758427888154984, -0.9715485572814941, -0.041798580437898636, 0.04158078506588936, -0.10407175868749619, 0.11272048950195312, 1.505126953125, 1.34033203125, 0.0166168212890625, 1.48974609375, 0.0, 0.0, 0.0, 0.0
158591, 0.0, 0.0, 0.0, 0.0, 0.0, 0.0, 0.0, 0.0, 0.0, 0, 0, 0, 0, 0, 0, 0.0, 0.0, 0.0, 0.0, 8.271075248718262, -0.3033784031867981, -0.11610040068626404, 0.044758427888154984, -0.9715485572814941, -0.041798580437898636, 0.04158078506588936, -0.10407175868749619, 0.11272048950195312, 1.505126953125, 1.3623046875, 0.0167999267578125, 1.4912109375, 0.0, 0.0, 0.0, 0.0
158621, 0.0, 0.0, 0.0, 0.0, 0.0, 0.0, 0.0, 0.0, 0.0, 0, 0, 0, 0, 0, 0, 0.0, 0.0, 0.0, 0.0, 8.271075248718262, -0.3033784031867981, -0.11610040068626404, 0.044758427888154984, -0.9715485572814941, -0.041798580437898636, 0.04158078506588936, -0.10407175868749619, 0.11272048950195312, 1.505126953125, 1.3154296875, 0.03118896484375, 1.49560546875, 0.0, 0.0, 0.0, 0.0
158631, 0.0, 0.0, 0.0, 0.0, 0.0, 0.0, 0.0, 0.0, 0.0, 0, 0, 0, 0, 0, 0, 0.0, 0.0, 0.0, 0.0, 8.271075248718262, -0.3033784031867981, -0.11610040068626404, 0.044758427888154984, -0.9715485572814941, -0.041798580437898636, 0.04158078506588936, -0.10407175868749619, 0.11272048950195312, 1.505126953125, 1.3154296875, 0.03118896484375, 1.49560546875, 0.0, 0.0, 0.0, 0.0
158651, 0.0, 0.0, 0.0, 0.0, 0.0, 0.0, 0.0, 0.0, 0.0, 0, 0, 0, 0, 0, 0, 0.0, 0.0, 0.0, 0.0, 8.271075248718262, -0.3033784031867981, -0.11610040068626404, 0.044758427888154984, -0.9715485572814941, -0.041798580437898636, 0.04158078506588936, -0.10407175868749619, 0.11272048950195312, 1.505126953125, 1.3798828125, 0.0243377685546875, 1.4912109375, 0.0, 0.0, 0.0, 0.0
158681, 0.0, 0.0, 0.0, 0.0, 0.0, 0.0, 0.0, 0.0, 0.0, 0, 0, 0, 0, 0, 0, 0.0, 0.0, 0.0, 0.0, 8.271075248718262, -0.3033784031867981, -0.11610040068626404, 0.044758427888154984, -0.9715485572814941, -0.041798580437898636, 0.04158078506588936, -0.10407175868749619, 0.11272048950195312, 1.505126953125, 1.3623046875, 0.0167999267578125, 1.48974609375, 0.0, 0.0, 0.0, 0.0
158751, 0.0, 0.0, 0.0, 0.0, 0.0, 0.0, 0.0, 0.0, 0.0, 0, 0, 0, 0, 0, 0, 0.0, 0.0, 0.0, 0.0, 8.271075248718262, -0.3033784031867981, -0.11610040068626404, 0.044758427888154984, -0.9715485572814941, -0.041798580437898636, 0.04158078506588936, -0.10407175868749619, 0.11272048950195312, 1.505126953125, 1.376953125, 0.0225982666015625, 1.494873046875, 0.0, 0.0, 0.0, 0.0
158761, 0.0, 0.0, 0.0, 0.0, 0.0, 0.0, 0.0, 0.0, 0.0, 0, 0, 0, 0, 0, 0, 0.0, 0.0, 0.0, 0.0, 8.271075248718262, -0.3033784031867981, -0.11610040068626404, 0.044758427888154984, -0.9715485572814941, -0.041798580437898636, 0.04158078506588936, -0.10407175868749619, 0.11272048950195312, 1.505126953125, 1.376953125, 0.0225982666015625, 1.49267578125, 0.0, 0.0, 0.0, 0.0
158781, 0.0, 0.0, 0.0, 0.0, 0.0, 0.0, 0.0, 0.0, 0.0, 0, 0, 0, 0, 0, 0, 0.0, 0.0, 0.0, 0.0, 8.271075248718262, -0.3033784031867981, -0.11610040068626404, 0.044758427888154984, -0.9715485572814941, -0.041798580437898636, 0.04158078506588936, -0.10407175868749619, 0.11272048950195312, 1.505126953125, 1.39892578125, 0.0390167236328125, 1.49560546875, 0.0, 0.0, 0.0, 0.0
158811, 0.0, 0.0, 0.0, 0.0, 0.0, 0.0, 0.0, 0.0, 0.0, 0, 0, 0, 0, 0, 0, 0.0, 0.0, 0.0, 0.0, 8.271075248718262, -0.3033784031867981, -0.11610040068626404, 0.044758427888154984, -0.9715485572814941, -0.041798580437898636, 0.04158078506588936, -0.10407175868749619, 0.11272048950195312, 1.505126953125, 1.281005859375, 0.0816650390625, 1.493408203125, 0.0, 0.0, 0.0, 0.0
158821, 0.0, 0.0, 0.0, 0.0, 0.0, 0.0, 0.0, 0.0, 0.0, 0, 0, 0, 0, 0, 0, 0.0, 0.0, 0.0, 0.0, 8.271075248718262, -0.3033784031867981, -0.11610040068626404, 0.044758427888154984, -0.9715485572814941, -0.041798580437898636, 0.04158078506588936, -0.10407175868749619, 0.11272048950195312, 1.505126953125, 1.281005859375, 0.0816650390625, 1.489013671875, 0.0, 0.0, 0.0, 0.0
158851, 0.0, 0.0, 0.0, 0.0, 0.0, 0.0, 0.0, 0.0, 0.0, 0, 0, 0, 0, 0, 0, 0.0, 0.0, 0.0, 0.0, 8.271075248718262, -0.3033784031867981, -0.11610040068626404, 0.044758427888154984, -0.9715485572814941, -0.041798580437898636, 0.04158078506588936, -0.10407175868749619, 0.11272048950195312, 1.505126953125, 1.281005859375, 0.0816650390625, 1.4912109375, 0.0, 0.0, 0.0, 0.0
158891, 0.0, 0.0, 0.0, 0.0, 0.0, 0.0, 0.0, 0.0, 0.0, 0, 0, 0, 0, 0, 0, 0.0, 0.0, 0.0, 0.0, 8.271075248718262, -0.3033784031867981, -0.11610040068626404, 0.044758427888154984, -0.9715485572814941, -0.041798580437898636, 0.04158078506588936, -0.08469966053962708, -0.10231781005859375, 1.487548828125, 1.33447265625, 0.0186309814453125, 1.494873046875, 0.0, 0.0, 0.0, 0.0
158911, 0.0, 0.0, 0.0, 0.0, 0.0, 0.0, 0.0, 0.0, 0.0, 0, 0, 0, 0, 0, 0, 0.0, 0.0, 0.0, 0.0, 8.271075248718262, -0.3033784031867981, -0.11610040068626404, 0.044758427888154984, -0.9715485572814941, -0.041798580437898636, 0.04158078506588936, -0.08469966053962708, -0.10231781005859375, 1.487548828125, 1.33447265625, 0.0186309814453125, 1.48974609375, 0.0, 0.0, 0.0, 0.0
158921, 0.0, 0.0, 0.0, 0.0, 0.0, 0.0, 0.0, 0.0, 0.0, 0, 0, 0, 0, 0, 0, 0.0, 0.0, 0.0, 0.0, 8.271075248718262, -0.3033784031867981, -0.11610040068626404, 0.044758427888154984, -0.9715485572814941, -0.041798580437898636, 0.04158078506588936, -0.08469966053962708, -0.10231781005859375, 1.487548828125, 1.33447265625, 0.0186309814453125, 1.48974609375, 0.0, 0.0, 0.0, 0.0
158931, 0.0, 0.0, 0.0, 0.0, 0.0, 0.0, 0.0, 0.0, 0.0, 0, 0, 0, 0, 0, 0, 0.0, 0.0, 0.0, 0.0, 8.271075248718262, -0.3033784031867981, -0.11610040068626404, 0.044758427888154984, -0.9715485572814941, -0.041798580437898636, 0.04158078506588936, -0.08469966053962708, -0.10231781005859375, 1.487548828125, 1.33447265625, 0.0186309814453125, 1.48974609375, 0.0, 0.0, 0.0, 0.0
158951, 0.0, 0.0, 0.0, 0.0, 0.0, 0.0, 0.0, 0.0, 0.0, 0, 0, 0, 0, 0, 0, 0.0, 0.0, 0.0, 0.0, 8.271075248718262, -0.3033784031867981, -0.11610040068626404, 0.044758427888154984, -0.9715485572814941, -0.041798580437898636, 0.04158078506588936, -0.08469966053962708, -0.10231781005859375, 1.487548828125, 1.383544921875, 0.026611328125, 1.49560546875, 0.0, 0.0, 0.0, 0.0
158961, 0.0, 0.0, 0.0, 0.0, 0.0, 0.0, 0.0, 0.0, 0.0, 0, 0, 0, 0, 0, 0, 0.0, 0.0, 0.0, 0.0, 8.271075248718262, -0.3033784031867981, -0.11610040068626404, 0.044758427888154984, -0.9715485572814941, -0.041798580437898636, 0.04158078506588936, -0.08469966053962708, -0.10231781005859375, 1.487548828125, 1.383544921875, 0.026611328125, 1.494873046875, 0.0, 0.0, 0.0, 0.0
158981, 0.0, 0.0, 0.0, 0.0, 0.0, 0.0, 0.0, 0.0, 0.0, 0, 0, 0, 0, 0, 0, 0.0, 0.0, 0.0, 0.0, 8.271075248718262, -0.3033784031867981, -0.11610040068626404, 0.044758427888154984, -0.9715485572814941, -0.041798580437898636, 0.04158078506588936, -0.08469966053962708, -0.10231781005859375, 1.487548828125, 1.365966796875, 0.017791748046875, 1.48974609375, 0.0, 0.0, 0.0, 0.0
159041, 0.0, 0.0, 0.0, 0.0, 0.0, 0.0, 0.0, 0.0, 0.0, 0, 0, 0, 0, 0, 0, 0.0, 0.0, 0.0, 0.0, 8.271075248718262, -0.3033784031867981, -0.11610040068626404, 0.044758427888154984, -0.9715485572814941, -0.041798580437898636, 0.04158078506588936, -0.08469966053962708, -0.10231781005859375, 1.487548828125, 1.494873046875, 0.185455322265625, 1.494873046875, 0.0, 0.0, 0.0, 0.0
159051, 0.0, 0.0, 0.0, 0.0, 0.0, 0.0, 0.0, 0.0, 0.0, 0, 0, 0, 0, 0, 0, 0.0, 0.0, 0.0, 0.0, 8.271075248718262, -0.3033784031867981, -0.11610040068626404, 0.044758427888154984, -0.9715485572814941, -0.041798580437898636, 0.04158078506588936, -0.08469966053962708, -0.10231781005859375, 1.487548828125, 1.494873046875, 0.185455322265625, 1.494873046875, 0.0, 0.0, 0.0, 0.0
159081, 0.0, 0.0, 0.0, 0.0, 0.0, 0.0, 0.0, 0.0, 0.0, 0, 0, 0, 0, 0, 0, 0.0, 0.0, 0.0, 0.0, 8.271075248718262, -0.3033784031867981, -0.11610040068626404, 0.044758427888154984, -0.9715485572814941, -0.041798580437898636, 0.04158078506588936, -0.08469966053962708, -0.10231781005859375, 1.487548828125, 1.256103515625, 0.144134521484375, 1.4912109375, 0.0, 0.0, 0.0, 0.0
159101, 0.0, 0.0, 0.0, 0.0, 0.0, 0.0, 0.0, 0.0, 0.0, 0, 0, 0, 0, 0, 0, 0.0, 0.0, 0.0, 0.0, 8.271075248718262, -0.3033784031867981, -0.11610040068626404, 0.044758427888154984, -0.9715485572814941, -0.041798580437898636, 0.04158078506588936, -0.08469966053962708, -0.10231781005859375, 1.487548828125, 1.3037109375, 0.04412841796875, 1.493408203125, 0.0, 0.0, 0.0, 0.0
159111, 0.0, 0.0, 0.0, 0.0, 0.0, 0.0, 0.0, 0.0, 0.0, 0, 0, 0, 0, 0, 0, 0.0, 0.0, 0.0, 0.0, 8.271075248718262, -0.3033784031867981, -0.11610040068626404, 0.044758427888154984, -0.9715485572814941, -0.041798580437898636, 0.04158078506588936, -0.08469966053962708, -0.10231781005859375, 1.487548828125, 1.27001953125, 0.10626220703125, 1.493408203125, 0.0, 0.0, 0.0, 0.0
159131, 0.0, 0.0, 0.0, 0.0, 0.0, 0.0, 0.0, 0.0, 0.0, 0, 0, 0, 0, 0, 0, 0.0, 0.0, 0.0, 0.0, 8.271075248718262, -0.3033784031867981, -0.11610040068626404, 0.044758427888154984, -0.9715485572814941, -0.041798580437898636, 0.04158078506588936, -0.08469966053962708, -0.10231781005859375, 1.487548828125, 1.32275390625, 0.0251312255859375, 1.490478515625, 0.0, 0.0, 0.0, 0.0
159151, 0.0, 0.0, 0.0, 0.0, 0.0, 0.0, 0.0, 0.0, 0.0, 0, 0, 0, 0, 0, 0, 0.0, 0.0, 0.0, 0.0, 8.271075248718262, -0.3033784031867981, -0.11610040068626404, 0.044758427888154984, -0.9715485572814941, -0.041798580437898636, 0.04158078506588936, -0.08469966053962708, -0.10231781005859375, 1.487548828125, 1.3505859375, 0.0153045654296875, 1.491943359375, 0.0, 0.0, 0.0, 0.0
159191, 0.0, 0.0, 0.0, 0.0, 0.0, 0.0, 0.0, 0.0, 0.0, 0, 0, 0, 0, 0, 0, 0.0, 0.0, 0.0, 0.0, 8.271075248718262, -0.3033784031867981, -0.11610040068626404, 0.044758427888154984, -0.9715485572814941, -0.041798580437898636, 0.04158078506588936, -0.08469966053962708, -0.10231781005859375, 1.487548828125, 1.3564453125, 0.0156707763671875, 1.486083984375, 0.0, 0.0, 0.0, 0.0
159201, 0.0, 0.0, 0.0, 0.0, 0.0, 0.0, 0.0, 0.0, 0.0, 0, 0, 0, 0, 0, 0, 0.0, 0.0, 0.0, 0.0, 8.271075248718262, -0.3033784031867981, -0.11610040068626404, 0.044758427888154984, -0.9715485572814941, -0.041798580437898636, 0.04158078506588936, -0.08469966053962708, -0.10231781005859375, 1.487548828125, 1.3564453125, 0.0156707763671875, 1.493408203125, 0.0, 0.0, 0.0, 0.0
159211, 0.0, 0.0, 0.0, 0.0, 0.0, 0.0, 0.0, 0.0, 0.0, 0, 0, 0, 0, 0, 0, 0.0, 0.0, 0.0, 0.0, 8.271075248718262, -0.3033784031867981, -0.11610040068626404, 0.044758427888154984, -0.9715485572814941, -0.041798580437898636, 0.04158078506588936, -0.08469966053962708, -0.10231781005859375, 1.487548828125, 1.3564453125, 0.0156707763671875, 1.493408203125, 0.0, 0.0, 0.0, 0.0
159221, 0.0, 0.0, 0.0, 0.0, 0.0, 0.0, 0.0, 0.0, 0.0, 0, 0, 0, 0, 0, 0, 0.0, 0.0, 0.0, 0.0, 8.271075248718262, -0.3033784031867981, -0.11610040068626404, 0.044758427888154984, -0.9715485572814941, -0.041798580437898636, 0.04158078506588936, -0.08469966053962708, -0.10231781005859375, 1.487548828125, 1.3564453125, 0.0156707763671875, 1.493408203125, 0.0, 0.0, 0.0, 0.0
159231, 0.0, 0.0, 0.0, 0.0, 0.0, 0.0, 0.0, 0.0, 0.0, 0, 0, 0, 0, 0, 0, 0.0, 0.0, 0.0, 0.0, 8.271075248718262, -0.3033784031867981, -0.11610040068626404, 0.044758427888154984, -0.9715485572814941, -0.041798580437898636, 0.04158078506588936, -0.08469966053962708, -0.10231781005859375, 1.487548828125, 1.3564453125, 0.0156707763671875, 1.493408203125, 0.0, 0.0, 0.0, 0.0
159241, 0.0, 0.0, 0.0, 0.0, 0.0, 0.0, 0.0, 0.0, 0.0, 0, 0, 0, 0, 0, 0, 0.0, 0.0, 0.0, 0.0, 8.271075248718262, -0.3033784031867981, -0.11610040068626404, 0.044758427888154984, -0.9715485572814941, -0.041798580437898636, 0.04158078506588936, -0.08469966053962708, -0.10231781005859375, 1.487548828125, 1.3564453125, 0.0156707763671875, 1.48974609375, 0.0, 0.0, 0.0, 0.0
159261, 0.0, 0.0, 0.0, 0.0, 0.0, 0.0, 0.0, 0.0, 0.0, 0, 0, 0, 0, 0, 0, 0.0, 0.0, 0.0, 0.0, 8.271075248718262, -0.3033784031867981, -0.11610040068626404, 0.044758427888154984, -0.9715485572814941, -0.041798580437898636, 0.04158078506588936, -0.08469966053962708, -0.10231781005859375, 1.487548828125, 1.270751953125, 0.104522705078125, 1.4970703125, 0.0, 0.0, 0.0, 0.0
159281, 0.0, 0.0, 0.0, 0.0, 0.0, 0.0, 0.0, 0.0, 0.0, 0, 0, 0, 0, 0, 0, 0.0, 0.0, 0.0, 0.0, 8.271075248718262, -0.3033784031867981, -0.11610040068626404, 0.044758427888154984, -0.9715485572814941, -0.041798580437898636, 0.04158078506588936, -0.08469966053962708, -0.10231781005859375, 1.487548828125, 1.42236328125, 0.0649566650390625, 1.4912109375, 0.0, 0.0, 0.0, 0.0
159301, 0.0, 0.0, 0.0, 0.0, 0.0, 0.0, 0.0, 0.0, 0.0, 0, 0, 0, 0, 0, 0, 0.0, 0.0, 0.0, 0.0, 8.271075248718262, -0.3033784031867981, -0.11610040068626404, 0.044758427888154984, -0.9715485572814941, -0.041798580437898636, 0.04158078506588936, -0.08469966053962708, -0.10231781005859375, 1.487548828125, 1.43115234375, 0.0766143798828125, 1.49267578125, 0.0, 0.0, 0.0, 0.0
159311, 0.0, 0.0, 0.0, 0.0, 0.0, 0.0, 0.0, 0.0, 0.0, 0, 0, 0, 0, 0, 0, 0.0, 0.0, 0.0, 0.0, 8.271075248718262, -0.3033784031867981, -0.11610040068626404, 0.044758427888154984, -0.9715485572814941, -0.041798580437898636, 0.04158078506588936, -0.08469966053962708, -0.10231781005859375, 1.487548828125, 1.297119140625, 0.0532379150390625, 1.49267578125, 0.0, 0.0, 0.0, 0.0
159341, 0.0, 0.0, 0.0, 0.0, 0.0, 0.0, 0.0, 0.0, 0.0, 0, 0, 0, 0, 0, 0, 0.0, 0.0, 0.0, 0.0, 8.271075248718262, -0.3033784031867981, -0.11610040068626404, 0.044758427888154984, -0.9715485572814941, -0.041798580437898636, 0.04158078506588936, -0.08469966053962708, -0.10231781005859375, 1.487548828125, 1.34033203125, 0.0166168212890625, 1.491943359375, 0.0, 0.0, 0.0, 0.0
159351, 0.0, 0.0, 0.0, 0.0, 0.0, 0.0, 0.0, 0.0, 0.0, 0, 0, 0, 0, 0, 0, 0.0, 0.0, 0.0, 0.0, 8.271075248718262, -0.3033784031867981, -0.11610040068626404, 0.044758427888154984, -0.9715485572814941, -0.041798580437898636, 0.04158078506588936, -0.08469966053962708, -0.10231781005859375, 1.487548828125, 1.34033203125, 0.0166168212890625, 1.491943359375, 0.0, 0.0, 0.0, 0.0
159391, 0.0, 0.0, 0.0, 0.0, 0.0, 0.0, 0.0, 0.0, 0.0, 0, 0, 0, 0, 0, 0, 0.0, 0.0, 0.0, 0.0, 8.271075248718262, -0.3033784031867981, -0.11610040068626404, 0.044758427888154984, -0.9715485572814941, -0.041798580437898636, 0.04158078506588936, -0.08469966053962708, -0.10231781005859375, 1.487548828125, 1.2861328125, 0.0716094970703125, 1.4912109375, 0.0, 0.0, 0.0, 0.0
159401, 0.0, 0.0, 0.0, 0.0, 0.0, 0.0, 0.0, 0.0, 0.0, 0, 0, 0, 0, 0, 0, 0.0, 0.0, 0.0, 0.0, 8.271075248718262, -0.3033784031867981, -0.11610040068626404, 0.044758427888154984, -0.9715485572814941, -0.041798580437898636, 0.04158078506588936, -0.08469966053962708, -0.10231781005859375, 1.487548828125, 1.2861328125, 0.0716094970703125, 1.493408203125, 0.0, 0.0, 0.0, 0.0
159421, 0.0, 0.0, 0.0, 0.0, 0.0, 0.0, 0.0, 0.0, 0.0, 0, 0, 0, 0, 0, 0, 0.0, 0.0, 0.0, 0.0, 8.271075248718262, -0.3033784031867981, -0.11610040068626404, 0.044758427888154984, -0.9715485572814941, -0.041798580437898636, 0.04158078506588936, -0.08469966053962708, -0.10231781005859375, 1.487548828125, 1.379150390625, 0.0238189697265625, 1.49267578125, 0.0, 0.0, 0.0, 0.0
159431, 0.0, 0.0, 0.0, 0.0, 0.0, 0.0, 0.0, 0.0, 0.0, 0, 0, 0, 0, 0, 0, 0.0, 0.0, 0.0, 0.0, 8.271075248718262, -0.3033784031867981, -0.11610040068626404, 0.044758427888154984, -0.9715485572814941, -0.041798580437898636, 0.04158078506588936, -0.08469966053962708, -0.10231781005859375, 1.487548828125, 1.379150390625, 0.0238189697265625, 1.49267578125, 0.0, 0.0, 0.0, 0.0
159481, 0.0, 0.0, 0.0, 0.0, 0.0, 0.0, 0.0, 0.0, 0.0, 0, 0, 0, 0, 0, 0, 0.0, 0.0, 0.0, 0.0, 8.271075248718262, -0.3033784031867981, -0.11610040068626404, 0.044758427888154984, -0.9715485572814941, -0.041798580437898636, 0.04158078506588936, -0.08469966053962708, -0.10231781005859375, 1.487548828125, 1.393798828125, 0.0344085693359375, 1.489013671875, 0.0, 0.0, 0.0, 0.0
159511, 0.0, 0.0, 0.0, 0.0, 0.0, 0.0, 0.0, 0.0, 0.0, 0, 0, 0, 0, 0, 0, 0.0, 0.0, 0.0, 0.0, 8.271075248718262, -0.3033784031867981, -0.11610040068626404, 0.044758427888154984, -0.9715485572814941, -0.041798580437898636, 0.04158078506588936, -0.08469966053962708, -0.10231781005859375, 1.487548828125, 1.235595703125, 0.214599609375, 1.494873046875, 0.0, 0.0, 0.0, 0.0
159521, 0.0, 0.0, 0.0, 0.0, 0.0, 0.0, 0.0, 0.0, 0.0, 0, 0, 0, 0, 0, 0, 0.0, 0.0, 0.0, 0.0, 8.271075248718262, -0.3033784031867981, -0.11610040068626404, 0.044758427888154984, -0.9715485572814941, -0.041798580437898636, 0.04158078506588936, -0.08469966053962708, -0.10231781005859375, 1.487548828125, 1.235595703125, 0.214599609375, 1.493408203125, 0.0, 0.0, 0.0, 0.0
159531, 0.0, 0.0, 0.0, 0.0, 0.0, 0.0, 0.0, 0.0, 0.0, 0, 0, 0, 0, 0, 0, 0.0, 0.0, 0.0, 0.0, 8.271075248718262, -0.3033784031867981, -0.11610040068626404, 0.044758427888154984, -0.9715485572814941, -0.041798580437898636, 0.04158078506588936, -0.08469966053962708, -0.10231781005859375, 1.487548828125, 1.235595703125, 0.214599609375, 1.493408203125, 0.0, 0.0, 0.0, 0.0
159541, 0.0, 0.0, 0.0, 0.0, 0.0, 0.0, 0.0, 0.0, 0.0, 0, 0, 0, 0, 0, 0, 0.0, 0.0, 0.0, 0.0, 8.271075248718262, -0.3033784031867981, -0.11610040068626404, 0.044758427888154984, -0.9715485572814941, -0.041798580437898636, 0.04158078506588936, -0.08469966053962708, -0.10231781005859375, 1.487548828125, 1.235595703125, 0.214599609375, 1.491943359375, 0.0, 0.0, 0.0, 0.0
159581, 0.0, 0.0, 0.0, 0.0, 0.0, 0.0, 0.0, 0.0, 0.0, 0, 0, 0, 0, 0, 0, 0.0, 0.0, 0.0, 0.0, 8.251240730285645, -0.3033784031867981, -0.11610040068626404, 0.044758427888154984, -0.9715485572814941, -0.041798580437898636, 0.04158078506588936, -0.08375073969364166, -0.05751800537109375, 1.4912109375, 1.34912109375, 0.015380859375, 1.493408203125, 0.0, 0.0, 0.0, 0.0
159611, 0.0, 0.0, 0.0, 0.0, 0.0, 0.0, 0.0, 0.0, 0.0, 0, 0, 0, 0, 0, 0, 0.0, 0.0, 0.0, 0.0, 8.251240730285645, -0.3033784031867981, -0.11610040068626404, 0.044758427888154984, -0.9715485572814941, -0.041798580437898636, 0.04158078506588936, -0.08375073969364166, -0.05751800537109375, 1.4912109375, 1.4091796875, 0.04937744140625, 1.4912109375, 0.0, 0.0, 0.0, 0.0
159621, 0.0, 0.0, 0.0, 0.0, 0.0, 0.0, 0.0, 0.0, 0.0, 0, 0, 0, 0, 0, 0, 0.0, 0.0, 0.0, 0.0, 8.251240730285645, -0.3033784031867981, -0.11610040068626404, 0.044758427888154984, -0.9715485572814941, -0.041798580437898636, 0.04158078506588936, -0.08375073969364166, -0.05751800537109375, 1.4912109375, 1.358642578125, 0.0159912109375, 1.491943359375, 0.0, 0.0, 0.0, 0.0
159631, 0.0, 0.0, 0.0, 0.0, 0.0, 0.0, 0.0, 0.0, 0.0, 0, 0, 0, 0, 0, 0, 0.0, 0.0, 0.0, 0.0, 8.251240730285645, -0.3033784031867981, -0.11610040068626404, 0.044758427888154984, -0.9715485572814941, -0.041798580437898636, 0.04158078506588936, -0.08375073969364166, -0.05751800537109375, 1.4912109375, 1.358642578125, 0.0159912109375, 1.491943359375, 0.0, 0.0, 0.0, 0.0
159641, 0.0, 0.0, 0.0, 0.0, 0.0, 0.0, 0.0, 0.0, 0.0, 0, 0, 0, 0, 0, 0, 0.0, 0.0, 0.0, 0.0, 8.251240730285645, -0.3033784031867981, -0.11610040068626404, 0.044758427888154984, -0.9715485572814941, -0.041798580437898636, 0.04158078506588936, -0.08375073969364166, -0.05751800537109375, 1.4912109375, 1.3388671875, 0.017120361328125, 1.4912109375, 0.0, 0.0, 0.0, 0.0
159651, 0.0, 0.0, 0.0, 0.0, 0.0, 0.0, 0.0, 0.0, 0.0, 0, 0, 0, 0, 0, 0, 0.0, 0.0, 0.0, 0.0, 8.251240730285645, -0.3033784031867981, -0.11610040068626404, 0.044758427888154984, -0.9715485572814941, -0.041798580437898636, 0.04158078506588936, -0.08375073969364166, -0.05751800537109375, 1.4912109375, 1.297119140625, 0.0532379150390625, 1.4912109375, 0.0, 0.0, 0.0, 0.0
159661, 0.0, 0.0, 0.0, 0.0, 0.0, 0.0, 0.0, 0.0, 0.0, 0, 0, 0, 0, 0, 0, 0.0, 0.0, 0.0, 0.0, 8.251240730285645, -0.3033784031867981, -0.11610040068626404, 0.044758427888154984, -0.9715485572814941, -0.041798580437898636, 0.04158078506588936, -0.08375073969364166, -0.05751800537109375, 1.4912109375, 1.297119140625, 0.0532379150390625, 1.494873046875, 0.0, 0.0, 0.0, 0.0
159681, 0.0, 0.0, 0.0, 0.0, 0.0, 0.0, 0.0, 0.0, 0.0, 0, 0, 0, 0, 0, 0, 0.0, 0.0, 0.0, 0.0, 8.271075248718262, -0.3033784031867981, -0.11610040068626404, 0.044758427888154984, -0.9715485572814941, -0.041798580437898636, 0.04158078506588936, -0.09030693024396896, -0.15607833862304688, 1.483154296875, 1.318359375, 0.028656005859375, 1.497802734375, 0.0, 0.0, 0.0, 0.0
159701, 0.0, 0.0, 0.0, 0.0, 0.0, 0.0, 0.0, 0.0, 0.0, 0, 0, 0, 0, 0, 0, 0.0, 0.0, 0.0, 0.0, 8.271075248718262, -0.3033784031867981, -0.11610040068626404, 0.044758427888154984, -0.9715485572814941, -0.041798580437898636, 0.04158078506588936, -0.09030693024396896, -0.15607833862304688, 1.483154296875, 1.392333984375, 0.03314208984375, 1.491943359375, 0.0, 0.0, 0.0, 0.0
159711, 0.0, 0.0, 0.0, 0.0, 0.0, 0.0, 0.0, 0.0, 0.0, 0, 0, 0, 0, 0, 0, 0.0, 0.0, 0.0, 0.0, 8.271075248718262, -0.3033784031867981, -0.11610040068626404, 0.044758427888154984, -0.9715485572814941, -0.041798580437898636, 0.04158078506588936, -0.09030693024396896, -0.15607833862304688, 1.483154296875, 1.392333984375, 0.03314208984375, 1.491943359375, 0.0, 0.0, 0.0, 0.0
159741, 0.0, 0.0, 0.0, 0.0, 0.0, 0.0, 0.0, 0.0, 0.0, 0, 0, 0, 0, 0, 0, 0.0, 0.0, 0.0, 0.0, 8.271075248718262, -0.3033784031867981, -0.11610040068626404, 0.044758427888154984, -0.9715485572814941, -0.041798580437898636, 0.04158078506588936, -0.09030693024396896, -0.15607833862304688, 1.483154296875, 1.3740234375, 0.0210723876953125, 1.4970703125, 0.0, 0.0, 0.0, 0.0
159751, 0.0, 0.0, 0.0, 0.0, 0.0, 0.0, 0.0, 0.0, 0.0, 0, 0, 0, 0, 0, 0, 0.0, 0.0, 0.0, 0.0, 8.271075248718262, -0.3033784031867981, -0.11610040068626404, 0.044758427888154984, -0.9715485572814941, -0.041798580437898636, 0.04158078506588936, -0.09030693024396896, -0.15607833862304688, 1.483154296875, 1.3740234375, 0.0210723876953125, 1.4970703125, 0.0, 0.0, 0.0, 0.0
159761, 0.0, 0.0, 0.0, 0.0, 0.0, 0.0, 0.0, 0.0, 0.0, 0, 0, 0, 0, 0, 0, 0.0, 0.0, 0.0, 0.0, 8.271075248718262, -0.3033784031867981, -0.11610040068626404, 0.044758427888154984, -0.9715485572814941, -0.041798580437898636, 0.04158078506588936, -0.09030693024396896, -0.15607833862304688, 1.483154296875, 1.3740234375, 0.0210723876953125, 1.489013671875, 0.0, 0.0, 0.0, 0.0
159811, 0.0, 0.0, 0.0, 0.0, 0.0, 0.0, 0.0, 0.0, 0.0, 0, 0, 0, 0, 0, 0, 0.0, 0.0, 0.0, 0.0, 8.271075248718262, -0.3033784031867981, -0.11610040068626404, 0.044758427888154984, -0.9715485572814941, -0.041798580437898636, 0.04158078506588936, -0.09030693024396896, -0.15607833862304688, 1.483154296875, 1.376953125, 0.0225982666015625, 1.49560546875, 0.0, 0.0, 0.0, 0.0
159851, 0.0, 0.0, 0.0, 0.0, 0.0, 0.0, 0.0, 0.0, 0.0, 0, 0, 0, 0, 0, 0, 0.0, 0.0, 0.0, 0.0, 8.271075248718262, -0.3033784031867981, -0.11610040068626404, 0.044758427888154984, -0.9715485572814941, -0.041798580437898636, 0.04158078506588936, -0.09030693024396896, -0.15607833862304688, 1.483154296875, 1.355712890625, 0.0155029296875, 1.491943359375, 0.0, 0.0, 0.0, 0.0
159861, 0.0, 0.0, 0.0, 0.0, 0.0, 0.0, 0.0, 0.0, 0.0, 0, 0, 0, 0, 0, 0, 0.0, 0.0, 0.0, 0.0, 8.271075248718262, -0.3033784031867981, -0.11610040068626404, 0.044758427888154984, -0.9715485572814941, -0.041798580437898636, 0.04158078506588936, -0.09030693024396896, -0.15607833862304688, 1.483154296875, 1.355712890625, 0.0155029296875, 1.49267578125, 0.0, 0.0, 0.0, 0.0
159881, 0.0, 0.0, 0.0, 0.0, 0.0, 0.0, 0.0, 0.0, 0.0, 0, 0, 0, 0, 0, 0, 0.0, 0.0, 0.0, 0.0, 8.271075248718262, -0.3033784031867981, -0.11610040068626404, 0.044758427888154984, -0.9715485572814941, -0.041798580437898636, 0.04158078506588936, -0.12585417926311493, -0.10231781005859375, 1.487548828125, 1.355712890625, 0.0155029296875, 1.4912109375, 0.0, 0.0, 0.0, 0.0
159901, 0.0, 0.0, 0.0, 0.0, 0.0, 0.0, 0.0, 0.0, 0.0, 0, 0, 0, 0, 0, 0, 0.0, 0.0, 0.0, 0.0, 8.271075248718262, -0.3033784031867981, -0.11610040068626404, 0.044758427888154984, -0.9715485572814941, -0.041798580437898636, 0.04158078506588936, -0.12585417926311493, -0.10231781005859375, 1.487548828125, 1.38720703125, 0.0291900634765625, 1.489013671875, 0.0, 0.0, 0.0, 0.0
159921, 0.0, 0.0, 0.0, 0.0, 0.0, 0.0, 0.0, 0.0, 0.0, 0, 0, 0, 0, 0, 0, 0.0, 0.0, 0.0, 0.0, 8.271075248718262, -0.3033784031867981, -0.11610040068626404, 0.044758427888154984, -0.9715485572814941, -0.041798580437898636, 0.04158078506588936, -0.12585417926311493, -0.10231781005859375, 1.487548828125, 1.412109375, 0.0526123046875, 1.494140625, 0.0, 0.0, 0.0, 0.0
159931, 0.0, 0.0, 0.0, 0.0, 0.0, 0.0, 0.0, 0.0, 0.0, 0, 0, 0, 0, 0, 0, 0.0, 0.0, 0.0, 0.0, 8.271075248718262, -0.3033784031867981, -0.11610040068626404, 0.044758427888154984, -0.9715485572814941, -0.041798580437898636, 0.04158078506588936, -0.12585417926311493, -0.10231781005859375, 1.487548828125, 1.412109375, 0.0526123046875, 1.494140625, 0.0, 0.0, 0.0, 0.0
159941, 0.0, 0.0, 0.0, 0.0, 0.0, 0.0, 0.0, 0.0, 0.0, 0, 0, 0, 0, 0, 0, 0.0, 0.0, 0.0, 0.0, 8.271075248718262, -0.3033784031867981, -0.11610040068626404, 0.044758427888154984, -0.9715485572814941, -0.041798580437898636, 0.04158078506588936, -0.12585417926311493, -0.10231781005859375, 1.487548828125, 1.412109375, 0.0526123046875, 1.4912109375, 0.0, 0.0, 0.0, 0.0
159951, 0.0, 0.0, 0.0, 0.0, 0.0, 0.0, 0.0, 0.0, 0.0, 0, 0, 0, 0, 0, 0, 0.0, 0.0, 0.0, 0.0, 8.271075248718262, -0.3033784031867981, -0.11610040068626404, 0.044758427888154984, -0.9715485572814941, -0.041798580437898636, 0.04158078506588936, -0.12585417926311493, -0.10231781005859375, 1.487548828125, 1.412109375, 0.0526123046875, 1.4912109375, 0.0, 0.0, 0.0, 0.0
159961, 0.0, 0.0, 0.0, 0.0, 0.0, 0.0, 0.0, 0.0, 0.0, 0, 0, 0, 0, 0, 0, 0.0, 0.0, 0.0, 0.0, 8.271075248718262, -0.3033784031867981, -0.11610040068626404, 0.044758427888154984, -0.9715485572814941, -0.041798580437898636, 0.04158078506588936, -0.12585417926311493, -0.10231781005859375, 1.487548828125, 1.26123046875, 0.129302978515625, 1.493408203125, 0.0, 0.0, 0.0, 0.0
159981, 0.0, 0.0, 0.0, 0.0, 0.0, 0.0, 0.0, 0.0, 0.0, 0, 0, 0, 0, 0, 0, 0.0, 0.0, 0.0, 0.0, 8.271075248718262, -0.3033784031867981, -0.11610040068626404, 0.044758427888154984, -0.9715485572814941, -0.041798580437898636, 0.04158078506588936, -0.12585417926311493, -0.10231781005859375, 1.487548828125, 1.3505859375, 0.0153045654296875, 1.493408203125, 0.0, 0.0, 0.0, 0.0
159991, 0.0, 0.0, 0.0, 0.0, 0.0, 0.0, 0.0, 0.0, 0.0, 0, 0, 0, 0, 0, 0, 0.0, 0.0, 0.0, 0.0, 8.271075248718262, -0.3033784031867981, -0.11610040068626404, 0.044758427888154984, -0.9715485572814941, -0.041798580437898636, 0.04158078506588936, -0.12585417926311493, -0.10231781005859375, 1.487548828125, 1.3505859375, 0.0153045654296875, 1.493408203125, 0.0, 0.0, 0.0, 0.0
160011, 0.0, 0.0, 0.0, 0.0, 0.0, 0.0, 0.0, 0.0, 0.0, 0, 0, 0, 0, 0, 0, 0.0, 0.0, 0.0, 0.0, 8.271075248718262, -0.3033784031867981, -0.11610040068626404, 0.044758427888154984, -0.9715485572814941, -0.041798580437898636, 0.04158078506588936, -0.12585417926311493, -0.10231781005859375, 1.487548828125, 1.41796875, 0.05950927734375, 1.491943359375, 0.0, 0.0, 0.0, 0.0
160021, 0.0, 0.0, 0.0, 0.0, 0.0, 0.0, 0.0, 0.0, 0.0, 0, 0, 0, 0, 0, 0, 0.0, 0.0, 0.0, 0.0, 8.271075248718262, -0.3033784031867981, -0.11610040068626404, 0.044758427888154984, -0.9715485572814941, -0.041798580437898636, 0.04158078506588936, -0.12585417926311493, -0.10231781005859375, 1.487548828125, 1.41796875, 0.05950927734375, 1.493408203125, 0.0, 0.0, 0.0, 0.0
160031, 0.0, 0.0, 0.0, 0.0, 0.0, 0.0, 0.0, 0.0, 0.0, 0, 0, 0, 0, 0, 0, 0.0, 0.0, 0.0, 0.0, 8.271075248718262, -0.3033784031867981, -0.11610040068626404, 0.044758427888154984, -0.9715485572814941, -0.041798580437898636, 0.04158078506588936, -0.12585417926311493, -0.10231781005859375, 1.487548828125, 1.41796875, 0.05950927734375, 1.493408203125, 0.0, 0.0, 0.0, 0.0
160041, 0.0, 0.0, 0.0, 0.0, 0.0, 0.0, 0.0, 0.0, 0.0, 0, 0, 0, 0, 0, 0, 0.0, 0.0, 0.0, 0.0, 8.271075248718262, -0.3033784031867981, -0.11610040068626404, 0.044758427888154984, -0.9715485572814941, -0.041798580437898636, 0.04158078506588936, -0.12585417926311493, -0.10231781005859375, 1.487548828125, 1.41796875, 0.05950927734375, 1.496337890625, 0.0, 0.0, 0.0, 0.0
160051, 0.0, 0.0, 0.0, 0.0, 0.0, 0.0, 0.0, 0.0, 0.0, 0, 0, 0, 0, 0, 0, 0.0, 0.0, 0.0, 0.0, 8.271075248718262, -0.3033784031867981, -0.11610040068626404, 0.044758427888154984, -0.9715485572814941, -0.041798580437898636, 0.04158078506588936, -0.12585417926311493, -0.10231781005859375, 1.487548828125, 1.41796875, 0.05950927734375, 1.496337890625, 0.0, 0.0, 0.0, 0.0
160061, 0.0, 0.0, 0.0, 0.0, 0.0, 0.0, 0.0, 0.0, 0.0, 0, 0, 0, 0, 0, 0, 0.0, 0.0, 0.0, 0.0, 8.271075248718262, -0.3033784031867981, -0.11610040068626404, 0.044758427888154984, -0.9715485572814941, -0.041798580437898636, 0.04158078506588936, -0.12585417926311493, -0.10231781005859375, 1.487548828125, 1.264892578125, 0.119354248046875, 1.496337890625, 0.0, 0.0, 0.0, 0.0
160081, 0.0, 0.0, 0.0, 0.0, 0.0, 0.0, 0.0, 0.0, 0.0, 0, 0, 0, 0, 0, 0, 0.0, 0.0, 0.0, 0.0, 8.271075248718262, -0.3033784031867981, -0.11610040068626404, 0.044758427888154984, -0.9715485572814941, -0.041798580437898636, 0.04158078506588936, -0.11209869384765625, -0.05751800537109375, 1.4912109375, 1.27001953125, 0.10626220703125, 1.48974609375, 0.0, 0.0, 0.0, 0.0
