timeTick, roll, pitch, yaw, stateX, stateY, stateZ, stateVX, stateVY, stateVZ, otX0, otY0, otZ0, otRoll0, otPitch0, otYaw0, left wing, pitch motor, yaw motor, right wing, voltage, roll rate, pitch rate, yaw rate, A_x, A_y, A_z, current, i_raw, v_raw, airflow_voltage, airflow_speed, pot_Pitch, voltage_nKF, kFFx, state, State, volt_KF
38651, -1.2236789464950562, -3.58046817779541, 0.5147194862365723, 0, 0, 0, 0, 0, 0, 0, 0, 0, 0, 0, 0, 0, 0, 0, 0, 0, 0, 0, 0, 0, 0, 0, 0, 0, 0, 0, 0, 0, 0, 0, 0, 0, 0
38661, -1.2217061519622803, -3.5802931785583496, 0.5169215798377991, 0.0, 0.0, 60.4185676574707, 0.0, 0.0, 0.94757080078125, 0, 0, 0, 0, 0, 0, 9362.0, 30146.0, 35388.0, 9362.0, 0, 0.15927374362945557, -0.02695392444729805, 0.2433004528284073, -0.06358502060174942, -0.021079689264297485, 0.9981948733329773, 0, 0, 0, 1.683837890625, 0.625091552734375, 0, 0, 0, 0, 0, 0
38671, -1.2209137678146362, -3.576078176498413, 0.5216428637504578, 0.0, 0.0, 60.4205322265625, 0.0, 0.0, 0.1964569091796875, 0, 0, 0, 0, 0, 0, 9362.0, 30146.0, 35388.0, 9362.0, 0, 0.07213228940963745, -0.27328425645828247, 0.4969763457775116, -0.06307192891836166, -0.021856000646948814, 0.9983738660812378, 0, 0, 0, 1.73291015625, 0.759429931640625, 0, 1.237060546875, 10.0, 1.0, 10.0, 1.4791542291641235
38681, -1.2183195352554321, -3.574394464492798, 0.5242357850074768, 0.0, 0.0, 60.42230224609375, 0.0, 0.0, 0.177001953125, 0, 0, 0, 0, 0, 0, 9362.0, 30146.0, 35388.0, 9362.0, 0, 0.2575076222419739, -0.3521338701248169, 0.27651354670524597, -0.06164899095892906, -0.02215568907558918, 0.9979674220085144, 0, 0, 0, 1.305908203125, 0.0413360595703125, 1.494873046875, 1.55419921875, 10.0, 1.0, 10.0, 1.4793912172317505
38691, -1.2164071798324585, -3.5710134506225586, 0.5261760354042053, 0.0, 0.0, 60.42662811279297, 0.0, 0.0, 0.432586669921875, 0, 0, 0, 0, 0, 0, 9362.0, 30146.0, 35388.0, 9362.0, 0, -0.03392137959599495, -0.3652717173099518, 0.17577405273914337, -0.06166484206914902, -0.022077275440096855, 0.9983063340187073, 0, 0, 0, 1.726318359375, 0.7405853271484375, 1.494873046875, 1.27294921875, 10.0, 1.0, 10.0, 1.4787393808364868
38701, -1.217255711555481, -3.566640615463257, 0.5280464887619019, 0.0, 0.0, 60.43052291870117, 0.0, 0.0, 0.3894805908203125, 0, 0, 0, 0, 0, 0, 9362.0, 30146.0, 35388.0, 9362.0, 0, -0.13783352077007294, -0.484468549489975, 0.2951499819755554, -0.06064239889383316, -0.020992472767829895, 0.9980863928794861, 0, 0, 0, 1.367431640625, 0.0183258056640625, 1.49853515625, 1.73876953125, 10.0, 1.0, 10.0, 1.479560375213623
38711, -1.2160946130752563, -3.561744213104248, 0.5284232497215271, 0.0, 0.0, 60.43129348754883, 0.0, 0.0, 0.077056884765625, 0, 0, 0, 0, 0, 0, 9362.0, 30146.0, 35388.0, 9362.0, 0, 0.22609317302703857, -0.2520696818828583, -0.009267754852771759, -0.06008940935134888, -0.022621754556894302, 0.9990777969360352, 0, 0, 0, 1.64794921875, 0.533660888671875, 1.49853515625, 1.72998046875, 10.0, 1.0, 10.0, 1.4803510904312134
38721, -1.2153756618499756, -3.56027889251709, 0.531270444393158, 0.0, 0.0, 60.43198776245117, 0.0, 0.0, 0.069427490234375, 0, 0, 0, 0, 0, 0, 9362.0, 30146.0, 35388.0, 9362.0, 0, 0.08099775016307831, -0.2814333140850067, 0.35127902030944824, -0.062275420874357224, -0.024604210630059242, 0.9989350438117981, 0, 0, 0, 1.449462890625, 0.103973388671875, 1.494140625, 1.5732421875, 10.0, 1.0, 10.0, 1.4806443452835083
38731, -1.2149442434310913, -3.5595052242279053, 0.5359035134315491, 0.0, 0.0, 60.426597595214844, 0.0, 0.0, -0.5390167236328125, 0, 0, 0, 0, 0, 0, 9362.0, 30146.0, 35388.0, 9362.0, 0, 0.1097254753112793, -0.1546802967786789, 0.2115180939435959, -0.06286346167325974, -0.023976866155862808, 0.9971418976783752, 0, 0, 0, 1.713134765625, 0.703704833984375, 1.494140625, 1.6025390625, 10.0, 1.0, 10.0, 1.4810291528701782
38741, -1.2150306701660156, -3.557914972305298, 0.5386168360710144, 0.0, 0.0, 60.42174530029297, 0.0, 0.0, -0.4852294921875, 0, 0, 0, 0, 0, 0, 9362.0, 30146.0, 35388.0, 9362.0, 0, 0.054918695241212845, -0.17564167082309723, 0.3132708668708801, -0.06234819069504738, -0.020939785987138748, 0.9968076944351196, 0, 0, 0, 1.73876953125, 0.776458740234375, 1.49853515625, 1.76513671875, 10.0, 1.0, 10.0, 1.4819262027740479
38751, -1.2128663063049316, -3.556490659713745, 0.5432737469673157, 0.0, 0.0, 60.422298431396484, 0.0, 0.0, 0.0553131103515625, 0, 0, 0, 0, 0, 0, 9362.0, 30146.0, 35388.0, 9362.0, 8.310744285583496, 0.31362611055374146, -0.2148437798023224, 0.30266621708869934, -0.062148567289114, -0.01921979896724224, 0.9977213144302368, -0.06661199033260345, -0.0037593841552734375, 1.49560546875, 1.760009765625, 0.8404998779296875, 1.49853515625, 1.78125, 10.0, 1.0, 10.0, 1.4828712940216064
38761, -1.211858868598938, -3.5539798736572266, 0.5455892086029053, 0.0, 0.0, 60.42279815673828, 0.0, 0.0, 0.0499725341796875, 0, 0, 0, 0, 0, 0, 9362.0, 30146.0, 35388.0, 9362.0, 8.310744285583496, 0.1371929794549942, -0.3180411458015442, 0.26295027136802673, -0.06121078133583069, -0.02138042449951172, 0.9971649646759033, -0.06661199033260345, -0.0037593841552734375, 1.49560546875, 1.758544921875, 0.835968017578125, 1.50146484375, 1.599609375, 10.0, 1.0, 10.0, 1.4832398891448975
38771, -1.21277916431427, -3.551821708679199, 0.5471953749656677, 0.0, 0.0, 60.42597961425781, 0.0, 0.0, 0.318145751953125, 0, 0, 0, 0, 0, 0, 9362.0, 30146.0, 35388.0, 9362.0, 8.310744285583496, -0.07843568921089172, -0.2132057249546051, 0.3422211706638336, -0.06167002022266388, -0.02099178172647953, 0.9964691400527954, -0.06661199033260345, -0.0037593841552734375, 1.49560546875, 1.552734375, 0.3080596923828125, 1.50146484375, 1.71533203125, 10.0, 1.0, 10.0, 1.4839726686477661
38781, -1.2119520902633667, -3.550203561782837, 0.5490481853485107, 0.0, 0.0, 60.4288444519043, 0.0, 0.0, 0.2864837646484375, 0, 0, 0, 0, 0, 0, 9362.0, 30146.0, 35388.0, 9362.0, 8.310744285583496, 0.1510109007358551, -0.20508669316768646, 0.280981183052063, -0.06125027686357498, -0.023009994998574257, 0.9967200756072998, -0.06661199033260345, -0.0037593841552734375, 1.49560546875, 1.660400390625, 0.5649566650390625, 1.49853515625, 1.581298828125, 10.0, 1.0, 10.0, 1.484279990196228
38791, -1.2125195264816284, -3.5477442741394043, 0.5501548051834106, 0.0, 0.0, 60.4368896484375, 0.0, 0.0, 0.8045196533203125, 0, 0, 0, 0, 0, 0, 9362.0, 30146.0, 35388.0, 9362.0, 8.310744285583496, -0.061194419860839844, -0.043479371815919876, 0.035369742661714554, -0.06003594771027565, -0.023384541273117065, 0.9985157251358032, -0.06661199033260345, -0.0037593841552734375, 1.49560546875, 1.763671875, 0.85186767578125, 1.49853515625, 1.7138671875, 10.0, 1.0, 10.0, 1.4850049018859863
38801, -1.2130906581878662, -3.544511079788208, 0.5526425242424011, 0.0, 0.0, 60.444129943847656, 0.0, 0.0, 0.724029541015625, 0, 0, 0, 0, 0, 0, 9362.0, 30146.0, 35388.0, 9362.0, 8.310744285583496, -0.15326009690761566, -0.5575318336486816, 0.34028246998786926, -0.06081586703658104, -0.02261853590607643, 0.9992155432701111, -0.06661199033260345, -0.0037593841552734375, 1.49560546875, 1.70068359375, 0.6697845458984375, 1.5, 1.77978515625, 10.0, 1.0, 10.0, 1.4859355688095093
38811, -1.211881160736084, -3.5461184978485107, 0.5570767521858215, 0.0, 0.0, 60.44025802612305, 0.0, 0.0, -0.3871917724609375, 0, 0, 0, 0, 0, 0, 9362.0, 30146.0, 35388.0, 9362.0, 8.310744285583496, 0.12741927802562714, 0.11462109535932541, 0.42889404296875, -0.06125987693667412, -0.02350044995546341, 0.9988937973976135, -0.06661199033260345, -0.0037593841552734375, 1.49560546875, 1.765869140625, 0.8588104248046875, 1.5, 1.72998046875, 10.0, 1.0, 10.0, 1.4867061376571655
38821, -1.2114026546478271, -3.546844959259033, 0.5593451857566833, 0.0, 0.0, 60.43677520751953, 0.0, 0.0, -0.3482818603515625, 0, 0, 0, 0, 0, 0, 9362.0, 30146.0, 35388.0, 9362.0, 8.310744285583496, 0.08085407316684723, 0.2879965603351593, 0.27962568402290344, -0.06031683832406998, -0.021194996312260628, 0.9980822205543518, -0.06661199033260345, -0.0037593841552734375, 1.49560546875, 1.724853515625, 0.736419677734375, 1.49560546875, 1.745361328125, 10.0, 1.0, 10.0, 1.487522840499878
38831, -1.2107499837875366, -3.545827627182007, 0.5633413791656494, 0.0, 0.0, 60.43254470825195, 0.0, 0.0, -0.4230499267578125, 0, 0, 0, 0, 0, 0, 9362.0, 30146.0, 35388.0, 9362.0, 8.310744285583496, -0.008520546369254589, 0.10339707881212234, 0.31910139322280884, -0.06213470175862312, -0.021023372188210487, 0.9968939423561096, -0.06661199033260345, -0.0037593841552734375, 1.49560546875, 1.79736328125, 0.9638671875, 1.49560546875, 1.7080078125, 10.0, 1.0, 10.0, 1.4882190227508545
38841, -1.211029052734375, -3.5427005290985107, 0.5652979612350464, 0.0, 0.0, 60.42873764038086, 0.0, 0.0, -0.380706787109375, 0, 0, 0, 0, 0, 0, 9362.0, 30146.0, 35388.0, 9362.0, 8.310744285583496, -0.11907807737588882, -0.3714006841182709, 0.22739604115486145, -0.06051492318511009, -0.02067405730485916, 0.999921977519989, -0.06661199033260345, -0.0037593841552734375, 1.49560546875, 1.7314453125, 0.7552032470703125, 1.496337890625, 1.74755859375, 10.0, 1.0, 10.0, 1.4890378713607788
38851, -1.212016224861145, -3.5375611782073975, 0.5658137798309326, 0.0, 0.0, 60.42531204223633, 0.0, 0.0, -0.342559814453125, 0, 0, 0, 0, 0, 0, 9362.0, 30146.0, 35388.0, 9362.0, 8.310744285583496, -0.20173197984695435, -0.4913594424724579, -0.019982583820819855, -0.062100738286972046, -0.021250134333968163, 0.998839259147644, -0.07665923237800598, -0.07543754577636719, 1.48974609375, 1.67578125, 0.604156494140625, 1.496337890625, 1.75048828125, 10.0, 1.0, 10.0, 1.489863395690918
38861, -1.2130483388900757, -3.5376839637756348, 0.567861795425415, 0.0, 0.0, 60.4222297668457, 0.0, 0.0, -0.3082275390625, 0, 0, 0, 0, 0, 0, 9362.0, 30146.0, 35388.0, 9362.0, 8.310744285583496, -0.10949801653623581, -0.0008028197917155921, 0.43930187821388245, -0.06375108659267426, -0.022240974009037018, 0.997793972492218, -0.07665923237800598, -0.07543754577636719, 1.48974609375, 1.693359375, 0.650238037109375, 1.500732421875, 1.60693359375, 10.0, 1.0, 10.0, 1.490233063697815
38871, -1.2135932445526123, -3.5373876094818115, 0.5706772208213806, 0.0, 0.0, 60.419456481933594, 0.0, 0.0, -0.2773284912109375, 0, 0, 0, 0, 0, 0, 9362.0, 30146.0, 35388.0, 9362.0, 8.310744285583496, 0.06040658429265022, -0.16692279279232025, 0.4077826738357544, -0.06319060176610947, -0.02161318063735962, 0.997990608215332, -0.07665923237800598, -0.07543754577636719, 1.48974609375, 1.342529296875, 0.0161895751953125, 1.500732421875, 1.52197265625, 10.0, 1.0, 10.0, 1.4903333187103271
38881, -1.2131783962249756, -3.53621768951416, 0.5721209645271301, 0.0, 0.0, 60.41695785522461, 0.0, 0.0, -0.2498626708984375, 0, 0, 0, 0, 0, 0, 9362.0, 30146.0, 35388.0, 9362.0, 8.310744285583496, 0.054661527276039124, -0.21698224544525146, 0.20753000676631927, -0.06024676933884621, -0.021901968866586685, 0.9996448159217834, -0.07665923237800598, -0.07543754577636719, 1.48974609375, 1.7578125, 0.83367919921875, 1.49560546875, 1.2626953125, 10.0, 1.0, 10.0, 1.4896146059036255
38891, -1.2142788171768188, -3.537998676300049, 0.5772120356559753, 0.0, 0.0, 60.41143035888672, 0.0, 0.0, -0.5527496337890625, 0, 0, 0, 0, 0, 0, 9362.0, 30146.0, 35388.0, 9362.0, 8.310744285583496, -0.14461442828178406, 0.12017620354890823, 0.6055605411529541, -0.05879644677042961, -0.022103333845734596, 0.9992216229438782, -0.07665923237800598, -0.07543754577636719, 1.48974609375, 1.40771484375, 0.0478363037109375, 1.49560546875, 1.740234375, 10.0, 1.0, 10.0, 1.4904059171676636
38901, -1.2154361009597778, -3.5367233753204346, 0.5800376534461975, 0.0, 0.0, 60.406455993652344, 0.0, 0.0, -0.4974365234375, 0, 0, 0, 0, 0, 0, 9362.0, 30146.0, 35388.0, 9362.0, 8.310744285583496, -0.11128310859203339, -0.005077081732451916, 0.374740332365036, -0.059782445430755615, -0.021368728950619698, 0.9956272840499878, -0.07665923237800598, -0.07543754577636719, 1.48974609375, 1.430419921875, 0.0756378173828125, 1.49853515625, 1.50732421875, 10.0, 1.0, 10.0, 1.4904593229293823
38911, -1.2136573791503906, -3.5337419509887695, 0.5841187834739685, 0.0, 0.0, 60.4041633605957, 0.0, 0.0, -0.2292633056640625, 0, 0, 0, 0, 0, 0, 9362.0, 30146.0, 35388.0, 9362.0, 8.310744285583496, 0.15936949849128723, -0.0968051478266716, 0.24962542951107025, -0.061324648559093475, -0.020654011517763138, 0.9959113597869873, -0.07665923237800598, -0.07543754577636719, 1.48974609375, 1.623046875, 0.4723663330078125, 1.49853515625, 1.6083984375, 10.0, 1.0, 10.0, 1.490831732749939
38921, -1.2130615711212158, -3.530179023742676, 0.5858609676361084, 0.0, 0.0, 60.402103424072266, 0.0, 0.0, -0.20599365234375, 0, 0, 0, 0, 0, 0, 9362.0, 30146.0, 35388.0, 9362.0, 8.310744285583496, 0.0487617626786232, -0.40131962299346924, 0.13150180876255035, -0.06062328815460205, -0.021940572187304497, 0.9974475502967834, -0.07665923237800598, -0.07543754577636719, 1.48974609375, 1.505859375, 0.2073974609375, 1.494140625, 1.5732421875, 10.0, 1.0, 10.0, 1.4910919666290283
38931, -1.2112005949020386, -3.5276851654052734, 0.5893940925598145, 0.0, 0.0, 60.3980598449707, 0.0, 0.0, -0.40435791015625, 0, 0, 0, 0, 0, 0, 9362.0, 30146.0, 35388.0, 9362.0, 8.310744285583496, 0.17256221175193787, 0.03170577436685562, 0.3690633475780487, -0.06057744473218918, -0.021593863144516945, 0.9998675584793091, -0.07665923237800598, -0.07543754577636719, 1.48974609375, 1.588623046875, 0.390350341796875, 1.494140625, 1.24951171875, 10.0, 1.0, 10.0, 1.4903292655944824
38941, -1.2117347717285156, -3.527222156524658, 0.5917309522628784, 0.0, 0.0, 60.3944206237793, 0.0, 0.0, -0.363922119140625, 0, 0, 0, 0, 0, 0, 9362.0, 30146.0, 35388.0, 9362.0, 8.310744285583496, -0.03720102459192276, -0.1795402318239212, 0.3337746560573578, -0.06261355429887772, -0.02307286486029625, 0.9989698529243469, -0.07665923237800598, -0.07543754577636719, 1.48974609375, 1.740966796875, 0.782867431640625, 1.49853515625, 1.78564453125, 10.0, 1.0, 10.0, 1.4912617206573486
38951, -1.212469458580017, -3.52825665473938, 0.5943171977996826, 0.0, 0.0, 60.39278793334961, 0.0, 0.0, -0.16326904296875, 0, 0, 0, 0, 0, 0, 9362.0, 30146.0, 35388.0, 9362.0, 8.310744285583496, -0.020192118361592293, 0.09522388130426407, 0.1552707999944687, -0.06137288361787796, -0.02217702381312847, 0.9998282194137573, -0.049502894282341, -0.1650371551513672, 1.482421875, 1.279541015625, 0.0847015380859375, 1.49853515625, 1.777587890625, 10.0, 1.0, 10.0, 1.4921658039093018
38961, -1.2117990255355835, -3.52880859375, 0.5986815690994263, 0.0, 0.0, 60.39131546020508, 0.0, 0.0, -0.147247314453125, 0, 0, 0, 0, 0, 0, 9362.0, 30146.0, 35388.0, 9362.0, 8.310744285583496, 0.07144568115472794, 0.12336675822734833, 0.5656710863113403, -0.06144414097070694, -0.020139601081609726, 1.0005567073822021, -0.049502894282341, -0.1650371551513672, 1.482421875, 1.38134765625, 0.025177001953125, 1.49853515625, 1.3505859375, 10.0, 1.0, 10.0, 1.4917187690734863
38971, -1.2094850540161133, -3.527523994445801, 0.6005738973617554, 0.0, 0.0, 60.38835144042969, 0.0, 0.0, -0.2964019775390625, 0, 0, 0, 0, 0, 0, 9362.0, 30146.0, 35388.0, 9362.0, 8.310744285583496, 0.19180789589881897, -0.3166896402835846, 0.21306101977825165, -0.06296472996473312, -0.020716803148388863, 0.9999695420265198, -0.049502894282341, -0.1650371551513672, 1.482421875, 1.734375, 0.7635955810546875, 1.49853515625, 1.80029296875, 10.0, 1.0, 10.0, 1.4926930665969849
38981, -1.2095450162887573, -3.5280673503875732, 0.6049938797950745, 0.0, 0.0, 60.385684967041016, 0.0, 0.0, -0.2666473388671875, 0, 0, 0, 0, 0, 0, 9362.0, 30146.0, 35388.0, 9362.0, 8.310744285583496, -0.067128986120224, -0.027909476310014725, 0.6619926691055298, -0.060896135866642, -0.02254997193813324, 1.0001376867294312, -0.049502894282341, -0.1650371551513672, 1.482421875, 1.733642578125, 0.7615509033203125, 1.4970703125, 1.349853515625, 10.0, 1.0, 10.0, 1.4922420978546143
38991, -1.2094238996505737, -3.528867483139038, 0.6051844358444214, 0.0, 0.0, 60.3800048828125, 0.0, 0.0, -0.5680084228515625, 0, 0, 0, 0, 0, 0, 9362.0, 30146.0, 35388.0, 9362.0, 8.310744285583496, 0.08302924036979675, 0.24713243544101715, 0.08043421059846878, -0.062445878982543945, -0.02349720522761345, 0.9982024431228638, -0.049502894282341, -0.1650371551513672, 1.482421875, 1.50146484375, 0.1985626220703125, 1.4970703125, 1.61865234375, 10.0, 1.0, 10.0, 1.4926412105560303
39001, -1.2092218399047852, -3.5288515090942383, 0.6053969264030457, 0.0, 0.0, 60.3800048828125, 0.0, 0.0, -0.5680084228515625, 0, 0, 0, 0, 0, 0, 9362.0, 30146.0, 35388.0, 9362.0, 8.310744285583496, -0.02677348628640175, 0.05402957275509834, 0.08658714592456818, -0.061646126210689545, -0.022386662662029266, 0.9987351298332214, -0.049502894282341, -0.1650371551513672, 1.482421875, 1.60693359375, 0.4335479736328125, 1.5, 1.400390625, 10.0, 1.0, 10.0, 1.4923499822616577
39021, -1.208289384841919, -3.5271451473236084, 0.6057031750679016, 0.0, 0.0, 60.37575912475586, 0.0, 0.0, 0.0865936279296875, 0, 0, 0, 0, 0, 0, 9362.0, 30146.0, 35388.0, 9362.0, 8.310744285583496, 0.14202146232128143, -0.2077041119337082, -0.17601987719535828, -0.058797240257263184, -0.021676212549209595, 0.9985595345497131, -0.049502894282341, -0.1650371551513672, 1.482421875, 1.376953125, 0.0225982666015625, 1.5, 1.359375, 10.0, 1.0, 10.0, 1.492926836013794
39031, -1.2066187858581543, -3.526332139968872, 0.6036523580551147, 0.0, 0.0, 60.38653564453125, 0.0, 0.0, 0.9998321533203125, 0, 0, 0, 0, 0, 0, 9362.0, 30146.0, 35388.0, 9362.0, 8.310744285583496, 0.24250705540180206, -0.07748260349035263, -0.03903726488351822, -0.058797240257263184, -0.021676212549209595, 0.9985595345497131, -0.049502894282341, -0.1650371551513672, 1.482421875, 1.795166015625, 0.95635986328125, 1.5, 1.359375, 10.0, 1.0, 10.0, 1.492926836013794
39041, -1.2067029476165771, -3.52744197845459, 0.6022194623947144, 0.0, 0.0, 60.38653564453125, 0.0, 0.0, 0.9998321533203125, 0, 0, 0, 0, 0, 0, 9362.0, 30146.0, 35388.0, 9362.0, 8.310744285583496, -0.013175630010664463, 0.2361307591199875, -0.18726931512355804, -0.058797240257263184, -0.021676212549209595, 0.9985595345497131, -0.049502894282341, -0.1650371551513672, 1.482421875, 1.6259765625, 0.4795989990234375, 1.493408203125, 1.359375, 10.0, 1.0, 10.0, 1.492926836013794
39051, -1.2048555612564087, -3.5277721881866455, 0.6006880402565002, 0.0, 0.0, 60.38653564453125, 0.0, 0.0, 0.9998321533203125, 0, 0, 0, 0, 0, 0, 9362.0, 30146.0, 35388.0, 9362.0, 8.310744285583496, -0.013175630010664463, 0.2361307591199875, -0.18726931512355804, -0.05986284092068672, -0.020726215094327927, 0.9977964162826538, -0.0595601387321949, -0.04855918884277344, 1.491943359375, 1.6259765625, 0.4795989990234375, 1.493408203125, 1.569580078125, 10.0, 1.0, 10.0, 1.492926836013794
39061, -1.2043490409851074, -3.529109239578247, 0.5984658002853394, 0.0, 0.0, 60.38653564453125, 0.0, 0.0, 0.9998321533203125, 0, 0, 0, 0, 0, 0, 9362.0, 30146.0, 35388.0, 9362.0, 8.310744285583496, 0.1269850730895996, 0.19358526170253754, -0.24083109200000763, -0.05986284092068672, -0.020726215094327927, 0.9977964162826538, -0.0595601387321949, -0.04855918884277344, 1.491943359375, 1.751953125, 0.815673828125, 1.493408203125, 1.62890625, 10.0, 1.0, 10.0, 1.492926836013794
39071, -1.2045997381210327, -3.529099702835083, 0.5960289835929871, 0.0, 0.0, 60.41802215576172, 0.0, 0.0, 0.7106781005859375, 0, 0, 0, 0, 0, 0, 9362.0, 30146.0, 35388.0, 9362.0, 8.310744285583496, -0.17192327976226807, -0.03294478729367256, -0.18249444663524628, -0.05986284092068672, -0.020726215094327927, 0.9977964162826538, -0.0595601387321949, -0.04855918884277344, 1.491943359375, 1.7958984375, 0.9588470458984375, 1.493408203125, 1.62890625, 10.0, 1.0, 10.0, 1.492926836013794
39081, -1.2045464515686035, -3.529641628265381, 0.595034658908844, 0.0, 0.0, 60.41802215576172, 0.0, 0.0, 0.7106781005859375, 0, 0, 0, 0, 0, 0, 9362.0, 30146.0, 35388.0, 9362.0, 8.310744285583496, -0.17192327976226807, -0.03294478729367256, -0.18249444663524628, -0.06065897271037102, -0.022091468796133995, 0.9966429471969604, -0.0595601387321949, -0.04855918884277344, 1.491943359375, 1.631103515625, 0.49212646484375, 1.49853515625, 1.62890625, 10.0, 1.0, 10.0, 1.4956473112106323
39091, -1.20529305934906, -3.5268921852111816, 0.5923312306404114, 0.0, 0.0, 60.41802215576172, 0.0, 0.0, 0.7106781005859375, 0, 0, 0, 0, 0, 0, 9362.0, 30146.0, 35388.0, 9362.0, 8.310744285583496, -0.17192327976226807, -0.03294478729367256, -0.18249444663524628, -0.06211049482226372, -0.021478164941072464, 0.9971193671226501, -0.0595601387321949, -0.04855918884277344, 1.491943359375, 1.6494140625, 0.5372772216796875, 1.49853515625, 1.541015625, 10.0, 1.0, 10.0, 1.4957906007766724
39101, -1.204527735710144, -3.5272293090820312, 0.5895538330078125, 0.0, 0.0, 60.41802215576172, 0.0, 0.0, 0.7106781005859375, 0, 0, 0, 0, 0, 0, 9362.0, 30146.0, 35388.0, 9362.0, 8.310744285583496, -0.17192327976226807, -0.03294478729367256, -0.18249444663524628, -0.061819348484277725, -0.020108545199036598, 0.9975111484527588, -0.0595601387321949, -0.04855918884277344, 1.491943359375, 1.625244140625, 0.477783203125, 1.49560546875, 1.541015625, 10.0, 1.0, 10.0, 1.496368169784546
39111, -1.2059855461120605, -3.525484323501587, 0.5848809480667114, 0.0, 0.0, 60.44999694824219, 0.0, 0.0, 0.8411407470703125, 0, 0, 0, 0, 0, 0, 9362.0, 30146.0, 35388.0, 9362.0, 8.310744285583496, -0.2522609233856201, -0.22523260116577148, -0.268824964761734, -0.061819348484277725, -0.020108545199036598, 0.9975111484527588, -0.0595601387321949, -0.04855918884277344, 1.491943359375, 1.7578125, 0.83367919921875, 1.49560546875, 1.541015625, 10.0, 1.0, 10.0, 1.496368169784546
39121, -1.2054957151412964, -3.524898052215576, 0.5818135142326355, 0.0, 0.0, 60.44999694824219, 0.0, 0.0, 0.8411407470703125, 0, 0, 0, 0, 0, 0, 9362.0, 30146.0, 35388.0, 9362.0, 8.310744285583496, -0.2522609233856201, -0.22523260116577148, -0.268824964761734, -0.061819348484277725, -0.020108545199036598, 0.9975111484527588, -0.0595601387321949, -0.04855918884277344, 1.491943359375, 1.55859375, 0.3211212158203125, 1.49560546875, 1.6142578125, 10.0, 1.0, 10.0, 1.496368169784546
39131, -1.2059862613677979, -3.5229289531707764, 0.5770618915557861, 0.0, 0.0, 60.456729888916016, 0.0, 0.0, -0.08392333984375, 0, 0, 0, 0, 0, 0, 9362.0, 30146.0, 35388.0, 9362.0, 8.310744285583496, 0.1448768526315689, 0.008986477740108967, -0.3452833890914917, -0.061819348484277725, -0.020108545199036598, 0.9975111484527588, -0.0595601387321949, -0.04855918884277344, 1.491943359375, 1.69189453125, 0.6463165283203125, 1.49560546875, 1.6142578125, 10.0, 1.0, 10.0, 1.496368169784546
39141, -1.206243634223938, -3.5231776237487793, 0.5739436149597168, 0.0, 0.0, 60.456729888916016, 0.0, 0.0, -0.08392333984375, 0, 0, 0, 0, 0, 0, 9362.0, 30146.0, 35388.0, 9362.0, 8.310744285583496, 0.1448768526315689, 0.008986477740108967, -0.3452833890914917, -0.06276030838489532, -0.022775962948799133, 1.0001411437988281, -0.0595601387321949, -0.04855918884277344, 1.491943359375, 1.324951171875, 0.0236663818359375, 1.49267578125, 1.6142578125, 10.0, 1.0, 10.0, 1.496368169784546
39151, -1.2065242528915405, -3.5186972618103027, 0.567959189414978, 0.0, 0.0, 60.456729888916016, 0.0, 0.0, -0.08392333984375, 0, 0, 0, 0, 0, 0, 9362.0, 30146.0, 35388.0, 9362.0, 8.310744285583496, 0.1448768526315689, 0.008986477740108967, -0.3452833890914917, -0.05891841650009155, -0.02225722372531891, 0.9987831115722656, -0.0595601387321949, -0.04855918884277344, 1.491943359375, 1.324951171875, 0.0236663818359375, 1.49267578125, 1.352783203125, 10.0, 1.0, 10.0, 1.496368169784546
39161, -1.2082558870315552, -3.516008138656616, 0.5661411881446838, 0.0, 0.0, 60.456729888916016, 0.0, 0.0, -0.08392333984375, 0, 0, 0, 0, 0, 0, 9362.0, 30146.0, 35388.0, 9362.0, 8.310744285583496, 0.1448768526315689, 0.008986477740108967, -0.3452833890914917, -0.06078923121094704, -0.022782636806368828, 0.9974330067634583, -0.0595601387321949, -0.04855918884277344, 1.491943359375, 1.324951171875, 0.0236663818359375, 1.49853515625, 1.49853515625, 10.0, 1.0, 10.0, 1.497903823852539
39171, -1.209281325340271, -3.5140700340270996, 0.5657746195793152, 0.0, 0.0, 60.440242767333984, 0.0, 0.0, -0.5084991455078125, 0, 0, 0, 0, 0, 0, 9362.0, 30146.0, 35388.0, 9362.0, 8.310744285583496, 0.1448768526315689, 0.008986477740108967, -0.3452833890914917, -0.061313748359680176, -0.02250470034778118, 0.99826580286026, -0.0595601387321949, -0.04855918884277344, 1.491943359375, 1.74462890625, 0.793792724609375, 1.49853515625, 1.36962890625, 10.0, 1.0, 10.0, 1.497498869895935
39181, -1.2101203203201294, -3.512017011642456, 0.566948652267456, 0.0, 0.0, 60.440242767333984, 0.0, 0.0, -0.5084991455078125, 0, 0, 0, 0, 0, 0, 9362.0, 30146.0, 35388.0, 9362.0, 8.310744285583496, -0.1332002729177475, -0.27286049723625183, 0.17643216252326965, -0.061313748359680176, -0.02250470034778118, 0.99826580286026, -0.0595601387321949, -0.04855918884277344, 1.491943359375, 1.7783203125, 0.898956298828125, 1.4970703125, 1.36962890625, 10.0, 1.0, 10.0, 1.497498869895935
39191, -1.210456371307373, -3.5109219551086426, 0.5681473612785339, 0.0, 0.0, 60.42826461791992, 0.0, 0.0, -0.74005126953125, 0, 0, 0, 0, 0, 0, 9362.0, 30146.0, 35388.0, 9362.0, 8.310744285583496, 0.09650653600692749, 0.12077988684177399, 0.031554583460092545, -0.061313748359680176, -0.02250470034778118, 0.99826580286026, -0.0595601387321949, -0.04855918884277344, 1.491943359375, 1.760009765625, 0.8404998779296875, 1.4970703125, 1.36962890625, 10.0, 1.0, 10.0, 1.497498869895935
39201, -1.210402011871338, -3.511143922805786, 0.5710375905036926, 0.0, 0.0, 60.42826461791992, 0.0, 0.0, -0.74005126953125, 0, 0, 0, 0, 0, 0, 9362.0, 30146.0, 35388.0, 9362.0, 8.310744285583496, 0.09650653600692749, 0.12077988684177399, 0.031554583460092545, -0.06094358488917351, -0.021178806200623512, 0.9981803297996521, -0.0595601387321949, -0.04855918884277344, 1.491943359375, 1.78271484375, 0.9137115478515625, 1.4970703125, 1.5087890625, 10.0, 1.0, 10.0, 1.4988328218460083
39211, -1.211694598197937, -3.5078086853027344, 0.5733855366706848, 0.0, 0.0, 60.415611267089844, 0.0, 0.0, -0.5992889404296875, 0, 0, 0, 0, 0, 0, 9362.0, 30146.0, 35388.0, 9362.0, 8.310744285583496, -0.02059674821794033, -0.33708763122558594, 0.17293590307235718, -0.06094358488917351, -0.021178806200623512, 0.9981803297996521, -0.0595601387321949, -0.04855918884277344, 1.491943359375, 1.73291015625, 0.759429931640625, 1.4970703125, 1.5087890625, 10.0, 1.0, 10.0, 1.4988328218460083
39221, -1.2127244472503662, -3.5043692588806152, 0.5752087831497192, 0.0, 0.0, 60.415611267089844, 0.0, 0.0, -0.5992889404296875, 0, 0, 0, 0, 0, 0, 9362.0, 30146.0, 35388.0, 9362.0, 8.310744285583496, -0.07509203255176544, -0.4178764820098877, 0.25361135601997375, -0.06094358488917351, -0.021178806200623512, 0.9981803297996521, -0.0595601387321949, -0.04855918884277344, 1.491943359375, 1.65234375, 0.5445709228515625, 1.4970703125, 1.45751953125, 10.0, 1.0, 10.0, 1.4995450973510742
39231, -1.2124735116958618, -3.502803325653076, 0.5773582458496094, 0.0, 0.0, 60.415611267089844, 0.0, 0.0, -0.5992889404296875, 0, 0, 0, 0, 0, 0, 9362.0, 30146.0, 35388.0, 9362.0, 8.310744285583496, -0.07509203255176544, -0.4178764820098877, 0.25361135601997375, -0.06041225418448448, -0.022730115801095963, 0.9985545873641968, -0.0595601387321949, -0.04855918884277344, 1.491943359375, 1.513916015625, 0.224029541015625, 1.4970703125, 1.576171875, 10.0, 1.0, 10.0, 1.4997870922088623
39241, -1.2107369899749756, -3.500896453857422, 0.5786110162734985, 0.0, 0.0, 60.415611267089844, 0.0, 0.0, -0.5992889404296875, 0, 0, 0, 0, 0, 0, 9362.0, 30146.0, 35388.0, 9362.0, 8.310744285583496, 0.13946397602558136, -0.22381910681724548, 0.3195750117301941, -0.06041225418448448, -0.022730115801095963, 0.9985545873641968, -0.0595601387321949, -0.04855918884277344, 1.491943359375, 1.251708984375, 0.1577606201171875, 1.4970703125, 1.301513671875, 10.0, 1.0, 10.0, 1.4991611242294312
39251, -1.2098355293273926, -3.5005862712860107, 0.5807817578315735, 0.0, 0.0, 60.415462493896484, 0.0, 0.0, -0.1117706298828125, 0, 0, 0, 0, 0, 0, 9362.0, 30146.0, 35388.0, 9362.0, 8.310744285583496, 0.05608239769935608, -0.1231813132762909, 0.21398018300533295, -0.06015709042549133, -0.01967754028737545, 0.9973897933959961, -0.0595601387321949, -0.04855918884277344, 1.491943359375, 1.389404296875, 0.03082275390625, 1.4970703125, 1.301513671875, 10.0, 1.0, 10.0, 1.4991611242294312
39261, -1.2094511985778809, -3.4988276958465576, 0.5843811631202698, 0.0, 0.0, 60.415462493896484, 0.0, 0.0, -0.1117706298828125, 0, 0, 0, 0, 0, 0, 9362.0, 30146.0, 35388.0, 9362.0, 8.310744285583496, 0.03439940884709358, -0.16451053321361542, 0.30684348940849304, -0.058944571763277054, -0.019106343388557434, 0.9987511038780212, -0.0595601387321949, -0.04855918884277344, 1.491943359375, 1.48681640625, 0.1698150634765625, 1.4970703125, 1.4033203125, 10.0, 1.0, 10.0, 1.4991611242294312
39271, -1.2090026140213013, -3.500239372253418, 0.5895448923110962, 0.0, 0.0, 60.415462493896484, 0.0, 0.0, -0.1117706298828125, 0, 0, 0, 0, 0, 0, 9362.0, 30146.0, 35388.0, 9362.0, 8.310744285583496, 0.03439940884709358, -0.16451053321361542, 0.30684348940849304, -0.05956661328673363, -0.021706784144043922, 0.9988206028938293, -0.0595601387321949, -0.04855918884277344, 1.491943359375, 1.489013671875, 0.174041748046875, 1.4970703125, 1.447998046875, 10.0, 1.0, 10.0, 1.4995508193969727
39281, -1.209184169769287, -3.50030255317688, 0.5920137166976929, 0.0, 0.0, 60.415462493896484, 0.0, 0.0, -0.1117706298828125, 0, 0, 0, 0, 0, 0, 9362.0, 30146.0, 35388.0, 9362.0, 8.310744285583496, 0.0667986199259758, 0.03292371705174446, 0.3421022593975067, -0.05956661328673363, -0.021706784144043922, 0.9988206028938293, -0.0595601387321949, -0.04855918884277344, 1.491943359375, 1.81787109375, 1.039459228515625, 1.4970703125, 1.405517578125, 10.0, 1.0, 10.0, 1.4995508193969727
39291, -1.209567666053772, -3.5024192333221436, 0.5973734259605408, 0.0, 0.0, 60.406558990478516, 0.0, 0.0, 0.1087188720703125, 0, 0, 0, 0, 0, 0, 9362.0, 30146.0, 35388.0, 9362.0, 8.310744285583496, 0.0667986199259758, 0.03292371705174446, 0.3421022593975067, -0.058364126831293106, -0.021135950461030006, 0.9989100098609924, -0.0595601387321949, -0.04855918884277344, 1.491943359375, 1.426025390625, 0.069732666015625, 1.4970703125, 1.405517578125, 10.0, 1.0, 10.0, 1.4999985694885254
39301, -1.2100225687026978, -3.498119592666626, 0.6011010408401489, 0.0, 0.0, 60.406558990478516, 0.0, 0.0, 0.1087188720703125, 0, 0, 0, 0, 0, 0, 9362.0, 30146.0, 35388.0, 9362.0, 8.310744285583496, 0.0667986199259758, 0.03292371705174446, 0.3421022593975067, -0.058364126831293106, -0.021135950461030006, 0.9989100098609924, -0.0595601387321949, -0.04855918884277344, 1.491943359375, 1.770263671875, 0.872894287109375, 1.4970703125, 1.434814453125, 10.0, 1.0, 10.0, 1.4997928142547607
39311, -1.2100920677185059, -3.4988038539886475, 0.6079323887825012, 0.0, 0.0, 60.401859283447266, 0.0, 0.0, -0.5680084228515625, 0, 0, 0, 0, 0, 0, 9362.0, 30146.0, 35388.0, 9362.0, 8.310744285583496, -0.0037024321500211954, 0.15317203104496002, 0.498203307390213, -0.058364126831293106, -0.021135950461030006, 0.9989100098609924, -0.0595601387321949, -0.04855918884277344, 1.491943359375, 1.79150390625, 0.9436492919921875, 1.4970703125, 1.525634765625, 10.0, 1.0, 10.0, 1.4997928142547607
39321, -1.2093522548675537, -3.502307176589966, 0.6110904216766357, 0.0, 0.0, 60.401859283447266, 0.0, 0.0, -0.5680084228515625, 0, 0, 0, 0, 0, 0, 9362.0, 30146.0, 35388.0, 9362.0, 8.310744285583496, 0.17032718658447266, 0.2631124258041382, 0.3751341700553894, -0.058364126831293106, -0.021135950461030006, 0.9989100098609924, -0.0595601387321949, -0.04855918884277344, 1.491943359375, 1.336669921875, 0.0177764892578125, 1.49560546875, 1.525634765625, 10.0, 1.0, 10.0, 1.4997928142547607
39331, -1.2097920179367065, -3.5043282508850098, 0.6179319620132446, 0.0, 0.0, 60.401859283447266, 0.0, 0.0, -0.5680084228515625, 0, 0, 0, 0, 0, 0, 9362.0, 30146.0, 35388.0, 9362.0, 8.310744285583496, 0.17032718658447266, 0.2631124258041382, 0.3751341700553894, -0.058364126831293106, -0.021135950461030006, 0.9989100098609924, -0.0595601387321949, -0.04855918884277344, 1.491943359375, 1.75927734375, 0.8381500244140625, 1.49560546875, 1.32568359375, 10.0, 1.0, 10.0, 1.5002145767211914
39341, -1.209587812423706, -3.507585287094116, 0.6231861710548401, 0.0, 0.0, 60.401859283447266, 0.0, 0.0, -0.5680084228515625, 0, 0, 0, 0, 0, 0, 9362.0, 30146.0, 35388.0, 9362.0, 8.310744285583496, 0.005259397905319929, 0.4493963420391083, 0.6099826097488403, -0.058364126831293106, -0.021135950461030006, 0.9989100098609924, -0.0595601387321949, -0.04855918884277344, 1.491943359375, 1.80908203125, 1.0062255859375, 1.4970703125, 1.32568359375, 10.0, 1.0, 10.0, 1.5002145767211914
39351, -1.2076102495193481, -3.509066343307495, 0.6294407844543457, 0.0, 0.0, 60.39075469970703, 0.0, 0.0, -0.1407623291015625, 0, 0, 0, 0, 0, 0, 9362.0, 30146.0, 35388.0, 9362.0, 8.310744285583496, 0.2990933656692505, 0.05659082159399986, 0.3747388422489166, -0.058364126831293106, -0.021135950461030006, 0.9989100098609924, -0.07473927736282349, 0.08584022521972656, 1.5029296875, 1.80908203125, 1.0062255859375, 1.4970703125, 1.32568359375, 10.0, 1.0, 10.0, 1.5002145767211914
39361, -1.2080724239349365, -3.5080199241638184, 0.6336277723312378, 0.0, 0.0, 60.39075469970703, 0.0, 0.0, -0.1407623291015625, 0, 0, 0, 0, 0, 0, 9362.0, 30146.0, 35388.0, 9362.0, 8.310744285583496, 0.2990933656692505, 0.05659082159399986, 0.3747388422489166, -0.059839218854904175, -0.02194393426179886, 0.9978775978088379, -0.07473927736282349, 0.08584022521972656, 1.5029296875, 1.718994140625, 0.719879150390625, 1.4970703125, 1.58935546875, 10.0, 1.0, 10.0, 1.5002145767211914
39371, -1.2066282033920288, -3.5132224559783936, 0.6416957974433899, 0.0, 0.0, 60.39075469970703, 0.0, 0.0, -0.1407623291015625, 0, 0, 0, 0, 0, 0, 9362.0, 30146.0, 35388.0, 9362.0, 8.310744285583496, 0.2990933656692505, 0.05659082159399986, 0.3747388422489166, -0.059839218854904175, -0.02194393426179886, 0.9978775978088379, -0.07473927736282349, 0.08584022521972656, 1.5029296875, 1.45166015625, 0.107452392578125, 1.4970703125, 1.458984375, 10.0, 1.0, 10.0, 1.501809000968933
39381, -1.2048723697662354, -3.517172336578369, 0.6454653739929199, 0.0, 0.0, 60.39075469970703, 0.0, 0.0, -0.1407623291015625, 0, 0, 0, 0, 0, 0, 9362.0, 30146.0, 35388.0, 9362.0, 8.310744285583496, 0.2990933656692505, 0.05659082159399986, 0.3747388422489166, -0.06241326779127121, -0.01990349590778351, 0.9981462359428406, -0.07473927736282349, 0.08584022521972656, 1.5029296875, 1.45166015625, 0.107452392578125, 1.494140625, 1.235595703125, 10.0, 1.0, 10.0, 1.5009684562683105
39391, -1.2049251794815063, -3.5174031257629395, 0.6512067317962646, 0.0, 0.0, 60.39075469970703, 0.0, 0.0, -0.1407623291015625, 0, 0, 0, 0, 0, 0, 9362.0, 30146.0, 35388.0, 9362.0, 8.310744285583496, 0.2990933656692505, 0.05659082159399986, 0.3747388422489166, -0.061313774436712265, -0.020930243656039238, 0.9975508451461792, -0.07473927736282349, 0.08584022521972656, 1.5029296875, 1.458984375, 0.1195831298828125, 1.494140625, 1.247314453125, 10.0, 1.0, 10.0, 1.5001676082611084
39401, -1.204477310180664, -3.519517183303833, 0.6512649655342102, 0.0, 0.0, 60.39075469970703, 0.0, 0.0, -0.1407623291015625, 0, 0, 0, 0, 0, 0, 9362.0, 30146.0, 35388.0, 9362.0, 8.310744285583496, 0.2990933656692505, 0.05659082159399986, 0.3747388422489166, -0.06383548676967621, -0.01992715708911419, 0.9972519874572754, -0.07473927736282349, 0.08584022521972656, 1.5029296875, 1.43701171875, 0.085052490234375, 1.494140625, 1.301513671875, 10.0, 1.0, 10.0, 1.4995404481887817
39411, -1.205070972442627, -3.5227155685424805, 0.6542683839797974, 0.0, 0.0, 60.39075469970703, 0.0, 0.0, -0.1407623291015625, 0, 0, 0, 0, 0, 0, 9362.0, 30146.0, 35388.0, 9362.0, 8.310744285583496, 0.2990933656692505, 0.05659082159399986, 0.3747388422489166, -0.06228509917855263, -0.021848039701581, 0.9974321722984314, -0.07473927736282349, 0.08584022521972656, 1.5029296875, 1.43701171875, 0.085052490234375, 1.494140625, 1.385009765625, 10.0, 1.0, 10.0, 1.4991788864135742
39431, -1.2057902812957764, -3.5243074893951416, 0.6560307741165161, 0.0, 0.0, 60.37128829956055, 0.0, 0.0, -0.5321502685546875, 0, 0, 0, 0, 0, 0, 9362.0, 30146.0, 35388.0, 9362.0, 8.310744285583496, -0.15817220509052277, -0.08865058422088623, 0.08478054404258728, -0.06071792542934418, -0.023830505087971687, 0.9981439709663391, -0.07473927736282349, 0.08584022521972656, 1.5029296875, 1.69189453125, 0.6463165283203125, 1.49560546875, 1.4033203125, 10.0, 1.0, 10.0, 1.4991788864135742
39441, -1.2049342393875122, -3.5246503353118896, 0.6568242907524109, 0.0, 0.0, 60.37128829956055, 0.0, 0.0, -0.5321502685546875, 0, 0, 0, 0, 0, 0, 9362.0, 30146.0, 35388.0, 9362.0, 8.310744285583496, -0.15817220509052277, -0.08865058422088623, 0.08478054404258728, -0.06243373453617096, -0.022129705175757408, 0.9972561001777649, -0.07473927736282349, 0.08584022521972656, 1.5029296875, 1.32568359375, 0.0232086181640625, 1.49560546875, 1.59814453125, 10.0, 1.0, 10.0, 1.500050663948059
39451, -1.2064123153686523, -3.525853157043457, 0.6554831266403198, 0.0, 0.0, 60.37128829956055, 0.0, 0.0, -0.5321502685546875, 0, 0, 0, 0, 0, 0, 9362.0, 30146.0, 35388.0, 9362.0, 8.310744285583496, -0.15817220509052277, -0.08865058422088623, 0.08478054404258728, -0.06407766044139862, -0.021279294043779373, 0.9955765008926392, -0.04868679493665695, -0.07543754577636719, 1.48974609375, 1.32568359375, 0.0232086181640625, 1.49560546875, 1.76220703125, 10.0, 1.0, 10.0, 1.500050663948059
39461, -1.2056565284729004, -3.525247573852539, 0.6549840569496155, 0.0, 0.0, 60.37128829956055, 0.0, 0.0, -0.5321502685546875, 0, 0, 0, 0, 0, 0, 9362.0, 30146.0, 35388.0, 9362.0, 8.310744285583496, -0.15817220509052277, -0.08865058422088623, 0.08478054404258728, -0.06407766044139862, -0.021279294043779373, 0.9955765008926392, -0.04868679493665695, -0.07543754577636719, 1.48974609375, 1.764404296875, 0.854095458984375, 1.496337890625, 1.76220703125, 10.0, 1.0, 10.0, 1.5017774105072021
39471, -1.205126404762268, -3.5280237197875977, 0.655168354511261, 0.0, 0.0, 60.34358215332031, 0.0, 0.0, -0.9532928466796875, 0, 0, 0, 0, 0, 0, 9362.0, 30146.0, 35388.0, 9362.0, 8.310744285583496, 0.11983878910541534, 0.23170645534992218, -0.12114100158214569, -0.06407766044139862, -0.021279294043779373, 0.9955765008926392, -0.04868679493665695, -0.07543754577636719, 1.48974609375, 1.60400390625, 0.4266204833984375, 1.496337890625, 1.76220703125, 10.0, 1.0, 10.0, 1.5017774105072021
39481, -1.2046267986297607, -3.526848554611206, 0.6542445421218872, 0.0, 0.0, 60.34358215332031, 0.0, 0.0, -0.9532928466796875, 0, 0, 0, 0, 0, 0, 9362.0, 30146.0, 35388.0, 9362.0, 8.310744285583496, 0.17148299515247345, -0.13841058313846588, -0.006213667336851358, -0.06407766044139862, -0.021279294043779373, 0.9955765008926392, -0.04868679493665695, -0.07543754577636719, 1.48974609375, 1.53515625, 0.2692413330078125, 1.49267578125, 1.76220703125, 10.0, 1.0, 10.0, 1.5032455921173096
39491, -1.203798770904541, -3.526332139968872, 0.6539627909660339, 0.0, 0.0, 60.34358215332031, 0.0, 0.0, -0.9532928466796875, 0, 0, 0, 0, 0, 0, 9362.0, 30146.0, 35388.0, 9362.0, 8.310744285583496, 0.17148299515247345, -0.13841058313846588, -0.006213667336851358, -0.060545600950717926, -0.02454940602183342, 0.9976869821548462, -0.04868679493665695, -0.07543754577636719, 1.48974609375, 1.236328125, 0.211822509765625, 1.49267578125, 1.679443359375, 10.0, 1.0, 10.0, 1.503801941871643
39501, -1.2027777433395386, -3.525007724761963, 0.6520360112190247, 0.0, 0.0, 60.34358215332031, 0.0, 0.0, -0.9532928466796875, 0, 0, 0, 0, 0, 0, 9362.0, 30146.0, 35388.0, 9362.0, 8.310744285583496, 0.10482454299926758, -0.21723948419094086, -0.3266019821166992, -0.060545600950717926, -0.02454940602183342, 0.9976869821548462, -0.04868679493665695, -0.07543754577636719, 1.48974609375, 1.259033203125, 0.135589599609375, 1.49267578125, 1.37548828125, 10.0, 1.0, 10.0, 1.5033968687057495
39511, -1.2017399072647095, -3.5191121101379395, 0.6494951844215393, 0.0, 0.0, 60.34358215332031, 0.0, 0.0, -0.9532928466796875, 0, 0, 0, 0, 0, 0, 9362.0, 30146.0, 35388.0, 9362.0, 8.310744285583496, 0.10482454299926758, -0.21723948419094086, -0.3266019821166992, -0.05683651193976402, -0.021529432386159897, 1.002142071723938, -0.04868679493665695, -0.07543754577636719, 1.48974609375, 1.443603515625, 0.0948486328125, 1.49267578125, 1.4267578125, 10.0, 1.0, 10.0, 1.5031548738479614
39521, -1.2010498046875, -3.51778507232666, 0.6468464732170105, 0.0, 0.0, 60.34358215332031, 0.0, 0.0, -0.9532928466796875, 0, 0, 0, 0, 0, 0, 9362.0, 30146.0, 35388.0, 9362.0, 8.310744285583496, 0.10482454299926758, -0.21723948419094086, -0.3266019821166992, -0.057874929159879684, -0.021862223744392395, 1.0000050067901611, -0.04868679493665695, -0.07543754577636719, 1.48974609375, 1.41943359375, 0.0612945556640625, 1.49267578125, 1.365234375, 10.0, 1.0, 10.0, 1.5027194023132324
39531, -1.1996636390686035, -3.5158374309539795, 0.6449832916259766, 0.0, 0.0, 60.34358215332031, 0.0, 0.0, -0.9532928466796875, 0, 0, 0, 0, 0, 0, 9362.0, 30146.0, 35388.0, 9362.0, 8.310744285583496, 0.10482454299926758, -0.21723948419094086, -0.3266019821166992, -0.05808466672897339, -0.02300804667174816, 0.9984775185585022, -0.04868679493665695, -0.07543754577636719, 1.48974609375, 1.707275390625, 0.687713623046875, 1.49267578125, 1.45458984375, 10.0, 1.0, 10.0, 1.5025674104690552
39541, -1.1977498531341553, -3.517282724380493, 0.6420443058013916, 0.0, 0.0, 60.34358215332031, 0.0, 0.0, -0.9532928466796875, 0, 0, 0, 0, 0, 0, 9362.0, 30146.0, 35388.0, 9362.0, 8.310744285583496, 0.2940182685852051, 0.3064087927341461, -0.3236982524394989, -0.05808466672897339, -0.02300804667174816, 0.9984775185585022, -0.04868679493665695, -0.07543754577636719, 1.48974609375, 1.72412109375, 0.73431396484375, 1.49267578125, 1.654541015625, 10.0, 1.0, 10.0, 1.5025674104690552
39551, -1.1969804763793945, -3.5147242546081543, 0.640889048576355, 0.0, 0.0, 60.34358215332031, 0.0, 0.0, -0.9532928466796875, 0, 0, 0, 0, 0, 0, 9362.0, 30146.0, 35388.0, 9362.0, 8.310744285583496, 0.2940182685852051, 0.3064087927341461, -0.3236982524394989, -0.060205742716789246, -0.018607206642627716, 0.998851478099823, -0.04868679493665695, -0.07543754577636719, 1.48974609375, 1.78857421875, 0.9334259033203125, 1.49267578125, 1.546875, 10.0, 1.0, 10.0, 1.5025674104690552
39561, -1.1970596313476562, -3.5161256790161133, 0.641153872013092, 0.0, 0.0, 60.34358215332031, 0.0, 0.0, -0.9532928466796875, 0, 0, 0, 0, 0, 0, 9362.0, 30146.0, 35388.0, 9362.0, 8.310744285583496, 0.2940182685852051, 0.3064087927341461, -0.3236982524394989, -0.059221621602773666, -0.019996080547571182, 0.9964251518249512, -0.04868679493665695, -0.07543754577636719, 1.48974609375, 1.47802734375, 0.1532745361328125, 1.49267578125, 1.279541015625, 10.0, 1.0, 10.0, 1.5024795532226562
39571, -1.1957530975341797, -3.5170795917510986, 0.6406432390213013, 0.0, 0.0, 60.34358215332031, 0.0, 0.0, -0.9532928466796875, 0, 0, 0, 0, 0, 0, 9362.0, 30146.0, 35388.0, 9362.0, 8.310744285583496, 0.27016016840934753, 0.00018048498895950615, -0.1662498116493225, -0.06036953628063202, -0.021396631374955177, 0.9972183108329773, -0.04868679493665695, -0.07543754577636719, 1.48974609375, 1.370361328125, 0.0194549560546875, 1.49267578125, 1.279541015625, 10.0, 1.0, 10.0, 1.5024795532226562
39581, -1.1956379413604736, -3.516275405883789, 0.6384867429733276, 0.0, 0.0, 60.34358215332031, 0.0, 0.0, -0.9532928466796875, 0, 0, 0, 0, 0, 0, 9362.0, 30146.0, 35388.0, 9362.0, 8.310744285583496, 0.15923438966274261, -0.23418068885803223, -0.34209638833999634, -0.06097394600510597, -0.023146841675043106, 0.9966146945953369, -0.04868679493665695, -0.07543754577636719, 1.48974609375, 1.71240234375, 0.70159912109375, 1.49267578125, 1.49267578125, 10.0, 1.0, 10.0, 1.5024795532226562
39591, -1.1942867040634155, -3.520559310913086, 0.6361199617385864, 0.0, 0.0, 60.34358215332031, 0.0, 0.0, -0.9532928466796875, 0, 0, 0, 0, 0, 0, 9362.0, 30146.0, 35388.0, 9362.0, 8.310744285583496, 0.15421752631664276, 0.5689085125923157, -0.05580614507198334, -0.06097394600510597, -0.023146841675043106, 0.9966146945953369, -0.04868679493665695, -0.07543754577636719, 1.48974609375, 1.757080078125, 0.8313140869140625, 1.49267578125, 1.49267578125, 10.0, 1.0, 10.0, 1.5024795532226562
39601, -1.19392728805542, -3.521376848220825, 0.6375640630722046, 0.0, 0.0, 60.34358215332031, 0.0, 0.0, -0.9532928466796875, 0, 0, 0, 0, 0, 0, 9362.0, 30146.0, 35388.0, 9362.0, 8.310744285583496, 0.15421752631664276, 0.5689085125923157, -0.05580614507198334, -0.06096899136900902, -0.01933974400162697, 0.9988295435905457, -0.04868679493665695, -0.07543754577636719, 1.48974609375, 1.38427734375, 0.027099609375, 1.4970703125, 1.319091796875, 10.0, 1.0, 10.0, 1.5035316944122314
39611, -1.1945456266403198, -3.524541139602661, 0.6395423412322998, 0.0, 0.0, 60.34358215332031, 0.0, 0.0, -0.9532928466796875, 0, 0, 0, 0, 0, 0, 9362.0, 30146.0, 35388.0, 9362.0, 8.310744285583496, -0.13510167598724365, 0.4227166771888733, 0.27206602692604065, -0.06096899136900902, -0.01933974400162697, 0.9988295435905457, -0.04868679493665695, -0.07543754577636719, 1.48974609375, 1.693359375, 0.650238037109375, 1.4970703125, 1.244384765625, 10.0, 1.0, 10.0, 1.5035316944122314
39621, -1.1944268941879272, -3.525493621826172, 0.6410372257232666, 0.0, 0.0, 60.34358215332031, 0.0, 0.0, -0.9532928466796875, 0, 0, 0, 0, 0, 0, 9362.0, 30146.0, 35388.0, 9362.0, 8.310744285583496, -0.13510167598724365, 0.4227166771888733, 0.27206602692604065, -0.058841053396463394, -0.020801380276679993, 0.9967758655548096, -0.04868679493665695, -0.07543754577636719, 1.48974609375, 1.443603515625, 0.0948486328125, 1.4970703125, 1.5732421875, 10.0, 1.0, 10.0, 1.5029361248016357
39631, -1.1936213970184326, -3.5259718894958496, 0.6414182782173157, 0.0, 0.0, 60.34358215332031, 0.0, 0.0, -0.9532928466796875, 0, 0, 0, 0, 0, 0, 9362.0, 30146.0, 35388.0, 9362.0, 8.310744285583496, -0.13510167598724365, 0.4227166771888733, 0.27206602692604065, -0.05828860029578209, -0.019724737852811813, 0.9966607093811035, -0.04868679493665695, -0.07543754577636719, 1.48974609375, 1.480224609375, 0.157379150390625, 1.4970703125, 1.48681640625, 10.0, 1.0, 10.0, 1.5028852224349976
39641, -1.1954916715621948, -3.525830030441284, 0.6451287269592285, 0.0, 0.0, 60.34358215332031, 0.0, 0.0, -0.9532928466796875, 0, 0, 0, 0, 0, 0, 9362.0, 30146.0, 35388.0, 9362.0, 8.310744285583496, -0.13510167598724365, 0.4227166771888733, 0.27206602692604065, -0.06088898330926895, -0.019681809470057487, 1.000402808189392, -0.04868679493665695, -0.07543754577636719, 1.48974609375, 1.308837890625, 0.0379486083984375, 1.4970703125, 1.4736328125, 10.0, 1.0, 10.0, 1.5027928352355957
39651, -1.1953999996185303, -3.526942253112793, 0.647330105304718, 0.0, 0.0, 60.34358215332031, 0.0, 0.0, -0.9532928466796875, 0, 0, 0, 0, 0, 0, 9362.0, 30146.0, 35388.0, 9362.0, 8.310744285583496, -0.13510167598724365, 0.4227166771888733, 0.27206602692604065, -0.06088898330926895, -0.019681809470057487, 1.000402808189392, -0.0876084640622139, 0.03208160400390625, 1.49853515625, 1.82080078125, 1.0506591796875, 1.4970703125, 1.318359375, 10.0, 1.0, 10.0, 1.5027928352355957
39661, -1.1966207027435303, -3.528947591781616, 0.6505210995674133, 0.0, 0.0, 60.34358215332031, 0.0, 0.0, -0.9532928466796875, 0, 0, 0, 0, 0, 0, 9362.0, 30146.0, 35388.0, 9362.0, 8.310744285583496, -0.218394935131073, 0.5672503113746643, 0.4870552122592926, -0.06088898330926895, -0.019681809470057487, 1.000402808189392, -0.0876084640622139, 0.03208160400390625, 1.49853515625, 1.584228515625, 0.3801727294921875, 1.4970703125, 1.505859375, 10.0, 1.0, 10.0, 1.5022220611572266
39671, -1.1988952159881592, -3.5308501720428467, 0.6536024808883667, 0.0, 0.0, 60.31014633178711, 0.0, 0.0, 0.511932373046875, 0, 0, 0, 0, 0, 0, 9362.0, 30146.0, 35388.0, 9362.0, 8.310744285583496, -0.21192961931228638, 0.10432762652635574, 0.3572431206703186, -0.06088898330926895, -0.019681809470057487, 1.000402808189392, -0.0876084640622139, 0.03208160400390625, 1.49853515625, 1.837646484375, 1.118377685546875, 1.4970703125, 1.505859375, 10.0, 1.0, 10.0, 1.5022220611572266
39681, -1.1988343000411987, -3.5312037467956543, 0.6551182866096497, 0.0, 0.0, 60.31014633178711, 0.0, 0.0, 0.511932373046875, 0, 0, 0, 0, 0, 0, 9362.0, 30146.0, 35388.0, 9362.0, 8.310744285583496, -0.21192961931228638, 0.10432762652635574, 0.3572431206703186, -0.06295086443424225, -0.020459335297346115, 0.9992875456809998, -0.0876084640622139, 0.03208160400390625, 1.49853515625, 1.41796875, 0.05950927734375, 1.4970703125, 1.41796875, 10.0, 1.0, 10.0, 1.5026867389678955
39691, -1.1979336738586426, -3.5324671268463135, 0.6539496183395386, 0.0, 0.0, 60.31014633178711, 0.0, 0.0, 0.511932373046875, 0, 0, 0, 0, 0, 0, 9362.0, 30146.0, 35388.0, 9362.0, 8.310744285583496, -0.21192961931228638, 0.10432762652635574, 0.3572431206703186, -0.06529705971479416, -0.020876998081803322, 0.9989754557609558, -0.0876084640622139, 0.03208160400390625, 1.49853515625, 1.41796875, 0.05950927734375, 1.4970703125, 1.357177734375, 10.0, 1.0, 10.0, 1.5022273063659668
39701, -1.1995618343353271, -3.5340404510498047, 0.6556419730186462, 0.0, 0.0, 60.31014633178711, 0.0, 0.0, 0.511932373046875, 0, 0, 0, 0, 0, 0, 9362.0, 30146.0, 35388.0, 9362.0, 8.310744285583496, -0.21779893338680267, 0.37890806794166565, 0.24816040694713593, -0.06529705971479416, -0.020876998081803322, 0.9989754557609558, -0.0876084640622139, 0.03208160400390625, 1.49853515625, 1.7958984375, 0.9588470458984375, 1.5029296875, 1.357177734375, 10.0, 1.0, 10.0, 1.5022273063659668
39711, -1.1994132995605469, -3.530024528503418, 0.6535693407058716, 0.0, 0.0, 60.30710983276367, 0.0, 0.0, -0.30517578125, 0, 0, 0, 0, 0, 0, 9362.0, 30146.0, 35388.0, 9362.0, 8.310744285583496, -0.010841405019164085, -0.559141993522644, -0.501691460609436, -0.06529705971479416, -0.020876998081803322, 0.9989754557609558, -0.0876084640622139, 0.03208160400390625, 1.49853515625, 1.80029296875, 0.974456787109375, 1.5029296875, 1.801025390625, 10.0, 1.0, 10.0, 1.5022273063659668
39721, -1.2016512155532837, -3.5285236835479736, 0.6545121073722839, 0.0, 0.0, 60.30710983276367, 0.0, 0.0, -0.30517578125, 0, 0, 0, 0, 0, 0, 9362.0, 30146.0, 35388.0, 9362.0, 8.310744285583496, -0.36836692690849304, -0.21154798567295074, 0.0843389630317688, -0.06529705971479416, -0.020876998081803322, 0.9989754557609558, -0.0876084640622139, 0.03208160400390625, 1.49853515625, 1.69482421875, 0.6540374755859375, 1.497802734375, 1.801025390625, 10.0, 1.0, 10.0, 1.5022273063659668
39731, -1.2004139423370361, -3.5279994010925293, 0.6528775691986084, 0.0, 0.0, 60.30710983276367, 0.0, 0.0, -0.30517578125, 0, 0, 0, 0, 0, 0, 9362.0, 30146.0, 35388.0, 9362.0, 8.310744285583496, -0.36836692690849304, -0.21154798567295074, 0.0843389630317688, -0.05817149579524994, -0.022471429780125618, 0.9999167919158936, -0.0876084640622139, 0.03208160400390625, 1.49853515625, 1.30810546875, 0.0388031005859375, 1.497802734375, 1.408447265625, 10.0, 1.0, 10.0, 1.5050266981124878
39751, -1.2023948431015015, -3.5243992805480957, 0.6512433290481567, 0.0, 0.0, 60.2684211730957, 0.0, 0.0, -1.1508941650390625, 0, 0, 0, 0, 0, 0, 9362.0, 30146.0, 35388.0, 9362.0, 8.310744285583496, 0.11506190150976181, -0.3719368577003479, 0.10308820009231567, -0.06298138946294785, -0.022437483072280884, 0.9987489581108093, -0.06068162992596626, -0.03959846496582031, 1.49267578125, 1.25830078125, 0.137664794921875, 1.497802734375, 1.29345703125, 10.0, 1.0, 10.0, 1.5043586492538452
39761, -1.2018662691116333, -3.5243496894836426, 0.6496609449386597, 0.0, 0.0, 60.2684211730957, 0.0, 0.0, -1.1508941650390625, 0, 0, 0, 0, 0, 0, 9362.0, 30146.0, 35388.0, 9362.0, 8.310744285583496, 0.11506190150976181, -0.3719368577003479, 0.10308820009231567, -0.06155127286911011, -0.02397025376558304, 0.9995890855789185, -0.06068162992596626, -0.03959846496582031, 1.49267578125, 1.25830078125, 0.137664794921875, 1.497802734375, 1.5908203125, 10.0, 1.0, 10.0, 1.5055007934570312
39771, -1.2011245489120483, -3.5218422412872314, 0.6484744548797607, 0.0, 0.0, 60.2684211730957, 0.0, 0.0, -1.1508941650390625, 0, 0, 0, 0, 0, 0, 9362.0, 30146.0, 35388.0, 9362.0, 8.310744285583496, 0.11506190150976181, -0.3719368577003479, 0.10308820009231567, -0.06279082596302032, -0.0252927765250206, 0.9991931319236755, -0.06068162992596626, -0.03959846496582031, 1.49267578125, 1.55126953125, 0.304718017578125, 1.497802734375, 1.4736328125, 10.0, 1.0, 10.0, 1.5054001808166504
39781, -1.200093150138855, -3.522035837173462, 0.6479586958885193, 0.0, 0.0, 60.2684211730957, 0.0, 0.0, -1.1508941650390625, 0, 0, 0, 0, 0, 0, 9362.0, 30146.0, 35388.0, 9362.0, 8.310744285583496, 0.11506190150976181, -0.3719368577003479, 0.10308820009231567, -0.06171398609876633, -0.024568382650613785, 0.9976518154144287, -0.06068162992596626, -0.03959846496582031, 1.49267578125, 1.55126953125, 0.304718017578125, 1.497802734375, 1.5087890625, 10.0, 1.0, 10.0, 1.50541090965271
39791, -1.1991982460021973, -3.520350217819214, 0.6495847702026367, 0.0, 0.0, 60.2684211730957, 0.0, 0.0, -1.1508941650390625, 0, 0, 0, 0, 0, 0, 9362.0, 30146.0, 35388.0, 9362.0, 8.310744285583496, 0.11506190150976181, -0.3719368577003479, 0.10308820009231567, -0.05949794873595238, -0.023211834952235222, 0.9998435378074646, -0.06068162992596626, -0.03959846496582031, 1.49267578125, 1.3857421875, 0.0280914306640625, 1.497802734375, 1.611328125, 10.0, 1.0, 10.0, 1.5057452917099
39801, -1.1978576183319092, -3.5170397758483887, 0.6495371460914612, 0.0, 0.0, 60.2684211730957, 0.0, 0.0, -1.1508941650390625, 0, 0, 0, 0, 0, 0, 9362.0, 30146.0, 35388.0, 9362.0, 8.310744285583496, 0.11506190150976181, -0.3719368577003479, 0.10308820009231567, -0.05949794873595238, -0.023211834952235222, 0.9998435378074646, -0.06068162992596626, -0.03959846496582031, 1.49267578125, 1.78857421875, 0.9334259033203125, 1.497802734375, 1.6962890625, 10.0, 1.0, 10.0, 1.5063469409942627
39811, -1.193726897239685, -3.516596555709839, 0.6524028778076172, 0.0, 0.0, 60.210968017578125, 0.0, 0.0, -0.5126953125, 0, 0, 0, 0, 0, 0, 9362.0, 30146.0, 35388.0, 9362.0, 8.310744285583496, 0.11506190150976181, -0.3719368577003479, 0.10308820009231567, -0.05949794873595238, -0.023211834952235222, 0.9998435378074646, -0.06068162992596626, -0.03959846496582031, 1.49267578125, 1.51025390625, 0.2164154052734375, 1.497802734375, 1.35791015625, 10.0, 1.0, 10.0, 1.5058783292770386
39821, -1.1919275522232056, -3.5154755115509033, 0.6532124876976013, 0.0, 0.0, 60.20635223388672, 0.0, 0.0, -0.461578369140625, 0, 0, 0, 0, 0, 0, 9362.0, 30146.0, 35388.0, 9362.0, 8.310744285583496, 0.11506190150976181, -0.3719368577003479, 0.10308820009231567, -0.06128762289881706, -0.020644916221499443, 1.0014880895614624, -0.06068162992596626, -0.03959846496582031, 1.49267578125, 1.5322265625, 0.2628021240234375, 1.499267578125, 1.35791015625, 10.0, 1.0, 10.0, 1.5058783292770386
39831, -1.1909362077713013, -3.5150697231292725, 0.6541743874549866, 0.0, 0.0, 60.20635223388672, 0.0, 0.0, -0.461578369140625, 0, 0, 0, 0, 0, 0, 9362.0, 30146.0, 35388.0, 9362.0, 8.310744285583496, 0.11506190150976181, -0.3719368577003479, 0.10308820009231567, -0.0604342445731163, -0.021573014557361603, 0.9980684518814087, -0.06068162992596626, -0.03959846496582031, 1.49267578125, 1.36083984375, 0.016387939453125, 1.499267578125, 1.46337890625, 10.0, 1.0, 10.0, 1.5063618421554565
39841, -1.1900862455368042, -3.5147156715393066, 0.6567078828811646, 0.0, 0.0, 60.20635223388672, 0.0, 0.0, -0.461578369140625, 0, 0, 0, 0, 0, 0, 9362.0, 30146.0, 35388.0, 9362.0, 8.310744285583496, 0.11506190150976181, -0.3719368577003479, 0.10308820009231567, -0.06106621026992798, -0.022203274071216583, 0.9976604580879211, -0.06068162992596626, -0.03959846496582031, 1.49267578125, 1.477294921875, 0.1519775390625, 1.499267578125, 1.6201171875, 10.0, 1.0, 10.0, 1.5063618421554565
39851, -1.1895265579223633, -3.5144202709198, 0.6590092182159424, 0.0, 0.0, 60.20635223388672, 0.0, 0.0, -0.461578369140625, 0, 0, 0, 0, 0, 0, 9362.0, 30146.0, 35388.0, 9362.0, 8.310744285583496, 0.11506190150976181, -0.3719368577003479, 0.10308820009231567, -0.06031162664294243, -0.02039078064262867, 0.9958207011222839, -0.036814168095588684, -0.2187976837158203, 1.47802734375, 1.477294921875, 0.1519775390625, 1.499267578125, 1.51171875, 10.0, 1.0, 10.0, 1.5063618421554565
39861, -1.1893144845962524, -3.5135154724121094, 0.6597871780395508, 0.0, 0.0, 60.20635223388672, 0.0, 0.0, -0.461578369140625, 0, 0, 0, 0, 0, 0, 9362.0, 30146.0, 35388.0, 9362.0, 8.310744285583496, -0.08922819793224335, -0.1032964214682579, 0.07773039489984512, -0.06031162664294243, -0.02039078064262867, 0.9958207011222839, -0.036814168095588684, -0.2187976837158203, 1.47802734375, 1.81494140625, 1.02813720703125, 1.4970703125, 1.51171875, 10.0, 1.0, 10.0, 1.5063618421554565
39871, -1.1884504556655884, -3.514315366744995, 0.6613092422485352, 0.0, 0.0, 60.178226470947266, 0.0, 0.0, -0.513458251953125, 0, 0, 0, 0, 0, 0, 9362.0, 30146.0, 35388.0, 9362.0, 8.310744285583496, -0.0007971368613652885, 0.21790993213653564, 0.11008045822381973, -0.06031162664294243, -0.02039078064262867, 0.9958207011222839, -0.036814168095588684, -0.2187976837158203, 1.47802734375, 1.8193359375, 1.0450286865234375, 1.4970703125, 1.51171875, 10.0, 1.0, 10.0, 1.5063618421554565
39881, -1.1884822845458984, -3.5152933597564697, 0.659723699092865, 0.0, 0.0, 60.178226470947266, 0.0, 0.0, -0.513458251953125, 0, 0, 0, 0, 0, 0, 9362.0, 30146.0, 35388.0, 9362.0, 8.310744285583496, 0.02746002934873104, 0.2858203053474426, -0.15809664130210876, -0.06031162664294243, -0.02039078064262867, 0.9958207011222839, -0.036814168095588684, -0.2187976837158203, 1.47802734375, 1.80615234375, 0.995513916015625, 1.494140625, 1.51171875, 10.0, 1.0, 10.0, 1.5063618421554565
39891, -1.1900248527526855, -3.518941879272461, 0.6597569584846497, 0.0, 0.0, 60.165618896484375, 0.0, 0.0, -0.798797607421875, 0, 0, 0, 0, 0, 0, 9362.0, 30146.0, 35388.0, 9362.0, 8.310744285583496, -0.1921742856502533, 0.347781240940094, -0.022116493433713913, -0.06031162664294243, -0.02039078064262867, 0.9958207011222839, -0.036814168095588684, -0.2187976837158203, 1.47802734375, 1.63037109375, 0.490264892578125, 1.494140625, 1.51171875, 10.0, 1.0, 10.0, 1.5063618421554565
39911, -1.1933588981628418, -3.522369623184204, 0.6579484343528748, 0.0, 0.0, 60.15961837768555, 0.0, 0.0, 0.1186370849609375, 0, 0, 0, 0, 0, 0, 9362.0, 30146.0, 35388.0, 9362.0, 8.310744285583496, -0.123476043343544, 0.03926907107234001, -0.2077982872724533, -0.06106366217136383, -0.020412100479006767, 1.0002797842025757, -0.036814168095588684, -0.2187976837158203, 1.47802734375, 1.307373046875, 0.039581298828125, 1.494140625, 1.241455078125, 10.0, 1.0, 10.0, 1.509475588798523
39921, -1.1946735382080078, -3.5199038982391357, 0.6572869420051575, 0.0, 0.0, 60.15961837768555, 0.0, 0.0, 0.1186370849609375, 0, 0, 0, 0, 0, 0, 9362.0, 30146.0, 35388.0, 9362.0, 8.310744285583496, -0.08979104459285736, -0.30265378952026367, -0.060032475739717484, -0.06106366217136383, -0.020412100479006767, 1.0002797842025757, -0.036814168095588684, -0.2187976837158203, 1.47802734375, 1.734375, 0.7635955810546875, 1.50439453125, 1.241455078125, 10.0, 1.0, 10.0, 1.509475588798523
39931, -1.1962424516677856, -3.523676633834839, 0.6553738713264465, 0.0, 0.0, 60.152896881103516, 0.0, 0.0, -0.778961181640625, 0, 0, 0, 0, 0, 0, 9362.0, 30146.0, 35388.0, 9362.0, 8.310744285583496, -0.0952577069401741, 0.7360259890556335, -0.08341839909553528, -0.06106366217136383, -0.020412100479006767, 1.0002797842025757, -0.036814168095588684, -0.2187976837158203, 1.47802734375, 1.8076171875, 1.0009613037109375, 1.50439453125, 1.241455078125, 10.0, 1.0, 10.0, 1.509475588798523
