timeTick, roll, pitch, yaw, stateX, stateY, stateZ, stateVX, stateVY, stateVZ, otX0, otY0, otZ0, otRoll0, otPitch0, otYaw0, left wing, pitch motor, yaw motor, right wing, voltage, roll rate, pitch rate, yaw rate, A_x, A_y, A_z, current, i_raw, v_raw, airflow_voltage, airflow_speed, pot_Pitch, voltage_nKF, kFFx, state, State, volt_KF
31171, -0.6963583827018738, -3.520634174346924, 0.07410045713186264, 0, 0, 0, 0, 0, 0, 0, 0, 0, 0, 0, 0, 0, 0, 0, 0, 0, 0, 0, 0, 0, 0, 0, 0, 0, 0, 0, 0, 0, 0, 0, 0, 0, 0
31181, -0.6953514218330383, -3.520033121109009, 0.07304516434669495, 0.0, 0.0, 60.83005905151367, 0.0, 0.0, -0.2223968505859375, 0, 0, 0, 0, 0, 0, 9362.0, 30146.0, 35388.0, 9362.0, 0, 0.272253155708313, -0.21897514164447784, -0.032513510435819626, -0.06093251705169678, -0.013746222481131554, 0.9962760210037231, 0, 0, 0, 0, 0, 0, 0, 0, 0, 0, 0
31191, -0.6967233419418335, -3.5218684673309326, 0.07526787370443344, 0.0, 0.0, 60.825870513916016, 0.0, 0.0, -0.418853759765625, 0, 0, 0, 0, 0, 0, 9362.0, 30146.0, 35388.0, 9362.0, 0, -0.19003558158874512, 0.17716749012470245, 0.13306620717048645, -0.06186294928193092, -0.011523707769811153, 0.9950976371765137, 0, 0, 0, 1.32421875, 0.024139404296875, 0, 1.4150390625, 10.0, 1.0, 10.0, 1.398619294166565
31201, -0.6963076591491699, -3.5235071182250977, 0.07777883857488632, 0.0, 0.0, 60.82210159301758, 0.0, 0.0, -0.37689208984375, 0, 0, 0, 0, 0, 0, 9362.0, 30146.0, 35388.0, 9362.0, 0, -0.004953524097800255, 0.27115118503570557, 0.1383628398180008, -0.061924420297145844, -0.010935827158391476, 0.9967883229255676, 0, 0, 0, 1.119140625, 1.04302978515625, 1.49853515625, 1.395263671875, 10.0, 1.0, 10.0, 1.3989949226379395
31211, -0.6954768300056458, -3.522108793258667, 0.07699458301067352, 0.0, 0.0, 60.81871032714844, 0.0, 0.0, -0.3391265869140625, 0, 0, 0, 0, 0, 0, 9362.0, 30146.0, 35388.0, 9362.0, 0, 0.060783397406339645, -0.42170900106430054, -0.24855445325374603, -0.06302215903997421, -0.0115284388884902, 0.9959075450897217, 0, 0, 0, 1.45751953125, 0.117095947265625, 1.49853515625, 1.121337890625, 10.0, 1.0, 10.0, 1.3987380266189575
31221, -0.6970822811126709, -3.5224549770355225, 0.07685720175504684, 0.0, 0.0, 60.81565856933594, 0.0, 0.0, -0.30517578125, 0, 0, 0, 0, 0, 0, 9362.0, 30146.0, 35388.0, 9362.0, 0, -0.332735151052475, -0.031053120270371437, 0.00641742255538702, -0.06527096778154373, -0.013130411505699158, 0.9972886443138123, 0, 0, 0, 1.36669921875, 0.01806640625, 1.499267578125, 1.467041015625, 10.0, 1.0, 10.0, 1.3976839780807495
31231, -0.6963096857070923, -3.5262911319732666, 0.07913356274366379, 0.0, 0.0, 60.82111358642578, 0.0, 0.0, 0.545501708984375, 0, 0, 0, 0, 0, 0, 9362.0, 30146.0, 35388.0, 9362.0, 0, -0.0244832094758749, 0.28171050548553467, 0.38960036635398865, -0.06445810943841934, -0.013016368262469769, 0.9988622069358826, 0, 0, 0, 1.187255859375, 0.46051025390625, 1.499267578125, 1.348388671875, 10.0, 1.0, 10.0, 1.3982059955596924
31241, -0.6955588459968567, -3.5231993198394775, 0.07976476103067398, 0.0, 0.0, 60.82602310180664, 0.0, 0.0, 0.4909515380859375, 0, 0, 0, 0, 0, 0, 9362.0, 30146.0, 35388.0, 9362.0, 0, 0.10469106584787369, -0.434021919965744, 0.22429640591144562, -0.062104418873786926, -0.012326642870903015, 0.9988033175468445, 0, 0, 0, 1.0634765625, 1.780426025390625, 1.50146484375, 1.30517578125, 10.0, 1.0, 10.0, 1.398566722869873
31251, -0.6970990896224976, -3.5217740535736084, 0.07891737669706345, 0.0, 0.0, 60.8271598815918, 0.0, 0.0, 0.113677978515625, 0, 0, 0, 0, 0, 0, 9362.0, 30146.0, 35388.0, 9362.0, 0, -0.009415938518941402, -0.04938090592622757, -0.08993085473775864, -0.062099844217300415, -0.011274663731455803, 0.9990026354789734, 0, 0, 0, 1.6083984375, 0.437225341796875, 1.50146484375, 1.582763671875, 10.0, 1.0, 10.0, 1.3984521627426147
31261, -0.6980012059211731, -3.523287057876587, 0.07719198614358902, 0.0, 0.0, 60.828182220458984, 0.0, 0.0, 0.10223388671875, 0, 0, 0, 0, 0, 0, 9362.0, 30146.0, 35388.0, 9362.0, 0, -0.06775821000337601, 0.05223485082387924, -0.19884410500526428, -0.06311815977096558, -0.012035507708787918, 0.9987143278121948, 0, 0, 0, 1.56298828125, 0.3311767578125, 1.49853515625, 1.562255859375, 10.0, 1.0, 10.0, 1.3984721899032593
31271, -0.697033703327179, -3.5208845138549805, 0.07652003318071365, 0.0, 0.0, 60.82746124267578, 0.0, 0.0, -0.0720977783203125, 0, 0, 0, 0, 0, 0, 9362.0, 30146.0, 35388.0, 9362.0, 8.271075248718262, 0.18697094917297363, -0.17890453338623047, -0.2543366849422455, -0.06314166635274887, -0.012679891660809517, 0.99852454662323, -0.05194501951336861, 0.014162063598632812, 1.4970703125, 1.171142578125, 0.5709228515625, 1.49853515625, 1.09130859375, 10.0, 1.0, 10.0, 1.3985846042633057
31281, -0.698217511177063, -3.5231120586395264, 0.07856487482786179, 0.0, 0.0, 60.826812744140625, 0.0, 0.0, -0.064849853515625, 0, 0, 0, 0, 0, 0, 9362.0, 30146.0, 35388.0, 9362.0, 8.271075248718262, -0.20609667897224426, 0.32092443108558655, 0.2984292507171631, -0.06105959415435791, -0.012444501742720604, 0.9978336095809937, -0.05194501951336861, 0.014162063598632812, 1.4970703125, 1.470703125, 0.1399383544921875, 1.50146484375, 1.472900390625, 10.0, 1.0, 10.0, 1.3974477052688599
31291, -0.6974334716796875, -3.524200201034546, 0.07819326221942902, 0.0, 0.0, 60.82240295410156, 0.0, 0.0, -0.44097900390625, 0, 0, 0, 0, 0, 0, 9362.0, 30146.0, 35388.0, 9362.0, 8.271075248718262, 0.14321108162403107, 0.12729622423648834, -0.25144162774086, -0.05991446226835251, -0.013254416175186634, 0.9982172846794128, -0.05194501951336861, 0.014162063598632812, 1.4970703125, 1.31689453125, 0.0298919677734375, 1.50146484375, 1.433349609375, 10.0, 1.0, 10.0, 1.397521734237671
31301, -0.6970754265785217, -3.5255258083343506, 0.07693146914243698, 0.0, 0.0, 60.81843185424805, 0.0, 0.0, -0.3971099853515625, 0, 0, 0, 0, 0, 0, 9362.0, 30146.0, 35388.0, 9362.0, 8.271075248718262, 0.06692548096179962, 0.17800137400627136, -0.2671131193637848, -0.06376203149557114, -0.012826187536120415, 0.9964526295661926, -0.05194501951336861, 0.014162063598632812, 1.4970703125, 1.251708984375, 0.1577606201171875, 1.4970703125, 1.40185546875, 10.0, 1.0, 10.0, 1.3980720043182373
31311, -0.6974223852157593, -3.5257339477539062, 0.07534315437078476, 0.0, 0.0, 60.8236083984375, 0.0, 0.0, 0.5176544189453125, 0, 0, 0, 0, 0, 0, 9362.0, 30146.0, 35388.0, 9362.0, 8.271075248718262, -0.168941929936409, -0.0667765662074089, -0.3158153295516968, -0.06613721698522568, -0.011783327907323837, 0.9973141551017761, -0.05194501951336861, 0.014162063598632812, 1.4970703125, 1.443603515625, 0.0948486328125, 1.4970703125, 1.32568359375, 10.0, 1.0, 10.0, 1.3987129926681519
31321, -0.6966130137443542, -3.526533842086792, 0.07565491646528244, 0.0, 0.0, 60.82826614379883, 0.0, 0.0, 0.4657745361328125, 0, 0, 0, 0, 0, 0, 9362.0, 30146.0, 35388.0, 9362.0, 8.271075248718262, 0.15668104588985443, -0.03513910621404648, 0.05797896161675453, -0.06452617049217224, -0.011752752587199211, 0.9985119700431824, -0.05194501951336861, 0.014162063598632812, 1.4970703125, 1.587158203125, 0.3869171142578125, 1.49560546875, 1.480224609375, 10.0, 1.0, 10.0, 1.397786259651184
31331, -0.6980563998222351, -3.526045083999634, 0.07379782199859619, 0.0, 0.0, 60.82316207885742, 0.0, 0.0, -0.510406494140625, 0, 0, 0, 0, 0, 0, 9362.0, 30146.0, 35388.0, 9362.0, 8.271075248718262, -0.15397532284259796, -0.021479086950421333, -0.09306250512599945, -0.06249154731631279, -0.013878121972084045, 0.9972780346870422, -0.05194501951336861, 0.014162063598632812, 1.4970703125, 1.34619140625, 0.015594482421875, 1.49560546875, 1.305908203125, 10.0, 1.0, 10.0, 1.3982269763946533
31341, -0.6985869407653809, -3.522808313369751, 0.07302539795637131, 0.0, 0.0, 60.81856918334961, 0.0, 0.0, -0.45928955078125, 0, 0, 0, 0, 0, 0, 9362.0, 30146.0, 35388.0, 9362.0, 8.271075248718262, -0.09083394706249237, -0.5971245169639587, -0.0018038880079984665, -0.06139465048909187, -0.01351076178252697, 0.9981822371482849, -0.05194501951336861, 0.014162063598632812, 1.4970703125, 1.399658203125, 0.0396575927734375, 1.4970703125, 1.02685546875, 10.0, 1.0, 10.0, 1.3988420963287354
31351, -0.6983436942100525, -3.519836187362671, 0.0714871734380722, 0.0, 0.0, 60.82427978515625, 0.0, 0.0, 0.5710601806640625, 0, 0, 0, 0, 0, 0, 9362.0, 30146.0, 35388.0, 9362.0, 8.271075248718262, 0.1889929324388504, -0.13305966556072235, -0.37365368008613586, -0.06213584542274475, -0.0121245626360178, 0.9989578127861023, -0.05194501951336861, 0.014162063598632812, 1.4970703125, 1.58203125, 0.37493896484375, 1.4970703125, 1.54833984375, 10.0, 1.0, 10.0, 1.3979403972625732
31361, -0.6975498795509338, -3.5192160606384277, 0.07113944739103317, 0.0, 0.0, 60.82941818237305, 0.0, 0.0, 0.5138397216796875, 0, 0, 0, 0, 0, 0, 9362.0, 30146.0, 35388.0, 9362.0, 8.271075248718262, 0.197550430893898, -0.043072719126939774, -0.025037061423063278, -0.06434395909309387, -0.011947025544941425, 0.9967671036720276, -0.05194501951336861, 0.014162063598632812, 1.4970703125, 1.47216796875, 0.142547607421875, 1.494873046875, 1.462646484375, 10.0, 1.0, 10.0, 1.3973028659820557
31371, -0.6980797648429871, -3.5185017585754395, 0.07334902137517929, 0.0, 0.0, 60.8356819152832, 0.0, 0.0, 0.626373291015625, 0, 0, 0, 0, 0, 0, 9362.0, 30146.0, 35388.0, 9362.0, 8.271075248718262, -0.03113228641450405, -0.32960882782936096, 0.310509592294693, -0.06217896193265915, -0.011643724516034126, 0.9968271851539612, -0.06530581414699554, -0.05751800537109375, 1.4912109375, 1.01806640625, 2.597137451171875, 1.494873046875, 1.149169921875, 10.0, 1.0, 10.0, 1.3975855112075806
31381, -0.6983277797698975, -3.516765594482422, 0.07361157238483429, 0.0, 0.0, 60.8413200378418, 0.0, 0.0, 0.563812255859375, 0, 0, 0, 0, 0, 0, 9362.0, 30146.0, 35388.0, 9362.0, 8.271075248718262, -0.10756201297044754, -0.19738030433654785, 0.08640540391206741, -0.06025676056742668, -0.011593897826969624, 0.9948222637176514, -0.06530581414699554, -0.05751800537109375, 1.4912109375, 1.3916015625, 0.0325927734375, 1.50146484375, 1.60400390625, 10.0, 1.0, 10.0, 1.3975712060928345
31391, -0.6982147693634033, -3.5152480602264404, 0.07294522225856781, 0.0, 0.0, 60.84803771972656, 0.0, 0.0, 0.6717681884765625, 0, 0, 0, 0, 0, 0, 9362.0, 30146.0, 35388.0, 9362.0, 8.271075248718262, -0.042565055191516876, -0.22974775731563568, -0.09474485367536545, -0.05984141677618027, -0.012256129644811153, 0.9979999661445618, -0.06530581414699554, -0.05751800537109375, 1.4912109375, 1.446533203125, 0.09930419921875, 1.50146484375, 1.481689453125, 10.0, 1.0, 10.0, 1.3968168497085571
31401, -0.7001569271087646, -3.5150859355926514, 0.07115372270345688, 0.0, 0.0, 60.85408020019531, 0.0, 0.0, 0.604248046875, 0, 0, 0, 0, 0, 0, 9362.0, 30146.0, 35388.0, 9362.0, 8.271075248718262, -0.26888203620910645, -0.024661649018526077, -0.2544468343257904, -0.0619514174759388, -0.013232177123427391, 0.9992914795875549, -0.06530581414699554, -0.05751800537109375, 1.4912109375, 1.43994140625, 0.089324951171875, 1.497802734375, 1.42529296875, 10.0, 1.0, 10.0, 1.3968651294708252
31411, -0.7008213400840759, -3.514963388442993, 0.07062400132417679, 0.0, 0.0, 60.85459899902344, 0.0, 0.0, 0.0518798828125, 0, 0, 0, 0, 0, 0, 9362.0, 30146.0, 35388.0, 9362.0, 8.271075248718262, 0.0066482899710536, 0.10874973982572556, -0.04928784444928169, -0.06122446060180664, -0.013259533792734146, 0.9982147216796875, -0.06530581414699554, -0.05751800537109375, 1.4912109375, 1.292724609375, 0.060089111328125, 1.497802734375, 1.2978515625, 10.0, 1.0, 10.0, 1.3974475860595703
31421, -0.7000762820243835, -3.5138022899627686, 0.07135884463787079, 0.0, 0.0, 60.855064392089844, 0.0, 0.0, 0.046539306640625, 0, 0, 0, 0, 0, 0, 9362.0, 30146.0, 35388.0, 9362.0, 8.271075248718262, 0.22277964651584625, -0.19129876792430878, 0.14686112105846405, -0.06259126216173172, -0.013334020972251892, 0.9984023571014404, -0.06530581414699554, -0.05751800537109375, 1.4912109375, 1.25830078125, 0.137664794921875, 1.50146484375, 1.18798828125, 10.0, 1.0, 10.0, 1.3979449272155762
31431, -0.702008843421936, -3.51251482963562, 0.07166660577058792, 0.0, 0.0, 60.85110855102539, 0.0, 0.0, -0.3955841064453125, 0, 0, 0, 0, 0, 0, 9362.0, 30146.0, 35388.0, 9362.0, 8.271075248718262, -0.10176340490579605, -0.10246650874614716, 0.1598709523677826, -0.061614856123924255, -0.013748912140727043, 0.9994440078735352, -0.06530581414699554, -0.05751800537109375, 1.4912109375, 1.191650390625, 0.4329986572265625, 1.50146484375, 1.14697265625, 10.0, 1.0, 10.0, 1.3983227014541626
31441, -0.7025061249732971, -3.512755870819092, 0.07271485030651093, 0.0, 0.0, 60.84754943847656, 0.0, 0.0, -0.3559112548828125, 0, 0, 0, 0, 0, 0, 9362.0, 30146.0, 35388.0, 9362.0, 8.271075248718262, 0.014712095260620117, 0.056448113173246384, 0.3447856903076172, -0.06366049498319626, -0.013571025803685188, 0.9985253810882568, -0.06530581414699554, -0.05751800537109375, 1.4912109375, 1.53515625, 0.2692413330078125, 1.50146484375, 1.442138671875, 10.0, 1.0, 10.0, 1.3968814611434937
31451, -0.7030283212661743, -3.512338876724243, 0.07354502379894257, 0.0, 0.0, 60.84325408935547, 0.0, 0.0, -0.429534912109375, 0, 0, 0, 0, 0, 0, 9362.0, 30146.0, 35388.0, 9362.0, 8.271075248718262, -0.09237783402204514, -0.05244669318199158, 0.01231724489480257, -0.06298746913671494, -0.011881222017109394, 0.9973483681678772, -0.06530581414699554, -0.05751800537109375, 1.4912109375, 1.39013671875, 0.0314483642578125, 1.50146484375, 1.443603515625, 10.0, 1.0, 10.0, 1.3957453966140747
31461, -0.7034600377082825, -3.513118267059326, 0.07478366792201996, 0.0, 0.0, 60.839385986328125, 0.0, 0.0, -0.386810302734375, 0, 0, 0, 0, 0, 0, 9362.0, 30146.0, 35388.0, 9362.0, 8.271075248718262, 0.04382338747382164, 0.009155011735856533, -0.038581062108278275, -0.06438415497541428, -0.011443553492426872, 0.9961073994636536, -0.06530581414699554, -0.05751800537109375, 1.4912109375, 0.933837890625, 4.7445220947265625, 1.49560546875, 1.61279296875, 10.0, 1.0, 10.0, 1.3959519863128662
31471, -0.7043300271034241, -3.516493558883667, 0.0765308067202568, 0.0, 0.0, 60.829345703125, 0.0, 0.0, -1.0040283203125, 0, 0, 0, 0, 0, 0, 9362.0, 30146.0, 35388.0, 9362.0, 8.271075248718262, -0.10652625560760498, 0.33845627307891846, 0.25580736994743347, -0.06540032476186752, -0.010594849474728107, 0.9977834820747375, -0.043763380497694016, -0.03959846496582031, 1.49267578125, 1.5439453125, 0.2884979248046875, 1.49560546875, 1.554931640625, 10.0, 1.0, 10.0, 1.3958040475845337
31481, -0.7038692831993103, -3.516331911087036, 0.07858432084321976, 0.0, 0.0, 60.820308685302734, 0.0, 0.0, -0.9037017822265625, 0, 0, 0, 0, 0, 0, 9362.0, 30146.0, 35388.0, 9362.0, 8.271075248718262, 0.06812728941440582, -0.21101965010166168, 0.16847261786460876, -0.06455061584711075, -0.011504574678838253, 0.9991146326065063, -0.043763380497694016, -0.03959846496582031, 1.49267578125, 1.47216796875, 0.142547607421875, 1.50146484375, 1.5703125, 10.0, 1.0, 10.0, 1.3953790664672852
31491, -0.7038698196411133, -3.5188121795654297, 0.08043959736824036, 0.0, 0.0, 60.807254791259766, 0.0, 0.0, -1.305389404296875, 0, 0, 0, 0, 0, 0, 9362.0, 30146.0, 35388.0, 9362.0, 8.271075248718262, 0.08746877312660217, 0.24308456480503082, 0.29900655150413513, -0.06515322625637054, -0.0139828035607934, 0.9975734949111938, -0.043763380497694016, -0.03959846496582031, 1.49267578125, 1.57177734375, 0.3512115478515625, 1.50146484375, 1.01220703125, 10.0, 1.0, 10.0, 1.3952375650405884
31531, -0.7053907513618469, -3.5196046829223633, 0.07799083739519119, 0.0, 0.0, 60.76358413696289, 0.0, 0.0, -0.4558563232421875, 0, 0, 0, 0, 0, 0, 9362.0, 30146.0, 35388.0, 9362.0, 8.271075248718262, -0.1531156748533249, -0.019964853301644325, -0.18051911890506744, -0.06327051669359207, -0.01080282125622034, 0.9959299564361572, -0.043763380497694016, -0.03959846496582031, 1.49267578125, 1.3857421875, 0.0280914306640625, 1.502197265625, 1.385009765625, 10.0, 1.0, 10.0, 1.3925561904907227
31591, -0.7052574157714844, -3.520164966583252, 0.07748739421367645, 0.0, 0.0, 60.757102966308594, 0.0, 0.0, -0.383758544921875, 0, 0, 0, 0, 0, 0, 9362.0, 30146.0, 35388.0, 9362.0, 8.271075248718262, 0.12158890068531036, 0.21344546973705292, -0.2771710753440857, -0.061996422708034515, -0.012646488845348358, 0.998510479927063, -0.06974128633737564, -0.05751800537109375, 1.4912109375, 1.134521484375, 0.88360595703125, 1.502197265625, 1.51318359375, 10.0, 1.0, 10.0, 1.3934375047683716
31611, -0.7047756910324097, -3.5202953815460205, 0.07652218639850616, 0.0, 0.0, 60.7592887878418, 0.0, 0.0, 0.563812255859375, 0, 0, 0, 0, 0, 0, 9362.0, 30146.0, 35388.0, 9362.0, 8.271075248718262, 0.0965324118733406, -0.1662682741880417, -0.055275652557611465, -0.06323232501745224, -0.012554075568914413, 0.9974467158317566, -0.06974128633737564, -0.05751800537109375, 1.4912109375, 1.1396484375, 0.83428955078125, 1.502197265625, 1.51318359375, 10.0, 1.0, 10.0, 1.3944200277328491
31621, -0.7041910886764526, -3.519207715988159, 0.07549423724412918, 0.0, 0.0, 60.764366149902344, 0.0, 0.0, 0.5077362060546875, 0, 0, 0, 0, 0, 0, 9362.0, 30146.0, 35388.0, 9362.0, 8.271075248718262, 0.19916358590126038, -0.13113519549369812, -0.053526200354099274, -0.06304758042097092, -0.01150533091276884, 0.9970563650131226, -0.06974128633737564, -0.05751800537109375, 1.4912109375, 1.1396484375, 0.83428955078125, 1.502197265625, 1.51318359375, 10.0, 1.0, 10.0, 1.3944200277328491
31631, -0.7038154602050781, -3.519906520843506, 0.0766100138425827, 0.0, 0.0, 60.76292037963867, 0.0, 0.0, -0.1445770263671875, 0, 0, 0, 0, 0, 0, 9362.0, 30146.0, 35388.0, 9362.0, 8.271075248718262, 0.06918216496706009, 0.27157869935035706, 0.05309054255485535, -0.06304758042097092, -0.01150533091276884, 0.9970563650131226, -0.06974128633737564, -0.05751800537109375, 1.4912109375, 1.1396484375, 0.83428955078125, 1.502197265625, 1.51318359375, 10.0, 1.0, 10.0, 1.3953169584274292
31681, -0.7044049501419067, -3.5197463035583496, 0.07494225353002548, 0.0, 0.0, 60.764591217041016, 0.0, 0.0, 0.1407623291015625, 0, 0, 0, 0, 0, 0, 9362.0, 30146.0, 35388.0, 9362.0, 8.271075248718262, -0.13618455827236176, -0.08518189936876297, 0.274107962846756, -0.0632602795958519, -0.010869416408240795, 0.9963469505310059, -0.043325405567884445, -0.07543754577636719, 1.48974609375, 1.352783203125, 0.015350341796875, 1.50146484375, 1.51318359375, 10.0, 1.0, 10.0, 1.3953317403793335
31691, -0.7051128149032593, -3.520681858062744, 0.07458656281232834, 0.0, 0.0, 60.75748825073242, 0.0, 0.0, -0.327301025390625, 0, 0, 0, 0, 0, 0, 9362.0, 30146.0, 35388.0, 9362.0, 8.271075248718262, -0.07476148754358292, -0.05236443504691124, -0.11137948930263519, -0.0632602795958519, -0.010869416408240795, 0.9963469505310059, -0.043325405567884445, -0.07543754577636719, 1.48974609375, 1.352783203125, 0.015350341796875, 1.50146484375, 1.51318359375, 10.0, 1.0, 10.0, 1.3943161964416504
31701, -0.7050945162773132, -3.5220413208007812, 0.07486853748559952, 0.0, 0.0, 60.75454330444336, 0.0, 0.0, -0.29449462890625, 0, 0, 0, 0, 0, 0, 9362.0, 30146.0, 35388.0, 9362.0, 8.271075248718262, -0.04798717051744461, 0.009040357545018196, -0.02072776108980179, -0.0632602795958519, -0.010869416408240795, 0.9963469505310059, -0.043325405567884445, -0.07543754577636719, 1.48974609375, 1.352783203125, 0.015350341796875, 1.50146484375, 1.51318359375, 10.0, 1.0, 10.0, 1.394821047782898
31711, -0.7065567374229431, -3.519934892654419, 0.07400909066200256, 0.0, 0.0, 60.7546272277832, 0.0, 0.0, 0.008392333984375, 0, 0, 0, 0, 0, 0, 9362.0, 30146.0, 35388.0, 9362.0, 8.271075248718262, -0.22912999987602234, -0.08169753104448318, -0.01824364624917507, -0.0632602795958519, -0.010869416408240795, 0.9963469505310059, -0.043325405567884445, -0.07543754577636719, 1.48974609375, 1.352783203125, 0.015350341796875, 1.50146484375, 1.51318359375, 10.0, 1.0, 10.0, 1.395525574684143
31721, -0.7070705890655518, -3.52066707611084, 0.07624810934066772, 0.0, 0.0, 60.754703521728516, 0.0, 0.0, 0.00762939453125, 0, 0, 0, 0, 0, 0, 9362.0, 30146.0, 35388.0, 9362.0, 8.271075248718262, -0.02429281920194626, -0.03454195335507393, 0.22927190363407135, -0.0632602795958519, -0.010869416408240795, 0.9963469505310059, -0.043325405567884445, -0.07543754577636719, 1.48974609375, 1.352783203125, 0.015350341796875, 1.50146484375, 1.51318359375, 10.0, 1.0, 10.0, 1.3960613012313843
31731, -0.7063723206520081, -3.5211851596832275, 0.0760110393166542, 0.0, 0.0, 60.75367736816406, 0.0, 0.0, -0.1026153564453125, 0, 0, 0, 0, 0, 0, 9362.0, 30146.0, 35388.0, 9362.0, 8.271075248718262, 0.08589570969343185, 0.08803430199623108, -0.2976980209350586, -0.0632602795958519, -0.010869416408240795, 0.9963469505310059, -0.043325405567884445, -0.07543754577636719, 1.48974609375, 1.352783203125, 0.015350341796875, 1.50146484375, 1.51318359375, 10.0, 1.0, 10.0, 1.3965907096862793
31741, -0.704417884349823, -3.523477792739868, 0.07684430480003357, 0.0, 0.0, 60.75275421142578, 0.0, 0.0, -0.092315673828125, 0, 0, 0, 0, 0, 0, 9362.0, 30146.0, 35388.0, 9362.0, 8.271075248718262, 0.16884493827819824, 0.2640170454978943, 0.10877027362585068, -0.0632602795958519, -0.010869416408240795, 0.9963469505310059, -0.043325405567884445, -0.07543754577636719, 1.48974609375, 1.352783203125, 0.015350341796875, 1.50146484375, 1.51318359375, 10.0, 1.0, 10.0, 1.3970837593078613
31751, -0.7043305039405823, -3.524873733520508, 0.07729759812355042, 0.0, 0.0, 60.75275421142578, 0.0, 0.0, -0.092315673828125, 0, 0, 0, 0, 0, 0, 9362.0, 30146.0, 35388.0, 9362.0, 8.271075248718262, 0.08527835458517075, 0.2851276397705078, 0.08787994831800461, -0.0632602795958519, -0.010869416408240795, 0.9963469505310059, -0.043325405567884445, -0.07543754577636719, 1.48974609375, 1.352783203125, 0.015350341796875, 1.50146484375, 1.2275390625, 10.0, 1.0, 10.0, 1.3970109224319458
31761, -0.7027364373207092, -3.525573968887329, 0.07794022560119629, 0.0, 0.0, 60.75325393676758, 0.0, 0.0, 0.023651123046875, 0, 0, 0, 0, 0, 0, 9362.0, 30146.0, 35388.0, 9362.0, 8.271075248718262, 0.22156891226768494, -0.18295307457447052, -0.16028933227062225, -0.06505618989467621, -0.012704919092357159, 0.9978762269020081, -0.043325405567884445, -0.07543754577636719, 1.48974609375, 1.352783203125, 0.015350341796875, 1.50146484375, 1.2275390625, 10.0, 1.0, 10.0, 1.3970109224319458
31781, -0.7020347714424133, -3.524982452392578, 0.07616568356752396, 0.0, 0.0, 60.753658294677734, 0.0, 0.0, 0.019073486328125, 0, 0, 0, 0, 0, 0, 9362.0, 30146.0, 35388.0, 9362.0, 8.271075248718262, -0.007918298244476318, -0.12793835997581482, -0.15848860144615173, -0.060545146465301514, -0.011922268196940422, 0.996974766254425, -0.043325405567884445, -0.07543754577636719, 1.48974609375, 1.352783203125, 0.015350341796875, 1.5, 1.2275390625, 10.0, 1.0, 10.0, 1.3970109224319458
31801, -0.7034986019134521, -3.5225656032562256, 0.07627716660499573, 0.0, 0.0, 60.76021957397461, 0.0, 0.0, 0.3108978271484375, 0, 0, 0, 0, 0, 0, 9362.0, 30146.0, 35388.0, 9362.0, 8.271075248718262, 0.11310677975416183, -0.29594990611076355, -0.14411985874176025, -0.06020461022853851, -0.011926863342523575, 0.9974102973937988, -0.043325405567884445, -0.07543754577636719, 1.48974609375, 1.352783203125, 0.015350341796875, 1.499267578125, 1.2275390625, 10.0, 1.0, 10.0, 1.3970109224319458
31881, -0.7037801742553711, -3.5297887325286865, 0.07554811984300613, 0.0, 0.0, 60.81340408325195, 0.0, 0.0, 0.3879547119140625, 0, 0, 0, 0, 0, 0, 9362.0, 30146.0, 35388.0, 9362.0, 8.271075248718262, -0.07521876692771912, -0.07235291600227356, -0.09674524515867233, -0.06367315351963043, -0.01156703196465969, 0.9960105419158936, -0.043325405567884445, -0.07543754577636719, 1.48974609375, 0.97998046875, 3.4570770263671875, 1.496337890625, 1.4912109375, 10.0, 1.0, 10.0, 1.3919144868850708
31891, -0.7043971419334412, -3.529780149459839, 0.07546070963144302, 0.0, 0.0, 60.81340408325195, 0.0, 0.0, 0.3879547119140625, 0, 0, 0, 0, 0, 0, 9362.0, 30146.0, 35388.0, 9362.0, 8.271075248718262, -0.03913877159357071, -0.02258726954460144, 0.007800157181918621, -0.06367315351963043, -0.01156703196465969, 0.9960105419158936, -0.043325405567884445, -0.07543754577636719, 1.48974609375, 0.97998046875, 3.4570770263671875, 1.496337890625, 1.166015625, 10.0, 1.0, 10.0, 1.3917908668518066
31901, -0.704477071762085, -3.5252814292907715, 0.07313256710767746, 0.0, 0.0, 60.81484603881836, 0.0, 0.0, 0.0682830810546875, 0, 0, 0, 0, 0, 0, 9362.0, 30146.0, 35388.0, 9362.0, 8.271075248718262, 0.15083451569080353, -0.5177611112594604, -0.04191282391548157, -0.06367315351963043, -0.01156703196465969, 0.9960105419158936, -0.043325405567884445, -0.07543754577636719, 1.48974609375, 0.97998046875, 3.4570770263671875, 1.496337890625, 1.166015625, 10.0, 1.0, 10.0, 1.3924355506896973
31911, -0.7058796286582947, -3.5245254039764404, 0.07326152920722961, 0.0, 0.0, 60.813819885253906, 0.0, 0.0, -0.1026153564453125, 0, 0, 0, 0, 0, 0, 9362.0, 30146.0, 35388.0, 9362.0, 8.271075248718262, -0.1761462539434433, -0.3772420287132263, 0.007184556219726801, -0.06367315351963043, -0.01156703196465969, 0.9960105419158936, -0.043325405567884445, -0.07543754577636719, 1.48974609375, 0.97998046875, 3.4570770263671875, 1.496337890625, 1.166015625, 10.0, 1.0, 10.0, 1.3929786682128906
31921, -0.7056298851966858, -3.5273356437683105, 0.07317942380905151, 0.0, 0.0, 60.812896728515625, 0.0, 0.0, -0.092315673828125, 0, 0, 0, 0, 0, 0, 9362.0, 30146.0, 35388.0, 9362.0, 8.271075248718262, 0.14693209528923035, 0.29445749521255493, 0.05645129829645157, -0.06367315351963043, -0.01156703196465969, 0.9960105419158936, -0.043325405567884445, -0.07543754577636719, 1.48974609375, 0.97998046875, 3.4570770263671875, 1.496337890625, 1.166015625, 10.0, 1.0, 10.0, 1.3936681747436523
31961, -0.7083285450935364, -3.5354175567626953, 0.07587945461273193, 0.0, 0.0, 60.83201217651367, 0.0, 0.0, 0.2422332763671875, 0, 0, 0, 0, 0, 0, 9362.0, 30146.0, 35388.0, 9362.0, 8.271075248718262, -0.1620786488056183, -0.0027884456794708967, 0.09992785006761551, -0.06340817362070084, -0.013700421899557114, 0.9988967180252075, -0.043325405567884445, -0.07543754577636719, 1.48974609375, 1.095703125, 1.3213653564453125, 1.502197265625, 1.166015625, 10.0, 1.0, 10.0, 1.392168402671814
31981, -0.7103586792945862, -3.5382349491119385, 0.07766653597354889, 0.0, 0.0, 60.830955505371094, 0.0, 0.0, -0.0499725341796875, 0, 0, 0, 0, 0, 0, 9362.0, 30146.0, 35388.0, 9362.0, 8.271075248718262, 0.014481422491371632, -0.11887838691473007, -0.21795707941055298, -0.06703631579875946, -0.011841191910207272, 0.9963729381561279, -0.043325405567884445, -0.07543754577636719, 1.48974609375, 1.095703125, 1.3213653564453125, 1.5, 1.166015625, 10.0, 1.0, 10.0, 1.392168402671814
32031, -0.7117177844047546, -3.5357184410095215, 0.07540488988161087, 0.0, 0.0, 60.8203125, 0.0, 0.0, -1.3896942138671875, 0, 0, 0, 0, 0, 0, 9362.0, 30146.0, 35388.0, 9362.0, 8.271075248718262, 0.017247557640075684, -0.46414709091186523, -0.08311661332845688, -0.06250690668821335, -0.011864447966217995, 0.9976255297660828, -0.043325405567884445, -0.07543754577636719, 1.48974609375, 1.095703125, 1.3213653564453125, 1.5, 1.549072265625, 10.0, 1.0, 10.0, 1.3920351266860962
32041, -0.7119354605674744, -3.533703565597534, 0.07465948164463043, 0.0, 0.0, 60.8203125, 0.0, 0.0, -1.3896942138671875, 0, 0, 0, 0, 0, 0, 9362.0, 30146.0, 35388.0, 9362.0, 8.271075248718262, -0.027648763731122017, -0.42693009972572327, -0.18795304000377655, -0.06250690668821335, -0.011864447966217995, 0.9976255297660828, -0.043325405567884445, -0.07543754577636719, 1.48974609375, 1.095703125, 1.3213653564453125, 1.496337890625, 1.549072265625, 10.0, 1.0, 10.0, 1.39212167263031
32061, -0.7129281163215637, -3.5335311889648438, 0.07297276705503464, 0.0, 0.0, 60.773948669433594, 0.0, 0.0, -1.60369873046875, 0, 0, 0, 0, 0, 0, 9362.0, 30146.0, 35388.0, 9362.0, 8.271075248718262, 0.27396246790885925, -0.2752625346183777, -0.25219103693962097, -0.0633251965045929, -0.011691705323755741, 0.9983763694763184, -0.043325405567884445, -0.07543754577636719, 1.48974609375, 1.095703125, 1.3213653564453125, 1.496337890625, 1.36083984375, 10.0, 1.0, 10.0, 1.3928207159042358
32081, -0.713928759098053, -3.5374486446380615, 0.07341528683900833, 0.0, 0.0, 60.7517204284668, 0.0, 0.0, -1.0528564453125, 0, 0, 0, 0, 0, 0, 9362.0, 30146.0, 35388.0, 9362.0, 8.271075248718262, 0.08998888731002808, 0.0006532854167744517, 0.1376923769712448, -0.06507472693920135, -0.014106244780123234, 0.9966402053833008, -0.043325405567884445, -0.07543754577636719, 1.48974609375, 1.095703125, 1.3213653564453125, 1.49853515625, 1.36083984375, 10.0, 1.0, 10.0, 1.3919594287872314
32091, -0.7141329646110535, -3.5365171432495117, 0.07123799622058868, 0.0, 0.0, 60.74279022216797, 0.0, 0.0, -0.8930206298828125, 0, 0, 0, 0, 0, 0, 9362.0, 30146.0, 35388.0, 9362.0, 8.271075248718262, -0.043530311435461044, -0.0570557527244091, -0.30640318989753723, -0.06507472693920135, -0.014106244780123234, 0.9966402053833008, -0.043325405567884445, -0.07543754577636719, 1.48974609375, 1.095703125, 1.3213653564453125, 1.49853515625, 1.515380859375, 10.0, 1.0, 10.0, 1.3919594287872314
32101, -0.7139682769775391, -3.5375819206237793, 0.07142381370067596, 0.0, 0.0, 60.7347526550293, 0.0, 0.0, -0.8037567138671875, 0, 0, 0, 0, 0, 0, 9362.0, 30146.0, 35388.0, 9362.0, 8.271075248718262, 0.008286535739898682, -0.056523725390434265, 0.005620235577225685, -0.06507472693920135, -0.014106244780123234, 0.9966402053833008, -0.043325405567884445, -0.07543754577636719, 1.48974609375, 1.095703125, 1.3213653564453125, 1.49853515625, 1.515380859375, 10.0, 1.0, 10.0, 1.39153254032135
32111, -0.714219868183136, -3.5337023735046387, 0.07113450020551682, 0.0, 0.0, 60.73080062866211, 0.0, 0.0, -0.39520263671875, 0, 0, 0, 0, 0, 0, 9362.0, 30146.0, 35388.0, 9362.0, 8.271075248718262, 0.017251230776309967, -0.28821873664855957, 0.015945179387927055, -0.060116566717624664, -0.013030320405960083, 0.9985207319259644, -0.043325405567884445, -0.07543754577636719, 1.48974609375, 1.095703125, 1.3213653564453125, 1.49853515625, 1.515380859375, 10.0, 1.0, 10.0, 1.39153254032135
32131, -0.7147047519683838, -3.537661552429199, 0.07376714050769806, 0.0, 0.0, 60.72185134887695, 0.0, 0.0, -0.5390167236328125, 0, 0, 0, 0, 0, 0, 9362.0, 30146.0, 35388.0, 9362.0, 8.271075248718262, -0.20328523218631744, 0.4334274232387543, 0.36355191469192505, -0.06300455331802368, -0.010966108180582523, 0.996943473815918, -0.043325405567884445, -0.07543754577636719, 1.48974609375, 1.095703125, 1.3213653564453125, 1.49560546875, 1.515380859375, 10.0, 1.0, 10.0, 1.39153254032135
32151, -0.7145108580589294, -3.5357024669647217, 0.07085175812244415, 0.0, 0.0, 60.70170211791992, 0.0, 0.0, -1.5300750732421875, 0, 0, 0, 0, 0, 0, 9362.0, 30146.0, 35388.0, 9362.0, 8.271075248718262, -0.09770454466342926, -0.28266310691833496, -0.2428673356771469, -0.06239616498351097, -0.012565093114972115, 0.9971367716789246, -0.043325405567884445, -0.07543754577636719, 1.48974609375, 1.095703125, 1.3213653564453125, 1.49560546875, 1.576171875, 10.0, 1.0, 10.0, 1.39153254032135
32161, -0.714026153087616, -3.5343337059020996, 0.070236936211586, 0.0, 0.0, 60.687931060791016, 0.0, 0.0, -1.377105712890625, 0, 0, 0, 0, 0, 0, 9362.0, 30146.0, 35388.0, 9362.0, 8.271075248718262, 0.10689428448677063, -0.10531602054834366, 0.033169154077768326, -0.06239616498351097, -0.012565093114972115, 0.9971367716789246, -0.043325405567884445, -0.07543754577636719, 1.48974609375, 1.095703125, 1.3213653564453125, 1.49853515625, 1.576171875, 10.0, 1.0, 10.0, 1.392563819885254
32191, -0.7140337824821472, -3.5375962257385254, 0.0713864117860794, 0.0, 0.0, 60.677188873291016, 0.0, 0.0, -0.5893707275390625, 0, 0, 0, 0, 0, 0, 9362.0, 30146.0, 35388.0, 9362.0, 8.271075248718262, -0.03140738233923912, -0.20085199177265167, -0.09807632863521576, -0.06201672554016113, -0.010558443143963814, 0.9998871684074402, -0.043325405567884445, -0.07543754577636719, 1.48974609375, 1.095703125, 1.3213653564453125, 1.49560546875, 1.576171875, 10.0, 1.0, 10.0, 1.3930710554122925
32211, -0.7158797979354858, -3.5368573665618896, 0.07202993333339691, 0.0, 0.0, 60.66984176635742, 0.0, 0.0, -0.2040863037109375, 0, 0, 0, 0, 0, 0, 9362.0, 30146.0, 35388.0, 9362.0, 8.271075248718262, -0.09644890576601028, -0.031032364815473557, -0.027894489467144012, -0.06304952502250671, -0.01255805604159832, 0.9966250061988831, -0.043325405567884445, -0.07543754577636719, 1.48974609375, 1.095703125, 1.3213653564453125, 1.5, 1.576171875, 10.0, 1.0, 10.0, 1.3932156562805176
32231, -0.7179635763168335, -3.534890651702881, 0.07194024324417114, 0.0, 0.0, 60.672916412353516, 0.0, 0.0, 0.4909515380859375, 0, 0, 0, 0, 0, 0, 9362.0, 30146.0, 35388.0, 9362.0, 8.271075248718262, -0.16537818312644958, 0.0031244116835296154, 0.127400740981102, -0.0625983476638794, -0.013728458434343338, 0.9979672431945801, -0.043325405567884445, -0.07543754577636719, 1.48974609375, 1.095703125, 1.3213653564453125, 1.50439453125, 1.576171875, 10.0, 1.0, 10.0, 1.3930364847183228
32291, -0.7159324288368225, -3.5288171768188477, 0.08050093799829483, 0.0, 0.0, 60.698219299316406, 0.0, 0.0, 0.513458251953125, 0, 0, 0, 0, 0, 0, 9362.0, 30146.0, 35388.0, 9362.0, 8.271075248718262, -0.10766950249671936, -0.11004115641117096, 0.10568267107009888, -0.06201000511646271, -0.012145237065851688, 1.0001637935638428, -0.043325405567884445, -0.07543754577636719, 1.48974609375, 1.245849609375, 0.1771087646484375, 1.49560546875, 1.5966796875, 10.0, 1.0, 10.0, 1.392338514328003
32301, -0.7167171239852905, -3.5291903018951416, 0.08126017451286316, 0.0, 0.0, 60.70283889770508, 0.0, 0.0, 0.4619598388671875, 0, 0, 0, 0, 0, 0, 9362.0, 30146.0, 35388.0, 9362.0, 8.271075248718262, -0.1455017626285553, -0.02634003385901451, -0.1507280468940735, -0.06201000511646271, -0.012145237065851688, 1.0001637935638428, -0.043325405567884445, -0.07543754577636719, 1.48974609375, 1.245849609375, 0.1771087646484375, 1.49560546875, 1.5966796875, 10.0, 1.0, 10.0, 1.3928310871124268
32311, -0.7175483107566833, -3.5309133529663086, 0.08064457029104233, 0.0, 0.0, 60.70207595825195, 0.0, 0.0, -0.0762939453125, 0, 0, 0, 0, 0, 0, 9362.0, 30146.0, 35388.0, 9362.0, 8.271075248718262, -0.12725864350795746, 0.10087385028600693, 0.09713064134120941, -0.06201000511646271, -0.012145237065851688, 1.0001637935638428, -0.043325405567884445, -0.07543754577636719, 1.48974609375, 1.245849609375, 0.1771087646484375, 1.49560546875, 1.379150390625, 10.0, 1.0, 10.0, 1.3928310871124268
32321, -0.7163294553756714, -3.5334877967834473, 0.08117993921041489, 0.0, 0.0, 60.70138931274414, 0.0, 0.0, -0.06866455078125, 0, 0, 0, 0, 0, 0, 9362.0, 30146.0, 35388.0, 9362.0, 8.271075248718262, 0.06708644330501556, 0.20707154273986816, 0.06287529319524765, -0.06357330083847046, -0.011600886471569538, 0.998789370059967, -0.043325405567884445, -0.07543754577636719, 1.48974609375, 1.245849609375, 0.1771087646484375, 1.49560546875, 1.379150390625, 10.0, 1.0, 10.0, 1.3928310871124268
32341, -0.7168984413146973, -3.5327415466308594, 0.08004671335220337, 0.0, 0.0, 60.69502639770508, 0.0, 0.0, -0.301361083984375, 0, 0, 0, 0, 0, 0, 9362.0, 30146.0, 35388.0, 9362.0, 8.271075248718262, 0.058411020785570145, -0.07470355182886124, 0.15550808608531952, -0.06369051337242126, -0.012598663568496704, 1.0007641315460205, -0.043325405567884445, -0.07543754577636719, 1.48974609375, 1.245849609375, 0.1771087646484375, 1.49560546875, 1.379150390625, 10.0, 1.0, 10.0, 1.3928310871124268
32351, -0.7172499299049377, -3.5310168266296387, 0.07821279019117355, 0.0, 0.0, 60.69502639770508, 0.0, 0.0, -0.301361083984375, 0, 0, 0, 0, 0, 0, 9362.0, 30146.0, 35388.0, 9362.0, 8.271075248718262, -0.1014300063252449, -0.4669896364212036, -0.15441475808620453, -0.06369051337242126, -0.012598663568496704, 1.0007641315460205, -0.043325405567884445, -0.07543754577636719, 1.48974609375, 1.245849609375, 0.1771087646484375, 1.49560546875, 1.095703125, 10.0, 1.0, 10.0, 1.3945705890655518
32381, -0.7163979411125183, -3.5310895442962646, 0.07775310426950455, 0.0, 0.0, 60.70702362060547, 0.0, 0.0, 0.1728057861328125, 0, 0, 0, 0, 0, 0, 9362.0, 30146.0, 35388.0, 9362.0, 8.271075248718262, -0.012283907271921635, -0.048121772706508636, 0.019426509737968445, -0.06369051337242126, -0.012598663568496704, 1.0007641315460205, -0.05801855027675629, -0.2635974884033203, 1.474365234375, 1.245849609375, 0.1771087646484375, 1.502197265625, 1.095703125, 10.0, 1.0, 10.0, 1.394061803817749
32401, -0.7176210880279541, -3.5281944274902344, 0.07678584009408951, 0.0, 0.0, 60.715171813964844, 0.0, 0.0, 0.38604736328125, 0, 0, 0, 0, 0, 0, 9362.0, 30146.0, 35388.0, 9362.0, 8.271075248718262, -0.08849227428436279, -0.049158185720443726, -0.2885804772377014, -0.06153647229075432, -0.01187282707542181, 0.9976322054862976, -0.05801855027675629, -0.2635974884033203, 1.474365234375, 1.245849609375, 0.1771087646484375, 1.496337890625, 1.557861328125, 10.0, 1.0, 10.0, 1.394061803817749
32421, -0.7173358798027039, -3.529737949371338, 0.07560668140649796, 0.0, 0.0, 60.73527908325195, 0.0, 0.0, 0.9525299072265625, 0, 0, 0, 0, 0, 0, 9362.0, 30146.0, 35388.0, 9362.0, 8.271075248718262, 0.012396358884871006, 0.0816567912697792, -0.09544771164655685, -0.06153647229075432, -0.01187282707542181, 0.9976322054862976, -0.05801855027675629, -0.2635974884033203, 1.474365234375, 1.245849609375, 0.1771087646484375, 1.496337890625, 1.557861328125, 10.0, 1.0, 10.0, 1.3937100172042847
32451, -0.7145176529884338, -3.5265755653381348, 0.07601368427276611, 0.0, 0.0, 60.766780853271484, 0.0, 0.0, 1.21002197265625, 0, 0, 0, 0, 0, 0, 9362.0, 30146.0, 35388.0, 9362.0, 8.271075248718262, 0.045217305421829224, -0.18170669674873352, -0.17682015895843506, -0.06039463356137276, -0.012387506663799286, 0.996350109577179, -0.05801855027675629, -0.2635974884033203, 1.474365234375, 1.245849609375, 0.1771087646484375, 1.496337890625, 1.546875, 10.0, 1.0, 10.0, 1.3927935361862183
32461, -0.7137280106544495, -3.5273962020874023, 0.07603786885738373, 0.0, 0.0, 60.777671813964844, 0.0, 0.0, 1.0890960693359375, 0, 0, 0, 0, 0, 0, 9362.0, 30146.0, 35388.0, 9362.0, 8.271075248718262, 0.0936053991317749, 0.11806518584489822, -0.11738907545804977, -0.06039463356137276, -0.012387506663799286, 0.996350109577179, -0.05801855027675629, -0.2635974884033203, 1.474365234375, 1.245849609375, 0.1771087646484375, 1.496337890625, 1.546875, 10.0, 1.0, 10.0, 1.3934674263000488
32501, -0.7157023549079895, -3.5290920734405518, 0.07766016572713852, 0.0, 0.0, 60.79326629638672, 0.0, 0.0, 0.0041961669921875, 0, 0, 0, 0, 0, 0, 9362.0, 30146.0, 35388.0, 9362.0, 8.271075248718262, -0.10037893801927567, -0.10811637341976166, 0.013084838166832924, -0.06451962143182755, -0.012054712511599064, 0.997052788734436, -0.05801855027675629, -0.2635974884033203, 1.474365234375, 1.245849609375, 0.1771087646484375, 1.499267578125, 1.458984375, 10.0, 1.0, 10.0, 1.3934674263000488
32541, -0.7157965302467346, -3.5239756107330322, 0.07721195369958878, 0.0, 0.0, 60.7841911315918, 0.0, 0.0, -0.138092041015625, 0, 0, 0, 0, 0, 0, 9362.0, 30146.0, 35388.0, 9362.0, 8.271075248718262, 0.07693254947662354, -0.016065122559666634, -0.05669611692428589, -0.060384634882211685, -0.014137283898890018, 0.9990153908729553, -0.05801855027675629, -0.2635974884033203, 1.474365234375, 1.245849609375, 0.1771087646484375, 1.49853515625, 1.528564453125, 10.0, 1.0, 10.0, 1.3926676511764526
32581, -0.7156118750572205, -3.524214744567871, 0.07912627607584, 0.0, 0.0, 60.77299118041992, 0.0, 0.0, -0.0743865966796875, 0, 0, 0, 0, 0, 0, 9362.0, 30146.0, 35388.0, 9362.0, 8.271075248718262, -0.07384642213582993, 0.10856229811906815, -0.002753793727606535, -0.061947569251060486, -0.010402060113847256, 0.998451828956604, -0.053511038422584534, -0.030637741088867188, 1.493408203125, 1.245849609375, 0.1771087646484375, 1.500732421875, 1.528564453125, 10.0, 1.0, 10.0, 1.3933727741241455
32601, -0.7165426015853882, -3.521865129470825, 0.07960981130599976, 0.0, 0.0, 60.76652526855469, 0.0, 0.0, -0.3063201904296875, 0, 0, 0, 0, 0, 0, 9362.0, 30146.0, 35388.0, 9362.0, 8.271075248718262, 0.0787457600235939, -0.17575529217720032, -0.04349542781710625, -0.061523910611867905, -0.014446977525949478, 0.999672532081604, -0.053511038422584534, -0.030637741088867188, 1.493408203125, 1.245849609375, 0.1771087646484375, 1.50146484375, 1.528564453125, 10.0, 1.0, 10.0, 1.3921525478363037
32621, -0.714566171169281, -3.5213661193847656, 0.08027034252882004, 0.0, 0.0, 60.7540168762207, 0.0, 0.0, -0.5924224853515625, 0, 0, 0, 0, 0, 0, 9362.0, 30146.0, 35388.0, 9362.0, 8.271075248718262, 0.06407754868268967, -0.1047297939658165, 0.09150209277868271, -0.061523910611867905, -0.014446977525949478, 0.999672532081604, -0.053511038422584534, -0.030637741088867188, 1.493408203125, 1.245849609375, 0.1771087646484375, 1.5, 1.528564453125, 10.0, 1.0, 10.0, 1.3922916650772095
32641, -0.7130443453788757, -3.521765947341919, 0.08149652183055878, 0.0, 0.0, 60.735572814941406, 0.0, 0.0, -0.873565673828125, 0, 0, 0, 0, 0, 0, 9362.0, 30146.0, 35388.0, 9362.0, 8.271075248718262, 0.1724279224872589, -0.019214114174246788, -0.08434134721755981, -0.06365891546010971, -0.012054544873535633, 0.9974185228347778, -0.053511038422584534, -0.030637741088867188, 1.493408203125, 1.245849609375, 0.1771087646484375, 1.502197265625, 1.528564453125, 10.0, 1.0, 10.0, 1.3922916650772095
32661, -0.7131632566452026, -3.523953437805176, 0.08000780642032623, 0.0, 0.0, 60.7279052734375, 0.0, 0.0, -0.3631591796875, 0, 0, 0, 0, 0, 0, 9362.0, 30146.0, 35388.0, 9362.0, 8.271075248718262, -0.05481835454702377, 0.08284392952919006, -0.20003613829612732, -0.06471049040555954, -0.01386795099824667, 0.9978417158126831, -0.053511038422584534, -0.030637741088867188, 1.493408203125, 1.245849609375, 0.1771087646484375, 1.4970703125, 1.528564453125, 10.0, 1.0, 10.0, 1.3922916650772095
32721, -0.7119458913803101, -3.5350472927093506, 0.08068560063838959, 0.0, 0.0, 60.74984359741211, 0.0, 0.0, 0.5474090576171875, 0, 0, 0, 0, 0, 0, 9362.0, 30146.0, 35388.0, 9362.0, 8.271075248718262, 0.10096623003482819, 0.44595929980278015, -0.026849210262298584, -0.0637672170996666, -0.012099786661565304, 0.9987842440605164, -0.0520671010017395, -0.28151702880859375, 1.472900390625, 1.0576171875, 1.874114990234375, 1.502197265625, 1.447998046875, 10.0, 1.0, 10.0, 1.3926856517791748
32741, -0.7137073278427124, -3.5350723266601562, 0.08309289813041687, 0.0, 0.0, 60.743621826171875, 0.0, 0.0, -0.2948760986328125, 0, 0, 0, 0, 0, 0, 9362.0, 30146.0, 35388.0, 9362.0, 8.271075248718262, 0.0982632115483284, -0.1730281114578247, 0.004761902615427971, -0.0637672170996666, -0.012099786661565304, 0.9987842440605164, -0.0520671010017395, -0.28151702880859375, 1.472900390625, 1.0576171875, 1.874114990234375, 1.4970703125, 1.447998046875, 10.0, 1.0, 10.0, 1.391741394996643
32751, -0.7146878838539124, -3.5352799892425537, 0.08330248296260834, 0.0, 0.0, 60.7387809753418, 0.0, 0.0, -0.4840850830078125, 0, 0, 0, 0, 0, 0, 9362.0, 30146.0, 35388.0, 9362.0, 8.271075248718262, -0.08707708865404129, 0.2725101411342621, 0.0020807613618671894, -0.0637672170996666, -0.012099786661565304, 0.9987842440605164, -0.0520671010017395, -0.28151702880859375, 1.472900390625, 1.0576171875, 1.874114990234375, 1.4970703125, 1.447998046875, 10.0, 1.0, 10.0, 1.391741394996643
32761, -0.7135043144226074, -3.535140037536621, 0.08269969373941422, 0.0, 0.0, 60.73442459106445, 0.0, 0.0, -0.435638427734375, 0, 0, 0, 0, 0, 0, 9362.0, 30146.0, 35388.0, 9362.0, 8.271075248718262, 0.05815988406538963, -0.026483790948987007, 0.08659398555755615, -0.0637672170996666, -0.012099786661565304, 0.9987842440605164, -0.0520671010017395, -0.28151702880859375, 1.472900390625, 1.0576171875, 1.874114990234375, 1.4970703125, 1.447998046875, 10.0, 1.0, 10.0, 1.3920692205429077
32791, -0.713468611240387, -3.5400846004486084, 0.084431491792202, 0.0, 0.0, 60.71147155761719, 0.0, 0.0, -1.0311126708984375, 0, 0, 0, 0, 0, 0, 9362.0, 30146.0, 35388.0, 9362.0, 8.271075248718262, 0.011330309323966503, 0.018929950892925262, 0.03447940945625305, -0.06442190706729889, -0.012885685078799725, 0.9985191226005554, -0.08456102758646011, -0.07543754577636719, 1.48974609375, 1.0576171875, 1.874114990234375, 1.4970703125, 1.447998046875, 10.0, 1.0, 10.0, 1.3931553363800049
32801, -0.7139670848846436, -3.5394997596740723, 0.08350708335638046, 0.0, 0.0, 60.70219039916992, 0.0, 0.0, -0.9281158447265625, 0, 0, 0, 0, 0, 0, 9362.0, 30146.0, 35388.0, 9362.0, 8.271075248718262, -0.13005059957504272, -0.012914632447063923, -0.07973644882440567, -0.061946600675582886, -0.013919059187173843, 0.9974844455718994, -0.08456102758646011, -0.07543754577636719, 1.48974609375, 1.0576171875, 1.874114990234375, 1.4970703125, 1.447998046875, 10.0, 1.0, 10.0, 1.3931553363800049
32831, -0.7127943634986877, -3.539393186569214, 0.08370004594326019, 0.0, 0.0, 60.70772933959961, 0.0, 0.0, 0.8937835693359375, 0, 0, 0, 0, 0, 0, 9362.0, 30146.0, 35388.0, 9362.0, 8.271075248718262, -0.11189315468072891, 0.23968665301799774, 0.05091336369514465, -0.06305466592311859, -0.011221016757190228, 0.9971864819526672, -0.08456102758646011, -0.07543754577636719, 1.48974609375, 1.0576171875, 1.874114990234375, 1.493408203125, 1.447998046875, 10.0, 1.0, 10.0, 1.3933805227279663
32851, -0.7103529572486877, -3.5405890941619873, 0.08390039205551147, 0.0, 0.0, 60.722469329833984, 0.0, 0.0, 0.6694793701171875, 0, 0, 0, 0, 0, 0, 9362.0, 30146.0, 35388.0, 9362.0, 8.271075248718262, 0.09791750460863113, 0.15207241475582123, -0.10240142047405243, -0.06305466592311859, -0.011221016757190228, 0.9971864819526672, -0.08456102758646011, -0.07543754577636719, 1.48974609375, 1.0576171875, 1.874114990234375, 1.493408203125, 1.447998046875, 10.0, 1.0, 10.0, 1.3933805227279663
32881, -0.7091462016105652, -3.5370538234710693, 0.08150696754455566, 0.0, 0.0, 60.72736740112305, 0.0, 0.0, -0.05340576171875, 0, 0, 0, 0, 0, 0, 9362.0, 30146.0, 35388.0, 9362.0, 8.271075248718262, -0.034739602357149124, -0.19113342463970184, -0.32978445291519165, -0.061553314328193665, -0.011793320998549461, 0.9965154528617859, -0.08456102758646011, -0.07543754577636719, 1.48974609375, 1.0576171875, 1.874114990234375, 1.49853515625, 1.447998046875, 10.0, 1.0, 10.0, 1.3933805227279663
32891, -0.7102218866348267, -3.5370633602142334, 0.08048488199710846, 0.0, 0.0, 60.72962188720703, 0.0, 0.0, 0.2254486083984375, 0, 0, 0, 0, 0, 0, 9362.0, 30146.0, 35388.0, 9362.0, 8.271075248718262, -0.03529565781354904, 0.1153096929192543, -0.1230820044875145, -0.061553314328193665, -0.011793320998549461, 0.9965154528617859, -0.08456102758646011, -0.07543754577636719, 1.48974609375, 1.0576171875, 1.874114990234375, 1.49853515625, 1.447998046875, 10.0, 1.0, 10.0, 1.394148349761963
32901, -0.7105015516281128, -3.537506103515625, 0.08214181661605835, 0.0, 0.0, 60.731651306152344, 0.0, 0.0, 0.20294189453125, 0, 0, 0, 0, 0, 0, 9362.0, 30146.0, 35388.0, 9362.0, 8.271075248718262, -0.042078182101249695, -0.02243153750896454, 0.048583921045064926, -0.061553314328193665, -0.011793320998549461, 0.9965154528617859, -0.08456102758646011, -0.07543754577636719, 1.48974609375, 1.0576171875, 1.874114990234375, 1.49853515625, 1.447998046875, 10.0, 1.0, 10.0, 1.3946605920791626
32941, -0.708433210849762, -3.5377516746520996, 0.08516545593738556, 0.0, 0.0, 60.759456634521484, 0.0, 0.0, 0.562286376953125, 0, 0, 0, 0, 0, 0, 9362.0, 30146.0, 35388.0, 9362.0, 8.271075248718262, -0.09424135833978653, -0.3506665825843811, 0.1841309517621994, -0.059717271476984024, -0.011556101962924004, 0.9978298544883728, -0.08456102758646011, -0.07543754577636719, 1.48974609375, 1.0576171875, 1.874114990234375, 1.500732421875, 1.382080078125, 10.0, 1.0, 10.0, 1.3948720693588257
32951, -0.7093740105628967, -3.5359339714050293, 0.08542035520076752, 0.0, 0.0, 60.76068878173828, 0.0, 0.0, 0.1232147216796875, 0, 0, 0, 0, 0, 0, 9362.0, 30146.0, 35388.0, 9362.0, 8.271075248718262, -0.0770413875579834, -0.1534336656332016, 0.017061110585927963, -0.059717271476984024, -0.011556101962924004, 0.9978298544883728, -0.08456102758646011, -0.07543754577636719, 1.48974609375, 1.0576171875, 1.874114990234375, 1.500732421875, 1.382080078125, 10.0, 1.0, 10.0, 1.395301103591919
32961, -0.7091511487960815, -3.535888671875, 0.0858151838183403, 0.0, 0.0, 60.76179885864258, 0.0, 0.0, 0.1110076904296875, 0, 0, 0, 0, 0, 0, 9362.0, 30146.0, 35388.0, 9362.0, 8.271075248718262, -0.1760234236717224, 0.0710643082857132, 0.1233634427189827, -0.0626453384757042, -0.012064939364790916, 0.9980811476707458, -0.08456102758646011, -0.07543754577636719, 1.48974609375, 1.0576171875, 1.874114990234375, 1.500732421875, 1.382080078125, 10.0, 1.0, 10.0, 1.395301103591919
32981, -0.7098591327667236, -3.541282892227173, 0.08603324741125107, 0.0, 0.0, 60.7562370300293, 0.0, 0.0, -0.556182861328125, 0, 0, 0, 0, 0, 0, 9362.0, 30146.0, 35388.0, 9362.0, 8.271075248718262, -0.14787273108959198, 0.5308294892311096, 0.12320656329393387, -0.06464086472988129, -0.011583221144974232, 0.9965500235557556, -0.051461223512887955, -0.030637741088867188, 1.493408203125, 1.0576171875, 1.874114990234375, 1.49853515625, 1.382080078125, 10.0, 1.0, 10.0, 1.395301103591919
33011, -0.711263120174408, -3.545154571533203, 0.08785121887922287, 0.0, 0.0, 60.72825622558594, 0.0, 0.0, -0.6099700927734375, 0, 0, 0, 0, 0, 0, 9362.0, 30146.0, 35388.0, 9362.0, 8.271075248718262, -0.06040402129292488, -0.16460786759853363, 0.010723486542701721, -0.06321904808282852, -0.013807684183120728, 0.9984534382820129, -0.051461223512887955, -0.030637741088867188, 1.493408203125, 1.23046875, 0.235137939453125, 1.496337890625, 1.382080078125, 10.0, 1.0, 10.0, 1.3970310688018799
33031, -0.7132825255393982, -3.5445680618286133, 0.08446317166090012, 0.0, 0.0, 60.721107482910156, 0.0, 0.0, -0.1659393310546875, 0, 0, 0, 0, 0, 0, 9362.0, 30146.0, 35388.0, 9362.0, 8.271075248718262, -0.12347522377967834, -0.22322005033493042, -0.22110667824745178, -0.06321904808282852, -0.013807684183120728, 0.9984534382820129, -0.051461223512887955, -0.030637741088867188, 1.493408203125, 1.23046875, 0.235137939453125, 1.496337890625, 1.382080078125, 10.0, 1.0, 10.0, 1.3975226879119873
33041, -0.7130432724952698, -3.544466972351074, 0.08421512693166733, 0.0, 0.0, 60.71961212158203, 0.0, 0.0, -0.1495361328125, 0, 0, 0, 0, 0, 0, 9362.0, 30146.0, 35388.0, 9362.0, 8.271075248718262, -0.019820544868707657, -0.08126389235258102, -0.10645093768835068, -0.06321904808282852, -0.013807684183120728, 0.9984534382820129, -0.051461223512887955, -0.030637741088867188, 1.493408203125, 1.23046875, 0.235137939453125, 1.496337890625, 1.382080078125, 10.0, 1.0, 10.0, 1.3967655897140503
33061, -0.7146168947219849, -3.5406124591827393, 0.0804133340716362, 0.0, 0.0, 60.72536849975586, 0.0, 0.0, 0.2727508544921875, 0, 0, 0, 0, 0, 0, 9362.0, 30146.0, 35388.0, 9362.0, 8.271075248718262, -0.23469701409339905, -0.18607266247272491, -0.27173033356666565, -0.06464853137731552, -0.012503211386501789, 0.9992861151695251, -0.051461223512887955, -0.030637741088867188, 1.493408203125, 1.23046875, 0.235137939453125, 1.496337890625, 1.40185546875, 10.0, 1.0, 10.0, 1.3963823318481445
33081, -0.7139413356781006, -3.5444791316986084, 0.07977164536714554, 0.0, 0.0, 60.71860122680664, 0.0, 0.0, -0.3204345703125, 0, 0, 0, 0, 0, 0, 9362.0, 30146.0, 35388.0, 9362.0, 8.271075248718262, -0.18047714233398438, 0.41195738315582275, 0.22751735150814056, -0.062316279858350754, -0.010888325050473213, 0.9980224370956421, -0.051461223512887955, -0.030637741088867188, 1.493408203125, 1.23046875, 0.235137939453125, 1.496337890625, 1.560791015625, 10.0, 1.0, 10.0, 1.3958442211151123
33131, -0.7156304121017456, -3.539794683456421, 0.07757841795682907, 0.0, 0.0, 60.706886291503906, 0.0, 0.0, 0.53863525390625, 0, 0, 0, 0, 0, 0, 9362.0, 30146.0, 35388.0, 9362.0, 8.271075248718262, -0.12982670962810516, 0.0015436701942235231, -0.18241523206233978, -0.06195250526070595, -0.01119048148393631, 0.9986616373062134, -0.051461223512887955, -0.030637741088867188, 1.493408203125, 1.339599609375, 0.0168914794921875, 1.49560546875, 1.57763671875, 10.0, 1.0, 10.0, 1.3919719457626343
33181, -0.7155709862709045, -3.5358431339263916, 0.07642454653978348, 0.0, 0.0, 60.713775634765625, 0.0, 0.0, 0.09765625, 0, 0, 0, 0, 0, 0, 9362.0, 30146.0, 35388.0, 9362.0, 8.271075248718262, 0.050644468516111374, -0.26074710488319397, 0.27216047048568726, -0.0629463791847229, -0.013015826232731342, 0.9976184368133545, -0.051461223512887955, -0.030637741088867188, 1.493408203125, 1.339599609375, 0.0168914794921875, 1.496337890625, 1.437744140625, 10.0, 1.0, 10.0, 1.3924471139907837
33191, -0.7152557373046875, -3.5341758728027344, 0.07680162787437439, 0.0, 0.0, 60.71137237548828, 0.0, 0.0, -0.240325927734375, 0, 0, 0, 0, 0, 0, 9362.0, 30146.0, 35388.0, 9362.0, 8.271075248718262, 0.11368528753519058, -0.08664093166589737, 0.07562067359685898, -0.0629463791847229, -0.013015826232731342, 0.9976184368133545, -0.051461223512887955, -0.030637741088867188, 1.493408203125, 1.339599609375, 0.0168914794921875, 1.496337890625, 1.48974609375, 10.0, 1.0, 10.0, 1.3924471139907837
33231, -0.7149273157119751, -3.5377492904663086, 0.07726851105690002, 0.0, 0.0, 60.69917678833008, 0.0, 0.0, -0.5298614501953125, 0, 0, 0, 0, 0, 0, 9362.0, 30146.0, 35388.0, 9362.0, 8.271075248718262, -0.12697578966617584, -0.2748466730117798, 0.007767698261886835, -0.06484179198741913, -0.011144604533910751, 1.0016882419586182, -0.051461223512887955, -0.030637741088867188, 1.493408203125, 1.339599609375, 0.0168914794921875, 1.50146484375, 1.46337890625, 10.0, 1.0, 10.0, 1.3924471139907837
33241, -0.7149122953414917, -3.5365729331970215, 0.07745993882417679, 0.0, 0.0, 60.69440841674805, 0.0, 0.0, -0.476837158203125, 0, 0, 0, 0, 0, 0, 9362.0, 30146.0, 35388.0, 9362.0, 8.271075248718262, -0.03705746307969093, -0.31674695014953613, 0.06185140088200569, -0.06484179198741913, -0.011144604533910751, 1.0016882419586182, -0.051461223512887955, -0.030637741088867188, 1.493408203125, 1.339599609375, 0.0168914794921875, 1.50146484375, 1.46337890625, 10.0, 1.0, 10.0, 1.3865951299667358
33261, -0.7132298350334167, -3.536456346511841, 0.07584323734045029, 0.0, 0.0, 60.69456100463867, 0.0, 0.0, 0.0072479248046875, 0, 0, 0, 0, 0, 0, 9362.0, 30146.0, 35388.0, 9362.0, 8.271075248718262, 0.07218321412801743, 0.10668247938156128, -0.1744595617055893, -0.0621655136346817, -0.011144566349685192, 0.9945990443229675, -0.051461223512887955, -0.030637741088867188, 1.493408203125, 1.339599609375, 0.0168914794921875, 1.502197265625, 1.1923828125, 10.0, 1.0, 10.0, 1.3865951299667358
33321, -0.7096965312957764, -3.537198305130005, 0.07343645393848419, 0.0, 0.0, 60.682979583740234, 0.0, 0.0, -0.1071929931640625, 0, 0, 0, 0, 0, 0, 9362.0, 30146.0, 35388.0, 9362.0, 8.271075248718262, 0.04180310666561127, 0.005105005111545324, 0.17132823169231415, -0.06382744759321213, -0.01044225413352251, 0.9977440237998962, -0.07913325726985931, -0.18295860290527344, 1.48095703125, 1.339599609375, 0.0168914794921875, 1.4970703125, 1.354248046875, 10.0, 1.0, 10.0, 1.3871339559555054
33381, -0.7117528915405273, -3.5326743125915527, 0.0776720717549324, 0.0, 0.0, 60.706878662109375, 0.0, 0.0, 0.5390167236328125, 0, 0, 0, 0, 0, 0, 9362.0, 30146.0, 35388.0, 9362.0, 8.271075248718262, -0.2573237419128418, -0.03560697287321091, 0.037679772824048996, -0.06395804136991501, -0.012393211014568806, 0.9981854557991028, -0.07913325726985931, -0.18295860290527344, 1.48095703125, 1.1103515625, 1.1422271728515625, 1.49560546875, 1.370361328125, 10.0, 1.0, 10.0, 1.3874316215515137
33401, -0.7113362550735474, -3.532615900039673, 0.07960255444049835, 0.0, 0.0, 60.723365783691406, 0.0, 0.0, 0.7808685302734375, 0, 0, 0, 0, 0, 0, 9362.0, 30146.0, 35388.0, 9362.0, 8.271075248718262, -0.07779008150100708, -0.2050335556268692, -0.12329935282468796, -0.0626358613371849, -0.012510891072452068, 0.9965915679931641, -0.07913325726985931, -0.18295860290527344, 1.48095703125, 1.1103515625, 1.1422271728515625, 1.49560546875, 1.490478515625, 10.0, 1.0, 10.0, 1.386244535446167
33421, -0.7100436687469482, -3.5327303409576416, 0.0787087008357048, 0.0, 0.0, 60.73879623413086, 0.0, 0.0, 0.73089599609375, 0, 0, 0, 0, 0, 0, 9362.0, 30146.0, 35388.0, 9362.0, 8.271075248718262, 0.16980111598968506, -0.07928315550088882, -0.09402230381965637, -0.06405115872621536, -0.011821173131465912, 0.9967389702796936, -0.07913325726985931, -0.18295860290527344, 1.48095703125, 1.1103515625, 1.1422271728515625, 1.49560546875, 1.490478515625, 10.0, 1.0, 10.0, 1.3869959115982056
33441, -0.7110936045646667, -3.5354135036468506, 0.07677120715379715, 0.0, 0.0, 60.74506378173828, 0.0, 0.0, 0.296783447265625, 0, 0, 0, 0, 0, 0, 9362.0, 30146.0, 35388.0, 9362.0, 8.271075248718262, -0.027728671208024025, 0.11736783385276794, -0.058115433901548386, -0.06414654850959778, -0.012846019119024277, 0.9959706664085388, -0.07913325726985931, -0.18295860290527344, 1.48095703125, 1.1103515625, 1.1422271728515625, 1.49560546875, 1.490478515625, 10.0, 1.0, 10.0, 1.3862812519073486
33451, -0.7106013894081116, -3.5357654094696045, 0.07475326210260391, 0.0, 0.0, 60.75210952758789, 0.0, 0.0, 0.7045745849609375, 0, 0, 0, 0, 0, 0, 9362.0, 30146.0, 35388.0, 9362.0, 8.271075248718262, 0.044835012406110764, 0.1276090294122696, -0.19224730134010315, -0.06419788300991058, -0.011845089495182037, 0.9963513612747192, -0.07913325726985931, -0.18295860290527344, 1.48095703125, 1.1103515625, 1.1422271728515625, 1.49560546875, 1.490478515625, 10.0, 1.0, 10.0, 1.3862812519073486
33501, -0.7066612839698792, -3.5406038761138916, 0.06938649713993073, 0.0, 0.0, 60.743778228759766, 0.0, 0.0, -0.1750946044921875, 0, 0, 0, 0, 0, 0, 9362.0, 30146.0, 35388.0, 9362.0, 8.271075248718262, -0.11746086925268173, -0.028259338811039925, -0.26231271028518677, -0.0622611865401268, -0.010632725432515144, 0.996069073677063, -0.07913325726985931, -0.18295860290527344, 1.48095703125, 1.17041015625, 0.5762939453125, 1.5029296875, 1.572509765625, 10.0, 1.0, 10.0, 1.3862812519073486
33541, -0.7106257081031799, -3.5477981567382812, 0.07221150398254395, 0.0, 0.0, 60.72039794921875, 0.0, 0.0, -0.522613525390625, 0, 0, 0, 0, 0, 0, 9362.0, 30146.0, 35388.0, 9362.0, 8.271075248718262, -0.23042245209217072, -0.011983535252511501, 0.24823136627674103, -0.06334128230810165, -0.012957900762557983, 0.9978321194648743, -0.07913325726985931, -0.18295860290527344, 1.48095703125, 1.037109375, 2.228759765625, 1.5029296875, 1.34912109375, 10.0, 1.0, 10.0, 1.3870295286178589
33551, -0.7116231322288513, -3.544975519180298, 0.07284808903932571, 0.0, 0.0, 60.714054107666016, 0.0, 0.0, -0.6343841552734375, 0, 0, 0, 0, 0, 0, 9362.0, 30146.0, 35388.0, 9362.0, 8.271075248718262, -0.07380811870098114, -0.36537855863571167, 0.028105372563004494, -0.06334128230810165, -0.012957900762557983, 0.9978321194648743, -0.07913325726985931, -0.18295860290527344, 1.48095703125, 1.037109375, 2.228759765625, 1.5029296875, 1.34912109375, 10.0, 1.0, 10.0, 1.3874403238296509
33581, -0.7133640050888062, -3.544208526611328, 0.07184205949306488, 0.0, 0.0, 60.69546127319336, 0.0, 0.0, -0.6103515625, 0, 0, 0, 0, 0, 0, 9362.0, 30146.0, 35388.0, 9362.0, 8.271075248718262, -0.1094764769077301, 0.1884288489818573, 0.1154075488448143, -0.06156723573803902, -0.014116550795733929, 0.9985024333000183, -0.07579610496759415, -0.10231781005859375, 1.487548828125, 1.037109375, 2.228759765625, 1.5029296875, 1.51904296875, 10.0, 1.0, 10.0, 1.3874403238296509
33601, -0.7139328122138977, -3.5446665287017822, 0.07281579822301865, 0.0, 0.0, 60.69853210449219, 0.0, 0.0, 0.1453399658203125, 0, 0, 0, 0, 0, 0, 9362.0, 30146.0, 35388.0, 9362.0, 8.271075248718262, -0.07893045991659164, -0.26783573627471924, 0.09953798353672028, -0.06156723573803902, -0.014116550795733929, 0.9985024333000183, -0.07579610496759415, -0.10231781005859375, 1.487548828125, 1.5205078125, 0.237762451171875, 1.5029296875, 1.51904296875, 10.0, 1.0, 10.0, 1.3859223127365112
