timeTick, roll, pitch, yaw, stateX, stateY, stateZ, stateVX, stateVY, stateVZ, otX0, otY0, otZ0, otRoll0, otPitch0, otYaw0, left wing, pitch motor, yaw motor, right wing, voltage, roll rate, pitch rate, yaw rate, A_x, A_y, A_z, current, i_raw, v_raw, airflow_voltage, airflow_speed, pot_Pitch
111589, 0.0002922183193732053, -0.0008383727981708944, 0.002546887844800949, 0, 0, 0, 0, 0, 0, -0.7849658727645874, -1.0245500802993774, 0.07500377297401428, -0.02674675501298084, -0.5320026067569188, -12.748279205566817, 0, 0, 0, 0, 0, 0, 0, 0, 0, 0, 0, 0, 0, 0, 0, 0, 0
111599, 0.0013474127044901252, 0.0001324914483120665, 0.002930089132860303, 1.0967001529138543e-08, -7.39640393376817e-09, -7.687107427045703e-05, 2.331536052224692e-06, -1.5900180869721225e-06, -0.007592799607664347, -0.7849605083465576, -1.0245475769042969, 0.07502800226211548, -0.026421630629950777, -0.5285397935734295, -12.739976828118948, 9362.0, 30146.0, 35388.0, 9362.0, 0, -0.21369437873363495, 0.05418781191110611, -0.18033216893672943, 0, 0, 0, 0, 0, 0, 0, 0, 0
111609, 0.001243308070115745, -0.0002805822587106377, 0.002415386261418462, 4.117324436947456e-08, -2.5698081884684143e-08, -0.0001723728491924703, 3.776037829084089e-06, -1.9982198864454404e-06, -0.011507159098982811, -0.7849684953689575, -1.024543046951294, 0.07503581047058105, -0.02523708040286159, -0.5340312318348026, -12.737048464896326, 9362.0, 30146.0, 35388.0, 9362.0, 0, -0.09353940188884735, 0.5435152649879456, -0.08334682881832123, -0.07559610158205032, -0.028998693451285362, 0.9599941968917847, 0, 0, 0, 1.33154296875, 0.0198516845703125, 0
111619, 0.0007925703539513052, -0.0033416221849620342, 0.0017286482034251094, 7.78453497218834e-08, -5.67535956008669e-08, -0.0003070782695431262, 3.530058620526688e-06, -4.220016762701562e-06, -0.015433525666594505, -0.7849598526954651, -1.0245569944381714, 0.07501211762428284, -0.028748380457241696, -0.5327649911835124, -12.741647549966533, 9362.0, 30146.0, 35388.0, 9362.0, 0, 0.09159822762012482, -0.4366532266139984, -0.03933335095643997, -0.07669563591480255, -0.029959551990032196, 0.9633957743644714, 0, 0, 0, 1.34912109375, 0.015380859375, 1.49267578125
111629, 0.0010616128565743566, -0.001360626774840057, 0.001333481166511774, 1.1545961342562805e-07, -1.0920400939085084e-07, -0.00047954331967048347, 3.7990932924003573e-06, -6.2986014199850615e-06, -0.019059093669056892, -0.7849528789520264, -1.0245505571365356, 0.07500018179416656, -0.026525245937036812, -0.5335888485917906, -12.737129688352253, 9362.0, 30146.0, 35388.0, 9362.0, 0, -0.12527483701705933, -0.43698808550834656, 0.0005132808000780642, -0.07526292651891708, -0.02900940738618374, 0.96161949634552, 0, 0, 0, 1.3125, 0.034027099609375, 1.49267578125
111639, 0.00030098878778517246, 0.00011375560279702768, 0.0019558954518288374, 1.8096505982612143e-07, -1.787150551990635e-07, -0.0006888721836730838, 9.431528269487899e-06, -7.586048013763502e-06, -0.02280627377331257, -0.7849563956260681, -1.024544596672058, 0.07501993328332901, -0.02576629319305581, -0.5364762217129169, -12.741722916827289, 9362.0, 30146.0, 35388.0, 9362.0, 0, -0.009283280931413174, -0.3322479724884033, -0.024511873722076416, -0.07737237215042114, -0.027275726199150085, 0.9595233798027039, 0, 0, 0, 1.32568359375, 0.0232086181640625, 1.491943359375
111649, 0.0008163859602063894, 0.0015309257432818413, 0.0012879865244030952, 2.8645780503211427e-07, -2.63296158209414e-07, -0.0009367633610963821, 1.1769063348765485e-05, -9.38278481044108e-06, -0.02677156962454319, -0.7849594950675964, -1.0245428085327148, 0.07501131296157837, -0.02745552296811652, -0.5302869431974102, -12.741312839161662, 9362.0, 30146.0, 35388.0, 9362.0, 0, 0.064357228577137, -0.045979488641023636, -0.12818433344364166, -0.07827086746692657, -0.02704281359910965, 0.9581196308135986, 0, 0, 0, 1.3095703125, 0.037139892578125, 1.491943359375
111659, 0.001482936553657055, 0.002465195721015334, 0.002069892128929496, 4.0321549477084773e-07, -3.595927751121053e-07, -0.0012250363361090422, 1.1684133824019227e-05, -9.839553968049586e-06, -0.03088262304663658, -0.7849559187889099, -1.0245482921600342, 0.07500222325325012, -0.022796388257207107, -0.5312067775966796, -12.743538598005324, 9362.0, 30146.0, 35388.0, 9362.0, 0, 0.029377397149801254, -0.1528758704662323, -0.08583749085664749, -0.07558466494083405, -0.027614783495664597, 0.9598783254623413, 0, 0, 0, 1.346923828125, 0.015472412109375, 1.494140625
111669, 0.0013463000068441033, 0.0027440120466053486, 0.001898326794616878, 5.074820705885941e-07, -4.6469432390949805e-07, -0.0015537407016381621, 9.234010576619767e-06, -1.1134551641589496e-05, -0.034857846796512604, -0.7849544882774353, -1.0245530605316162, 0.07499589025974274, -0.02887793827175852, -0.5314029631360313, -12.745293085043722, 9362.0, 30146.0, 35388.0, 9362.0, 0, 0.054370954632759094, 0.12239246815443039, 0.4688984155654907, -0.07498316466808319, -0.02691638469696045, 0.9615384340286255, 0, 0, 0, 1.3974609375, 0.03759765625, 1.494140625
111679, 0.0009068371145986021, 0.0011410398874431849, 0.006088808178901672, 5.795383799522824e-07, -5.882425284653436e-07, -0.0019213759806007147, 5.1957813411718234e-06, -1.3584162843471859e-05, -0.038668807595968246, -0.7849496603012085, -1.0245569944381714, 0.07500730454921722, -0.022114567655268945, -0.535584489434541, -12.739779631121676, 9362.0, 30146.0, 35388.0, 9362.0, 0, -0.07423129677772522, -0.10698363929986954, -0.3017153739929199, -0.0741124078631401, -0.026172760874032974, 0.9599583745002747, 0, 0, 0, 1.329345703125, 0.02105712890625, 1.49267578125
111689, 0.0004774936242029071, 0.0015210681594908237, 0.0036464298609644175, 6.08939956237009e-07, -7.351518434006721e-07, -0.002327576046809554, 5.755435950050014e-07, -1.582793083798606e-05, -0.042570825666189194, -0.7849560379981995, -1.0245516300201416, 0.0749947652220726, -0.02329106474610885, -0.5293684369069069, -12.74186858910031, 9362.0, 30146.0, 35388.0, 9362.0, 8.112398147583008, -0.016724640503525734, -0.2896485924720764, 0.29181942343711853, -0.07560031861066818, -0.02646549604833126, 0.9592575430870056, 0, 0, 0, 1.330078125, 0.0206298828125, 1.49267578125
111699, -4.498507405514829e-05, 0.002718641422688961, 0.005518905818462372, 6.053252263882314e-07, -9.008796268972219e-07, -0.0027732362505048513, -1.2720832955892547e-06, -1.7347434550174512e-05, -0.046560801565647125, -0.7849507927894592, -1.024551510810852, 0.0750105157494545, -0.02211386616005895, -0.5297866423863979, -12.742792463220526, 9362.0, 30146.0, 35388.0, 9362.0, 8.112398147583008, 0.11403534561395645, 0.11827285587787628, -0.029652414843440056, -0.07595366984605789, -0.025811508297920227, 0.9583209753036499, -0.08084974437952042, -0.06647872924804688, 1.490478515625, 1.34912109375, 0.015380859375, 1.489013671875
111709, 0.0009341926779597998, 0.0029341483023017645, 0.003947527147829533, 5.801197744403908e-07, -1.078273953680764e-06, -0.003259063698351383, -3.6844933219981613e-06, -1.816839176171925e-05, -0.05060429871082306, -0.784942626953125, -1.0245424509048462, 0.07501620799303055, -0.02770633870182959, -0.532797489721986, -12.741221887225752, 9362.0, 30146.0, 35388.0, 9362.0, 8.112398147583008, -0.15883931517601013, -0.1634340137243271, 0.07735703140497208, -0.07631348818540573, -0.02715747058391571, 0.9617092609405518, -0.08084974437952042, -0.06647872924804688, 1.490478515625, 1.379150390625, 0.0238189697265625, 1.489013671875
111719, 0.0005813727038912475, 0.0034569003619253635, 0.0036890932824462652, 5.208961511016241e-07, -1.2595896805578377e-06, -0.00378397386521101, -8.146062100422569e-06, -1.8030179489869624e-05, -0.05437731370329857, -0.7849604487419128, -1.0245544910430908, 0.07499102503061295, -0.027975442006617515, -0.5330580663834894, -12.737462107262084, 9362.0, 30146.0, 35388.0, 9362.0, 8.112398147583008, 0.1874503344297409, 0.06510735303163528, -0.14237433671951294, -0.07382971048355103, -0.02836734801530838, 0.9603228569030762, -0.08084974437952042, -0.06647872924804688, 1.490478515625, 1.320556640625, 0.02685546875, 1.489013671875
111729, 0.001956741791218519, 0.0035414574667811394, 0.0024659812916070223, 4.153162649345177e-07, -1.4475725720330956e-06, -0.004347254987806082, -1.2934340702486224e-05, -1.9590381270973012e-05, -0.05827852338552475, -0.7849587202072144, -1.0245490074157715, 0.07497794181108475, -0.022074163263032628, -0.5336693678398206, -12.741050475348706, 9362.0, 30146.0, 35388.0, 9362.0, 8.112398147583008, 0.07017967849969864, -0.3274235129356384, 0.09180441498756409, -0.07478559762239456, -0.029201243072748184, 0.9570770859718323, -0.08084974437952042, -0.06647872924804688, 1.490478515625, 1.355712890625, 0.0155029296875, 1.489013671875
111739, 0.0021143683698028326, 0.005782600026577711, 0.0022323939483612776, 2.5763330313566257e-07, -1.6482442788401386e-06, -0.004950826987624168, -1.859615986177232e-05, -2.0444094843696803e-05, -0.062435515224933624, -0.7849516868591309, -1.0245438814163208, 0.07502388954162598, -0.023825961487369516, -0.5295316571876754, -12.743642782628946, 9362.0, 30146.0, 35388.0, 9362.0, 8.112398147583008, -0.005395540501922369, 0.41708093881607056, 0.11759917438030243, -0.07392101734876633, -0.029464947059750557, 0.9588451385498047, -0.08084974437952042, -0.06647872924804688, 1.490478515625, 1.29345703125, 0.05889892578125, 1.4912109375
111749, 0.0027745505794882774, 0.0037946589291095734, 0.002426384948194027, 4.260557773250184e-08, -1.8687466081246384e-06, -0.005595422815531492, -2.4251130525954068e-05, -2.364519787079189e-05, -0.0664832592010498, -0.7850404381752014, -1.0245482921600342, 0.07500037550926208, -0.020184163280343077, -0.5575088751572252, -12.68199401188809, 9362.0, 30146.0, 35388.0, 9362.0, 8.112398147583008, 0.06673207134008408, -0.08519247174263, -0.1732483059167862, -0.07427794486284256, -0.028950070962309837, 0.9586835503578186, -0.08084974437952042, -0.06647872924804688, 1.490478515625, 1.367431640625, 0.0183258056640625, 1.4912109375
111759, 0.0027162900660187006, 0.00507352827116847, 0.0002854295016732067, -2.473726681273547e-07, -2.122556679751142e-06, -0.0062804329209029675, -3.3884447475429624e-05, -2.707036219362635e-05, -0.0705183669924736, -0.7849643230438232, -1.0245494842529297, 0.07498447597026825, -0.02757449377651604, -0.539618607325707, -12.736833250553394, 9362.0, 30146.0, 35388.0, 9362.0, 8.112398147583008, 0.08030682057142258, 0.18087437748908997, 0.21337755024433136, -0.07467865943908691, -0.02875867858529091, 0.9616270065307617, -0.08084974437952042, -0.06647872924804688, 1.490478515625, 1.36962890625, 0.01910400390625, 1.486083984375
111769, 0.0024486917536705732, 0.005390726961195469, 0.0007665953016839921, -6.174476538944873e-07, -2.4160972316167317e-06, -0.007004551589488983, -4.0046244976110756e-05, -3.1641320674680173e-05, -0.07430495321750641, -0.7849600315093994, -1.0245434045791626, 0.07500438392162323, -0.027081500814088742, -0.5307519636990321, -12.738488846269227, 9362.0, 30146.0, 35388.0, 9362.0, 8.112398147583008, -0.23393037915229797, 0.32519182562828064, 0.3233238160610199, -0.07460463047027588, -0.02787637710571289, 0.960710346698761, -0.08084974437952042, -0.06647872924804688, 1.490478515625, 1.3564453125, 0.0156707763671875, 1.486083984375
111779, 0.0014628495555371046, 0.0034879266750067472, 0.0034008068032562733, -1.0596504580462351e-06, -2.7548578600544715e-06, -0.007766724098473787, -4.837310916627757e-05, -3.612872023950331e-05, -0.07812913507223129, -0.7849542498588562, -1.0245522260665894, 0.07501132041215897, -0.028450918648357436, -0.5305586746504503, -12.747504928079291, 9362.0, 30146.0, 35388.0, 9362.0, 8.112398147583008, -0.017034076154232025, -0.010507314465939999, -0.20840884745121002, -0.07725945860147476, -0.027985088527202606, 0.9600934386253357, -0.08084974437952042, -0.06647872924804688, 1.490478515625, 1.3974609375, 0.03759765625, 1.487548828125
111789, 0.0008942364365793765, 0.003955858293920755, 0.0030169878154993057, -1.5876826182648074e-06, -3.1362690151581774e-06, -0.008567656390368938, -5.736353705287911e-05, -4.022143184556626e-05, -0.08205688744783401, -0.7849482297897339, -1.0245441198349, 0.0750008374452591, -0.02679144833388589, -0.533385618130751, -12.743092463230347, 9362.0, 30146.0, 35388.0, 9362.0, 8.112398147583008, -0.04417197406291962, -0.013045765459537506, -0.1302659511566162, -0.07510723173618317, -0.026980524882674217, 0.9617186784744263, -0.08084974437952042, -0.06647872924804688, 1.490478515625, 1.3564453125, 0.0156707763671875, 1.487548828125
111799, -0.00041823412175290287, 0.0038399272598326206, 0.0015430162893608212, -2.1900207229919033e-06, -3.5505233881849563e-06, -0.009407219476997852, -6.307307921815664e-05, -4.266706309863366e-05, -0.08585529029369354, -0.7849516868591309, -1.02454674243927, 0.07497743517160416, -0.02855223487026725, -0.5278773019053062, -12.734565038022273, 9362.0, 30146.0, 35388.0, 9362.0, 8.112398147583008, 0.021678118035197258, -0.34331557154655457, -0.044119950383901596, -0.07636788487434387, -0.02962050773203373, 0.9610334038734436, -0.08826911449432373, 0.0052013397216796875, 1.496337890625, 1.30517578125, 0.0422515869140625, 1.494873046875
111809, -7.678969268454239e-05, 0.005552149843424559, 0.0013505545211955905, -2.853292699001031e-06, -3.984551767644007e-06, -0.010284947231411934, -6.958910671528429e-05, -4.422626079758629e-05, -0.08968979120254517, -0.7849580645561218, -1.0245462656021118, 0.07500272244215012, -0.025268112756315995, -0.5288929812897436, -12.740110863092205, 9362.0, 30146.0, 35388.0, 9362.0, 8.112398147583008, 0.25270721316337585, 0.2351006269454956, 0.09425527602434158, -0.07578340172767639, -0.02798786200582981, 0.9607037305831909, -0.08826911449432373, 0.0052013397216796875, 1.496337890625, 1.3828125, 0.0261077880859375, 1.494873046875
111819, 0.0017379525816068053, 0.004326872527599335, 0.002575829392299056, -3.5807761378237046e-06, -4.423374321049778e-06, -0.01120095606893301, -7.579342491226271e-05, -4.351545430836268e-05, -0.09351164102554321, -0.7849582433700562, -1.024546504020691, 0.0749962329864502, -0.024502785272163277, -0.5422655245628505, -12.739425180526675, 9362.0, 30146.0, 35388.0, 9362.0, 8.112398147583008, 0.1309223771095276, -0.2142357975244522, -0.42893344163894653, -0.07645266503095627, -0.026613764464855194, 0.9600611925125122, -0.08826911449432373, 0.0052013397216796875, 1.496337890625, 1.379150390625, 0.0238189697265625, 1.483154296875
111829, 0.0027406958397477865, 0.004693909082561731, -0.0008118343539535999, -4.384350177133456e-06, -4.85789860249497e-06, -0.01215558871626854, -8.500480907969177e-05, -4.3266052671242505e-05, -0.09741458296775818, -0.7849642038345337, -1.0245459079742432, 0.07497953623533249, -0.027103624154460396, -0.531859281257482, -12.744079375068926, 9362.0, 30146.0, 35388.0, 9362.0, 8.112398147583008, 0.036928460001945496, -0.30945885181427, -0.12736116349697113, -0.07739799469709396, -0.029213430359959602, 0.9590564966201782, -0.08826911449432373, 0.0052013397216796875, 1.496337890625, 1.421630859375, 0.0640716552734375, 1.483154296875
111839, 0.0029391918797045946, 0.00660605588927865, -0.0017076940275728703, -5.269917437544791e-06, -5.304827482177643e-06, -0.01314989011734724, -9.20830134418793e-05, -4.604882997227833e-05, -0.1014452651143074, -0.7849613428115845, -1.0245590209960938, 0.07499747723340988, -0.020437644975209363, -0.5261363274933331, -12.744479406728212, 9362.0, 30146.0, 35388.0, 9362.0, 8.112398147583008, 0.04838331788778305, 0.001757063902914524, -0.38589075207710266, -0.07655000686645508, -0.028181025758385658, 0.9603173136711121, -0.08826911449432373, 0.0052013397216796875, 1.496337890625, 1.354248046875, 0.0154266357421875, 1.48828125
111849, 0.0035320951137691736, 0.006040583364665508, -0.0036478505935519934, -6.229338396224193e-06, -5.7878473853634205e-06, -0.014183796010911465, -9.967144433176145e-05, -5.0541530072223395e-05, -0.10533557087182999, -0.7849606275558472, -1.0245555639266968, 0.07499239593744278, -0.024982671686587583, -0.5282996410787462, -12.744697652019006, 9362.0, 30146.0, 35388.0, 9362.0, 8.112398147583008, -0.07414180785417557, 0.008123546838760376, -0.10535895824432373, -0.07651355862617493, -0.028911955654621124, 0.9615472555160522, -0.08826911449432373, 0.0052013397216796875, 1.496337890625, 1.401123046875, 0.041015625, 1.48828125
111859, 0.004204462748020887, 0.005058036185801029, -0.0042803422547876835, -7.280408681253903e-06, -6.317444785963744e-06, -0.01525622047483921, -0.00011058036761824042, -5.533816874958575e-05, -0.10914895683526993, -0.784953773021698, -1.0245532989501953, 0.07500449568033218, -0.024317988747587675, -0.5349892093382209, -12.740842223599396, 9362.0, 30146.0, 35388.0, 9362.0, 8.112398147583008, -0.03379986807703972, 0.4367457628250122, 0.028066370636224747, -0.07684962451457977, -0.027543243020772934, 0.9608137011528015, -0.08826911449432373, 0.0052013397216796875, 1.496337890625, 1.376953125, 0.0225982666015625, 1.482421875
111869, 0.004816748201847076, 0.0015980054158717394, -0.003743794746696949, -8.43590714794118e-06, -6.899880190758267e-06, -0.0163668654859066, -0.00012058506399625912, -6.110389222158119e-05, -0.11297950893640518, -0.784960925579071, -1.024552345275879, 0.07500451803207397, -0.02602944689647346, -0.5263464024434086, -12.747247903458906, 9362.0, 30146.0, 35388.0, 9362.0, 8.112398147583008, 0.09582269936800003, 0.027975423261523247, -0.14966000616550446, -0.0738736093044281, -0.02978731505572796, 0.9615858793258667, -0.08826911449432373, 0.0052013397216796875, 1.496337890625, 1.414306640625, 0.05517578125, 1.482421875
111879, 0.005493983160704374, 0.0011071765329688787, -0.006614076904952526, -9.683393727755174e-06, -7.545523658336606e-06, -0.017515547573566437, -0.0001291401858907193, -6.798452523071319e-05, -0.1167563796043396, -0.7849674224853516, -1.0245428085327148, 0.0749875009059906, -0.02250712007469788, -0.5272329052474447, -12.74840682725784, 9362.0, 30146.0, 35388.0, 9362.0, 8.112398147583008, 0.05857531726360321, 0.14114585518836975, -0.1295156329870224, -0.07708100974559784, -0.026424413546919823, 0.9597909450531006, -0.08826911449432373, 0.0052013397216796875, 1.496337890625, 1.314697265625, 0.0319061279296875, 1.490478515625
111889, 0.006091304123401642, -0.0018676549661904573, -0.00696943886578083, -1.0987932910211384e-05, -8.264959433290642e-06, -0.0187026709318161, -0.00013180157111492008, -7.585628191009164e-05, -0.12066769599914551, -0.7849526405334473, -1.0245436429977417, 0.07498475909233093, -0.025794754706287948, -0.5308169291290312, -12.7424726577912, 9362.0, 30146.0, 35388.0, 9362.0, 8.112398147583008, 0.05165686458349228, 0.47166529297828674, 0.08405154943466187, -0.07885704934597015, -0.02638224884867668, 0.9604437947273254, -0.08826911449432373, 0.0052013397216796875, 1.496337890625, 1.3447265625, 0.0158538818359375, 1.490478515625
111899, 0.005573675502091646, -0.004235365893691778, -0.006041048560291529, -1.2315055755607318e-05, -9.068685358215589e-06, -0.019928842782974243, -0.00013382526230998337, -8.484821591991931e-05, -0.12456613779067993, -0.7849702835083008, -1.0245425701141357, 0.07498203217983246, -0.02751891591549477, -0.5283192434089585, -12.737862200789579, 9362.0, 30146.0, 35388.0, 9362.0, 8.112398147583008, 0.13492648303508759, 0.11297455430030823, 0.05348702892661095, -0.07700646668672562, -0.029350291937589645, 0.960656464099884, -0.08165811747312546, -0.12023735046386719, 1.486083984375, 1.371826171875, 0.02008056640625, 1.49267578125
111909, 0.006884120870381594, -0.0057097249664366245, -0.006516677793115377, -1.3637954907608218e-05, -9.96726521407254e-06, -0.021193798631429672, -0.0001309137005591765, -9.490238880971447e-05, -0.1284247189760208, -0.7849575281143188, -1.0245481729507446, 0.0749884694814682, -0.02934433863132413, -0.5379470590291646, -12.746799514084238, 9362.0, 30146.0, 35388.0, 9362.0, 8.112398147583008, 0.21885062754154205, -0.07717301696538925, -0.18192359805107117, -0.07537674903869629, -0.030770007520914078, 0.9572681784629822, -0.08165811747312546, -0.12023735046386719, 1.486083984375, 1.3330078125, 0.0191650390625, 1.49267578125
111919, 0.00915542058646679, -0.005868829786777496, -0.007103087846189737, -1.491237162554171e-05, -1.0961990483338013e-05, -0.022498780861496925, -0.00012407625035848469, -0.00010394804849056527, -0.13257145881652832, -0.7849494218826294, -1.0245487689971924, 0.07499570399522781, -0.017990378558833807, -0.5320301854011689, -12.738638241870142, 9362.0, 30146.0, 35388.0, 9362.0, 8.112398147583008, -0.09899185597896576, -0.007448691874742508, -0.25470227003097534, -0.07661571353673935, -0.026747021824121475, 0.958647608757019, -0.08165811747312546, -0.12023735046386719, 1.486083984375, 1.4091796875, 0.04937744140625, 1.48828125
111929, 0.009099416434764862, -0.005276042968034744, -0.006925100926309824, -1.6106290786410682e-05, -1.205796161229955e-05, -0.023844873532652855, -0.00011471909238025546, -0.00011508486932143569, -0.13664676249027252, -0.7849517464637756, -1.0245482921600342, 0.07500883936882019, -0.025555367176858523, -0.5248637172742576, -12.747350445078462, 9362.0, 30146.0, 35388.0, 9362.0, 8.112398147583008, -0.1588272601366043, -0.11304169148206711, 0.12473345547914505, -0.07611695677042007, -0.027394084259867668, 0.960353434085846, -0.08165811747312546, -0.12023735046386719, 1.486083984375, 1.426025390625, 0.069732666015625, 1.48828125
111939, 0.009244331158697605, -0.006394293624907732, -0.00599307008087635, -1.7205235053552315e-05, -1.3284096894494724e-05, -0.025230728089809418, -0.00010502956865821034, -0.0001301458542002365, -0.14052380621433258, -0.7849505543708801, -1.0245391130447388, 0.07501314580440521, -0.03273716538421596, -0.5285898719232307, -12.746156506253486, 9362.0, 30146.0, 35388.0, 9362.0, 8.112398147583008, -0.09206613153219223, 0.24088788032531738, 0.2234373539686203, -0.07594011723995209, -0.028763068839907646, 0.9624468088150024, -0.08165811747312546, -0.12023735046386719, 1.486083984375, 1.41943359375, 0.0612945556640625, 1.491943359375
111949, 0.009289829060435295, -0.008564869873225689, -0.004185296595096588, -1.8212087525171228e-05, -1.4660500710306223e-05, -0.026654597371816635, -9.641343785915524e-05, -0.00014512526104226708, -0.1442498415708542, -0.7849008440971375, -1.0245238542556763, 0.07497141510248184, -0.04859999032425531, -0.5617905065847708, -12.75938432614757, 9362.0, 30146.0, 35388.0, 9362.0, 8.112398147583008, 0.10960104316473007, 0.1506841629743576, 0.22124043107032776, -0.07604612410068512, -0.029964584857225418, 0.9601621031761169, -0.08165811747312546, -0.12023735046386719, 1.486083984375, 1.39306640625, 0.0337982177734375, 1.491943359375
111959, 0.009747917763888836, -0.008139543235301971, -0.004389505833387375, -1.912364132294897e-05, -1.6187786968657747e-05, -0.028116382658481598, -8.604289178038016e-05, -0.00016032833082135767, -0.14810679852962494, -0.7849466800689697, -1.0245450735092163, 0.07500176131725311, -0.027374889776208385, -0.524303066913177, -12.735894967809356, 9362.0, 30146.0, 35388.0, 9362.0, 8.112398147583008, 0.1752762496471405, -0.04014281556010246, -0.08678702265024185, -0.07482408732175827, -0.029627006500959396, 0.9620048403739929, -0.08165811747312546, -0.12023735046386719, 1.486083984375, 1.3857421875, 0.0280914306640625, 1.494140625
111969, 0.010032186284661293, -0.006903332192450762, -0.0053762043826282024, -1.9913537471438758e-05, -1.7867583665065467e-05, -0.029616082087159157, -7.190892938524485e-05, -0.00017560123524162918, -0.1518327295780182, -0.7848767042160034, -1.0245317220687866, 0.07498051226139069, -0.044240193155651794, -0.5626371460978987, -12.756677063976031, 9362.0, 30146.0, 35388.0, 9362.0, 8.112398147583008, -0.07402269542217255, -0.027431471273303032, 0.04769047349691391, -0.0780586302280426, -0.026647409424185753, 0.9614996910095215, -0.08165811747312546, -0.12023735046386719, 1.486083984375, 1.348388671875, 0.0154571533203125, 1.494140625
111979, 0.00958566926419735, -0.006926033645868301, -0.0059478431940078735, -2.0565617887768894e-05, -1.970385892491322e-05, -0.031153172254562378, -5.842637619934976e-05, -0.00019163551041856408, -0.15558494627475739, -0.7849481701850891, -1.0245420932769775, 0.07499083131551743, -0.025222164741304967, -0.5389340330481502, -12.743510016920524, 9362.0, 30146.0, 35388.0, 9362.0, 8.112398147583008, 0.21704383194446564, -0.06686808168888092, -0.12478192150592804, -0.07725489884614944, -0.02772366628050804, 0.9611620306968689, -0.08165811747312546, -0.12023735046386719, 1.486083984375, 1.40625, 0.04620361328125, 1.4970703125
111989, 0.010370949283242226, -0.005446824245154858, -0.007497718092054129, -2.109308661601972e-05, -2.17027663893532e-05, -0.03272807598114014, -4.7069042921066284e-05, -0.00020817590120714158, -0.15939529240131378, -0.7848966717720032, -1.0245251655578613, 0.07497414946556091, -0.0483020979819351, -0.5624179277103281, -12.762403480134891, 9362.0, 30146.0, 35388.0, 9362.0, 8.112398147583008, 0.04391619563102722, 0.26824191212654114, 0.19560416042804718, -0.07679477334022522, -0.029063034802675247, 0.9586089849472046, -0.08165811747312546, -0.12023735046386719, 1.486083984375, 1.3916015625, 0.0325927734375, 1.4970703125
111999, 0.00994845014065504, -0.006460357457399368, -0.006566246505826712, -2.1506917619262822e-05, -2.3863236492616124e-05, -0.03434209153056145, -3.559413380571641e-05, -0.00022386337514035404, -0.16340743005275726, -0.7849531769752502, -1.0245469808578491, 0.0749862864613533, -0.02092668328380384, -0.5290233086477372, -12.737857585750234, 9362.0, 30146.0, 35388.0, 9362.0, 8.112398147583008, 0.037633802741765976, -0.07470298558473587, 0.2728993892669678, -0.07555177807807922, -0.027517074719071388, 0.9612826704978943, -0.06558703631162643, -0.09335899353027344, 1.48828125, 1.39599609375, 0.0362701416015625, 1.48681640625
112009, 0.009865937754511833, -0.005437623243778944, -0.005419320426881313, -2.181806121370755e-05, -2.6187193725490943e-05, -0.03599531576037407, -2.670201320142951e-05, -0.00024095605476759374, -0.16723735630512238, -0.7849611043930054, -1.0245436429977417, 0.07499633729457855, -0.02757494081837077, -0.5364019088354155, -12.752122348173781, 9362.0, 30146.0, 35388.0, 9362.0, 8.112398147583008, 0.321818470954895, 0.07639767229557037, 0.05752681940793991, -0.07436598837375641, -0.027610599994659424, 0.9618719220161438, -0.06558703631162643, -0.09335899353027344, 1.48828125, 1.39306640625, 0.0337982177734375, 1.48681640625
112019, 0.012241488322615623, -0.005312558729201555, -0.005383627489209175, -2.2031888875062577e-05, -2.8678685339400545e-05, -0.03768635913729668, -1.599675124452915e-05, -0.00025734762311913073, -0.1709706336259842, -0.7849536538124084, -1.0245541334152222, 0.0749845877289772, -0.02571420715334191, -0.5267193751364516, -12.737525231953668, 9362.0, 30146.0, 35388.0, 9362.0, 8.112398147583008, -0.07590505480766296, 0.4898403584957123, 0.29892557859420776, -0.07599750906229019, -0.031227339059114456, 0.9621114730834961, -0.06558703631162643, -0.09335899353027344, 1.48828125, 1.405517578125, 0.0454254150390625, 1.48974609375
112029, 0.011620434001088142, -0.00822153314948082, -0.004155438393354416, -2.214707637904212e-05, -3.133342761429958e-05, -0.03941463306546211, -7.0324717853509355e-06, -0.00027344736736267805, -0.17468398809432983, -0.7849519848823547, -1.0245568752288818, 0.07498566806316376, -0.02266817846371601, -0.5395294594546272, -12.739586377931952, 9362.0, 30146.0, 35388.0, 9362.0, 8.112398147583008, 0.1275699883699417, -0.031419020146131516, 0.030940523371100426, -0.07683124393224716, -0.03044094331562519, 0.9584014415740967, -0.06558703631162643, -0.09335899353027344, 1.48828125, 1.341796875, 0.0162811279296875, 1.48974609375
112039, 0.012155436910688877, -0.0065122791565954685, -0.005059129558503628, -2.217380824731663e-05, -3.4168377169407904e-05, -0.04118172451853752, 1.481072786191362e-06, -0.00029358582105487585, -0.17873413860797882, -0.7849528193473816, -1.0245362520217896, 0.07498007267713547, -0.02464918395467318, -0.5354709518665004, -12.737907379670478, 9362.0, 30146.0, 35388.0, 9362.0, 8.112398147583008, 0.08219641447067261, -0.126242533326149, -0.24545960128307343, -0.07624251395463943, -0.02955002337694168, 0.9586387872695923, -0.06558703631162643, -0.09335899353027344, 1.48828125, 1.39306640625, 0.0337982177734375, 1.4912109375
112049, 0.01265297643840313, -0.004773282911628485, -0.0062490589916706085, -2.2091531718615443e-05, -3.719960659509525e-05, -0.042989350855350494, 1.5094752598088235e-05, -0.0003126224037259817, -0.182791069149971, -0.7849653959274292, -1.0245459079742432, 0.07497484982013702, -0.029905235521423653, -0.5309134408335296, -12.742869485487148, 9362.0, 30146.0, 35388.0, 9362.0, 8.112398147583008, 0.07840237021446228, -0.24702666699886322, -0.296080619096756, -0.07531683146953583, -0.02721458300948143, 0.959833025932312, -0.06558703631162643, -0.09335899353027344, 1.48828125, 1.3330078125, 0.0191650390625, 1.4912109375
112059, 0.012455618008971214, -0.002297689439728856, -0.009153412654995918, -2.1887084585614502e-05, -4.042571163154207e-05, -0.04483698308467865, 2.591392694739625e-05, -0.00033256461028940976, -0.18673524260520935, -0.7848974466323853, -1.0245407819747925, 0.07496589422225952, -0.047947244840856044, -0.5643201246505498, -12.758902423826898, 9362.0, 30146.0, 35388.0, 9362.0, 8.112398147583008, 0.35504651069641113, 0.3119235932826996, 0.21792520582675934, -0.07575912773609161, -0.028366893529891968, 0.9598216414451599, -0.06558703631162643, -0.09335899353027344, 1.48828125, 1.292724609375, 0.060089111328125, 1.48974609375
112069, 0.014007395133376122, -0.004437055438756943, -0.00953503418713808, -2.1588741219602525e-05, -4.3855314288521186e-05, -0.046724118292331696, 3.392440339666791e-05, -0.00035336954169906676, -0.19069169461727142, -0.7849538922309875, -1.0245417356491089, 0.07497619092464447, -0.02155853231447204, -0.5308510597193106, -12.739578415629415, 9362.0, 30146.0, 35388.0, 9362.0, 8.112398147583008, -0.10043751448392868, 0.04478735849261284, 0.07566335797309875, -0.07891134172677994, -0.028848797082901, 0.9574888944625854, -0.06558703631162643, -0.09335899353027344, 1.48828125, 1.423095703125, 0.06591796875, 1.48974609375
112079, 0.013549897819757462, -0.004800625145435333, -0.010708743706345558, -2.1230673155514523e-05, -4.7491146688116714e-05, -0.04865171015262604, 3.753504279302433e-05, -0.00037368558696471155, -0.19482596218585968, -0.7849522829055786, -1.024551510810852, 0.07497721910476685, -0.024447343831398852, -0.5296962567870196, -12.736390713635465, 9362.0, 30146.0, 35388.0, 9362.0, 8.112398147583008, 0.2911255359649658, 0.07835330814123154, -0.41251933574676514, -0.07500936090946198, -0.029202913865447044, 0.9596381187438965, -0.06558703631162643, -0.09335899353027344, 1.48828125, 1.417236328125, 0.058624267578125, 1.4912109375
112089, 0.014924746006727219, -0.006407920271158218, -0.013240166008472443, -2.0818892153329216e-05, -5.134307502885349e-05, -0.05061979964375496, 4.4795491703553125e-05, -0.0003967320080846548, -0.1987914741039276, -0.7849587202072144, -1.0245471000671387, 0.07497594505548477, -0.03216828829054357, -0.53575578943898, -12.747177582051831, 9362.0, 30146.0, 35388.0, 9362.0, 8.112398147583008, 0.02438720501959324, 0.2603761553764343, -0.05569126456975937, -0.0761488601565361, -0.028094811365008354, 0.9594720005989075, -0.06558703631162643, -0.09335899353027344, 1.48828125, 1.415771484375, 0.0568695068359375, 1.4912109375
112099, 0.015394123271107674, -0.008806516416370869, -0.013766421005129814, -2.0331524865468964e-05, -5.542170038097538e-05, -0.05262758582830429, 5.256540680420585e-05, -0.0004188984748907387, -0.20276552438735962, -0.7849648594856262, -1.0245555639266968, 0.07497457414865494, -0.02862134077116349, -0.5353932369399956, -12.735714730895637, 9362.0, 30146.0, 35388.0, 9362.0, 8.112398147583008, 0.30117735266685486, -0.15573637187480927, -0.04898107051849365, -0.07681433856487274, -0.02706952393054962, 0.9593665599822998, -0.09494927525520325, -0.04855918884277344, 1.491943359375, 1.36669921875, 0.01806640625, 1.48974609375
112109, 0.0165342278778553, -0.00948579702526331, -0.014772355556488037, -1.975326449610293e-05, -5.9733287343988195e-05, -0.05467512086033821, 6.292006582953036e-05, -0.00044338643783703446, -0.20674124360084534, -0.7849486470222473, -1.0245386362075806, 0.07498659193515778, -0.03477174646814087, -0.5291033868756472, -12.736377867118435, 9362.0, 30146.0, 35388.0, 9362.0, 8.112398147583008, 0.0712919682264328, 0.3709574341773987, 0.25208526849746704, -0.07456794381141663, -0.02935788966715336, 0.9593372344970703, -0.09494927525520325, -0.04855918884277344, 1.491943359375, 1.365966796875, 0.017791748046875, 1.48974609375
112119, 0.016550492495298386, -0.012987659312784672, -0.013418232090771198, -1.905175668071024e-05, -6.429361383197829e-05, -0.05676240473985672, 7.733386883046478e-05, -0.00046860071597620845, -0.21071526408195496, -0.7849499583244324, -1.0245405435562134, 0.07499153167009354, -0.029503364734515893, -0.541135421701938, -12.747485669724545, 9362.0, 30146.0, 35388.0, 9362.0, 8.112398147583008, -0.01662374474108219, 0.06260320544242859, -0.08272992819547653, -0.07754246145486832, -0.02814740501344204, 0.9595077037811279, -0.09494927525520325, -0.04855918884277344, 1.491943359375, 1.3388671875, 0.017120361328125, 1.494873046875
112129, 0.016536248847842216, -0.012916037812829018, -0.014504858292639256, -1.8200544218416326e-05, -6.911544187460095e-05, -0.0588894747197628, 9.266621054848656e-05, -0.0004957628552801907, -0.21469826996326447, -0.7849575877189636, -1.0245474576950073, 0.07498324662446976, -0.025127753427788842, -0.5318005412090656, -12.737055494027521, 9362.0, 30146.0, 35388.0, 9362.0, 8.112398147583008, 0.1792244166135788, 0.18106190860271454, -0.07550318539142609, -0.07730045169591904, -0.02856302447617054, 0.9591841101646423, -0.09494927525520325, -0.04855918884277344, 1.491943359375, 1.412841796875, 0.0534515380859375, 1.494873046875
112139, 0.0168057382106781, -0.013317007571458817, -0.015667947009205818, -1.716725091682747e-05, -7.420901965815574e-05, -0.06105640530586243, 0.00011399701907066628, -0.0005229540402069688, -0.21868766844272614, -0.7849472761154175, -1.0245394706726074, 0.07498788833618164, -0.026199591577871675, -0.5344237143685007, -12.737891131386238, 9362.0, 30146.0, 35388.0, 9362.0, 8.112398147583008, 0.20540352165699005, 0.37946397066116333, 0.042438287287950516, -0.07518191635608673, -0.03063599020242691, 0.9617804288864136, -0.09494927525520325, -0.04855918884277344, 1.491943359375, 1.382080078125, 0.0256195068359375, 1.487548828125
112149, 0.01786649413406849, -0.015967238694429398, -0.015663068741559982, -1.5920999430818483e-05, -7.957470370456576e-05, -0.06326216459274292, 0.0001352262042928487, -0.0005501648411154747, -0.22246438264846802, -0.7848988175392151, -1.0245217084884644, 0.07497885078191757, -0.05131247353619342, -0.5627863132999948, -12.751583329962681, 9362.0, 30146.0, 35388.0, 9362.0, 8.112398147583008, -0.10075083374977112, 0.0830853208899498, 0.5189305543899536, -0.07522697746753693, -0.031099146232008934, 0.9611087441444397, -0.09494927525520325, -0.04855918884277344, 1.491943359375, 1.3388671875, 0.017120361328125, 1.487548828125
112159, 0.017199460417032242, -0.015478360466659069, -0.013507886789739132, -1.4459204976446927e-05, -8.521465497324243e-05, -0.06550589203834534, 0.00015695641923230141, -0.0005777550977654755, -0.22628021240234375, -0.7849487662315369, -1.0245482921600342, 0.07500025629997253, -0.027788730223765275, -0.5386694077030256, -12.742358394413099, 9362.0, 30146.0, 35388.0, 9362.0, 8.112398147583008, 0.15804000198841095, 0.13948838412761688, -0.03595912083983421, -0.07538871467113495, -0.030056484043598175, 0.9598407745361328, -0.09494927525520325, -0.04855918884277344, 1.491943359375, 1.36962890625, 0.01910400390625, 1.487548828125
112169, 0.018198247998952866, -0.01708635687828064, -0.01406450942158699, -1.2758446246152744e-05, -9.113908890867606e-05, -0.06778828054666519, 0.00018322969845030457, -0.0006071757525205612, -0.23019738495349884, -0.7849410176277161, -1.0245352983474731, 0.07499101758003235, -0.02880496971791895, -0.5326045818071066, -12.740705900626656, 9362.0, 30146.0, 35388.0, 9362.0, 8.112398147583008, 0.07680200040340424, 0.13740991055965424, -0.20263022184371948, -0.07974360883235931, -0.028736311942338943, 0.9608034491539001, -0.09494927525520325, -0.04855918884277344, 1.491943359375, 1.351318359375, 0.0153350830078125, 1.487548828125
112179, 0.018519224599003792, -0.017416851595044136, -0.01510542817413807, -1.0798903531394899e-05, -9.735230560181662e-05, -0.07010960578918457, 0.00020857017079833895, -0.000635401054751128, -0.2340678870677948, -0.7849364280700684, -1.024543046951294, 0.07499036192893982, -0.029694866075578554, -0.5298682410014237, -12.74212861379308, 9362.0, 30146.0, 35388.0, 9362.0, 8.112398147583008, 0.1662483662366867, -0.03736264258623123, -0.037893146276474, -0.07499931007623672, -0.027929725125432014, 0.9600081443786621, -0.09494927525520325, -0.04855918884277344, 1.491943359375, 1.2978515625, 0.05224609375, 1.491943359375
112189, 0.019704874604940414, -0.017542963847517967, -0.015327038243412971, -8.572790648031514e-06, -0.00010385593486716971, -0.07246982306241989, 0.0002366293774684891, -0.0006653040181845427, -0.23797470331192017, -0.7849360704421997, -1.0245407819747925, 0.07499751448631287, -0.027888603321764602, -0.5335555645045531, -12.747483712097898, 9362.0, 30146.0, 35388.0, 9362.0, 8.112398147583008, -0.02269601635634899, -0.21494503319263458, 0.08933870494365692, -0.07628556340932846, -0.027125339955091476, 0.9594115614891052, -0.09494927525520325, -0.04855918884277344, 1.491943359375, 1.39306640625, 0.0337982177734375, 1.491943359375
112209, 0.02141677588224411, -0.016548210754990578, -0.014173021540045738, -6.06344610787346e-06, -0.00011066115985158831, -0.07486934959888458, 0.00026523074484430254, -0.0006956594879738986, -0.24192994832992554, -0.7849498391151428, -1.0245323181152344, 0.07500667124986649, -0.02680075844863814, -0.534488892403175, -12.73764260685367, 9362.0, 30146.0, 35388.0, 9362.0, 8.112398147583008, -0.12685535848140717, 0.02742600068449974, 0.1500677615404129, -0.07628556340932846, -0.027125339955091476, 0.9594115614891052, -0.09494927525520325, -0.04855918884277344, 1.491943359375, 1.30224609375, 0.0460052490234375, 1.494873046875
112219, 0.020690862089395523, -0.01818706840276718, -0.01436084695160389, -6.06344610787346e-06, -0.00011066115985158831, -0.07486934959888458, 0.00026523074484430254, -0.0006956594879738986, -0.24192994832992554, -0.7849515080451965, -1.0245368480682373, 0.07498069852590561, -0.02892513759319742, -0.5358800997456399, -12.744513710079596, 9362.0, 30146.0, 35388.0, 9362.0, 8.112398147583008, -0.12685535848140717, 0.02742600068449974, 0.1500677615404129, -0.07568102329969406, -0.026218492537736893, 0.9626787900924683, -0.09494927525520325, -0.04855918884277344, 1.491943359375, 1.37109375, 0.0197906494140625, 1.4912109375
112229, 0.02011827938258648, -0.017146779224276543, -0.013295586220920086, -6.06344610787346e-06, -0.00011066115985158831, -0.07486934959888458, 0.00026523074484430254, -0.0006956594879738986, -0.24192994832992554, -0.7849399447441101, -1.0245311260223389, 0.07499341666698456, -0.0324486961993877, -0.5338383291154969, -12.74428510620818, 9362.0, 30146.0, 35388.0, 9362.0, 8.112398147583008, 0.02390352636575699, -0.29815635085105896, 0.07680890709161758, -0.0770026370882988, -0.02883768454194069, 0.9592814445495605, -0.09494927525520325, -0.04855918884277344, 1.491943359375, 1.36669921875, 0.01806640625, 1.4912109375
112239, 0.019853975623846054, -0.01581951603293419, -0.011702246032655239, -6.06344610787346e-06, -0.00011066115985158831, -0.07486934959888458, 0.00026523074484430254, -0.0006956594879738986, -0.24192994832992554, -0.7849473357200623, -1.024542212486267, 0.07499313354492188, -0.03284530849255918, -0.5416563087407553, -12.740575554980165, 9362.0, 30146.0, 35388.0, 9362.0, 8.112398147583008, -0.11900536715984344, -0.31983935832977295, 0.17349176108837128, -0.0770026370882988, -0.02883768454194069, 0.9592814445495605, -0.09494927525520325, -0.04855918884277344, 1.491943359375, 1.36669921875, 0.01806640625, 1.490478515625
112249, 0.020077744498848915, -0.014213472604751587, -0.011527209542691708, 1.0722129445639439e-05, -0.0001496409677201882, -0.08744794130325317, 0.00040678540244698524, -0.0008642482571303844, -0.2612473964691162, -0.784952700138092, -1.0245290994644165, 0.07497430592775345, -0.027171535244086383, -0.5302447043407597, -12.737443876696783, 9362.0, 30146.0, 35388.0, 9362.0, 8.112398147583008, 0.09716636687517166, 0.05318313091993332, 0.026723740622401237, -0.0770026370882988, -0.02883768454194069, 0.9592814445495605, -0.09494927525520325, -0.04855918884277344, 1.491943359375, 1.36669921875, 0.01806640625, 1.490478515625
112259, 0.02013411745429039, -0.013161901384592056, -0.01211288757622242, 1.0722129445639439e-05, -0.0001496409677201882, -0.08744794130325317, 0.00040678540244698524, -0.0008642482571303844, -0.2612473964691162, -0.7849356532096863, -1.024537205696106, 0.07498510926961899, -0.028258494085826258, -0.5301056376879387, -12.738312245350013, 9362.0, 30146.0, 35388.0, 9362.0, 8.112398147583008, 0.1504627913236618, 0.16485050320625305, 0.10973884910345078, -0.07432422786951065, -0.029106950387358665, 0.962913453578949, -0.09494927525520325, -0.04855918884277344, 1.491943359375, 1.36669921875, 0.01806640625, 1.4912109375
112269, 0.02203298732638359, -0.0130672138184309, -0.01081516407430172, 1.9366138076293282e-05, -0.00016758107813075185, -0.09274941682815552, 0.0004563863330986351, -0.0009299769881181419, -0.26880255341529846, -0.7849401235580444, -1.0245367288589478, 0.07499909400939941, -0.026680609355401022, -0.527999724091643, -12.739360646967112, 9362.0, 30146.0, 35388.0, 9362.0, 8.112398147583008, -0.16611787676811218, -0.08129484206438065, -0.1260143220424652, -0.07432422786951065, -0.029106950387358665, 0.962913453578949, -0.09494927525520325, -0.04855918884277344, 1.491943359375, 1.36669921875, 0.01806640625, 1.4912109375
112279, 0.021851005032658577, -0.011489218100905418, -0.012170491740107536, 2.4038428819039837e-05, -0.0001770467933965847, -0.09545578807592392, 0.0004780787567142397, -0.0009630433050915599, -0.27247151732444763, -0.7849406003952026, -1.0245331525802612, 0.07500334829092026, -0.034943009088269875, -0.5388177920998771, -12.74317196040025, 9362.0, 30146.0, 35388.0, 9362.0, 8.112398147583008, 0.16487428545951843, -0.25295642018318176, -0.2510044574737549, -0.0757918655872345, -0.02889340929687023, 0.9597855806350708, -0.09494927525520325, -0.04855918884277344, 1.491943359375, 1.36669921875, 0.01806640625, 1.48974609375
112289, 0.022711025550961494, -0.009668433107435703, -0.014304863288998604, 2.4038428819039837e-05, -0.0001770467933965847, -0.09545578807592392, 0.0004780787567142397, -0.0009630433050915599, -0.27247151732444763, -0.7849462628364563, -1.0245357751846313, 0.07498376816511154, -0.033704852230929144, -0.539793376118638, -12.741849024046, 9362.0, 30146.0, 35388.0, 9362.0, 8.112398147583008, -0.003987232223153114, 0.04982464015483856, 0.1474693864583969, -0.0757918655872345, -0.02889340929687023, 0.9597855806350708, -0.09494927525520325, -0.04855918884277344, 1.491943359375, 1.36669921875, 0.01806640625, 1.48974609375
112299, 0.02298964560031891, -0.011195840314030647, -0.013860857114195824, 2.4038428819039837e-05, -0.0001770467933965847, -0.09545578807592392, 0.0004780787567142397, -0.0009630433050915599, -0.27247151732444763, -0.7849358916282654, -1.0245248079299927, 0.07498611509799957, -0.02825773664256104, -0.5355958191059926, -12.741793775311034, 9362.0, 30146.0, 35388.0, 9362.0, 8.112398147583008, 0.03294868394732475, -0.12859277427196503, -0.17084093391895294, -0.0757918655872345, -0.02889340929687023, 0.9597855806350708, -0.09494927525520325, -0.04855918884277344, 1.491943359375, 1.36669921875, 0.01806640625, 1.4912109375
112309, 0.022695260122418404, -0.01054198294878006, -0.015855930745601654, 2.4038428819039837e-05, -0.0001770467933965847, -0.09545578807592392, 0.0004780787567142397, -0.0009630433050915599, -0.27247151732444763, -0.7848936915397644, -1.0245378017425537, 0.07524165511131287, -0.10024454345562196, -0.6053640813386778, -12.72919894390646, 9362.0, 30146.0, 35388.0, 9362.0, 8.112398147583008, -0.08344677090644836, -0.04637310653924942, 0.05144774168729782, -0.0757918655872345, -0.02889340929687023, 0.9597855806350708, -0.09494927525520325, -0.04855918884277344, 1.491943359375, 1.316162109375, 0.030517578125, 1.4912109375
112319, 0.022349445149302483, -0.009564755484461784, -0.015569500625133514, 4.4719625293510035e-05, -0.0002184816839871928, -0.10666988790035248, 0.0005528733599931002, -0.00111026328522712, -0.2881692349910736, -0.7849434614181519, -1.024532675743103, 0.07500255852937698, -0.031789923672566424, -0.5392668659576998, -12.736645006441623, 9362.0, 30146.0, 35388.0, 9362.0, 8.112398147583008, -0.08344677090644836, -0.04637310653924942, 0.05144774168729782, -0.0757918655872345, -0.02889340929687023, 0.9597855806350708, -0.09494927525520325, -0.04855918884277344, 1.491943359375, 1.30810546875, 0.0388031005859375, 1.490478515625
112329, 0.02132168971002102, -0.010918731801211834, -0.015408300794661045, 4.4719625293510035e-05, -0.0002184816839871928, -0.10666988790035248, 0.0005528733599931002, -0.00111026328522712, -0.2881692349910736, -0.7849093079566956, -1.0245156288146973, 0.07500245422124863, -0.039743324204770565, -0.5521304580950073, -12.748649517905786, 9362.0, 30146.0, 35388.0, 9362.0, 8.112398147583008, -0.0274107176810503, 0.19865308701992035, 0.3524528443813324, -0.0757918655872345, -0.02889340929687023, 0.9597855806350708, -0.09494927525520325, -0.04855918884277344, 1.491943359375, 1.30810546875, 0.0388031005859375, 1.490478515625
112339, 0.019977515563368797, -0.012180278077721596, -0.01315284799784422, 5.611616143141873e-05, -0.00024143068003468215, -0.11251130700111389, 0.0005858673830516636, -0.001184391207061708, -0.2960573434829712, -0.784943699836731, -1.0245401859283447, 0.07498835772275925, -0.0334204673523343, -0.5358992045980528, -12.733335804961632, 9362.0, 30146.0, 35388.0, 9362.0, 8.112398147583008, -0.0274107176810503, 0.19865308701992035, 0.3524528443813324, -0.0757918655872345, -0.02889340929687023, 0.9597855806350708, -0.09494927525520325, -0.04855918884277344, 1.491943359375, 1.30810546875, 0.0388031005859375, 1.494140625
112349, 0.018617523834109306, -0.011428452096879482, -0.014205057173967361, 5.611616143141873e-05, -0.00024143068003468215, -0.11251130700111389, 0.0005858673830516636, -0.001184391207061708, -0.2960573434829712, -0.7850164175033569, -1.0245361328125, 0.07501274347305298, -0.016743044418217348, -0.5672126312189789, -12.683105018834926, 9362.0, 30146.0, 35388.0, 9362.0, 8.112398147583008, 0.006166047882288694, -0.2968335449695587, 0.04494510591030121, -0.0757918655872345, -0.02889340929687023, 0.9597855806350708, -0.09494927525520325, -0.04855918884277344, 1.491943359375, 1.2744140625, 0.0959014892578125, 1.494140625
112369, 0.018745556473731995, -0.007983590476214886, -0.016394732519984245, 7.453282159985974e-05, -0.0002784859389066696, -0.12157291173934937, 0.0006426845793612301, -0.0012830625055357814, -0.3079814910888672, -0.7849342823028564, -1.0245375633239746, 0.07498456537723541, -0.032845736369478955, -0.5344361577870131, -12.739045294858416, 9362.0, 30146.0, 35388.0, 9362.0, 8.112398147583008, 0.05390847474336624, 0.16677862405776978, -0.0253764558583498, -0.0757918655872345, -0.02889340929687023, 0.9597855806350708, -0.09494927525520325, -0.04855918884277344, 1.491943359375, 1.341064453125, 0.01654052734375, 1.490478515625
112379, 0.019970662891864777, -0.008955415338277817, -0.01787615194916725, 8.103490108624101e-05, -0.00029146470478735864, -0.12467218935489655, 0.0006578108877874911, -0.0013126410776749253, -0.311874121427536, -0.7849401831626892, -1.0245386362075806, 0.07498659938573837, -0.033099084624921456, -0.5308460248739948, -12.74478980579138, 9362.0, 30146.0, 35388.0, 9362.0, 8.112398147583008, -0.09960652887821198, -0.06458989530801773, -0.23134365677833557, -0.07581070810556412, -0.029168063774704933, 0.96137535572052, -0.09494927525520325, -0.04855918884277344, 1.491943359375, 1.341064453125, 0.01654052734375, 1.48974609375
112389, 0.018883315846323967, -0.008954962715506554, -0.0199058186262846, 8.767866529524326e-05, -0.0003047453938052058, -0.12780994176864624, 0.0006708763539791107, -0.0013434155844151974, -0.31567591428756714, -0.7849302887916565, -1.0245270729064941, 0.07500475645065308, -0.032392791366774316, -0.540855087529394, -12.747412040724933, 9362.0, 30146.0, 35388.0, 9362.0, 8.112398147583008, -0.11795763671398163, -0.3864891827106476, -0.07639116048812866, -0.07581070810556412, -0.029168063774704933, 0.96137535572052, -0.09494927525520325, -0.04855918884277344, 1.491943359375, 1.341064453125, 0.01654052734375, 1.48974609375
112399, 0.017673959955573082, -0.006258686073124409, -0.02026861160993576, 8.767866529524326e-05, -0.0003047453938052058, -0.12780994176864624, 0.0006708763539791107, -0.0013434155844151974, -0.31567591428756714, -0.7849363684654236, -1.0245310068130493, 0.0749867707490921, -0.0259596113024946, -0.5357853667630081, -12.742483891967725, 9362.0, 30146.0, 35388.0, 9362.0, 8.112398147583008, -0.11795763671398163, -0.3864891827106476, -0.07639116048812866, -0.07581070810556412, -0.029168063774704933, 0.96137535572052, -0.09141688793897629, -0.2546367645263672, 1.47509765625, 1.341064453125, 0.01654052734375, 1.48974609375
112409, 0.018668530508875847, -0.011969801038503647, -0.019737333059310913, 8.767866529524326e-05, -0.0003047453938052058, -0.12780994176864624, 0.0006708763539791107, -0.0013434155844151974, -0.31567591428756714, -0.7849173545837402, -1.024531602859497, 0.07496442645788193, -0.03835723999817168, -0.5397878931767934, -12.750046370685606, 9362.0, 30146.0, 35388.0, 9362.0, 8.112398147583008, 0.06720439344644547, 0.24974210560321808, -0.19884636998176575, -0.07581070810556412, -0.029168063774704933, 0.96137535572052, -0.09141688793897629, -0.2546367645263672, 1.47509765625, 1.327880859375, 0.0218353271484375, 1.48974609375
112419, 0.01984477788209915, -0.01356283575296402, -0.021358640864491463, 0.00010844576900126413, -0.00034648002474568784, -0.1374625563621521, 0.0007103001116774976, -0.001436293707229197, -0.32788383960723877, -0.7849334478378296, -1.0245375633239746, 0.07499342411756516, -0.029188324799724667, -0.5374525335070075, -12.748099994664534, 9362.0, 30146.0, 35388.0, 9362.0, 8.112398147583008, -0.08035676926374435, 0.06331051141023636, 0.06468986719846725, -0.07581070810556412, -0.029168063774704933, 0.96137535572052, -0.09141688793897629, -0.2546367645263672, 1.47509765625, 1.327880859375, 0.0218353271484375, 1.49267578125
112429, 0.019408583641052246, -0.014486417174339294, -0.021438464522361755, 0.00011564697342691943, -0.0003609962295740843, -0.1407615691423416, 0.0007298277923837304, -0.0014668668154627085, -0.33191919326782227, -0.7848795056343079, -1.024524211883545, 0.07496614009141922, -0.05644456178257086, -0.5673783928444323, -12.76104233469951, 9362.0, 30146.0, 35388.0, 9362.0, 8.112398147583008, -0.14531533420085907, -0.42970818281173706, 0.13667821884155273, -0.07581070810556412, -0.029168063774704933, 0.96137535572052, -0.09141688793897629, -0.2546367645263672, 1.47509765625, 1.392333984375, 0.03314208984375, 1.49267578125
112439, 0.018812457099556923, -0.013370303437113762, -0.021262209862470627, 0.00011564697342691943, -0.0003609962295740843, -0.1407615691423416, 0.0007298277923837304, -0.0014668668154627085, -0.33191919326782227, -0.784917950630188, -1.024544596672058, 0.07499523460865021, -0.030228328439121814, -0.5405144472618133, -12.737636364176891, 9362.0, 30146.0, 35388.0, 9362.0, 8.112398147583008, 0.04659860581159592, -0.007668449077755213, -0.15157920122146606, -0.07581070810556412, -0.029168063774704933, 0.96137535572052, -0.09141688793897629, -0.2546367645263672, 1.47509765625, 1.392333984375, 0.03314208984375, 1.490478515625
112449, 0.018656311556696892, -0.012739821337163448, -0.022800743579864502, 0.00013069651322439313, -0.0003909833903890103, -0.14747679233551025, 0.000775953580159694, -0.0015315191121771932, -0.3396351635456085, -0.7848700881004333, -1.0245299339294434, 0.0749741867184639, -0.05160321572561391, -0.5718438868426574, -12.75760453741522, 9362.0, 30146.0, 35388.0, 9362.0, 8.112398147583008, 0.03771311417222023, 0.3398211896419525, 0.068617083132267, -0.07581070810556412, -0.029168063774704933, 0.96137535572052, -0.09141688793897629, -0.2546367645263672, 1.47509765625, 1.392333984375, 0.03314208984375, 1.490478515625
112469, 0.019684528931975365, -0.013612408190965652, -0.02422800473868847, 0.00013069651322439313, -0.0003909833903890103, -0.14747679233551025, 0.000775953580159694, -0.0015315191121771932, -0.3396351635456085, -0.7848711013793945, -1.0245224237442017, 0.07497764378786087, -0.05132236616947388, -0.5720656786734253, -12.754304929727214, 9362.0, 30146.0, 35388.0, 9362.0, 8.112398147583008, 0.18707655370235443, 0.2246716171503067, 0.0770312026143074, -0.07710793614387512, -0.02884274534881115, 0.9603582620620728, -0.09141688793897629, -0.2546367645263672, 1.47509765625, 1.352783203125, 0.015350341796875, 1.48974609375
112479, 0.019793612882494926, -0.015256283804774284, -0.024168116971850395, 0.00015496388368774205, -0.0004383217601571232, -0.1578385978937149, 0.0008440276724286377, -0.0016248197061941028, -0.35117265582084656, -0.7848604321479797, -1.024517297744751, 0.07499219477176666, -0.04861154136556713, -0.5770020312671988, -12.757661890514795, 9362.0, 30146.0, 35388.0, 9362.0, 8.112398147583008, 0.13443805277347565, -0.16671934723854065, -0.40196967124938965, -0.07710793614387512, -0.02884274534881115, 0.9603582620620728, -0.09141688793897629, -0.2546367645263672, 1.47509765625, 1.352783203125, 0.015350341796875, 1.4912109375
112489, 0.021373553201556206, -0.013569248840212822, -0.027735019102692604, 0.00015496388368774205, -0.0004383217601571232, -0.1578385978937149, 0.0008440276724286377, -0.0016248197061941028, -0.35117265582084656, -0.7848690152168274, -1.0245141983032227, 0.07497270405292511, -0.049951168279918905, -0.5800058993612822, -12.763482902018445, 9362.0, 30146.0, 35388.0, 9362.0, 8.112398147583008, 0.12291651219129562, -0.18613509833812714, -0.02874114364385605, -0.07710793614387512, -0.02884274534881115, 0.9603582620620728, -0.09141688793897629, -0.2546367645263672, 1.47509765625, 1.352783203125, 0.015350341796875, 1.4912109375
112499, 0.021875007078051567, -0.011710078455507755, -0.029520876705646515, 0.00017230439698323607, -0.00047146674478426576, -0.16493910551071167, 0.0008914808859117329, -0.0016896541928872466, -0.35890838503837585, -0.7848724722862244, -1.0245299339294434, 0.07496539503335953, -0.05454548445963271, -0.5736110401642804, -12.763324074392676, 9362.0, 30146.0, 35388.0, 9362.0, 8.112398147583008, 0.02098662778735161, 0.07845249027013779, 0.10025926679372787, -0.07710793614387512, -0.02884274534881115, 0.9603582620620728, -0.09141688793897629, -0.2546367645263672, 1.47509765625, 1.352783203125, 0.015350341796875, 1.493408203125
112509, 0.022987736389040947, -0.013968133367598057, -0.028448082506656647, 0.00017230439698323607, -0.00047146674478426576, -0.16493910551071167, 0.0008914808859117329, -0.0016896541928872466, -0.35890838503837585, -0.7848724722862244, -1.0245299339294434, 0.07496539503335953, -0.05454548445963271, -0.5736110401642804, -12.763324074392676, 9362.0, 30146.0, 35388.0, 9362.0, 8.112398147583008, -0.16612493991851807, 0.1984170526266098, 0.11659816652536392, -0.07710793614387512, -0.02884274534881115, 0.9603582620620728, -0.09141688793897629, -0.2546367645263672, 1.47509765625, 1.352783203125, 0.015350341796875, 1.493408203125
112519, 0.022554943338036537, -0.015386329032480717, -0.02686435915529728, 0.00019056623568758368, -0.0005059674149379134, -0.1721932291984558, 0.0009330403991043568, -0.0017607734771445394, -0.36644670367240906, -0.784861147403717, -1.024521827697754, 0.07499196380376816, -0.049651200823173716, -0.5673607763522455, -12.766005370868209, 9362.0, 30146.0, 35388.0, 9362.0, 8.112398147583008, -0.06810349225997925, 0.08867890387773514, 0.08028544485569, -0.07710793614387512, -0.02884274534881115, 0.9603582620620728, -0.09141688793897629, -0.2546367645263672, 1.47509765625, 1.352783203125, 0.015350341796875, 1.491943359375
112529, 0.022878499701619148, -0.016954539343714714, -0.02560199797153473, 0.0002000113599933684, -0.0005237641744315624, -0.17587724328041077, 0.0009558890014886856, -0.0017986041493713856, -0.3703550100326538, -0.7848617434501648, -1.0245171785354614, 0.07498148828744888, -0.051874475157254726, -0.5693914360263079, -12.76227721909183, 9362.0, 30146.0, 35388.0, 9362.0, 8.112398147583008, 0.05810627341270447, 0.4424263536930084, -0.09367378056049347, -0.07710793614387512, -0.02884274534881115, 0.9603582620620728, -0.09141688793897629, -0.2546367645263672, 1.47509765625, 1.352783203125, 0.015350341796875, 1.491943359375
112539, 0.0227487925440073, -0.0190903227776289, -0.02641425095498562, 0.0002000113599933684, -0.0005237641744315624, -0.17587724328041077, 0.0009558890014886856, -0.0017986041493713856, -0.3703550100326538, -0.7848650813102722, -1.0245203971862793, 0.07499060034751892, -0.05336031739588527, -0.5745162327716855, -12.761856956881708, 9362.0, 30146.0, 35388.0, 9362.0, 8.112398147583008, 0.08521033823490143, 0.0553782619535923, 0.14859509468078613, -0.07838881760835648, -0.029566071927547455, 0.960644543170929, -0.09141688793897629, -0.2546367645263672, 1.47509765625, 1.352783203125, 0.015350341796875, 1.494873046875
112549, 0.021946066990494728, -0.02004372514784336, -0.02518407627940178, 0.0002000113599933684, -0.0005237641744315624, -0.17587724328041077, 0.0009558890014886856, -0.0017986041493713856, -0.3703550100326538, -0.7848721742630005, -1.0245224237442017, 0.0749719962477684, -0.05365877610389121, -0.5746009828863237, -12.761777448662036, 9362.0, 30146.0, 35388.0, 9362.0, 8.112398147583008, 0.24170763790607452, 0.10526720434427261, 0.13142721354961395, -0.07693532854318619, -0.028502417728304863, 0.9596005082130432, -0.09141688793897629, -0.2546367645263672, 1.47509765625, 1.352783203125, 0.015350341796875, 1.494873046875
112559, 0.02294534258544445, -0.021624300628900528, -0.023422380909323692, 0.0002000113599933684, -0.0005237641744315624, -0.17587724328041077, 0.0009558890014886856, -0.0017986041493713856, -0.3703550100326538, -0.7849434614181519, -1.0245243310928345, 0.07503098994493484, -0.042425392691652714, -0.5987752484312807, -12.706543450576957, 9362.0, 30146.0, 35388.0, 9362.0, 8.112398147583008, -0.12718963623046875, 0.5022386312484741, 0.12073523551225662, -0.07679642736911774, -0.027834085747599602, 0.959879994392395, -0.09141688793897629, -0.2546367645263672, 1.47509765625, 1.352783203125, 0.015350341796875, 1.491943359375
112569, 0.022675810381770134, -0.024824973195791245, -0.021994683891534805, 0.0002404568367637694, -0.0005986893665976822, -0.19100269675254822, 0.0010728905908763409, -0.0019467881647869945, -0.3860055208206177, -0.7848635315895081, -1.0245095491409302, 0.07499268651008606, -0.04780000413872662, -0.5708744106867698, -12.758423828005409, 9362.0, 30146.0, 35388.0, 9362.0, 8.112398147583008, 0.1793884038925171, 0.11327606439590454, -0.16909988224506378, -0.07679642736911774, -0.027834085747599602, 0.959879994392395, -0.09141688793897629, -0.2546367645263672, 1.47509765625, 1.352783203125, 0.015350341796875, 1.491943359375
