timeTick, roll, pitch, yaw, stateX, stateY, stateZ, stateVX, stateVY, stateVZ, otX0, otY0, otZ0, otRoll0, otPitch0, otYaw0, left wing, pitch motor, yaw motor, right wing, voltage, roll rate, pitch rate, yaw rate, A_x, A_y, A_z, current, i_raw, v_raw, airflow_voltage, airflow_speed, pot_Pitch
40274, 0.2562973201274872, -7.4431257247924805, 4.769153594970703, 0, 0, 0, 0, 0, 0, -0.8776758313179016, -1.0448099374771118, 0.052567701786756516, -1.99441837577335, -2.247696759861128, -1.8874538538033694, 0, 0, 0, 0, 0, 0, 0, 0, 0, 0, 0, 0, 0, 0, 0, 0, 0
40284, 0.25614994764328003, -7.443413257598877, 4.7714338302612305, -0.008026869036257267, -0.0003917753929272294, -61.810516357421875, -0.38871198892593384, -0.01897285506129265, -3.173732280731201, -0.8776117563247681, -1.0448685884475708, 0.052680205553770065, -2.0381338478328512, -2.176541598010431, -1.89249845291371, 9362.0, 30146.0, 35388.0, 9362.0, 0, -0.039665862917900085, -0.19559703767299652, -0.1262616068124771, 0, 0, 0, 0, 0, 0, 0, 0, 0
40294, 0.2561197578907013, -7.441590785980225, 4.771203517913818, -0.011850962415337563, -0.0005784308887086809, -61.842262268066406, -0.3761069178581238, -0.01835774816572666, -3.1752893924713135, -0.8776208162307739, -1.0448634624481201, 0.05266950652003288, -2.031089077927039, -2.181477418560945, -1.901958265845761, 9362.0, 30146.0, 35388.0, 9362.0, 0, -0.009035059250891209, 0.09844527393579483, -0.11727789789438248, -0.10672640055418015, -0.05720408260822296, 0.9918686151504517, 0, 0, 0, 1.64208984375, 0.519073486328125, 0
40304, 0.2554500699043274, -7.44145393371582, 4.770973205566406, -0.015549061819911003, -0.0007589341839775443, -61.8740234375, -0.3635129928588867, -0.01774296723306179, -3.1769356727600098, -0.8777019381523132, -1.0447947978973389, 0.052602216601371765, -2.0058086643482333, -2.2311093383028435, -1.897184646858268, 9362.0, 30146.0, 35388.0, 9362.0, 0, 0.22457854449748993, -0.09554842859506607, -0.05366174504160881, -0.10343249142169952, -0.057104915380477905, 0.9947354793548584, 0, 0, 0, 1.07080078125, 1.667816162109375, 1.489013671875
40314, 0.25597313046455383, -7.439820766448975, 4.770483016967773, -0.01912110112607479, -0.0009332843474112451, -61.905799865722656, -0.3508949875831604, -0.017127113416790962, -3.178373336791992, -0.877690315246582, -1.0447986125946045, 0.05262232571840286, -2.000420920226051, -2.2250921713835226, -1.8975065029399385, 9362.0, 30146.0, 35388.0, 9362.0, 0, 0.10199746489524841, 0.14722977578639984, 0.0796552523970604, -0.10266126692295074, -0.05535493791103363, 0.992642879486084, 0, 0, 0, 1.61865234375, 0.461822509765625, 1.489013671875
40324, 0.2554028630256653, -7.439784049987793, 4.771236896514893, -0.022566968575119972, -0.0011014709016308188, -61.937591552734375, -0.33827847242355347, -0.016510313376784325, -3.1798200607299805, -0.8776946663856506, -1.0448094606399536, 0.05258367210626602, -1.9920826501163396, -2.2393542331050185, -1.8853178225501377, 9362.0, 30146.0, 35388.0, 9362.0, 0, -0.0004946732078678906, -0.4766676425933838, -0.023324893787503242, -0.10282561182975769, -0.05736326798796654, 0.989971935749054, 0, 0, 0, 1.573974609375, 0.35626220703125, 1.4912109375
40334, 0.2556147873401642, -7.43724250793457, 4.772305488586426, -0.02588687278330326, -0.0012635048478841782, -61.969398498535156, -0.32570263743400574, -0.015896320343017578, -3.1815576553344727, -0.8777280449867249, -1.0448050498962402, 0.05263769254088402, -1.989352599489438, -2.214318138835381, -1.89392141842881, 9362.0, 30146.0, 35388.0, 9362.0, 0, -0.17632876336574554, -0.03976206108927727, 0.08533546328544617, -0.10343950241804123, -0.058922555297613144, 0.9912827610969543, 0, 0, 0, 1.88671875, 1.3483123779296875, 1.4912109375
40344, 0.2548496723175049, -7.4367780685424805, 4.773553848266602, -0.029081007465720177, -0.0014193926472216845, -62.001224517822266, -0.3131241798400879, -0.015280994586646557, -3.183274030685425, -0.8776752948760986, -1.0448169708251953, 0.0526532307267189, -2.0155638219006273, -2.213459469622819, -1.8954242695488213, 9362.0, 30146.0, 35388.0, 9362.0, 0, 0.1582183986902237, -0.10980961471796036, -0.00011537824320839718, -0.10403299331665039, -0.05754591524600983, 0.9929929375648499, 0, 0, 0, 1.6435546875, 0.5228118896484375, 1.493408203125
40354, 0.25572627782821655, -7.436290264129639, 4.772715091705322, -0.03214925155043602, -0.001569123356603086, -62.03306579589844, -0.30052459239959717, -0.014664868824183941, -3.18479585647583, -0.8776533007621765, -1.0448453426361084, 0.052635788917541504, -2.0060224509210314, -2.225779117172806, -1.8874690517147001, 9362.0, 30146.0, 35388.0, 9362.0, 0, 0.07685023546218872, 0.0036399902310222387, 0.05802419036626816, -0.10271058976650238, -0.05838247016072273, 0.9936093688011169, 0, 0, 0, 1.6201171875, 0.4653778076171875, 1.493408203125
40364, 0.2557676434516907, -7.436480522155762, 4.773441791534424, -0.03509145975112915, -0.0017126831226050854, -62.06492233276367, -0.2879171073436737, -0.014047267846763134, -3.186249256134033, -0.8776838779449463, -1.044804573059082, 0.05259646475315094, -1.9912364212841036, -2.236208869852504, -1.8801647364563383, 9362.0, 30146.0, 35388.0, 9362.0, 0, 0.09804929792881012, 0.08804643899202347, 0.01831836998462677, -0.102804996073246, -0.05737164616584778, 0.9940285086631775, 0, 0, 0, 1.4912109375, 0.178253173828125, 1.49267578125
40374, 0.2564505934715271, -7.437641143798828, 4.77398157119751, -0.03790758550167084, -0.001850075088441372, -62.0967903137207, -0.27530810236930847, -0.01343095675110817, -3.1876871585845947, -0.8776971697807312, -1.0448062419891357, 0.05263163149356842, -2.0039978443405198, -2.230870588189987, -1.9011150293007038, 9362.0, 30146.0, 35388.0, 9362.0, 8.390083312988281, -0.2780049741268158, -0.3350391089916229, 0.09890040755271912, -0.10474877059459686, -0.057116951793432236, 0.9941638708114624, 0, 0, 0, 1.681640625, 0.619354248046875, 1.49267578125
40384, 0.25487998127937317, -7.4355878829956055, 4.775501728057861, -0.04059761390089989, -0.001981303095817566, -62.1286735534668, -0.26269787549972534, -0.01281452551484108, -3.189117193222046, -0.8776421546936035, -1.0449013710021973, 0.05268285050988197, -2.034003515429796, -2.182760136839221, -1.9004632493572016, 9362.0, 30146.0, 35388.0, 9362.0, 8.390083312988281, 0.28086623549461365, 0.14526206254959106, -0.046595390886068344, -0.10265208035707474, -0.05876506119966507, 0.994910717010498, -0.07998032122850418, -0.22775840759277344, 1.477294921875, 1.702880859375, 0.6757049560546875, 1.493408203125
40394, 0.257080078125, -7.436515808105469, 4.776615619659424, -0.04316146671772003, -0.002106368076056242, -62.16057205200195, -0.2500728666782379, -0.012198114767670631, -3.1904492378234863, -0.8777296543121338, -1.0448328256607056, 0.05257624760270119, -1.9992326006924364, -2.2448064239050325, -1.8952802153284192, 9362.0, 30146.0, 35388.0, 9362.0, 8.390083312988281, 0.11685667932033539, 0.0634245052933693, -0.2805979251861572, -0.1014670580625534, -0.058552470058202744, 0.9941806793212891, -0.07998032122850418, -0.22775840759277344, 1.477294921875, 1.01513671875, 2.6573486328125, 1.493408203125
40404, 0.2572776973247528, -7.435699462890625, 4.775513172149658, -0.04559909924864769, -0.0022252558264881372, -62.192481994628906, -0.23745374381542206, -0.011579219251871109, -3.191798210144043, -0.8777509927749634, -1.044852375984192, 0.05267130210995674, -1.989345428842342, -2.2130334178770568, -1.916553129941805, 9362.0, 30146.0, 35388.0, 9362.0, 8.390083312988281, -0.003629848128184676, -0.36462002992630005, 0.16956141591072083, -0.1037556454539299, -0.05799149349331856, 0.99217289686203, -0.07998032122850418, -0.22775840759277344, 1.477294921875, 1.2333984375, 0.2232666015625, 1.49560546875
40414, 0.2572776973247528, -7.434015274047852, 4.777064323425293, -0.04791067913174629, -0.0023379786871373653, -62.22440719604492, -0.2248622179031372, -0.010965590365231037, -3.193373441696167, -0.8777433633804321, -1.0448545217514038, 0.052607372403144836, -1.9814336486180728, -2.2196003381531852, -1.9060013692836761, 9362.0, 30146.0, 35388.0, 9362.0, 8.390083312988281, -0.07604612410068512, -0.13527612388134003, -0.35894012451171875, -0.10159821063280106, -0.05664293095469475, 0.9931181073188782, -0.07998032122850418, -0.22775840759277344, 1.477294921875, 1.657470703125, 0.5576019287109375, 1.49560546875
40424, 0.25613465905189514, -7.433417320251465, 4.774360656738281, -0.050096295773983, -0.0024445659946650267, -62.25634765625, -0.21226085722446442, -0.01035152468830347, -3.1948628425598145, -0.8777591586112976, -1.0448485612869263, 0.05263497307896614, -1.9848202855881896, -2.207498045851395, -1.918709283490436, 9362.0, 30146.0, 35388.0, 9362.0, 8.390083312988281, 0.16491031646728516, 0.09337999671697617, -0.2911428213119507, -0.10207024216651917, -0.056427281349897385, 0.9927433133125305, -0.07998032122850418, -0.22775840759277344, 1.477294921875, 1.609130859375, 0.4388580322265625, 1.493408203125
40434, 0.25680211186408997, -7.433309078216553, 4.771607398986816, -0.05215591564774513, -0.0025450121611356735, -62.28830337524414, -0.19966274499893188, -0.009738302789628506, -3.1963553428649902, -0.8776529431343079, -1.0449321269989014, 0.052691664546728134, -2.0165826513525964, -2.1629197007781613, -1.911982151730857, 9362.0, 30146.0, 35388.0, 9362.0, 8.390083312988281, -0.06648529320955276, 0.2864779531955719, -0.03317193314433098, -0.10323277860879898, -0.05512196570634842, 0.9936993718147278, -0.07998032122850418, -0.22775840759277344, 1.477294921875, 0.491455078125, 39.61518859863281, 1.493408203125
40444, 0.25656813383102417, -7.433835029602051, 4.771419525146484, -0.05408954247832298, -0.002639319049194455, -62.320274353027344, -0.1870628297328949, -0.009123703464865685, -3.197824716567993, -0.8776631355285645, -1.0449224710464478, 0.05269784852862358, -2.014632951897991, -2.1628925851636325, -1.9232358834872174, 9362.0, 30146.0, 35388.0, 9362.0, 8.390083312988281, -0.028551341965794563, 0.08873161673545837, -0.028396001085639, -0.10430886596441269, -0.055420778691768646, 0.9951091408729553, -0.07998032122850418, -0.22775840759277344, 1.477294921875, 1.6728515625, 0.59674072265625, 1.49267578125
40454, 0.2556246817111969, -7.433402061462402, 4.771034240722656, -0.055897057056427, -0.0027274831663817167, -62.35226058959961, -0.17444036900997162, -0.008509179577231407, -3.199120044708252, -0.8777310252189636, -1.0448607206344604, 0.052599962800741196, -1.9798530458386079, -2.2267343542219464, -1.9047178759093735, 9362.0, 30146.0, 35388.0, 9362.0, 8.390083312988281, 0.19562120735645294, -0.12243469804525375, -0.25193536281585693, -0.10404983162879944, -0.056749388575553894, 0.9924184679985046, -0.07998032122850418, -0.22775840759277344, 1.477294921875, 1.673583984375, 0.598541259765625, 1.49267578125
40464, 0.25635066628456116, -7.4327616691589355, 4.769095420837402, -0.05757845938205719, -0.0028095056768506765, -62.38425827026367, -0.1618405133485794, -0.007895415648818016, -3.2005958557128906, -0.877781093120575, -1.0448567867279053, 0.05266407132148743, -1.9971003054037966, -2.2068470157050797, -1.9204906342393042, 9362.0, 30146.0, 35388.0, 9362.0, 8.390083312988281, -0.20274390280246735, 0.0368768610060215, 0.4100102484226227, -0.10298631340265274, -0.057357609272003174, 0.9900806546211243, -0.07998032122850418, -0.22775840759277344, 1.477294921875, 1.60986328125, 0.4406585693359375, 1.49267578125
40474, 0.2554403841495514, -7.433579444885254, 4.77113151550293, -0.059134047478437424, -0.0028853919357061386, -62.4162712097168, -0.149277001619339, -0.007282274309545755, -3.2023446559906006, -0.8777645230293274, -1.0448395013809204, 0.052642740309238434, -1.9857963096123805, -2.2108639462567226, -1.920422029437384, 9362.0, 30146.0, 35388.0, 9362.0, 8.390083312988281, 0.06246820464730263, 0.4494439959526062, -0.0009694276959635317, -0.10394705086946487, -0.05617714673280716, 0.9933913946151733, -0.07998032122850418, -0.22775840759277344, 1.477294921875, 1.072998046875, 1.6350555419921875, 1.49267578125
40484, 0.2556866705417633, -7.437767505645752, 4.771129131317139, -0.060563892126083374, -0.002955150092020631, -62.44830322265625, -0.13669191300868988, -0.0066689010709524155, -3.2039201259613037, -0.8777751922607422, -1.0448572635650635, 0.05266040191054344, -1.989281793830611, -2.2018516617915793, -1.916445102233467, 9362.0, 30146.0, 35388.0, 9362.0, 8.390083312988281, -0.01652221381664276, 0.07113973796367645, -0.1820032149553299, -0.10265390574932098, -0.05797577276825905, 0.993606686592102, -0.0914529338479042, -0.20087814331054688, 1.4794921875, 1.48095703125, 0.1587677001953125, 1.493408203125
40494, 0.2548021376132965, -7.4389214515686035, 4.769402503967285, -0.06186778098344803, -0.0030187591910362244, -62.480350494384766, -0.12408597022294998, -0.006052922923117876, -3.205345392227173, -0.8777496814727783, -1.0448640584945679, 0.05260998383164406, -1.9827022701315695, -2.2156835784164457, -1.9061285292010288, 9362.0, 30146.0, 35388.0, 9362.0, 8.390083312988281, -0.15502774715423584, 0.23123838007450104, 0.02043379284441471, -0.1032547801733017, -0.05424697697162628, 0.9918033480644226, -0.0914529338479042, -0.20087814331054688, 1.4794921875, 1.47216796875, 0.142547607421875, 1.493408203125
40504, 0.25402215123176575, -7.440258502960205, 4.768796920776367, -0.06304571032524109, -0.003076214110478759, -62.512413024902344, -0.11149968206882477, -0.005438454449176788, -3.2069756984710693, -0.8776580095291138, -1.0449104309082031, 0.052698276937007904, -2.0199823098268914, -2.164468445760889, -1.9116136736344502, 9362.0, 30146.0, 35388.0, 9362.0, 8.390083312988281, -0.07724802941083908, -0.08245712518692017, -0.3091239631175995, -0.10284978896379471, -0.056746672838926315, 0.9922149181365967, -0.0914529338479042, -0.20087814331054688, 1.4794921875, 1.119873046875, 1.0350341796875, 1.49267578125
40514, 0.2531072795391083, -7.440817832946777, 4.766996383666992, -0.06409776210784912, -0.003127517644315958, -62.544490814208984, -0.09890992939472198, -0.0048223803751170635, -3.208594799041748, -0.877817690372467, -1.0448665618896484, 0.05259411036968231, -1.99206196553386, -2.239468791554941, -1.8569817714962265, 9362.0, 30146.0, 35388.0, 9362.0, 8.390083312988281, 0.27360302209854126, -0.2629258632659912, -0.027078749611973763, -0.10357283800840378, -0.05703219771385193, 0.9931383728981018, -0.0914529338479042, -0.20087814331054688, 1.4794921875, 1.235595703125, 0.214599609375, 1.49267578125
40524, 0.25417038798332214, -7.439894199371338, 4.766406059265137, -0.06502383947372437, -0.0031726504676043987, -62.57658386230469, -0.08630560338497162, -0.004204583819955587, -3.210118293762207, -0.8777943849563599, -1.0448580980300903, 0.05262346193194389, -1.9824722846140923, -2.243168655851605, -1.8437473768601882, 9362.0, 30146.0, 35388.0, 9362.0, 8.390083312988281, -0.22397780418395996, -0.3483807146549225, -0.2704457938671112, -0.10423518717288971, -0.05777614191174507, 0.993766188621521, -0.0914529338479042, -0.20087814331054688, 1.4794921875, 0.6708984375, 19.2847900390625, 1.494873046875
40534, 0.25252994894981384, -7.4381422996521, 4.764327049255371, -0.06582382321357727, -0.003211596980690956, -62.60869216918945, -0.07369095832109451, -0.0035848303232342005, -3.211569309234619, -0.8778364062309265, -1.044850468635559, 0.05263388901948929, -1.9914964635747483, -2.2219256843455355, -1.8609903698758918, 9362.0, 30146.0, 35388.0, 9362.0, 8.390083312988281, -0.1180252879858017, 0.02595311403274536, 0.2597320079803467, -0.10589507222175598, -0.05640461668372154, 0.9936771988868713, -0.0914529338479042, -0.20087814331054688, 1.4794921875, 0.99169921875, 3.17413330078125, 1.494873046875
40544, 0.2525928020477295, -7.439970016479492, 4.764564037322998, -0.06649765372276306, -0.003244355320930481, -62.64081573486328, -0.061074741184711456, -0.002967302454635501, -3.2129971981048584, -0.8778326511383057, -1.0448660850524902, 0.05263867974281311, -1.9963318843627773, -2.2330756931272617, -1.864211668273784, 9362.0, 30146.0, 35388.0, 9362.0, 8.390083312988281, 0.04870324581861496, 0.06370806694030762, 0.0014036045176908374, -0.1023157462477684, -0.056185055524110794, 0.9921250939369202, -0.0914529338479042, -0.20087814331054688, 1.4794921875, 1.135986328125, 0.8693389892578125, 1.487548828125
40554, 0.2537088990211487, -7.4424638748168945, 4.763760566711426, -0.0670454204082489, -0.003270932240411639, -62.67295455932617, -0.04847864434123039, -0.0023480341769754887, -3.2145540714263916, -0.8777530193328857, -1.0449233055114746, 0.05272173136472702, -2.024369065067586, -2.176876077183664, -1.8656243389862295, 9362.0, 30146.0, 35388.0, 9362.0, 8.390083312988281, 3.189664494129829e-05, 0.24496643245220184, -0.2543598413467407, -0.10137224942445755, -0.05834200233221054, 0.9900301694869995, -0.0914529338479042, -0.20087814331054688, 1.4794921875, 1.5205078125, 0.237762451171875, 1.487548828125
40564, 0.2534225881099701, -7.444582939147949, 4.763027667999268, -0.0674673467874527, -0.003291322151198983, -62.705108642578125, -0.03590627387166023, -0.001730108866468072, -3.2163171768188477, -0.87781822681427, -1.0448635816574097, 0.05262954160571098, -1.9939651953385797, -2.2233457208031098, -1.8658567142249234, 9362.0, 30146.0, 35388.0, 9362.0, 8.390083312988281, 0.13522444665431976, 0.08832889795303345, 0.2395292967557907, -0.10394513607025146, -0.05595037341117859, 0.9918521046638489, -0.0914529338479042, -0.20087814331054688, 1.4794921875, 1.163818359375, 0.6264495849609375, 1.4912109375
40574, 0.25366225838661194, -7.4443182945251465, 4.7636399269104, -0.06776347011327744, -0.003305538324639201, -62.737281799316406, -0.0233177300542593, -0.0011133061489090323, -3.2179903984069824, -0.8778125047683716, -1.0448745489120483, 0.052585169672966, -1.9820816711670879, -2.2489161381718077, -1.8398617088593614, 9362.0, 30146.0, 35388.0, 9362.0, 8.390083312988281, -0.20512141287326813, 0.015019462443888187, 0.3500747084617615, -0.1048484668135643, -0.053787291049957275, 0.9955582618713379, -0.0914529338479042, -0.20087814331054688, 1.4794921875, 1.642822265625, 0.5209503173828125, 1.4912109375
40584, 0.2531414330005646, -7.4445977210998535, 4.765784740447998, -0.06793346256017685, -0.0033135723788291216, -62.76947021484375, -0.010680322535336018, -0.0004933635937049985, -3.2193164825439453, -0.8778298497200012, -1.0448564291000366, 0.05262378603219986, -1.9942752853123469, -2.2259184141241803, -1.863524270140969, 9362.0, 30146.0, 35388.0, 9362.0, 8.390083312988281, 0.230748251080513, -0.048174209892749786, -0.13147760927677155, -0.10363529622554779, -0.053520433604717255, 0.9930168390274048, -0.11045856773853302, -0.01271820068359375, 1.494873046875, 1.59375, 0.4024658203125, 1.490478515625
40594, 0.2546434998512268, -7.445487976074219, 4.76563024520874, -0.06797715276479721, -0.003315411973744631, -62.80167007446289, 0.0019421031465753913, 0.00012590389815159142, -3.2207541465759277, -0.8777673244476318, -1.0448917150497437, 0.052619144320487976, -1.9985252091890502, -2.229177241898725, -1.856747325866607, 9362.0, 30146.0, 35388.0, 9362.0, 8.390083312988281, -0.03689143806695938, -0.18179714679718018, 0.053765326738357544, -0.10208339989185333, -0.05477582663297653, 0.9931467771530151, -0.11045856773853302, -0.01271820068359375, 1.494873046875, 0.896484375, 6.0094451904296875, 1.490478515625
40604, 0.2543811798095703, -7.445990085601807, 4.76710319519043, -0.06789466738700867, -0.0033110545482486486, -62.833885192871094, 0.014554579742252827, 0.00074554089223966, -3.2222707271575928, -0.8777904510498047, -1.0448757410049438, 0.05258684977889061, -1.9855555908523668, -2.2430069318143353, -1.8551063431976818, 9362.0, 30146.0, 35388.0, 9362.0, 8.390083312988281, -0.007452072575688362, -0.266675740480423, 0.11353347450494766, -0.10127333551645279, -0.05684765428304672, 0.994223952293396, -0.11045856773853302, -0.01271820068359375, 1.494873046875, 0.856201171875, 7.624542236328125, 1.48828125
40614, 0.2540163993835449, -7.445813179016113, 4.768670082092285, -0.06768598407506943, -0.003300509648397565, -62.86611557006836, 0.027182316407561302, 0.0013637536903843284, -3.223684072494507, -0.8778470158576965, -1.044877052307129, 0.052627746015787125, -1.9921079053812716, -2.232497036149823, -1.855791183186402, 9362.0, 30146.0, 35388.0, 9362.0, 8.390083312988281, -0.11022470891475677, -0.15122587978839874, -0.04144050180912018, -0.10356443375349045, -0.05646248906850815, 0.9933508038520813, -0.11045856773853302, -0.01271820068359375, 1.494873046875, 1.650146484375, 0.539215087890625, 1.48828125
40624, 0.2538958489894867, -7.4445319175720215, 4.7689056396484375, -0.06735102087259293, -0.0032837786711752415, -62.89836120605469, 0.03981054574251175, 0.00198280718177557, -3.225099802017212, -0.8778045773506165, -1.0448644161224365, 0.05258039012551308, -1.9836318692797565, -2.2476078487644315, -1.8576454794013508, 9362.0, 30146.0, 35388.0, 9362.0, 8.390083312988281, -0.032571010291576385, 0.016720164567232132, 0.11662682890892029, -0.10384389013051987, -0.05673357844352722, 0.9915277361869812, -0.11045856773853302, -0.01271820068359375, 1.494873046875, 1.634765625, 0.5010528564453125, 1.490478515625
40634, 0.2536837160587311, -7.442807197570801, 4.769694805145264, -0.06688988953828812, -0.00326085789129138, -62.93061828613281, 0.052415840327739716, 0.0026013960596174, -3.226689100265503, -0.8778221011161804, -1.0448625087738037, 0.052636973559856415, -1.9973348574877186, -2.22483494172684, -1.8631040544148325, 9362.0, 30146.0, 35388.0, 9362.0, 8.390083312988281, 0.22667190432548523, 0.2247275710105896, 0.05110805481672287, -0.10380596667528152, -0.05786147713661194, 0.9942416548728943, -0.11045856773853302, -0.01271820068359375, 1.494873046875, 1.609130859375, 0.4388580322265625, 1.490478515625
40644, 0.25384169816970825, -7.442976951599121, 4.769552230834961, -0.06630260497331619, -0.003231745446100831, -62.962890625, 0.06504040211439133, 0.003221247810870409, -3.22811222076416, -0.8778094053268433, -1.0448633432388306, 0.05258459597826004, -1.9831884087129585, -2.2438142466680517, -1.8451659217595373, 9362.0, 30146.0, 35388.0, 9362.0, 8.390083312988281, 0.22667190432548523, 0.2247275710105896, 0.05110805481672287, -0.10436014086008072, -0.05531251057982445, 0.9949451088905334, -0.11045856773853302, -0.01271820068359375, 1.494873046875, 0.322265625, 70.26628875732422, 1.4912109375
40654, 0.25344568490982056, -7.439846515655518, 4.771251201629639, -0.06630260497331619, -0.003231745446100831, -62.962890625, 0.06504040211439133, 0.003221247810870409, -3.22811222076416, -0.8778344392776489, -1.0448651313781738, 0.05263525992631912, -1.9886298587697886, -2.224966023004299, -1.861589483270894, 9362.0, 30146.0, 35388.0, 9362.0, 8.390083312988281, 0.018429912626743317, 0.3311082422733307, 0.2994292080402374, -0.10436014086008072, -0.05531251057982445, 0.9949451088905334, -0.11045856773853302, -0.01271820068359375, 1.494873046875, 0.322265625, 70.26628875732422, 1.4912109375
40674, 0.25172707438468933, -7.438936233520508, 4.774171829223633, -0.06630260497331619, -0.003231745446100831, -62.962890625, 0.06504040211439133, 0.003221247810870409, -3.22811222076416, -0.8777936100959778, -1.0448728799819946, 0.05258961766958237, -1.9842595835829395, -2.2377388222685397, -1.8549302869264657, 9362.0, 30146.0, 35388.0, 9362.0, 8.390083312988281, -0.17090949416160583, -0.2893586754798889, 0.23657366633415222, -0.10436014086008072, -0.05531251057982445, 0.9949451088905334, -0.11045856773853302, -0.01271820068359375, 1.494873046875, 0.322265625, 70.26628875732422, 1.490478515625
40684, 0.2507762312889099, -7.438968658447266, 4.774878978729248, -0.06630260497331619, -0.003231745446100831, -62.962890625, 0.06504040211439133, 0.003221247810870409, -3.22811222076416, -0.877842128276825, -1.0448696613311768, 0.05261823534965515, -1.9863927586898693, -2.23287434755116, -1.8525569602404612, 9362.0, 30146.0, 35388.0, 9362.0, 8.390083312988281, -0.17090949416160583, -0.2893586754798889, 0.23657366633415222, -0.10436014086008072, -0.05531251057982445, 0.9949451088905334, -0.11045856773853302, -0.01271820068359375, 1.494873046875, 0.322265625, 70.26628875732422, 1.496337890625
40694, 0.25104326009750366, -7.437652111053467, 4.77347469329834, -0.06630260497331619, -0.003231745446100831, -62.962890625, 0.06504040211439133, 0.003221247810870409, -3.22811222076416, -0.8778390288352966, -1.0448830127716064, 0.05262327566742897, -1.9923092645842686, -2.2306819435359557, -1.860229508661008, 9362.0, 30146.0, 35388.0, 9362.0, 8.390083312988281, -0.09780718386173248, -0.27440333366394043, -0.026342010125517845, -0.10436014086008072, -0.05531251057982445, 0.9949451088905334, -0.11045856773853302, -0.01271820068359375, 1.494873046875, 0.322265625, 70.26628875732422, 1.496337890625
40704, 0.25081780552864075, -7.434182167053223, 4.772454738616943, -0.06630260497331619, -0.003231745446100831, -62.962890625, 0.06504040211439133, 0.003221247810870409, -3.22811222076416, -0.8777604699134827, -1.0449399948120117, 0.05271436274051666, -2.0254883301191677, -2.166197500684035, -1.8648949641298025, 9362.0, 30146.0, 35388.0, 9362.0, 8.390083312988281, -0.09780718386173248, -0.27440333366394043, -0.026342010125517845, -0.10436014086008072, -0.05531251057982445, 0.9949451088905334, -0.11045856773853302, -0.01271820068359375, 1.494873046875, 0.322265625, 70.26628875732422, 1.48828125
40714, 0.25010836124420166, -7.431835174560547, 4.772124290466309, -0.06630260497331619, -0.003231745446100831, -62.962890625, 0.06504040211439133, 0.003221247810870409, -3.22811222076416, -0.8777577877044678, -1.044936180114746, 0.05271713435649872, -2.0297827543044, -2.1621814145480016, -1.8681246146609132, 9362.0, 30146.0, 35388.0, 9362.0, 8.390083312988281, -0.07909984886646271, -0.3008861243724823, 0.03787478432059288, -0.10436014086008072, -0.05531251057982445, 0.9949451088905334, -0.11045856773853302, -0.01271820068359375, 1.494873046875, 0.322265625, 70.26628875732422, 1.48828125
40724, 0.2502303719520569, -7.430181503295898, 4.772026538848877, -0.06630260497331619, -0.003231745446100831, -62.962890625, 0.06504040211439133, 0.003221247810870409, -3.22811222076416, -0.8777750730514526, -1.0449053049087524, 0.05261591076850891, -2.0014972028548703, -2.227657171852087, -1.8605855903488548, 9362.0, 30146.0, 35388.0, 9362.0, 8.390083312988281, -0.07909984886646271, -0.3008861243724823, 0.03787478432059288, -0.10436014086008072, -0.05531251057982445, 0.9949451088905334, -0.11045856773853302, -0.01271820068359375, 1.494873046875, 0.322265625, 70.26628875732422, 1.49560546875
40734, 0.24904413521289825, -7.432701110839844, 4.77360200881958, -0.06630260497331619, -0.003231745446100831, -62.962890625, 0.06504040211439133, 0.003221247810870409, -3.22811222076416, -0.8778384327888489, -1.0448687076568604, 0.05264262482523918, -1.9920734768045358, -2.2315920291668476, -1.8579213413112103, 9362.0, 30146.0, 35388.0, 9362.0, 8.390083312988281, 0.09993066638708115, -0.14919094741344452, -0.1768469214439392, -0.10436014086008072, -0.05531251057982445, 0.9949451088905334, -0.11045856773853302, -0.01271820068359375, 1.494873046875, 0.322265625, 70.26628875732422, 1.49560546875
40764, 0.2478816956281662, -7.429688930511475, 4.773121356964111, -0.06630260497331619, -0.003231745446100831, -62.962890625, 0.06504040211439133, 0.003221247810870409, -3.22811222076416, -0.8778407573699951, -1.0448659658432007, 0.052622269839048386, -1.997294099156204, -2.2255532141791434, -1.8704968126173611, 9362.0, 30146.0, 35388.0, 9362.0, 8.390083312988281, 0.09993066638708115, -0.14919094741344452, -0.1768469214439392, -0.10436014086008072, -0.05531251057982445, 0.9949451088905334, -0.11045856773853302, -0.01271820068359375, 1.494873046875, 1.423095703125, 0.06591796875, 1.491943359375
40774, 0.24691617488861084, -7.429797172546387, 4.774322986602783, -0.06630260497331619, -0.003231745446100831, -62.962890625, 0.06504040211439133, 0.003221247810870409, -3.22811222076416, -0.8777658343315125, -1.0449320077896118, 0.052747055888175964, -2.0221151526347354, -2.1686046591087234, -1.8716416852341387, 9362.0, 30146.0, 35388.0, 9362.0, 8.390083312988281, 0.09993066638708115, -0.14919094741344452, -0.1768469214439392, -0.10436014086008072, -0.05531251057982445, 0.9949451088905334, -0.11045856773853302, -0.01271820068359375, 1.494873046875, 1.423095703125, 0.06591796875, 1.491943359375
40784, 0.24849632382392883, -7.430808067321777, 4.772977352142334, -0.06630260497331619, -0.003231745446100831, -62.962890625, 0.06504040211439133, 0.003221247810870409, -3.22811222076416, -0.877827525138855, -1.0448675155639648, 0.05266693979501724, -1.989714944540255, -2.2262688969742896, -1.8638727405992672, 9362.0, 30146.0, 35388.0, 9362.0, 8.390083312988281, 0.09993066638708115, -0.14919094741344452, -0.1768469214439392, -0.10436014086008072, -0.05531251057982445, 0.9949451088905334, -0.11045856773853302, -0.01271820068359375, 1.494873046875, 1.423095703125, 0.06591796875, 1.491943359375
40794, 0.2488650232553482, -7.4313273429870605, 4.775218486785889, -0.06630260497331619, -0.003231745446100831, -62.962890625, 0.06504040211439133, 0.003221247810870409, -3.22811222076416, -0.8777183294296265, -1.0449275970458984, 0.052700355648994446, -2.0162408910306233, -2.1841869755212144, -1.8535394100443905, 9362.0, 30146.0, 35388.0, 9362.0, 8.390083312988281, 0.17536605894565582, -0.14097698032855988, 0.0952078327536583, -0.10436014086008072, -0.05531251057982445, 0.9949451088905334, -0.11045856773853302, -0.01271820068359375, 1.494873046875, 1.423095703125, 0.06591796875, 1.491943359375
40824, 0.2485402673482895, -7.43427038192749, 4.775506496429443, -0.034182533621788025, -0.0016427119262516499, -63.546390533447266, 0.2917775511741638, 0.014463245868682861, -3.255262613296509, -0.8777403831481934, -1.0449351072311401, 0.052678897976875305, -2.0185029170074658, -2.184109713639856, -1.8540625582210497, 9362.0, 30146.0, 35388.0, 9362.0, 8.390083312988281, -0.25181323289871216, -0.0447264239192009, 0.09563246369361877, -0.10436014086008072, -0.05531251057982445, 0.9949451088905334, -0.11045856773853302, -0.01271820068359375, 1.494873046875, 1.294921875, 0.0565948486328125, 1.49560546875
40834, 0.24874107539653778, -7.433526039123535, 4.774759769439697, -0.034182533621788025, -0.0016427119262516499, -63.546390533447266, 0.2917775511741638, 0.014463245868682861, -3.255262613296509, -0.8777424693107605, -1.0449293851852417, 0.05274847149848938, -2.027775904861179, -2.1641376509069516, -1.867873390030242, 9362.0, 30146.0, 35388.0, 9362.0, 8.390083312988281, -0.030310416594147682, 0.05608779564499855, 0.19412170350551605, -0.10436014086008072, -0.05531251057982445, 0.9949451088905334, -0.11045856773853302, -0.01271820068359375, 1.494873046875, 1.294921875, 0.0565948486328125, 1.49560546875
40844, 0.2487235963344574, -7.433711051940918, 4.775404453277588, -0.028094902634620667, -0.0013409147504717112, -63.61152267456055, 0.31698787212371826, 0.015717746689915657, -3.2581307888031006, -0.8778531551361084, -1.0448540449142456, 0.05263075977563858, -1.995157641315888, -2.2276615702956803, -1.8634593060056934, 9362.0, 30146.0, 35388.0, 9362.0, 8.390083312988281, -0.12549254298210144, 0.05639808997511864, 0.20519636571407318, -0.10446809232234955, -0.056952208280563354, 0.9931462407112122, -0.11045856773853302, -0.01271820068359375, 1.494873046875, 1.253173828125, 0.15313720703125, 1.49560546875
40854, 0.24811141192913055, -7.434401988983154, 4.776301383972168, -0.028094902634620667, -0.0013409147504717112, -63.61152267456055, 0.31698787212371826, 0.015717746689915657, -3.2581307888031006, -0.8777535557746887, -1.0449258089065552, 0.05272578448057175, -2.0240178185812043, -2.167833232301632, -1.8639455666274476, 9362.0, 30146.0, 35388.0, 9362.0, 8.390083312988281, 0.20425090193748474, 0.04660669341683388, -0.0036964798346161842, -0.10398540645837784, -0.057564906775951385, 0.9932085275650024, -0.11045856773853302, -0.01271820068359375, 1.494873046875, 1.023193359375, 2.494110107421875, 1.49560546875
40864, 0.24910421669483185, -7.435632228851318, 4.775752544403076, -0.02150319702923298, -0.0010140021331608295, -63.67671585083008, 0.3421802520751953, 0.01697368174791336, -3.261115312576294, -0.8777800798416138, -1.0448970794677734, 0.05263902246952057, -1.997415148009258, -2.2264955226187624, -1.8531591927280913, 9362.0, 30146.0, 35388.0, 9362.0, 8.390083312988281, -0.09793407469987869, 0.09950682520866394, 0.05722425505518913, -0.1031106486916542, -0.055262744426727295, 0.9932249188423157, -0.11045856773853302, -0.01271820068359375, 1.494873046875, 1.20849609375, 0.3375701904296875, 1.49267578125
40874, 0.24813807010650635, -7.436369895935059, 4.775665283203125, -0.018018405884504318, -0.0008411191520281136, -63.70933532714844, 0.35477787256240845, 0.017602790147066116, -3.262605667114258, -0.8777826428413391, -1.0448976755142212, 0.05264308303594589, -1.9953500091417482, -2.225316489297711, -1.856777521787475, 9362.0, 30146.0, 35388.0, 9362.0, 8.390083312988281, 0.1026991456747055, -0.16775956749916077, 0.021606167778372765, -0.10477006435394287, -0.05577170103788376, 0.9929908514022827, -0.11045856773853302, -0.01271820068359375, 1.494873046875, 1.2392578125, 0.20068359375, 1.49267578125
40884, 0.24880029261112213, -7.436033248901367, 4.775769233703613, -0.014407605864107609, -0.0006619521300308406, -63.74197006225586, 0.36738210916519165, 0.018230604007840157, -3.264063596725464, -0.8778080344200134, -1.0448960065841675, 0.05266973748803139, -2.008634101916667, -2.2096218994853416, -1.864244229617234, 9362.0, 30146.0, 35388.0, 9362.0, 8.390083312988281, -0.07088086009025574, -0.5497277975082397, -0.14599640667438507, -0.10500749200582504, -0.056617069989442825, 0.9924702644348145, -0.06665235757827759, -0.15607833862304688, 1.483154296875, 1.5205078125, 0.237762451171875, 1.49267578125
40894, 0.24868644773960114, -7.432764053344727, 4.774770736694336, -0.010670838877558708, -0.00047650240594521165, -63.774620056152344, 0.3799714148044586, 0.018859367817640305, -3.2656450271606445, -0.8778392672538757, -1.0448658466339111, 0.0526459626853466, -1.9963041300133755, -2.229735263303496, -1.862661387318529, 9362.0, 30146.0, 35388.0, 9362.0, 8.390083312988281, 0.06819313764572144, -0.17879702150821686, 0.21397627890110016, -0.10211595147848129, -0.057684190571308136, 0.9929105639457703, -0.06665235757827759, -0.15607833862304688, 1.483154296875, 1.693359375, 0.650238037109375, 1.49267578125
40904, 0.2496272623538971, -7.430739879608154, 4.776632308959961, -0.006808131467550993, -0.00028476829174906015, -63.80728530883789, 0.39256998896598816, 0.01948724128305912, -3.267150402069092, -0.8778060674667358, -1.044872760772705, 0.05261460691690445, -1.9884940603545367, -2.238258335335786, -1.8507773884577232, 9362.0, 30146.0, 35388.0, 9362.0, 8.390083312988281, -0.1111605167388916, 0.22794297337532043, 0.25209230184555054, -0.10200393944978714, -0.05728358402848244, 0.9922059774398804, -0.06665235757827759, -0.15607833862304688, 1.483154296875, 1.097900390625, 1.2933502197265625, 1.493408203125
40914, 0.24902085959911346, -7.430881500244141, 4.779342174530029, -0.0028194887563586235, -8.67589988047257e-05, -63.8399658203125, 0.405158668756485, 0.020115027204155922, -3.2686891555786133, -0.8778001070022583, -1.044870138168335, 0.05262753367424011, -1.9870236001432644, -2.248814246262043, -1.8502852978714208, 9362.0, 30146.0, 35388.0, 9362.0, 8.390083312988281, -0.04685716703534126, 0.172325998544693, 0.11650946736335754, -0.1020057275891304, -0.05663658306002617, 0.991298258304596, -0.06665235757827759, -0.15607833862304688, 1.483154296875, 1.097900390625, 1.2933502197265625, 1.493408203125
40934, 0.2484726905822754, -7.428033351898193, 4.780509948730469, 0.0012949490919709206, 0.00011751703277695924, -63.87266159057617, 0.41772881150245667, 0.020740771666169167, -3.2703442573547363, -0.8778319954872131, -1.0448662042617798, 0.052650801837444305, -1.997386539477728, -2.2248710247566237, -1.859614849911618, 9362.0, 30146.0, 35388.0, 9362.0, 8.390083312988281, -0.06503395736217499, -0.3072945773601532, 0.08538220822811127, -0.10466990619897842, -0.05550077185034752, 0.9927268028259277, -0.06665235757827759, -0.15607833862304688, 1.483154296875, 1.097900390625, 1.2933502197265625, 1.48974609375
40944, 0.24790269136428833, -7.426853656768799, 4.782602787017822, 0.009901228360831738, 0.0005448885494843125, -63.9380989074707, 0.44291216135025024, 0.021997079253196716, -3.273324728012085, -0.8778069019317627, -1.0448733568191528, 0.05261624976992607, -1.9895047309713068, -2.242622217724687, -1.853060633318015, 9362.0, 30146.0, 35388.0, 9362.0, 8.390083312988281, -0.06503395736217499, -0.3072945773601532, 0.08538220822811127, -0.10466990619897842, -0.05550077185034752, 0.9927268028259277, -0.06665235757827759, -0.15607833862304688, 1.483154296875, 0.840087890625, 8.3499755859375, 1.4912109375
40954, 0.2468613237142563, -7.427098751068115, 4.783342361450195, 0.009901228360831738, 0.0005448885494843125, -63.9380989074707, 0.44291216135025024, 0.021997079253196716, -3.273324728012085, -0.8778141140937805, -1.0448813438415527, 0.05263327434659004, -1.9820070373490584, -2.249361618510676, -1.8535722334424383, 9362.0, 30146.0, 35388.0, 9362.0, 8.390083312988281, 0.11558667570352554, -0.1734023094177246, 0.24739092588424683, -0.10466990619897842, -0.05550077185034752, 0.9927268028259277, -0.06665235757827759, -0.15607833862304688, 1.483154296875, 1.56884765625, 0.3444366455078125, 1.4912109375
40964, 0.2479199767112732, -7.426445484161377, 4.785144329071045, 0.009901228360831738, 0.0005448885494843125, -63.9380989074707, 0.44291216135025024, 0.021997079253196716, -3.273324728012085, -0.8777361512184143, -1.0449365377426147, 0.05271202325820923, -2.0194617984994454, -2.1853571236910057, -1.8577502750927166, 9362.0, 30146.0, 35388.0, 9362.0, 8.390083312988281, 0.1769622415304184, -0.27886971831321716, 0.05027191713452339, -0.10466990619897842, -0.05550077185034752, 0.9927268028259277, -0.06665235757827759, -0.15607833862304688, 1.483154296875, 1.56884765625, 0.3444366455078125, 1.497802734375
40984, 0.24776840209960938, -7.421812057495117, 4.787552833557129, 0.009901228360831738, 0.0005448885494843125, -63.9380989074707, 0.44291216135025024, 0.021997079253196716, -3.273324728012085, -0.877835750579834, -1.0448716878890991, 0.052657753229141235, -1.9903165334498827, -2.2288842104996434, -1.864551029460172, 9362.0, 30146.0, 35388.0, 9362.0, 8.390083312988281, 0.023219797760248184, -0.24334175884723663, -0.34169507026672363, -0.10466990619897842, -0.05550077185034752, 0.9927268028259277, -0.06665235757827759, -0.15607833862304688, 1.483154296875, 1.56884765625, 0.3444366455078125, 1.486083984375
40994, 0.24700915813446045, -7.420106887817383, 4.7856340408325195, 0.009901228360831738, 0.0005448885494843125, -63.9380989074707, 0.44291216135025024, 0.021997079253196716, -3.273324728012085, -0.8777616024017334, -1.0449398756027222, 0.05274232476949692, -2.0271860209654977, -2.177238557378189, -1.8609459205978358, 9362.0, 30146.0, 35388.0, 9362.0, 8.390083312988281, -0.24756847321987152, -0.16973625123500824, 0.21570487320423126, -0.10466990619897842, -0.05550077185034752, 0.9927268028259277, -0.06665235757827759, -0.15607833862304688, 1.483154296875, 1.500732421875, 0.1970977783203125, 1.486083984375
41004, 0.2479032427072525, -7.420124053955078, 4.787381172180176, 0.009901228360831738, 0.0005448885494843125, -63.9380989074707, 0.44291216135025024, 0.021997079253196716, -3.273324728012085, -0.8777960538864136, -1.0448633432388306, 0.05261170119047165, -1.9856608479854805, -2.243660104053447, -1.854479609532843, 9362.0, 30146.0, 35388.0, 9362.0, 8.390083312988281, -0.24756847321987152, -0.16973625123500824, 0.21570487320423126, -0.10555150359869003, -0.0552559457719326, 0.9934669137001038, -0.06665235757827759, -0.15607833862304688, 1.483154296875, 1.500732421875, 0.1970977783203125, 1.489013671875
41014, 0.24835433065891266, -7.422659873962402, 4.786682605743408, 0.009901228360831738, 0.0005448885494843125, -63.9380989074707, 0.44291216135025024, 0.021997079253196716, -3.273324728012085, -0.8778478503227234, -1.044869303703308, 0.05265980586409569, -1.9921664091410218, -2.2296073865583708, -1.8703811701044513, 9362.0, 30146.0, 35388.0, 9362.0, 8.390083312988281, -0.03162404149770737, -0.06816258281469345, 0.14956600964069366, -0.10555150359869003, -0.0552559457719326, 0.9934669137001038, -0.06665235757827759, -0.15607833862304688, 1.483154296875, 1.135986328125, 0.8693389892578125, 1.489013671875
41024, 0.24876008927822113, -7.42188024520874, 4.787790298461914, 0.009901228360831738, 0.0005448885494843125, -63.9380989074707, 0.44291216135025024, 0.021997079253196716, -3.273324728012085, -0.87774658203125, -1.0449318885803223, 0.05274875462055206, -2.0267473057541987, -2.1764300096374996, -1.872346243344762, 9362.0, 30146.0, 35388.0, 9362.0, 8.390083312988281, -0.03162404149770737, -0.06816258281469345, 0.14956600964069366, -0.10555150359869003, -0.0552559457719326, 0.9934669137001038, -0.06665235757827759, -0.15607833862304688, 1.483154296875, 1.135986328125, 0.8693389892578125, 1.49560546875
41034, 0.24847130477428436, -7.420336723327637, 4.789422512054443, 0.009901228360831738, 0.0005448885494843125, -63.9380989074707, 0.44291216135025024, 0.021997079253196716, -3.273324728012085, -0.8777977228164673, -1.0448664426803589, 0.05260736867785454, -1.9817656228531892, -2.248880479571085, -1.8473469894898815, 9362.0, 30146.0, 35388.0, 9362.0, 8.390083312988281, 0.0700276792049408, -0.35599780082702637, -0.1372031420469284, -0.10555150359869003, -0.0552559457719326, 0.9934669137001038, -0.06665235757827759, -0.15607833862304688, 1.483154296875, 1.135986328125, 0.8693389892578125, 1.49560546875
41044, 0.24852484464645386, -7.4183502197265625, 4.788471221923828, 0.009901228360831738, 0.0005448885494843125, -63.9380989074707, 0.44291216135025024, 0.021997079253196716, -3.273324728012085, -0.8778282403945923, -1.0448682308197021, 0.05265023931860924, -1.9958001843710496, -2.2327024882694104, -1.8642771853056517, 9362.0, 30146.0, 35388.0, 9362.0, 8.390083312988281, 0.16153009235858917, -0.27105727791786194, -0.08819597214460373, -0.10555150359869003, -0.0552559457719326, 0.9934669137001038, -0.06665235757827759, -0.15607833862304688, 1.483154296875, 1.135986328125, 0.8693389892578125, 1.49267578125
41054, 0.2487318366765976, -7.416487216949463, 4.788044452667236, 0.009901228360831738, 0.0005448885494843125, -63.9380989074707, 0.44291216135025024, 0.021997079253196716, -3.273324728012085, -0.8778389096260071, -1.0448625087738037, 0.05266661196947098, -1.993905873875234, -2.2314368109493614, -1.8644277888823115, 9362.0, 30146.0, 35388.0, 9362.0, 8.390083312988281, -0.16904625296592712, 0.1771572232246399, 0.07216481119394302, -0.10555150359869003, -0.0552559457719326, 0.9934669137001038, -0.06665235757827759, -0.15607833862304688, 1.483154296875, 1.1572265625, 0.67919921875, 1.49267578125
41064, 0.24729904532432556, -7.4169440269470215, 4.788821220397949, 0.0721074566245079, 0.0036382311955094337, -64.33196258544922, 0.5938582420349121, 0.02955763228237629, -3.2911696434020996, -0.8777493238449097, -1.0449140071868896, 0.052781373262405396, -2.019214765837125, -2.17477131737823, -1.8678476219624156, 9362.0, 30146.0, 35388.0, 9362.0, 8.390083312988281, -0.23667898774147034, -0.08005855977535248, -0.4077022671699524, -0.10555150359869003, -0.0552559457719326, 0.9934669137001038, -0.06665235757827759, -0.15607833862304688, 1.483154296875, 1.1572265625, 0.67919921875, 1.493408203125
41074, 0.24568413197994232, -7.417126655578613, 4.787570953369141, 0.0721074566245079, 0.0036382311955094337, -64.33196258544922, 0.5938582420349121, 0.02955763228237629, -3.2911696434020996, -0.8777886033058167, -1.0448954105377197, 0.05270940065383911, -2.0100897132775573, -2.2119204594263238, -1.862303687082982, 9362.0, 30146.0, 35388.0, 9362.0, 8.390083312988281, 0.036885835230350494, -0.11867783963680267, -0.16330642998218536, -0.10555150359869003, -0.0552559457719326, 0.9934669137001038, -0.06665235757827759, -0.15607833862304688, 1.483154296875, 1.1572265625, 0.67919921875, 1.493408203125
41084, 0.24597486853599548, -7.416569709777832, 4.7864885330200195, 0.0721074566245079, 0.0036382311955094337, -64.33196258544922, 0.5938582420349121, 0.02955763228237629, -3.2911696434020996, -0.877800464630127, -1.044866919517517, 0.05262395367026329, -1.9829085917085527, -2.2472458677433735, -1.842214225593791, 9362.0, 30146.0, 35388.0, 9362.0, 8.390083312988281, -0.12374711781740189, 0.10337319225072861, -0.10646318644285202, -0.10555150359869003, -0.0552559457719326, 0.9934669137001038, -0.06665235757827759, -0.15607833862304688, 1.483154296875, 1.1572265625, 0.67919921875, 1.493408203125
41094, 0.24564673006534576, -7.417558670043945, 4.786118030548096, 0.0721074566245079, 0.0036382311955094337, -64.33196258544922, 0.5938582420349121, 0.02955763228237629, -3.2911696434020996, -0.8778423070907593, -1.0448675155639648, 0.052653249353170395, -1.993529463951509, -2.2327028408485035, -1.8585134117640907, 9362.0, 30146.0, 35388.0, 9362.0, 8.390083312988281, -0.10628488659858704, -0.06290622055530548, -0.16746865212917328, -0.10555150359869003, -0.0552559457719326, 0.9934669137001038, -0.06665235757827759, -0.15607833862304688, 1.483154296875, 1.1572265625, 0.67919921875, 1.493408203125
41114, 0.24437743425369263, -7.418673515319824, 4.786177635192871, 0.10337094217538834, 0.0051949284970760345, -64.49671936035156, 0.6566774845123291, 0.03271434083580971, -3.298765182495117, -0.8778281211853027, -1.0448558330535889, 0.052669983357191086, -1.9953806754071708, -2.2371715559035863, -1.8635967996791665, 9362.0, 30146.0, 35388.0, 9362.0, 8.390083312988281, -0.07661977410316467, -0.05871903896331787, -0.12813904881477356, -0.10392353683710098, -0.05669940263032913, 0.992803156375885, -0.06665235757827759, -0.15607833862304688, 1.483154296875, 1.10009765625, 1.2657470703125, 1.48974609375
41194, 0.24261988699436188, -7.421243667602539, 4.79042387008667, 0.15992969274520874, 0.008015886880457401, -64.76107025146484, 0.7572891116142273, 0.03781655430793762, -3.310527801513672, -0.8778336644172668, -1.044861912727356, 0.0526885911822319, -1.9987197047672651, -2.2337197763075665, -1.8627501131715907, 9362.0, 30146.0, 35388.0, 9362.0, 8.390083312988281, 0.023040669038891792, -0.4924308657646179, -0.2937702536582947, -0.10392353683710098, -0.05669940263032913, 0.992803156375885, -0.09358624368906021, -0.2098369598388672, 1.478759765625, 0.79248046875, 10.782989501953125, 1.49267578125
41204, 0.24241316318511963, -7.418974876403809, 4.787886142730713, 0.16756562888622284, 0.00839725136756897, -64.79418182373047, 0.7698969841003418, 0.03845658898353577, -3.3117589950561523, -0.8777703642845154, -1.0448992252349854, 0.05265341326594353, -2.0020900841655043, -2.2251068099601525, -1.855945935158353, 9362.0, 30146.0, 35388.0, 9362.0, 8.390083312988281, 0.023040669038891792, -0.4924308657646179, -0.2937702536582947, -0.10392353683710098, -0.05669940263032913, 0.992803156375885, -0.09358624368906021, -0.2098369598388672, 1.478759765625, 0.79248046875, 10.782989501953125, 1.4912109375
41214, 0.24239084124565125, -7.4211931228637695, 4.7881975173950195, 0.16756562888622284, 0.00839725136756897, -64.79418182373047, 0.7698969841003418, 0.03845658898353577, -3.3117589950561523, -0.8778021335601807, -1.0448691844940186, 0.052625276148319244, -1.9879082205815304, -2.2537764716891786, -1.8533953644102896, 9362.0, 30146.0, 35388.0, 9362.0, 8.390083312988281, -0.191487118601799, -0.414834201335907, -0.2774823009967804, -0.10392353683710098, -0.05669940263032913, 0.992803156375885, -0.09358624368906021, -0.2098369598388672, 1.478759765625, 0.79248046875, 10.782989501953125, 1.4912109375
41234, 0.23931492865085602, -7.41709566116333, 4.785392761230469, 0.16756562888622284, 0.00839725136756897, -64.79418182373047, 0.7698969841003418, 0.03845658898353577, -3.3117589950561523, -0.8777889013290405, -1.0448546409606934, 0.0526333712041378, -1.9886194671449895, -2.243316302339707, -1.8536113872327487, 9362.0, 30146.0, 35388.0, 9362.0, 8.390083312988281, -0.010205576196312904, -0.15271896123886108, -0.15692420303821564, -0.10473960638046265, -0.05526093766093254, 0.9941229224205017, -0.09358624368906021, -0.2098369598388672, 1.478759765625, 0.79248046875, 10.782989501953125, 1.493408203125
41244, 0.239475280046463, -7.416678428649902, 4.783901214599609, 0.16756562888622284, 0.00839725136756897, -64.79418182373047, 0.7698969841003418, 0.03845658898353577, -3.3117589950561523, -0.877791166305542, -1.0448601245880127, 0.0526406466960907, -1.991216748908762, -2.242228564761632, -1.8568508706415898, 9362.0, 30146.0, 35388.0, 9362.0, 8.390083312988281, -0.010205576196312904, -0.15271896123886108, -0.15692420303821564, -0.10345029085874557, -0.05415051430463791, 0.9928373098373413, -0.09358624368906021, -0.2098369598388672, 1.478759765625, 0.79248046875, 10.782989501953125, 1.48974609375
41264, 0.24043072760105133, -7.415771484375, 4.783885478973389, 0.16756562888622284, 0.00839725136756897, -64.79418182373047, 0.7698969841003418, 0.03845658898353577, -3.3117589950561523, -0.8777824640274048, -1.0448613166809082, 0.05260623246431351, -1.9870315123231237, -2.24395145740786, -1.844697305230228, 9362.0, 30146.0, 35388.0, 9362.0, 8.390083312988281, -0.17137740552425385, -0.21135608851909637, 0.13307036459445953, -0.10345029085874557, -0.05415051430463791, 0.9928373098373413, -0.09358624368906021, -0.2098369598388672, 1.478759765625, 0.79248046875, 10.782989501953125, 1.49560546875
41284, 0.24014893174171448, -7.415185928344727, 4.783090591430664, 0.16756562888622284, 0.00839725136756897, -64.79418182373047, 0.7698969841003418, 0.03845658898353577, -3.3117589950561523, -0.8777987957000732, -1.044869303703308, 0.05262306332588196, -1.9827354238590094, -2.249809035237064, -1.8454892300949328, 9362.0, 30146.0, 35388.0, 9362.0, 8.390083312988281, -0.17137740552425385, -0.21135608851909637, 0.13307036459445953, -0.10345029085874557, -0.05415051430463791, 0.9928373098373413, -0.09358624368906021, -0.2098369598388672, 1.478759765625, 0.79248046875, 10.782989501953125, 1.49560546875
41294, 0.23968562483787537, -7.415781021118164, 4.780994892120361, 0.16756562888622284, 0.00839725136756897, -64.79418182373047, 0.7698969841003418, 0.03845658898353577, -3.3117589950561523, -0.8777372241020203, -1.0449146032333374, 0.052771687507629395, -2.0252087919410946, -2.1733560442478677, -1.8616614503811724, 9362.0, 30146.0, 35388.0, 9362.0, 8.390083312988281, 0.2716870605945587, 0.4116974472999573, -0.13970284163951874, -0.10345029085874557, -0.05415051430463791, 0.9928373098373413, -0.09358624368906021, -0.2098369598388672, 1.478759765625, 0.79248046875, 10.782989501953125, 1.49560546875
41304, 0.24032403528690338, -7.418224334716797, 4.779850482940674, 0.16756562888622284, 0.00839725136756897, -64.79418182373047, 0.7698969841003418, 0.03845658898353577, -3.3117589950561523, -0.8778237700462341, -1.0448641777038574, 0.052704520523548126, -1.9961675126066676, -2.2284757209638997, -1.8552387942396655, 9362.0, 30146.0, 35388.0, 9362.0, 8.390083312988281, 0.2716870605945587, 0.4116974472999573, -0.13970284163951874, -0.10345029085874557, -0.05415051430463791, 0.9928373098373413, -0.09358624368906021, -0.2098369598388672, 1.478759765625, 0.79248046875, 10.782989501953125, 1.49560546875
41314, 0.2398596853017807, -7.4143195152282715, 4.779354572296143, 0.16756562888622284, 0.00839725136756897, -64.79418182373047, 0.7698969841003418, 0.03845658898353577, -3.3117589950561523, -0.8778343200683594, -1.0448633432388306, 0.05268595367670059, -1.9963129303620337, -2.2276144000316265, -1.8589916323603148, 9362.0, 30146.0, 35388.0, 9362.0, 8.390083312988281, 0.05508934706449509, 0.4348680078983307, -0.17251162230968475, -0.10345029085874557, -0.05415051430463791, 0.9928373098373413, -0.09358624368906021, -0.2098369598388672, 1.478759765625, 0.79248046875, 10.782989501953125, 1.49560546875
41324, 0.23953896760940552, -7.416940212249756, 4.7774200439453125, 0.16756562888622284, 0.00839725136756897, -64.79418182373047, 0.7698969841003418, 0.03845658898353577, -3.3117589950561523, -0.8778467178344727, -1.0448631048202515, 0.052679311484098434, -1.9930761158650137, -2.2242365922591603, -1.8669814217729221, 9362.0, 30146.0, 35388.0, 9362.0, 8.390083312988281, 0.05508934706449509, 0.4348680078983307, -0.17251162230968475, -0.10345029085874557, -0.05415051430463791, 0.9928373098373413, -0.09358624368906021, -0.2098369598388672, 1.478759765625, 0.79248046875, 10.782989501953125, 1.49267578125
41334, 0.2379046231508255, -7.4174346923828125, 4.77810525894165, 0.16756562888622284, 0.00839725136756897, -64.79418182373047, 0.7698969841003418, 0.03845658898353577, -3.3117589950561523, -0.8777465224266052, -1.0449233055114746, 0.05273938551545143, -2.0243976366447853, -2.1673573835775244, -1.8625822627284059, 9362.0, 30146.0, 35388.0, 9362.0, 8.390083312988281, -0.03477568179368973, -0.3176754117012024, 0.015881218016147614, -0.10345029085874557, -0.05415051430463791, 0.9928373098373413, -0.09358624368906021, -0.2098369598388672, 1.478759765625, 1.114013671875, 1.10015869140625, 1.49267578125
41344, 0.23794624209403992, -7.416082382202148, 4.778931617736816, 0.16756562888622284, 0.00839725136756897, -64.79418182373047, 0.7698969841003418, 0.03845658898353577, -3.3117589950561523, -0.8777908682823181, -1.0448626279830933, 0.052636660635471344, -1.9841981443867651, -2.250450525740689, -1.8422005195668698, 9362.0, 30146.0, 35388.0, 9362.0, 8.390083312988281, -0.03477568179368973, -0.3176754117012024, 0.015881218016147614, -0.10193019360303879, -0.056717321276664734, 0.9946141839027405, -0.09358624368906021, -0.2098369598388672, 1.478759765625, 1.114013671875, 1.10015869140625, 1.4912109375
41384, 0.23946820199489594, -7.414613723754883, 4.78098201751709, 0.16756562888622284, 0.00839725136756897, -64.79418182373047, 0.7698969841003418, 0.03845658898353577, -3.3117589950561523, -0.877830445766449, -1.0448694229125977, 0.0526687353849411, -1.9942740255478402, -2.2253977681565402, -1.8692867030453832, 9362.0, 30146.0, 35388.0, 9362.0, 8.390083312988281, 0.09925035387277603, 0.39407286047935486, 0.6677327156066895, -0.10193019360303879, -0.056717321276664734, 0.9946141839027405, -0.102913036942482, -0.09335899353027344, 1.48828125, 1.13525390625, 0.8764495849609375, 1.4912109375
41394, 0.23886533081531525, -7.41145658493042, 4.781370162963867, 0.16756562888622284, 0.00839725136756897, -64.79418182373047, 0.7698969841003418, 0.03845658898353577, -3.3117589950561523, -0.8777379989624023, -1.0449185371398926, 0.05276479199528694, -2.0277727299828965, -2.170992105115374, -1.867499457287069, 9362.0, 30146.0, 35388.0, 9362.0, 8.390083312988281, 0.22360990941524506, 0.10838252305984497, -0.04094453528523445, -0.10193019360303879, -0.056717321276664734, 0.9946141839027405, -0.102913036942482, -0.09335899353027344, 1.48828125, 1.13525390625, 0.8764495849609375, 1.4912109375
41424, 0.23851414024829865, -7.411741733551025, 4.781630992889404, 0.3673681616783142, 0.01841043494641781, -65.52629089355469, 1.0464195013046265, 0.05258224904537201, -3.343846082687378, -0.8778366446495056, -1.0448676347732544, 0.052643924951553345, -1.9939756305732232, -2.2244794106904067, -1.8697050179892294, 9362.0, 30146.0, 35388.0, 9362.0, 8.390083312988281, -0.01025636401027441, -0.22725850343704224, 0.02061006799340248, -0.10193019360303879, -0.056717321276664734, 0.9946141839027405, -0.102913036942482, -0.09335899353027344, 1.48828125, 1.614990234375, 0.4530181884765625, 1.496337890625
41434, 0.23687468469142914, -7.409696102142334, 4.783636093139648, 0.3673681616783142, 0.01841043494641781, -65.52629089355469, 1.0464195013046265, 0.05258224904537201, -3.343846082687378, -0.8778142333030701, -1.04490065574646, 0.05266956612467766, -2.0064125769326564, -2.2163278087268736, -1.8612945297274321, 9362.0, 30146.0, 35388.0, 9362.0, 8.390083312988281, -0.042946916073560715, 0.45066794753074646, 0.17859531939029694, -0.10193019360303879, -0.056717321276664734, 0.9946141839027405, -0.102913036942482, -0.09335899353027344, 1.48828125, 1.096435546875, 1.31195068359375, 1.496337890625
41444, 0.23746034502983093, -7.41182279586792, 4.785653114318848, 0.3673681616783142, 0.01841043494641781, -65.52629089355469, 1.0464195013046265, 0.05258224904537201, -3.343846082687378, -0.8777862787246704, -1.04486882686615, 0.05265889689326286, -1.985889564877742, -2.2393067025477364, -1.8529506405717249, 9362.0, 30146.0, 35388.0, 9362.0, 8.390083312988281, 0.0973471850156784, -0.1229332759976387, 0.24541352689266205, -0.10193019360303879, -0.056717321276664734, 0.9946141839027405, -0.102913036942482, -0.09335899353027344, 1.48828125, 1.368896484375, 0.01885986328125, 1.486083984375
41454, 0.23871390521526337, -7.410974025726318, 4.788265228271484, 0.3673681616783142, 0.01841043494641781, -65.52629089355469, 1.0464195013046265, 0.05258224904537201, -3.343846082687378, -0.877714991569519, -1.044930100440979, 0.0527522936463356, -2.019935500925612, -2.1824355063860708, -1.8553850903903788, 9362.0, 30146.0, 35388.0, 9362.0, 8.390083312988281, -0.02086755260825157, -0.26498836278915405, 0.1353888064622879, -0.10193019360303879, -0.056717321276664734, 0.9946141839027405, -0.102913036942482, -0.09335899353027344, 1.48828125, 1.368896484375, 0.01885986328125, 1.486083984375
41464, 0.23848895728588104, -7.410057544708252, 4.78983736038208, 0.41023141145706177, 0.020565379410982132, -65.66014862060547, 1.0966887474060059, 0.0551656112074852, -3.3494956493377686, -0.8777111172676086, -1.0449342727661133, 0.052726663649082184, -2.0227007049368066, -2.1849374390438356, -1.861476933596211, 9362.0, 30146.0, 35388.0, 9362.0, 8.390083312988281, -0.02086755260825157, -0.26498836278915405, 0.1353888064622879, -0.10193019360303879, -0.056717321276664734, 0.9946141839027405, -0.102913036942482, -0.09335899353027344, 1.48828125, 1.272216796875, 0.1009979248046875, 1.493408203125
41484, 0.23806940019130707, -7.410193920135498, 4.789987087249756, 0.41023141145706177, 0.020565379410982132, -65.66014862060547, 1.0966887474060059, 0.0551656112074852, -3.3494956493377686, -0.877808153629303, -1.0448745489120483, 0.05262191593647003, -1.9831472472929779, -2.2385413540103514, -1.8554946828396746, 9362.0, 30146.0, 35388.0, 9362.0, 8.390083312988281, -0.11060670763254166, 0.2011946737766266, 0.030399085953831673, -0.10193019360303879, -0.056717321276664734, 0.9946141839027405, -0.09547469019889832, -0.14711761474609375, 1.48388671875, 0.895751953125, 6.036407470703125, 1.489013671875
41494, 0.238636314868927, -7.409910678863525, 4.788758277893066, 0.44369742274284363, 0.022249381989240646, -65.76069641113281, 1.1343741416931152, 0.05710112676024437, -3.3538074493408203, -0.8778184652328491, -1.04486083984375, 0.052681002765893936, -1.9936027485064762, -2.2284117783603676, -1.8614997751000568, 9362.0, 30146.0, 35388.0, 9362.0, 8.390083312988281, -0.22425949573516846, -0.0045160334557294846, 0.0603051520884037, -0.10193019360303879, -0.056717321276664734, 0.9946141839027405, -0.09547469019889832, -0.14711761474609375, 1.48388671875, 0.980712890625, 3.4388885498046875, 1.489013671875
41514, 0.23862670361995697, -7.41219425201416, 4.790095329284668, 0.4666362702846527, 0.023404324427247047, -65.82780456542969, 1.1595159769058228, 0.05839276313781738, -3.356537103652954, -0.8778249621391296, -1.0448765754699707, 0.05265238508582115, -1.9940105620417867, -2.2230191245666333, -1.8770637550694904, 9362.0, 30146.0, 35388.0, 9362.0, 8.390083312988281, -0.07890841364860535, 0.19199734926223755, 0.04695435240864754, -0.10193019360303879, -0.056717321276664734, 0.9946141839027405, -0.09547469019889832, -0.14711761474609375, 1.48388671875, 0.9873046875, 3.2782745361328125, 1.489013671875
