timeTick, roll, pitch, yaw, stateX, stateY, stateZ, stateVX, stateVY, stateVZ, otX0, otY0, otZ0, otRoll0, otPitch0, otYaw0, left wing, pitch motor, yaw motor, right wing, voltage, roll rate, pitch rate, yaw rate, A_x, A_y, A_z, current, i_raw, v_raw, airflow_voltage, airflow_speed, pot_Pitch
66583, -0.00011675767018459737, 0.0003115645085927099, -0.0013413174310699105, 0, 0, 0, 0, 0, 0, -0.878822922706604, -1.0468868017196655, 0.05374033749103546, -0.9658891088144068, -0.9459095086469347, -1.0193902826849408, 0, 0, 0, 0, 0, 0, 0, 0, 0, 0, 0, 0, 0, 0, 0, 0, 0
66593, -0.001912302104756236, 0.002405553823336959, 0.0002219519519712776, 0.0, 0.0, -1.948210410773754e-06, 2.1187911425357697e-09, -7.940642032799872e-10, -0.0003896419075317681, -0.8788260221481323, -1.046882152557373, 0.05374591052532196, -0.9650928172016695, -0.9357499504904183, -1.0201042643036098, 9362.0, 30146.0, 35388.0, 9362.0, 0, -0.23378396034240723, -0.2993330657482147, 0.06780856847763062, -0.08042299002408981, -0.03814668953418732, 0.9946302771568298, 0, 0, 0, 0, 0, 0
66603, -0.001836217357777059, 0.002845143200829625, 0.0006708861910738051, -2.6329485258713703e-09, 9.86756121257315e-10, -8.253700798377395e-06, -5.111199925522669e-07, 1.8304432103377621e-07, -0.0008710571564733982, -0.8788206577301025, -1.0468872785568237, 0.05373654514551163, -0.9619156747514062, -0.9389105490006671, -1.0266218028795149, 9362.0, 30146.0, 35388.0, 9362.0, 0, -0.23098522424697876, 0.10988001525402069, -0.015554394572973251, -0.08204624056816101, -0.035814251750707626, 0.995395302772522, 0, 0, 0, 1.382080078125, 0.0256195068359375, 0
66613, -0.003003553720191121, 0.0017095986986532807, 0.0014208878856152296, -2.823501965565356e-08, 1.9106314752548315e-08, -1.941269147209823e-05, -4.605566118698334e-06, 3.441485205257777e-06, -0.0013603405095636845, -0.8788225650787354, -1.0468930006027222, 0.053721923381090164, -0.9623057945547201, -0.9392204499760624, -1.0152120327923773, 9362.0, 30146.0, 35388.0, 9362.0, 0, -0.05243933945894241, -0.036196526139974594, 0.14885981380939484, -0.08336111903190613, -0.03727089613676071, 0.9942615032196045, 0, 0, 0, 1.08251953125, 1.497955322265625, 1.489013671875
66623, -0.0036076195538043976, 0.0017870900919660926, 0.0010170573368668556, -9.853446414354039e-08, 6.916734207607078e-08, -3.5297125577926636e-05, -9.46339605434332e-06, 6.561371264979243e-06, -0.0018161500338464975, -0.8788265585899353, -1.0468871593475342, 0.05373868718743324, -0.9690618956001847, -0.9382774955726063, -1.0206045610143468, 9362.0, 30146.0, 35388.0, 9362.0, 0, -0.20542743802070618, -0.11496162414550781, -0.1350567638874054, -0.0824255645275116, -0.035185836255550385, 0.9961151480674744, 0, 0, 0, 1.670654296875, 0.59100341796875, 1.489013671875
66633, -0.0035318455193191767, -0.0013697638642042875, 0.002020932035520673, -2.07729527801348e-07, 1.6036159422583296e-07, -5.597755080088973e-05, -1.2374900506983977e-05, 1.167219306807965e-05, -0.002319538500159979, -0.8788136839866638, -1.0468902587890625, 0.05373624712228775, -0.9604267075278964, -0.9437745459176483, -1.0090038280899782, 9362.0, 30146.0, 35388.0, 9362.0, 0, 0.10666768252849579, 0.5828196406364441, 0.1795920580625534, -0.08344592154026031, -0.03497182950377464, 0.9949088096618652, 0, 0, 0, 1.52197265625, 0.2408599853515625, 1.49267578125
66643, -0.004288976080715656, -0.0026437188498675823, 0.0015532819088548422, -3.4671469961722323e-07, 3.0783951388002606e-07, -8.120568236336112e-05, -1.544461520097684e-05, 1.7823875168687664e-05, -0.0027256894391030073, -0.8788150548934937, -1.0468899011611938, 0.053736064583063126, -0.9660350496027499, -0.9417908706167566, -1.0217640480046768, 9362.0, 30146.0, 35388.0, 9362.0, 0, -0.15590998530387878, -0.1187763661146164, -0.26618510484695435, -0.08305878192186356, -0.03545553982257843, 0.995606541633606, 0, 0, 0, 1.39013671875, 0.0314483642578125, 1.49267578125
66653, -0.004892344120889902, -0.005137279629707336, 0.0032835076563060284, -4.894901621810277e-07, 5.161734293324116e-07, -0.00011074627400375903, -1.3120572475600056e-05, 2.3836868422222324e-05, -0.0031820330768823624, -0.8788184523582458, -1.04688560962677, 0.053733427077531815, -0.9640905869828529, -0.9421361965369499, -1.0222499609255447, 9362.0, 30146.0, 35388.0, 9362.0, 0, -0.003063780255615711, 0.04808720573782921, 0.36699172854423523, -0.08284153789281845, -0.036628738045692444, 0.9952530264854431, 0, 0, 0, 1.062744140625, 1.79193115234375, 1.489013671875
66663, -0.0055028824135661125, -0.004878702573478222, 0.0033963413443416357, -5.981670483379276e-07, 7.910933845778345e-07, -0.00014479199307970703, -8.634377081762068e-06, 3.114257560810074e-05, -0.0036267137620598078, -0.8788204193115234, -1.0468815565109253, 0.05373693257570267, -0.9657919079113891, -0.943578824856985, -1.019612042949059, 9362.0, 30146.0, 35388.0, 9362.0, 0, -0.2060476690530777, 0.20753328502178192, -0.07177431136369705, -0.08064129203557968, -0.03739360719919205, 0.9959971904754639, 0, 0, 0, 1.134521484375, 0.88360595703125, 1.489013671875
66673, -0.005255754571408033, -0.006216759793460369, 0.0036740533541888, -6.407224759641394e-07, 1.1442243703640997e-06, -0.00018316484056413174, 1.2517054415184248e-07, 3.947917139157653e-05, -0.004047458525747061, -0.878818154335022, -1.0468864440917969, 0.05373437702655792, -0.9648758954380637, -0.9440540653289133, -1.0220783979366055, 9362.0, 30146.0, 35388.0, 9362.0, 0, -0.04835634306073189, 0.3277546763420105, 0.16514852643013, -0.08123160898685455, -0.03696618974208832, 0.9932997226715088, 0, 0, 0, 1.68017578125, 0.6156768798828125, 1.489013671875
66683, -0.005845747422426939, -0.006223717238754034, 0.00453103706240654, -5.979089223728806e-07, 1.5859009181440342e-06, -0.00022600279771722853, 8.426471140410285e-06, 4.885820089839399e-05, -0.004519729409366846, -0.8788406252861023, -1.0468610525131226, 0.053684160113334656, -0.9846729650753983, -0.9294337959170775, -1.0071031339643957, 9362.0, 30146.0, 35388.0, 9362.0, 8.370248794555664, -0.15800462663173676, 0.15539686381816864, 0.21793824434280396, -0.0817936435341835, -0.03633810952305794, 0.9931629300117493, 0, 0, 0, 1.584228515625, 0.3801727294921875, 1.489013671875
66693, -0.005159399937838316, -0.008050401695072651, 0.006659611593931913, -4.6080964466455043e-07, 2.1191558516875375e-06, -0.0002747333492152393, 1.8993165213032626e-05, 5.778568083769642e-05, -0.005225985310971737, -0.8788153529167175, -1.0468816757202148, 0.05373316630721092, -0.963346344353213, -0.9441271468483876, -1.0224975247527477, 9362.0, 30146.0, 35388.0, 9362.0, 8.370248794555664, 0.12987737357616425, -0.18946224451065063, 0.17342795431613922, -0.08405429869890213, -0.03586018458008766, 0.9956138134002686, -0.07226043939590454, -0.03959846496582031, 1.49267578125, 1.636962890625, 0.5064239501953125, 1.4912109375
66703, -0.003912069369107485, -0.00834187213331461, 0.005873940885066986, -2.1791083781863563e-07, 2.746770860539982e-06, -0.0003298402880318463, 2.9568091122200713e-05, 6.774452776880935e-05, -0.0057950071059167385, -0.878816545009613, -1.0468924045562744, 0.053711723536252975, -0.9702495266441911, -0.9452396383772736, -1.0179869128674928, 9362.0, 30146.0, 35388.0, 9362.0, 8.370248794555664, -0.11288969218730927, 0.3440106213092804, -0.108983114361763, -0.08596642315387726, -0.034018270671367645, 0.9951712489128113, -0.07226043939590454, -0.03959846496582031, 1.49267578125, 1.587890625, 0.38861083984375, 1.4912109375
66713, -0.00421362929046154, -0.010419758036732674, 0.004263502545654774, 1.463777437038516e-07, 3.468197064648848e-06, -0.000389964843634516, 4.328753857407719e-05, 7.655000081285834e-05, -0.006229503080248833, -0.8788427710533142, -1.0468642711639404, 0.053667254745960236, -0.9876650507435086, -0.9332511744054273, -1.013318942198582, 9362.0, 30146.0, 35388.0, 9362.0, 8.370248794555664, 0.2535507380962372, 0.10987618565559387, -0.002781543880701065, -0.08493050187826157, -0.03420480340719223, 0.9945117235183716, -0.07226043939590454, -0.03959846496582031, 1.49267578125, 1.181396484375, 0.4988555908203125, 1.49267578125
66723, -0.0032831120770424604, -0.010442574508488178, 0.004072193522006273, 6.503138365587802e-07, 4.267030817572959e-06, -0.00045466030132956803, 5.748247349401936e-05, 8.321386849274859e-05, -0.006709197536110878, -0.8788435459136963, -1.0468988418579102, 0.05375191569328308, -0.9778702160865218, -0.9637242513681201, -1.019143142511046, 9362.0, 30146.0, 35388.0, 9362.0, 8.370248794555664, 0.0016461092745885253, 0.3141977787017822, 0.12089093029499054, -0.08254262059926987, -0.03752385452389717, 0.9959639310836792, -0.07226043939590454, -0.03959846496582031, 1.49267578125, 1.428955078125, 0.073577880859375, 1.49267578125
66733, -0.002937838900834322, -0.012310304678976536, 0.003073160769417882, 1.3138630947651109e-06, 5.1350561989238486e-06, -0.0005243632476776838, 7.522720261476934e-05, 9.039964061230421e-05, -0.007230993825942278, -0.8788415789604187, -1.046905517578125, 0.05373566597700119, -0.9789648740322195, -0.955974047458767, -1.024945693775188, 9362.0, 30146.0, 35388.0, 9362.0, 8.370248794555664, 0.1368730366230011, 0.2024339884519577, 0.11007144302129745, -0.08620148152112961, -0.036657825112342834, 0.995492160320282, -0.07226043939590454, -0.03959846496582031, 1.49267578125, 1.39306640625, 0.0337982177734375, 1.48974609375
66743, -0.003938168287277222, -0.012913277372717857, 0.003848128952085972, 2.1551559257204644e-06, 6.06704725214513e-06, -0.0005987279582768679, 9.301810496253893e-05, 9.600076009519398e-05, -0.007641547825187445, -0.878870964050293, -1.046918511390686, 0.053737740963697433, -0.9663893164808282, -0.9445235854499003, -1.0262153809133432, 9362.0, 30146.0, 35388.0, 9362.0, 8.370248794555664, 0.023769047111272812, 0.0528201162815094, -0.0791984274983406, -0.08685284852981567, -0.03690507262945175, 0.9946151971817017, -0.07226043939590454, -0.03959846496582031, 1.49267578125, 1.0693359375, 1.6899566650390625, 1.48974609375
66753, -0.003389330580830574, -0.01374968234449625, 0.0023038960061967373, 3.1902090995572507e-06, 7.052088221826125e-06, -0.0006775331567041576, 0.00011398740753065795, 0.00010099940118379891, -0.008119109086692333, -0.878864586353302, -1.0469214916229248, 0.053747981786727905, -0.9653259311977085, -0.950516403306608, -1.0304302015615303, 9362.0, 30146.0, 35388.0, 9362.0, 8.370248794555664, -0.06584960967302322, -0.2178303450345993, -0.17200109362602234, -0.08277527987957001, -0.03873017057776451, 0.9942712783813477, -0.07226043939590454, -0.03959846496582031, 1.49267578125, 1.60693359375, 0.4335479736328125, 1.493408203125
66763, -0.0030335737392306328, -0.01272927038371563, 0.000719767645932734, 4.440027623786591e-06, 8.095619705272838e-06, -0.0007613940397277474, 0.00013596877397503704, 0.00010771150118671358, -0.008652668446302414, -0.8788634538650513, -1.0469111204147339, 0.05375264212489128, -0.9700687382881278, -0.9449846502947139, -1.0301485727838855, 9362.0, 30146.0, 35388.0, 9362.0, 8.370248794555664, 0.19810141623020172, 0.11829853802919388, 0.0038083516992628574, -0.08400984853506088, -0.03718791529536247, 0.994814395904541, -0.07226043939590454, -0.03959846496582031, 1.49267578125, 1.398193359375, 0.03826904296875, 1.493408203125
66773, -0.002602383028715849, -0.016664227470755577, 0.0007145486888475716, 5.916748705203645e-06, 9.201588909490965e-06, -0.0008507318561896682, 0.00015938558499328792, 0.00011348512634867802, -0.009214499033987522, -0.8788599967956543, -1.046915054321289, 0.05375660955905914, -0.968826952193752, -0.9375647771776414, -1.0236112349644733, 9362.0, 30146.0, 35388.0, 9362.0, 8.370248794555664, 0.0058622513897717, 0.6231544017791748, -0.1987767219543457, -0.08121196925640106, -0.037617720663547516, 0.9984939694404602, -0.07226043939590454, -0.03959846496582031, 1.49267578125, 1.353515625, 0.0154571533203125, 1.4912109375
66783, -0.0020010778680443764, -0.01730281487107277, -0.0003035047557204962, 7.619135431014001e-06, 1.0362306056777015e-05, -0.0009448672062717378, 0.00018106447532773018, 0.00011866130807902664, -0.00961217936128378, -0.878868818283081, -1.04691481590271, 0.053753793239593506, -0.9701376421059741, -0.9455663225530202, -1.027784596493422, 9362.0, 30146.0, 35388.0, 9362.0, 8.370248794555664, -0.02218768186867237, -0.1258591264486313, -0.11679375171661377, -0.08147123456001282, -0.03679925948381424, 0.9967626333236694, -0.07226043939590454, -0.03959846496582031, 1.49267578125, 1.6875, 0.634674072265625, 1.4912109375
66793, -0.002155761467292905, -0.017990583553910255, 0.0009883433813229203, 9.572208000463434e-06, 1.1571163668122608e-05, -0.0010417845332995057, 0.00020954848150722682, 0.0001231113274116069, -0.009770890697836876, -0.8789234757423401, -1.0469532012939453, 0.05376678332686424, -0.9643219518435434, -0.9684014737309496, -0.962677105814902, 9362.0, 30146.0, 35388.0, 9362.0, 8.370248794555664, -0.06698312610387802, 0.3340691924095154, 0.22787290811538696, -0.08374962210655212, -0.03686504811048508, 0.9948769807815552, -0.09749023616313934, 0.03208160400390625, 1.49853515625, 1.133056640625, 0.8980560302734375, 1.489013671875
66803, -0.0010662396671250463, -0.019679363816976547, 0.0009326122817583382, 1.1815218385891058e-05, 1.2819336916436441e-05, -0.0011414858745411038, 0.00023904870613478124, 0.0001265230093849823, -0.010168987326323986, -0.8789034485816956, -1.0469287633895874, 0.05375560745596886, -0.9657187176748413, -0.9493499986103018, -0.9853866820612168, 9362.0, 30146.0, 35388.0, 9362.0, 8.370248794555664, 0.061397016048431396, -0.16138619184494019, 0.21175771951675415, -0.08159908652305603, -0.03567391261458397, 0.9944267272949219, -0.09749023616313934, 0.03208160400390625, 1.49853515625, 1.685302734375, 0.6289520263671875, 1.489013671875
66813, -0.0007298442651517689, -0.020148875191807747, 0.0009163135546259582, 1.4358908629219513e-05, 1.4102927707426716e-05, -0.0012457584962248802, 0.0002696742012631148, 0.00013020492042414844, -0.010685130953788757, -0.8789125084877014, -1.046937108039856, 0.05373590812087059, -0.9672956753232196, -0.9516380827064381, -0.9860653859676769, 9362.0, 30146.0, 35388.0, 9362.0, 8.370248794555664, -0.19789595901966095, 0.1553000956773758, 0.18851052224636078, -0.08206892013549805, -0.037433307617902756, 0.9935734868049622, -0.09749023616313934, 0.03208160400390625, 1.49853515625, 1.657470703125, 0.5576019287109375, 1.49560546875
66823, -0.0003167206305079162, -0.022962303832173347, 0.0008005202398635447, 1.7223068425664678e-05, 1.541405072202906e-05, -0.001355677843093872, 0.0003031528030987829, 0.00013202322588767856, -0.01129835657775402, -0.8789116144180298, -1.046948790550232, 0.05374278500676155, -0.9660784635660682, -0.9545019236752808, -0.9866927792752279, 9362.0, 30146.0, 35388.0, 9362.0, 8.370248794555664, 0.21824130415916443, 0.07823725789785385, -0.23986706137657166, -0.08405382931232452, -0.03865044564008713, 0.9964060187339783, -0.09749023616313934, 0.03208160400390625, 1.49853515625, 1.439208984375, 0.0882415771484375, 1.49560546875
66833, -0.00023528073506895453, -0.021975794807076454, 0.00014178156561683863, 2.0426214177859947e-05, 1.6740501450840384e-05, -0.0014711496187373996, 0.0003374517254997045, 0.00013327055785339326, -0.011795597150921822, -0.8789053559303284, -1.046929955482483, 0.053758662194013596, -0.9677169182983328, -0.9550688953659972, -0.988071030721498, 9362.0, 30146.0, 35388.0, 9362.0, 8.370248794555664, 0.008784274570643902, -0.4069763422012329, -0.0392581969499588, -0.08329825848340988, -0.03583995997905731, 0.9952586889266968, -0.09749023616313934, 0.03208160400390625, 1.49853515625, 1.401123046875, 0.041015625, 1.48974609375
66843, 0.0001125287963077426, -0.020627465099096298, 0.0014956145314499736, 2.3996515665203333e-05, 1.807591070246417e-05, -0.001591085223481059, 0.00037661526584997773, 0.00013381130702327937, -0.012191127054393291, -0.878896176815033, -1.0469460487365723, 0.05374510586261749, -0.9686722299988305, -0.9467056001222147, -0.9873819870093837, 9362.0, 30146.0, 35388.0, 9362.0, 8.370248794555664, 0.19273580610752106, -0.10404371470212936, 0.056842513382434845, -0.08136496692895889, -0.03734229505062103, 0.9948671460151672, -0.09749023616313934, 0.03208160400390625, 1.49853515625, 0.9345703125, 4.7218170166015625, 1.48974609375
66853, -0.0003489782684482634, -0.019760148599743843, 0.0015419572591781616, 2.794993451971095e-05, 1.9416029317653738e-05, -0.0017152512446045876, 0.0004140792298130691, 0.00013421599578578025, -0.012641670182347298, -0.8788992166519165, -1.0469348430633545, 0.053750522434711456, -0.9658903130872155, -0.9604536077322621, -0.9858034888869293, 9362.0, 30146.0, 35388.0, 9362.0, 8.370248794555664, 0.10002455115318298, -0.04301057755947113, -0.08657386153936386, -0.08285835385322571, -0.03734450042247772, 0.9964587092399597, -0.09749023616313934, 0.03208160400390625, 1.49853515625, 1.647216796875, 0.53179931640625, 1.4912109375
66863, -0.0016508417902514338, -0.02026321366429329, 0.001724467845633626, 3.226643457310274e-05, 2.0757235688506626e-05, -0.0018441100837662816, 0.000449228537036106, 0.0001340212911600247, -0.013129696249961853, -0.8789020776748657, -1.0469354391098022, 0.0537579171359539, -0.9720214759603553, -0.9559376214590145, -0.9857253151894456, 9362.0, 30146.0, 35388.0, 9362.0, 8.370248794555664, -0.20099154114723206, 0.01647046022117138, -0.0029887338168919086, -0.08535755425691605, -0.0360894538462162, 0.9972416162490845, -0.09749023616313934, 0.03208160400390625, 1.49853515625, 1.307373046875, 0.039581298828125, 1.4912109375
66873, -0.0011847438290715218, -0.020242786034941673, 0.0028954013250768185, 3.692736936500296e-05, 2.2100432033766992e-05, -0.0019768925849348307, 0.00048295618034899235, 0.00013461129856295884, -0.013426441699266434, -0.878909707069397, -1.0469417572021484, 0.053732335567474365, -0.9695569112516508, -0.9611385386617428, -0.9822939051717238, 9362.0, 30146.0, 35388.0, 9362.0, 8.370248794555664, 0.0922463983297348, 0.3625641167163849, 0.2325601726770401, -0.08424713462591171, -0.038213204592466354, 0.9968302845954895, -0.09749023616313934, 0.03208160400390625, 1.49853515625, 1.48681640625, 0.1698150634765625, 1.48681640625
66883, -0.0009750452009029686, -0.020594503730535507, 0.002936434932053089, 4.1929826693376526e-05, 2.3460635929950513e-05, -0.0021127767395228148, 0.0005175357218831778, 0.00013743284216616303, -0.013749971985816956, -0.8789028525352478, -1.0469307899475098, 0.053751200437545776, -0.9663788943708082, -0.9526557306105019, -0.986846819489132, 9362.0, 30146.0, 35388.0, 9362.0, 8.370248794555664, 0.03896046802401543, -0.22611211240291595, -0.12451047450304031, -0.08110837638378143, -0.0377795472741127, 0.994116485118866, -0.09749023616313934, 0.03208160400390625, 1.49853515625, 1.075927734375, 1.5919647216796875, 1.48681640625
66893, -0.0007539025973528624, -0.02072778157889843, 0.0037215573247522116, 4.7277753765229136e-05, 2.484507240296807e-05, -0.0022523310035467148, 0.0005520470440387726, 0.00013945609680376947, -0.014160511083900928, -0.8789229393005371, -1.0469107627868652, 0.05371967330574989, -0.9872516687214518, -0.9456713230016192, -0.9769600663469543, 9362.0, 30146.0, 35388.0, 9362.0, 8.370248794555664, 0.10511770099401474, 0.017881544306874275, 0.17102287709712982, -0.08350129425525665, -0.03432145342230797, 0.9949439167976379, -0.08951148390769958, -0.2635974884033203, 1.474365234375, 1.14111328125, 0.8206024169921875, 1.487548828125
66903, -7.632251072209328e-05, -0.020827800035476685, 0.004542348440736532, 5.29734134033788e-05, 2.6247937057632953e-05, -0.0023970415350049734, 0.0005870835157111287, 0.0001411196426488459, -0.014781189151108265, -0.8789089918136597, -1.046938419342041, 0.05375216156244278, -0.9689173749068102, -0.9589502222409294, -0.9862263854307983, 9362.0, 30146.0, 35388.0, 9362.0, 8.370248794555664, 0.017535103484988213, -0.05156979709863663, 0.003967712167650461, -0.08286810666322708, -0.03400769457221031, 0.9953137040138245, -0.08951148390769958, -0.2635974884033203, 1.474365234375, 1.469970703125, 0.1386566162109375, 1.487548828125
66913, -0.00019551717559807003, -0.022817926481366158, 0.0025388069916516542, 5.902094198972918e-05, 2.7665571906254627e-05, -0.0025469365064054728, 0.0006224215612746775, 0.00014241269673220813, -0.015197417698800564, -0.8789242506027222, -1.0469212532043457, 0.053717248141765594, -0.9891487479582585, -0.9445202133969133, -0.9791759627364357, 9362.0, 30146.0, 35388.0, 9362.0, 8.370248794555664, 0.086061492562294, 0.10736134648323059, -0.07965317368507385, -0.08448448777198792, -0.035846490412950516, 0.9972069263458252, -0.08951148390769958, -0.2635974884033203, 1.474365234375, 1.6259765625, 0.4795989990234375, 1.496337890625
66923, 1.4651909623353276e-05, -0.020532887428998947, 0.0033510311041027308, 6.542268965858966e-05, 2.909036265918985e-05, -0.002701033838093281, 0.000657913216855377, 0.0001425434893462807, -0.01562163420021534, -0.8788920044898987, -1.0469402074813843, 0.05377015098929405, -0.9623781135179414, -0.9596799748003377, -0.9847634359189458, 9362.0, 30146.0, 35388.0, 9362.0, 8.370248794555664, -0.1741562783718109, -0.2813132405281067, -0.10200043767690659, -0.08529612421989441, -0.03729886934161186, 0.9949228763580322, -0.08951148390769958, -0.2635974884033203, 1.474365234375, 1.379150390625, 0.0238189697265625, 1.496337890625
66933, -0.0009309658780694008, -0.017408674582839012, 0.002952059032395482, 7.219663530122489e-05, 3.05174762615934e-05, -0.0028585703112185, 0.0006968867382965982, 0.0001428805844625458, -0.01588524878025055, -0.8789084553718567, -1.0469365119934082, 0.05376589670777321, -0.9613577067158923, -0.95701656810337, -0.9850771274009588, 9362.0, 30146.0, 35388.0, 9362.0, 8.370248794555664, 0.12187420576810837, 0.09700305759906769, -0.0031772954389452934, -0.08597058057785034, -0.03737322613596916, 0.9935441017150879, -0.08951148390769958, -0.2635974884033203, 1.474365234375, 1.6025390625, 0.423187255859375, 1.4912109375
66943, -0.0010623226407915354, -0.014248053543269634, 0.0031216389033943415, 7.934017776278779e-05, 3.194616874679923e-05, -0.0030205105431377888, 0.0007318549323827028, 0.00014284726057667285, -0.0165023785084486, -0.8789288401603699, -1.0469104051589966, 0.05371670424938202, -0.9889195823236118, -0.9428783437684842, -0.9720964890269197, 9362.0, 30146.0, 35388.0, 9362.0, 8.370248794555664, -0.12644146382808685, 0.2212914675474167, 0.16473302245140076, -0.08354498445987701, -0.03538987413048744, 0.9949209094047546, -0.08951148390769958, -0.2635974884033203, 1.474365234375, 1.5615234375, 0.3278350830078125, 1.4912109375
66953, -0.0011676119174808264, -0.015738513320684433, 0.003968763630837202, 8.680693281348795e-05, 3.3382573747076094e-05, -0.003188266884535551, 0.000761525530833751, 0.00014443272084463388, -0.01704849675297737, -0.8789210319519043, -1.046915054321289, 0.053732387721538544, -0.9908025841186421, -0.9499969960813814, -0.9727671101181883, 9362.0, 30146.0, 35388.0, 9362.0, 8.370248794555664, 0.16364358365535736, 0.10223440080881119, -0.07406635582447052, -0.08414683490991592, -0.035907067358493805, 0.9952029585838318, -0.08951148390769958, -0.2635974884033203, 1.474365234375, 1.10009765625, 1.2657470703125, 1.491943359375
66963, -0.0010807905346155167, -0.0162079855799675, 0.0020654581021517515, 9.454350947635248e-05, 3.483595355646685e-05, -0.0033613743726164103, 0.0007857764721848071, 0.00014624258619733155, -0.017572635784745216, -0.8789129257202148, -1.0469396114349365, 0.05376479774713516, -0.9744907802641645, -0.9498998265358694, -0.981566507344666, 9362.0, 30146.0, 35388.0, 9362.0, 8.370248794555664, 0.01204991340637207, 0.14691191911697388, 0.13144052028656006, -0.08420416712760925, -0.036202214658260345, 0.9980687499046326, -0.08951148390769958, -0.2635974884033203, 1.474365234375, 0.985107421875, 3.3311920166015625, 1.491943359375
66973, -0.0008467386942356825, -0.015744559466838837, 0.0020884096156805754, 0.00010253547225147486, 3.630834544310346e-05, -0.003539042780175805, 0.0008126135799102485, 0.00014823538367636502, -0.01796066202223301, -0.8789054155349731, -1.046920895576477, 0.053761787712574005, -0.9687170447075757, -0.9529968280338039, -0.9852676598184527, 9362.0, 30146.0, 35388.0, 9362.0, 8.370248794555664, 0.09147195518016815, -0.2701752483844757, -0.10325371474027634, -0.08373524993658066, -0.0335361547768116, 0.996515154838562, -0.08951148390769958, -0.2635974884033203, 1.474365234375, 1.5732421875, 0.354736328125, 1.493408203125
66983, -0.0011136449174955487, -0.015254121273756027, 0.001948523917235434, 0.00011080005060648546, 3.77999349439051e-05, -0.0037197417113929987, 0.000840304302982986, 0.00015008363698143512, -0.018178721889853477, -0.8789218664169312, -1.0469298362731934, 0.05376030132174492, -0.9643285691763195, -0.9501653106320873, -0.9887949212045894, 9362.0, 30146.0, 35388.0, 9362.0, 8.370248794555664, 0.05919812247157097, 0.08284813910722733, -0.24093571305274963, -0.0833238884806633, -0.032827939838171005, 0.9958512783050537, -0.08951148390769958, -0.2635974884033203, 1.474365234375, 1.18505859375, 0.474609375, 1.493408203125
66993, -0.00012226903345435858, -0.01392158679664135, 0.000882491935044527, 0.00011933739006053656, 3.930799721274525e-05, -0.0039033018983900547, 0.000867167254909873, 0.000151527434354648, -0.018532907590270042, -0.8789263367652893, -1.046913504600525, 0.053722694516181946, -0.9868783255557358, -0.9408601810917219, -0.9711844697846604, 9362.0, 30146.0, 35388.0, 9362.0, 8.370248794555664, 0.1268761157989502, -0.22671180963516235, -0.0874028280377388, -0.08253766596317291, -0.035543087869882584, 0.994733989238739, -0.10297764092683792, 0.014162063598632812, 1.4970703125, 1.155029296875, 0.6974945068359375, 1.493408203125
67003, 0.00011239805462537333, -0.015094243921339512, 0.0008859672816470265, 0.00012813910143449903, 4.083276871824637e-05, -0.004090710077434778, 0.0008931838092394173, 0.00015343367704190314, -0.01894831284880638, -0.8789280652999878, -1.046910285949707, 0.05371169000864029, -0.9886039743356791, -0.9389743596227902, -0.9764090408183457, 9362.0, 30146.0, 35388.0, 9362.0, 8.370248794555664, 0.14562702178955078, -0.07681603729724884, -0.1214396134018898, -0.0839943066239357, -0.035897571593523026, 0.9953623414039612, -0.10297764092683792, 0.014162063598632812, 1.4970703125, 1.364501953125, 0.0173492431640625, 1.493408203125
67013, -0.0008365264511667192, -0.015850087627768517, 0.0018394056241959333, 0.00013718950503971428, 4.236814856994897e-05, -0.0042827497236430645, 0.0009168853284791112, 0.00015364440332632512, -0.019459201022982597, -0.8789222240447998, -1.0469163656234741, 0.053716957569122314, -0.9911880963420615, -0.9399732885165974, -0.9766873122430647, 9362.0, 30146.0, 35388.0, 9362.0, 8.370248794555664, -0.1754298359155655, 0.0711841955780983, 0.2959047257900238, -0.08396273851394653, -0.03543713688850403, 0.997131884098053, -0.10297764092683792, 0.014162063598632812, 1.4970703125, 1.625244140625, 0.477783203125, 1.491943359375
67023, 1.6439982573501766e-05, -0.01914980076253414, 0.0022512145806103945, 0.00014648701471742243, 4.3903637561015785e-05, -0.0044794632121920586, 0.0009426118922419846, 0.00015344659914262593, -0.019883064553141594, -0.8789146542549133, -1.0469236373901367, 0.05374530330300331, -0.9689454147708126, -0.9520917237946378, -0.9841215176070434, 9362.0, 30146.0, 35388.0, 9362.0, 8.370248794555664, -0.18450966477394104, 0.34080883860588074, -0.11547290533781052, -0.08475194126367569, -0.036834467202425, 0.9968662261962891, -0.10297764092683792, 0.014162063598632812, 1.4970703125, 1.5791015625, 0.368133544921875, 1.491943359375
67033, -0.0007144349510781467, -0.02131202630698681, 0.00023103143030311912, 0.00015604848158545792, 4.5445249270414934e-05, -0.004679551348090172, 0.0009696659399196506, 0.0001548799773445353, -0.02013414353132248, -0.8789316415786743, -1.0469110012054443, 0.053720369935035706, -0.990801556798651, -0.9432801265273838, -0.9750465626503081, 9362.0, 30146.0, 35388.0, 9362.0, 8.370248794555664, 0.03819036856293678, 0.2611260414123535, -0.23828548192977905, -0.08210378885269165, -0.03593221306800842, 0.9969281554222107, -0.10297764092683792, 0.014162063598632812, 1.4970703125, 1.669921875, 0.589080810546875, 1.491943359375
67053, -0.002264436101540923, -0.02189144492149353, 6.135576404631138e-05, 0.00017611381190363318, 4.854849248658866e-05, -0.00508847925812006, 0.0010387224610894918, 0.00015606223314534873, -0.020746001973748207, -0.8789250254631042, -1.046913743019104, 0.05370263010263443, -0.9901280431992289, -0.9381921219878677, -0.9877243911443689, 9362.0, 30146.0, 35388.0, 9362.0, 8.370248794555664, 0.03819036856293678, 0.2611260414123535, -0.23828548192977905, -0.08254076540470123, -0.036509957164525986, 0.9953814744949341, -0.10297764092683792, 0.014162063598632812, 1.4970703125, 1.669921875, 0.589080810546875, 1.491943359375
67093, -0.002924178261309862, -0.018734294921159744, 0.0073009333573281765, 0.00020886051061097533, 5.3373682021629065e-05, -0.005731266923248768, 0.0011449374724179506, 0.0001663198199821636, -0.022189289331436157, -0.8789349794387817, -1.0469157695770264, 0.05371839180588722, -0.9897592631204684, -0.9385459511849774, -0.9807838575781334, 9362.0, 30146.0, 35388.0, 9362.0, 8.370248794555664, 0.031100453808903694, -0.014862585812807083, 0.2126075029373169, -0.08471470326185226, -0.03440482169389725, 0.9966036677360535, -0.12341319024562836, -0.030637741088867188, 1.493408203125, 1.623779296875, 0.4742889404296875, 1.494140625
67113, -0.002840736648067832, -0.02211667224764824, 0.012560195289552212, 0.00024486458278261125, 5.856177813257091e-05, -0.006415847688913345, 0.001251145964488387, 0.00018048117635771632, -0.02336890436708927, -0.8789057731628418, -1.0469306707382202, 0.05376487225294113, -0.9643983204863613, -0.9567234350294029, -0.9837805516080832, 9362.0, 30146.0, 35388.0, 9362.0, 8.370248794555664, -0.012412882409989834, 0.20602768659591675, 0.029200376942753792, -0.08250202238559723, -0.03636591136455536, 0.9948123097419739, -0.12341319024562836, -0.030637741088867188, 1.493408203125, 1.623779296875, 0.4742889404296875, 1.49560546875
67123, -0.0028100002091377974, -0.025800485163927078, 0.014627409167587757, 0.00025755513343028724, 6.039309300831519e-05, -0.0066525801084935665, 0.0012869517086073756, 0.00018578559684101492, -0.02397722750902176, -0.8789067268371582, -1.0469332933425903, 0.0537617988884449, -0.973137131396855, -0.9545425926231985, -0.9830999362887334, 9362.0, 30146.0, 35388.0, 9362.0, 8.370248794555664, 0.043640658259391785, 0.4184400141239166, 0.07188517600297928, -0.08158879727125168, -0.035354457795619965, 0.9943387508392334, -0.12341319024562836, -0.030637741088867188, 1.493408203125, 1.623779296875, 0.4742889404296875, 1.49560546875
67133, -0.002540968358516693, -0.026179542765021324, 0.015543263405561447, 0.00027061294531449676, 6.227517587831244e-05, -0.006895001512020826, 0.0013245795853435993, 0.00019063307263422757, -0.02450667694211006, -0.8789151906967163, -1.0469282865524292, 0.05375660955905914, -0.9712378229890554, -0.9588002821764974, -0.9847377756054913, 9362.0, 30146.0, 35388.0, 9362.0, 8.370248794555664, 0.07553858309984207, 0.06844191998243332, 0.26920798420906067, -0.08265124261379242, -0.037657175213098526, 0.9962393045425415, -0.12341319024562836, -0.030637741088867188, 1.493408203125, 1.623779296875, 0.4742889404296875, 1.491943359375
67143, -0.004242755006998777, -0.028328457847237587, 0.0189669132232666, 0.00028407861827872694, 6.420550926122814e-05, -0.007142281159758568, 0.0013685509329661727, 0.00019543652888387442, -0.02494889125227928, -0.8789008855819702, -1.0469257831573486, 0.05375884845852852, -0.9679294117643125, -0.9525270882019186, -0.9876154604002846, 9362.0, 30146.0, 35388.0, 9362.0, 8.370248794555664, -0.11640139669179916, 0.03581990674138069, 0.09587881714105606, -0.08265124261379242, -0.037657175213098526, 0.9962393045425415, -0.12341319024562836, -0.030637741088867188, 1.493408203125, 1.623779296875, 0.4742889404296875, 1.491943359375
67173, -0.0047201672568917274, -0.029852701351046562, 0.01916203647851944, 0.0003272198955528438, 7.033275323919952e-05, -0.007913222536444664, 0.0015105883358046412, 0.00021647076937370002, -0.02661319263279438, -0.8788983225822449, -1.046929955482483, 0.05374975502490997, -0.9708285663259674, -0.9538634064986411, -0.9888385883350885, 9362.0, 30146.0, 35388.0, 9362.0, 8.370248794555664, -0.14650778472423553, -0.020307661965489388, -0.19468337297439575, -0.08481212705373764, -0.034253064543008804, 0.9964202046394348, -0.12341319024562836, -0.030637741088867188, 1.493408203125, 1.623779296875, 0.4742889404296875, 1.49267578125
67183, -0.005848655942827463, -0.03041440062224865, 0.018417073413729668, 0.0003272198955528438, 7.033275323919952e-05, -0.007913222536444664, 0.0015105883358046412, 0.00021647076937370002, -0.02661319263279438, -0.8789151310920715, -1.0469205379486084, 0.05374695360660553, -0.9679645871460111, -0.9601462037755084, -0.990950725224414, 9362.0, 30146.0, 35388.0, 9362.0, 8.370248794555664, -0.12389994412660599, -0.15236444771289825, -0.25637269020080566, -0.08226882666349411, -0.03571934998035431, 0.9961076974868774, -0.12341319024562836, -0.030637741088867188, 1.493408203125, 1.623779296875, 0.4742889404296875, 1.49267578125
67203, -0.0029008197598159313, -0.03278077393770218, 0.01878662221133709, 0.00035846245009452105, 7.481492502847686e-05, -0.008454252034425735, 0.0016132473247125745, 0.00023202350712381303, -0.027450643479824066, -0.8789035677909851, -1.0469282865524292, 0.05376705154776573, -0.963663481972618, -0.9582034307217384, -0.9871626342119706, 9362.0, 30146.0, 35388.0, 9362.0, 8.370248794555664, 0.16230419278144836, 0.24916966259479523, -0.12756679952144623, -0.08292027562856674, -0.03782188147306442, 0.9948413372039795, -0.12341319024562836, -0.030637741088867188, 1.493408203125, 1.623779296875, 0.4742889404296875, 1.49267578125
67263, -0.004910462070256472, -0.028814159333705902, 0.015108327381312847, 0.0004848936223424971, 9.265182598028332e-05, -0.010483970865607262, 0.002004074165597558, 0.0002698690805118531, -0.030321573838591576, -0.8789069056510925, -1.0469197034835815, 0.05375543236732483, -0.9716436467070807, -0.9620017465835247, -0.9916946176538229, 9362.0, 30146.0, 35388.0, 9362.0, 8.370248794555664, -0.24963514506816864, 0.03007528744637966, 0.0011184216709807515, -0.08578011393547058, -0.03763327747583389, 0.9922728538513184, -0.12341319024562836, -0.030637741088867188, 1.493408203125, 1.623779296875, 0.4742889404296875, 1.494873046875
67303, -0.007082425523549318, -0.0377228781580925, 0.015481711365282536, 0.0005689637619070709, 0.00010403603664599359, -0.011740417219698429, 0.00220537930727005, 0.0003039291768800467, -0.03251257166266441, -0.8789284825325012, -1.0468913316726685, 0.05369957536458969, -0.9917850682461129, -0.9509496670664532, -0.9751679738118174, 9362.0, 30146.0, 35388.0, 9362.0, 8.370248794555664, -0.2714165151119232, -0.06479816138744354, -0.3507455885410309, -0.08509382605552673, -0.03675026819109917, 0.9934887886047363, -0.12341319024562836, -0.030637741088867188, 1.493408203125, 1.623779296875, 0.4742889404296875, 1.494873046875
67403, -0.00671757198870182, -0.044991374015808105, 0.028511546552181244, 0.0008222015458159149, 0.00014068324526306242, -0.015226328745484352, 0.002880887594074011, 0.00043131207348778844, -0.03691842779517174, -0.8789263963699341, -1.0468347072601318, 0.0537155456840992, -1.0297914890585425, -0.9477909969298537, -0.9815878002423073, 9362.0, 30146.0, 35388.0, 9362.0, 8.370248794555664, -0.12700849771499634, 0.12757837772369385, -0.08272495865821838, -0.08310969918966293, -0.03340068832039833, 0.9942712783813477, -0.11120765656232834, -0.15607833862304688, 1.483154296875, 1.623779296875, 0.4742889404296875, 1.493408203125
67413, -0.005776657722890377, -0.04630729928612709, 0.028345506638288498, 0.000851400604005903, 0.00014506351726595312, -0.015598034486174583, 0.0029589307960122824, 0.00044475437607616186, -0.03742225840687752, -0.8789206743240356, -1.046831488609314, 0.053691089153289795, -1.022338399693055, -0.9507515786735041, -0.9782495953077834, 9362.0, 30146.0, 35388.0, 9362.0, 8.370248794555664, 0.030208466574549675, -0.044729165732860565, 0.011276339180767536, -0.08499734103679657, -0.03445795178413391, 0.9944799542427063, -0.11120765656232834, -0.15607833862304688, 1.483154296875, 1.623779296875, 0.4742889404296875, 1.493408203125
67463, -0.00630936911329627, -0.054727599024772644, 0.03004220873117447, 0.0010093488963320851, 0.00016859885363373905, -0.017534421756863594, 0.0033757199998944998, 0.0004946568515151739, -0.040033742785453796, -0.8789138793945312, -1.0468634366989136, 0.05369749665260315, -1.0162850717546552, -0.9536696084813343, -0.9736053297319414, 9362.0, 30146.0, 35388.0, 9362.0, 8.370248794555664, -0.16304169595241547, 0.015483221970498562, -0.14882168173789978, -0.08316930383443832, -0.03366444259881973, 0.9970960021018982, -0.11120765656232834, -0.15607833862304688, 1.483154296875, 1.623779296875, 0.4742889404296875, 1.493408203125
67473, -0.007387793622910976, -0.05404248461127281, 0.027605799958109856, 0.0010435797739773989, 0.00017359542835038155, -0.01793712191283703, 0.003470468567684293, 0.0005046518635936081, -0.040505774319171906, -0.8788928389549255, -1.0468789339065552, 0.05375858396291733, -0.9895242045739806, -0.9615629328681621, -0.9931171435287719, 9362.0, 30146.0, 35388.0, 9362.0, 8.370248794555664, -0.08227811008691788, -0.41722485423088074, -0.36807259917259216, -0.08361197263002396, -0.033514153212308884, 0.9954602718353271, -0.11120765656232834, -0.15607833862304688, 1.483154296875, 1.623779296875, 0.4742889404296875, 1.493408203125
67543, -0.006599310785531998, -0.06526405364274979, 0.02089213952422142, 0.0013096578186377883, 0.00021209528495091945, -0.020888343453407288, 0.004148778971284628, 0.0005984661402180791, -0.04393606260418892, -0.8789030909538269, -1.0469244718551636, 0.053750790655612946, -0.9611449763141383, -0.9631144003847112, -0.991637706985012, 9362.0, 30146.0, 35388.0, 9362.0, 8.370248794555664, 0.09155436605215073, 0.30394595861434937, 0.04462336376309395, -0.08400170505046844, -0.03659847006201744, 0.9948993921279907, -0.11335989832878113, -0.24567794799804688, 1.475830078125, 1.623779296875, 0.4742889404296875, 1.493408203125
67553, -0.007345289457589388, -0.06794093549251556, 0.018140533939003944, 0.0013096578186377883, 0.00021209528495091945, -0.020888343453407288, 0.004148778971284628, 0.0005984661402180791, -0.04393606260418892, -0.8789004683494568, -1.0469121932983398, 0.05376080051064491, -0.9629709122590865, -0.9639581333918841, -0.9902261926745832, 9362.0, 30146.0, 35388.0, 9362.0, 8.370248794555664, -0.16886000335216522, 0.023048240691423416, -0.3621184229850769, -0.08400170505046844, -0.03659847006201744, 0.9948993921279907, -0.11335989832878113, -0.24567794799804688, 1.475830078125, 1.623779296875, 0.4742889404296875, 1.49267578125
67583, -0.0066519672982394695, -0.07219678908586502, 0.022817296907305717, 0.001484495704062283, 0.00023702086764387786, -0.022687213495373726, 0.0046007875353097916, 0.0006482244352810085, -0.045794691890478134, -0.8789163827896118, -1.0468910932540894, 0.05375686660408974, -0.9827954577693925, -0.9519626940099499, -0.9851480508167059, 9362.0, 30146.0, 35388.0, 9362.0, 8.370248794555664, -0.014708099886775017, -0.08059072494506836, 0.15198220312595367, -0.08290232717990875, -0.034061674028635025, 0.9961636066436768, -0.11335989832878113, -0.24567794799804688, 1.475830078125, 1.623779296875, 0.4742889404296875, 1.49267578125
67603, -0.0060769557021558285, -0.07193905115127563, 0.02160562388598919, 0.0015789687167853117, 0.00025021552573889494, -0.02360960841178894, 0.004846644122153521, 0.0006711657042615116, -0.04651713743805885, -0.878939151763916, -1.0468416213989258, 0.05370427668094635, -1.0255780581402605, -0.9399821989879911, -0.9756396952005141, 9362.0, 30146.0, 35388.0, 9362.0, 8.370248794555664, -0.25189268589019775, 0.31998303532600403, 0.1635519415140152, -0.08064804971218109, -0.0353403314948082, 0.9969505667686462, -0.11335989832878113, -0.24567794799804688, 1.475830078125, 1.623779296875, 0.4742889404296875, 1.49267578125
67653, -0.011608605273067951, -0.07484357804059982, 0.023307951167225838, 0.0018367588054388762, 0.00028509018011391163, -0.025987204164266586, 0.005465764086693525, 0.0007273650262504816, -0.0485212467610836, -0.8789229393005371, -1.0468083620071411, 0.05370985344052315, -1.048611190932145, -0.9599632649173486, -0.9741320048496264, 9362.0, 30146.0, 35388.0, 9362.0, 8.370248794555664, -0.20964846014976501, 0.03135240823030472, 0.35772958397865295, -0.08039962500333786, -0.03374791517853737, 0.9937488436698914, -0.11335989832878113, -0.24567794799804688, 1.475830078125, 1.503662109375, 0.2029876708984375, 1.493408203125
67673, -0.020339982584118843, -0.07791280746459961, 0.02509995922446251, 0.001948593300767243, 0.00029997481033205986, -0.026968322694301605, 0.005718778353184462, 0.0007630586624145508, -0.04949406534433365, -0.8789225220680237, -1.046824336051941, 0.05369317904114723, -1.0415406503004578, -0.96530390470312, -0.9651100355422485, 9362.0, 30146.0, 35388.0, 9362.0, 8.370248794555664, -0.5591027140617371, -0.07913479208946228, 0.13864916563034058, -0.08297959715127945, -0.034045346081256866, 0.9961795806884766, -0.11335989832878113, -0.24567794799804688, 1.475830078125, 1.503662109375, 0.2029876708984375, 1.4912109375
67683, -0.02469577081501484, -0.08005671948194504, 0.02761787734925747, 0.0020064415875822306, 0.0003077354922425002, -0.027465209364891052, 0.0058508748188614845, 0.0007890433189459145, -0.04988307133316994, -0.8789159655570984, -1.0468286275863647, 0.05367515608668327, -1.038287856375568, -0.9565647071981402, -0.9819085980671961, 9362.0, 30146.0, 35388.0, 9362.0, 8.370248794555664, -0.5591027140617371, -0.07913479208946228, 0.13864916563034058, -0.08427891880273819, -0.03642568364739418, 0.9920496344566345, -0.11335989832878113, -0.24567794799804688, 1.475830078125, 1.503662109375, 0.2029876708984375, 1.4912109375
67693, -0.03212077543139458, -0.08160076290369034, 0.027605798095464706, 0.0020064415875822306, 0.0003077354922425002, -0.027465209364891052, 0.0058508748188614845, 0.0007890433189459145, -0.04988307133316994, -0.8788884282112122, -1.0468660593032837, 0.05373086780309677, -1.0056878570402283, -0.9693365850179418, -0.9913474004627176, 9362.0, 30146.0, 35388.0, 9362.0, 8.370248794555664, -0.595447301864624, -0.0004517444467637688, -0.2846515476703644, -0.08082729578018188, -0.03907015174627304, 0.9972624182701111, -0.09180692583322525, -0.06647872924804688, 1.490478515625, 1.503662109375, 0.2029876708984375, 1.4912109375
67713, -0.04660119488835335, -0.08425150066614151, 0.02934083342552185, 0.0021880194544792175, 0.0003331774496473372, -0.028988270089030266, 0.006258989218622446, 0.0009206171380355954, -0.05130331590771675, -0.8789241313934326, -1.0468659400939941, 0.053689081221818924, -1.0126365737933656, -0.95517150102134, -0.9791638643380493, 9362.0, 30146.0, 35388.0, 9362.0, 8.370248794555664, -0.5528662204742432, -0.06261489540338516, -0.28086432814598083, -0.08492017537355423, -0.036660224199295044, 1.0013560056686401, -0.09180692583322525, -0.06647872924804688, 1.490478515625, 1.503662109375, 0.2029876708984375, 1.4912109375
67723, -0.051267243921756744, -0.08418712019920349, 0.03291299566626549, 0.0021880194544792175, 0.0003331774496473372, -0.028988270089030266, 0.006258989218622446, 0.0009206171380355954, -0.05130331590771675, -0.878896176815033, -1.0469071865081787, 0.05373552069067955, -0.9786883246407174, -0.9643027864702844, -0.9930621863449561, 9362.0, 30146.0, 35388.0, 9362.0, 8.370248794555664, -0.22151173651218414, 0.17775551974773407, 0.28839370608329773, -0.08550077676773071, -0.03977245092391968, 0.9959891438484192, -0.09180692583322525, -0.06647872924804688, 1.490478515625, 1.503662109375, 0.2029876708984375, 1.4912109375
67753, -0.05510362237691879, -0.08662914484739304, 0.038979824632406235, 0.002449802588671446, 0.00037611255538649857, -0.031052500009536743, 0.006834032014012337, 0.0012454286916181445, -0.05285649746656418, -0.8788972496986389, -1.0469218492507935, 0.05373358353972435, -0.9643876957022652, -0.9788739391341892, -0.98078740858649, 9362.0, 30146.0, 35388.0, 9362.0, 8.370248794555664, 0.16708461940288544, 0.2626016139984131, 0.12049844861030579, -0.08320613950490952, -0.04173038527369499, 0.99455726146698, -0.09180692583322525, -0.06647872924804688, 1.490478515625, 1.503662109375, 0.2029876708984375, 1.4912109375
67773, -0.05318990722298622, -0.08660575747489929, 0.04218602925539017, 0.002589394571259618, 0.00040288406307809055, -0.03212274610996246, 0.0071264165453612804, 0.0014322628267109394, -0.05408189073204994, -0.8789069652557373, -1.0469261407852173, 0.05373604968190193, -0.9558195478725103, -0.9696614962057026, -0.9891959555742362, 9362.0, 30146.0, 35388.0, 9362.0, 8.370248794555664, 0.3454399108886719, 0.1785612255334854, 0.26546207070350647, -0.0824635848402977, -0.04012046381831169, 0.9958456158638, -0.09180692583322525, -0.06647872924804688, 1.490478515625, 1.503662109375, 0.2029876708984375, 1.4912109375
67783, -0.04899544641375542, -0.08856932073831558, 0.04496455192565918, 0.002589394571259618, 0.00040288406307809055, -0.03212274610996246, 0.0071264165453612804, 0.0014322628267109394, -0.05408189073204994, -0.8789023160934448, -1.0469335317611694, 0.05373779311776161, -0.953299201305802, -0.968305582604529, -0.9886864719296686, 9362.0, 30146.0, 35388.0, 9362.0, 8.370248794555664, 0.47525978088378906, 0.036366064101457596, 0.14231324195861816, -0.08370397984981537, -0.04047545790672302, 1.0020976066589355, -0.09180692583322525, -0.06647872924804688, 1.490478515625, 1.503662109375, 0.2029876708984375, 1.4912109375
67793, -0.04086730256676674, -0.08946046233177185, 0.04744374752044678, 0.002589394571259618, 0.00040288406307809055, -0.03212274610996246, 0.0071264165453612804, 0.0014322628267109394, -0.05408189073204994, -0.8789025545120239, -1.046938419342041, 0.05374312400817871, -0.9519056823549595, -0.9689966968822716, -0.9854017662934926, 9362.0, 30146.0, 35388.0, 9362.0, 8.370248794555664, 0.644313395023346, 0.20409651100635529, 0.2616400122642517, -0.08370397984981537, -0.04047545790672302, 1.0020976066589355, -0.09180692583322525, -0.06647872924804688, 1.490478515625, 1.503662109375, 0.2029876708984375, 1.4912109375
67833, -0.01123592909425497, -0.0898689329624176, 0.04889544099569321, 0.0030440115369856358, 0.0005038194940425456, -0.035439036786556244, 0.00802946649491787, 0.0018730281153693795, -0.05693260207772255, -0.8789191842079163, -1.04691743850708, 0.05373385548591614, -0.968108288999256, -0.9515942219229885, -0.9923087267313523, 9362.0, 30146.0, 35388.0, 9362.0, 8.370248794555664, 0.4487946033477783, -0.16145175695419312, -0.03860872983932495, -0.0839332565665245, -0.0346585251390934, 1.0047705173492432, -0.09180692583322525, -0.06647872924804688, 1.490478515625, 1.503662109375, 0.2029876708984375, 1.49560546875
67873, 0.005082856863737106, -0.091231569647789, 0.04452645033597946, 0.0033773884642869234, 0.000580491207074374, -0.037710368633270264, 0.008636198937892914, 0.0019337564008310437, -0.058026693761348724, -0.8789454698562622, -1.046852946281433, 0.0536835752427578, -1.0193470423688886, -0.9469200570838154, -0.9724223919143493, 9362.0, 30146.0, 35388.0, 9362.0, 8.370248794555664, 0.029491586610674858, 0.25165390968322754, -0.11684015393257141, -0.0830964520573616, -0.035417523235082626, 1.0020604133605957, -0.09180692583322525, -0.06647872924804688, 1.490478515625, 1.503662109375, 0.2029876708984375, 1.49560546875
67923, -0.01595054194331169, -0.08206065744161606, 0.03431936353445053, 0.0038283048197627068, 0.0006763980491086841, -0.04063284024596214, 0.009394682943820953, 0.001908923382870853, -0.060224421322345734, -0.8789410591125488, -1.0468348264694214, 0.05368993803858757, -1.0456158270360179, -0.9520872494491073, -0.9753964444487215, 9362.0, 30146.0, 35388.0, 9362.0, 8.370248794555664, -1.2695499658584595, -0.39215224981307983, -0.989518404006958, -0.07934758067131042, -0.03873578831553459, 1.0102906227111816, -0.1019347757101059, -0.14711761474609375, 1.48388671875, 1.503662109375, 0.2029876708984375, 1.494140625
67943, -0.04489395394921303, -0.08030913025140762, 0.033277370035648346, 0.0039229728281497955, 0.000695536145940423, -0.041234444826841354, 0.009538894519209862, 0.001918724155984819, -0.06009605526924133, -0.8789142370223999, -1.0468478202819824, 0.053739674389362335, -1.0226385081325937, -0.9660450664806888, -0.981966482096605, 9362.0, 30146.0, 35388.0, 9362.0, 8.370248794555664, -1.5369603633880615, 0.15832917392253876, 0.9738901257514954, -0.08302947878837585, -0.035910118371248245, 0.9976071119308472, -0.1019347757101059, -0.14711761474609375, 1.48388671875, 1.503662109375, 0.2029876708984375, 1.494140625
67953, -0.05834265053272247, -0.08095511794090271, 0.03614190220832825, 0.0039229728281497955, 0.000695536145940423, -0.041234444826841354, 0.009538894519209862, 0.001918724155984819, -0.06009605526924133, -0.8789233565330505, -1.046826720237732, 0.05367210507392883, -1.0441943800175622, -0.9542071468556799, -0.9689514600432593, 9362.0, 30146.0, 35388.0, 9362.0, 8.370248794555664, -1.2460589408874512, 0.013988925144076347, -0.3286658227443695, -0.08302947878837585, -0.035910118371248245, 0.9976071119308472, -0.1019347757101059, -0.14711761474609375, 1.48388671875, 1.503662109375, 0.2029876708984375, 1.491943359375
67983, -0.08261515945196152, -0.0848412737250328, 0.04453379288315773, 0.004417233634740114, 0.0007984493859112263, -0.044277824461460114, 0.01023106463253498, 0.0022892518900334835, -0.06284254789352417, -0.8789169788360596, -1.0468367338180542, 0.053677238523960114, -1.0380001386724294, -0.9628808860582581, -0.9691911282049835, 9362.0, 30146.0, 35388.0, 9362.0, 8.370248794555664, -0.680012047290802, 0.24418823421001434, 0.31771185994148254, -0.08179333806037903, -0.037938691675662994, 1.0029631853103638, -0.1019347757101059, -0.14711761474609375, 1.48388671875, 1.503662109375, 0.2029876708984375, 1.491943359375
67993, -0.08590511232614517, -0.08763399720191956, 0.05146980658173561, 0.004520253743976355, 0.0008220078307203948, -0.04490658640861511, 0.01037293579429388, 0.002422443823888898, -0.06290961056947708, -0.8789153695106506, -1.0468469858169556, 0.05366881564259529, -1.0340493720356139, -0.9543933814560148, -0.9737596211477888, 9362.0, 30146.0, 35388.0, 9362.0, 8.370248794555664, 0.00068235385697335, 0.37506115436553955, 1.0395455360412598, -0.08525426685810089, -0.044557325541973114, 1.0018028020858765, -0.1019347757101059, -0.14711761474609375, 1.48388671875, 1.503662109375, 0.2029876708984375, 1.491943359375
68003, -0.08575529605150223, -0.09083716571331024, 0.05654577165842056, 0.004624711349606514, 0.0008469426538795233, -0.045533906668424606, 0.010518615134060383, 0.0025645592249929905, -0.06255412846803665, -0.8789066672325134, -1.0468491315841675, 0.05367681384086609, -1.030485528677532, -0.9623017511723049, -0.9774379982791167, 9362.0, 30146.0, 35388.0, 9362.0, 8.370248794555664, -0.003544542007148266, 0.4968024492263794, 0.3354816436767578, -0.08525426685810089, -0.044557325541973114, 1.0018028020858765, -0.1019347757101059, -0.14711761474609375, 1.48388671875, 1.503662109375, 0.2029876708984375, 1.491943359375
68013, -0.08346068859100342, -0.09545788913965225, 0.059871140867471695, 0.004624711349606514, 0.0008469426538795233, -0.045533906668424606, 0.010518615134060383, 0.0025645592249929905, -0.06255412846803665, -0.8789138197898865, -1.0468497276306152, 0.053677186369895935, -1.025752909614827, -0.9624863335963312, -0.9687244911505397, 9362.0, 30146.0, 35388.0, 9362.0, 8.370248794555664, 0.24729348719120026, 0.700473427772522, 0.39736735820770264, -0.08525426685810089, -0.044557325541973114, 1.0018028020858765, -0.1019347757101059, -0.14711761474609375, 1.48388671875, 1.503662109375, 0.2029876708984375, 1.493408203125
68053, -0.058878108859062195, -0.11226166039705276, 0.07692644745111465, 0.00517025962471962, 0.0009931221138685942, -0.04874883219599724, 0.011334246024489403, 0.0032665543258190155, -0.06569398194551468, -0.8789093494415283, -1.0468733310699463, 0.053677745163440704, -1.0113982525430047, -0.9635061721604075, -0.9652244697528615, 9362.0, 30146.0, 35388.0, 9362.0, 8.370248794555664, 0.7997111678123474, 0.5119933485984802, 0.3858792781829834, -0.08648598939180374, -0.03424498438835144, 0.99140864610672, -0.1019347757101059, -0.14711761474609375, 1.48388671875, 1.503662109375, 0.2029876708984375, 1.497802734375
68063, -0.04811267927289009, -0.11550287157297134, 0.08085757493972778, 0.005284516606479883, 0.0010263691656291485, -0.049407392740249634, 0.011517158709466457, 0.003382923314347863, -0.06601808220148087, -0.8789072632789612, -1.0468802452087402, 0.05367757007479668, -1.0096522768071157, -0.9632249836319318, -0.9713368629771749, 9362.0, 30146.0, 35388.0, 9362.0, 8.370248794555664, 1.3101050853729248, 0.393117755651474, 0.1331922858953476, -0.08648598939180374, -0.03424498438835144, 0.99140864610672, -0.1019347757101059, -0.14711761474609375, 1.48388671875, 1.503662109375, 0.2029876708984375, 1.497802734375
68073, -0.0373118557035923, -0.11747636646032333, 0.07944834977388382, 0.005284516606479883, 0.0010263691656291485, -0.049407392740249634, 0.011517158709466457, 0.003382923314347863, -0.06601808220148087, -0.8788717985153198, -1.0469064712524414, 0.05372583121061325, -0.9815413239454355, -0.9749108962272146, -0.9816172400803899, 9362.0, 30146.0, 35388.0, 9362.0, 8.370248794555664, 1.1292920112609863, 0.3601849377155304, 0.1590910255908966, -0.0850439965724945, -0.03546563908457756, 0.9967651963233948, -0.1019347757101059, -0.14711761474609375, 1.48388671875, 1.503662109375, 0.2029876708984375, 1.491943359375
68093, -0.01591607742011547, -0.12089210003614426, 0.07751159369945526, 0.005638728383928537, 0.001131913741119206, -0.05142521485686302, 0.012104092165827751, 0.0036294138990342617, -0.06790324300527573, -0.8788986206054688, -1.0469142198562622, 0.05371669679880142, -0.973194993230764, -0.9735945973389732, -0.9773159181409442, 9362.0, 30146.0, 35388.0, 9362.0, 8.370248794555664, 1.1114906072616577, 0.14338241517543793, -0.06337226182222366, -0.08805146813392639, -0.03304962068796158, 0.9943674206733704, -0.1019347757101059, -0.14711761474609375, 1.48388671875, 1.503662109375, 0.2029876708984375, 1.491943359375
68103, -0.00753192650154233, -0.12064491957426071, 0.07371698319911957, 0.005760790314525366, 0.001168428105302155, -0.05210475996136665, 0.0123083321377635, 0.003673471510410309, -0.06800530850887299, -0.8788955211639404, -1.0469187498092651, 0.053732916712760925, -0.9682454609700832, -0.9760606624626575, -0.9759797209414949, 9362.0, 30146.0, 35388.0, 9362.0, 8.370248794555664, 0.6784733533859253, -0.23748613893985748, -0.4779394268989563, -0.08919303119182587, -0.0332745797932148, 0.9918494820594788, -0.1019347757101059, -0.14711761474609375, 1.48388671875, 1.503662109375, 0.2029876708984375, 1.491943359375
68113, -0.001383227645419538, -0.11920040100812912, 0.06776299327611923, 0.005884901154786348, 0.0012052995152771473, -0.05278819426894188, 0.012513861060142517, 0.0037008977960795164, -0.06868094950914383, -0.8788958191871643, -1.0469263792037964, 0.05371793732047081, -0.9647861032771379, -0.9675050813291364, -0.9820209381604896, 9362.0, 30146.0, 35388.0, 9362.0, 8.370248794555664, 0.4689111113548279, -0.16060352325439453, -0.8014376759529114, -0.08446846902370453, -0.03169528767466545, 0.9962576031684875, -0.1019347757101059, -0.14711761474609375, 1.48388671875, 1.503662109375, 0.2029876708984375, 1.491943359375
68123, 0.003129011020064354, -0.11762381345033646, 0.06226606294512749, 0.005884901154786348, 0.0012052995152771473, -0.05278819426894188, 0.012513861060142517, 0.0037008977960795164, -0.06868094950914383, -0.8788942694664001, -1.0469272136688232, 0.053729329258203506, -0.9693300561363519, -0.9661170135167936, -0.9866754962949613, 9362.0, 30146.0, 35388.0, 9362.0, 8.370248794555664, 0.2782476544380188, -0.049211982637643814, -0.48337045311927795, -0.08446846902370453, -0.03169528767466545, 0.9962576031684875, -0.1019347757101059, -0.14711761474609375, 1.48388671875, 1.503662109375, 0.2029876708984375, 1.491943359375
68153, 0.005026106722652912, -0.10708915442228317, 0.04037392884492874, 0.006401722319424152, 0.0013537354534491897, -0.055562250316143036, 0.013318630866706371, 0.0037021329626441, -0.06934242695569992, -0.8789426684379578, -1.0469192266464233, 0.0536823496222496, -0.9887594814640024, -0.9403645433640122, -0.9683964025241771, 9362.0, 30146.0, 35388.0, 9362.0, 8.370248794555664, 0.06828434020280838, -0.4473993182182312, -0.6493403911590576, -0.0834587961435318, -0.03017532080411911, 0.9913777709007263, -0.1019347757101059, -0.14711761474609375, 1.48388671875, 1.503662109375, 0.2029876708984375, 1.496337890625
68163, 0.0017710021929815412, -0.10284628719091415, 0.03354687988758087, 0.006535838358104229, 0.0013907107058912516, -0.05625879392027855, 0.01350464578717947, 0.0036928781773895025, -0.06996573507785797, -0.8789185881614685, -1.0469233989715576, 0.05373823270201683, -0.969205713944144, -0.9572393678142532, -0.9821429821453082, 9362.0, 30146.0, 35388.0, 9362.0, 8.370248794555664, -0.6528878211975098, -0.6538434028625488, -0.637933075428009, -0.0848841741681099, -0.029541634023189545, 0.9958736300468445, -0.1019347757101059, -0.14711761474609375, 1.48388671875, 1.503662109375, 0.2029876708984375, 1.496337890625
68173, -0.004940596874803305, -0.10141423344612122, 0.027006784453988075, 0.006671795155853033, 0.0014275973662734032, -0.05696185678243637, 0.013686783611774445, 0.0036844012793153524, -0.0706467553973198, -0.8789046406745911, -1.0469175577163696, 0.05374174565076828, -0.9774190876549322, -0.9558374725998817, -0.9874718213899081, 9362.0, 30146.0, 35388.0, 9362.0, 8.370248794555664, -0.7396747469902039, 0.11125294119119644, -0.757659912109375, -0.0830976739525795, -0.029998186975717545, 0.9992260336875916, -0.1019347757101059, -0.14711761474609375, 1.48388671875, 1.503662109375, 0.2029876708984375, 1.496337890625
68243, -0.06939961761236191, -0.10572818666696548, 0.037096403539180756, 0.007671946194022894, 0.00169078866019845, -0.06200437247753143, 0.014881019480526447, 0.00395677937194705, -0.07339449226856232, -0.8789495229721069, -1.0468690395355225, 0.05367382988333702, -1.0190791504300978, -0.9355764351464302, -0.979476559865662, 9362.0, 30146.0, 35388.0, 9362.0, 8.370248794555664, -0.7014560103416443, 0.26315516233444214, 0.7219039797782898, -0.0818101242184639, -0.04034746065735817, 0.9947600960731506, -0.1093841940164566, -0.04855918884277344, 1.491943359375, 1.503662109375, 0.2029876708984375, 1.496337890625
68273, -0.07862654328346252, -0.11703084409236908, 0.06493494659662247, 0.008126423694193363, 0.001814488205127418, -0.06422534584999084, 0.015422427095472813, 0.0043046376667916775, -0.0746670737862587, -0.8789323568344116, -1.046857237815857, 0.05366583168506622, -1.0292623994994177, -0.947029589547526, -0.9696252666637307, 9362.0, 30146.0, 35388.0, 9362.0, 8.370248794555664, 3.8097692595329136e-05, 0.5611598491668701, 0.899537205696106, -0.0819348692893982, -0.039471205323934555, 0.998416006565094, -0.1093841940164566, -0.04855918884277344, 1.491943359375, 1.503662109375, 0.2029876708984375, 1.496337890625
