timeTick, roll, pitch, yaw, stateX, stateY, stateZ, stateVX, stateVY, stateVZ, otX0, otY0, otZ0, otRoll0, otPitch0, otYaw0, left wing, pitch motor, yaw motor, right wing, voltage, roll rate, pitch rate, yaw rate, A_x, A_y, A_z, current, i_raw, v_raw, airflow_voltage, airflow_speed, pot_Pitch
40272, -0.3692624568939209, -1.9480847120285034, 12.196955680847168, 0, 0, 0, 0, 0, 0, -0.8655239939689636, -1.0592957735061646, 0.0525154285132885, -0.7714209806810751, -1.3430504229724818, 0.12030128772052306, 0, 0, 0, 0, 0, 0, 0, 0, 0, 0, 0, 0, 0, 0, 0, 0, 0
40282, -0.3706125020980835, -1.9460729360580444, 12.196978569030762, -0.0014449821319431067, -0.0006112902192398906, -32.13187789916992, -0.04349220171570778, -0.018398543819785118, -1.661992073059082, -0.8655646443367004, -1.0592734813690186, 0.0525534562766552, -0.7787308181355861, -1.3129350430437796, 0.12224563103364172, 9362.0, 30146.0, 35388.0, 9362.0, 0, 0.04716471582651138, -0.1268922984600067, -0.4125593602657318, 0, 0, 0, 0, 0, 0, 0, 0, 0
40292, -0.37070557475090027, -1.9462881088256836, 12.195335388183594, -0.0018643608782440424, -0.0007886996027082205, -32.148502349853516, -0.04038352891802788, -0.017083337530493736, -1.6625910997390747, -0.8656589388847351, -1.059117078781128, 0.05301016569137573, -0.6002737718080005, -1.1231872893323498, 0.25246445822533337, 9362.0, 30146.0, 35388.0, 9362.0, 0, 0.22207902371883392, 0.3152135908603668, 0.08572640269994736, -0.09859609603881836, -0.029202556237578392, 0.9933729767799377, 0, 0, 0, 1.39013671875, 0.0314483642578125, 0
40302, -0.3706686198711395, -1.9475053548812866, 12.195048332214355, -0.0022526809480041265, -0.0009529530652798712, -32.165130615234375, -0.03728044405579567, -0.015767447650432587, -1.6632459163665771, -0.8655617833137512, -1.059282660484314, 0.052531465888023376, -0.7780298921611057, -1.3174927165450185, 0.11786918392525338, 9362.0, 30146.0, 35388.0, 9362.0, 0, 0.027609415352344513, -0.12599867582321167, -0.2039964646100998, -0.09867974370718002, -0.028619898483157158, 0.9957464933395386, 0, 0, 0, 1.28173828125, 0.0802001953125, 1.4853515625
40312, -0.37163373827934265, -1.9454599618911743, 12.194007873535156, -0.002609939780086279, -0.0011040348326787353, -32.181766510009766, -0.03417132422327995, -0.014448913745582104, -1.6637210845947266, -0.8655482530593872, -1.0592786073684692, 0.05253347381949425, -0.7773223098512878, -1.3134910198886018, 0.10505222779936195, 9362.0, 30146.0, 35388.0, 9362.0, 0, -0.258638858795166, -0.1204775869846344, 0.10037355870008469, -0.09856121242046356, -0.02966405265033245, 0.9956749081611633, 0, 0, 0, 1.39013671875, 0.0314483642578125, 1.4853515625
40322, -0.3727145195007324, -1.944922685623169, 12.19450569152832, -0.002936098724603653, -0.0012419300619512796, -32.19840621948242, -0.031060410663485527, -0.01313018798828125, -1.664205551147461, -0.865662693977356, -1.0591180324554443, 0.05301152169704437, -0.6007384739725694, -1.1270660280356424, 0.2610617213972928, 9362.0, 30146.0, 35388.0, 9362.0, 0, -0.19677521288394928, -0.15509290993213654, -0.15225328505039215, -0.10026821494102478, -0.031793247908353806, 0.9961217641830444, 0, 0, 0, 1.489013671875, 0.174041748046875, 1.4912109375
40332, -0.37393635511398315, -1.94423246383667, 12.194303512573242, -0.0032311577815562487, -0.0013666299637407064, -32.215049743652344, -0.027951395139098167, -0.011809767223894596, -1.6646310091018677, -0.8655286431312561, -1.0592501163482666, 0.05243826285004616, -0.7541472598063207, -1.3069765776757833, 0.09906385140280108, 9362.0, 30146.0, 35388.0, 9362.0, 0, -0.1374213844537735, -0.15701718628406525, 0.09328500926494598, -0.09892361611127853, -0.030470341444015503, 0.995337188243866, 0, 0, 0, 1.450927734375, 0.1063690185546875, 1.4912109375
40342, -0.3745540380477905, -1.9412137269973755, 12.193805694580078, -0.0034951437264680862, -0.0014781219651922584, -32.23169708251953, -0.02484576404094696, -0.010488645173609257, -1.665122628211975, -0.8656629920005798, -1.0590912103652954, 0.05293313041329384, -0.564866899647287, -1.0996929869790222, 0.23769051539872435, 9362.0, 30146.0, 35388.0, 9362.0, 0, 0.02152589149773121, 0.0076964618638157845, -0.3038468360900879, -0.1015942171216011, -0.027834584936499596, 0.9957892298698425, 0, 0, 0, 1.390869140625, 0.0319671630859375, 1.494873046875
40352, -0.3741801679134369, -1.94336998462677, 12.192634582519531, -0.0037280800752341747, -0.0015763933770358562, -32.24835205078125, -0.021741505712270737, -0.00916567537933588, -1.6656079292297363, -0.8656688928604126, -1.0591198205947876, 0.05300356447696686, -0.6043480454071153, -1.1175677857624464, 0.2526880991380794, 9362.0, 30146.0, 35388.0, 9362.0, 0, 0.11788145452737808, 0.2005864828824997, 0.17485839128494263, -0.10097507387399673, -0.027781646698713303, 0.9958229064941406, 0, 0, 0, 1.301513671875, 0.046966552734375, 1.494873046875
40362, -0.37361013889312744, -1.9449210166931152, 12.193387985229492, -0.003929998259991407, -0.0016614347696304321, -32.265010833740234, -0.01864212192595005, -0.00784266460686922, -1.666081428527832, -0.8656443953514099, -1.0591294765472412, 0.052996471524238586, -0.6047397038850114, -1.1284259262862975, 0.24392305656718952, 9362.0, 30146.0, 35388.0, 9362.0, 0, 0.08146284520626068, 0.083448126912117, -0.22886472940444946, -0.0982976108789444, -0.02976231463253498, 0.9944979548454285, 0, 0, 0, 1.273681640625, 0.0975494384765625, 1.493408203125
40372, -0.3739180862903595, -1.9458296298980713, 12.192386627197266, -0.004100925754755735, -0.001733254874125123, -32.281673431396484, -0.015543370507657528, -0.006521307863295078, -1.666691541671753, -0.8655602931976318, -1.059296727180481, 0.052529387176036835, -0.7790566735617676, -1.305616276488962, 0.11306413580628223, 9362.0, 30146.0, 35388.0, 9362.0, 8.112398147583008, -0.16028521955013275, -0.13115555047988892, -0.06521587818861008, -0.10029402375221252, -0.02980058081448078, 0.9944055676460266, 0, 0, 0, 1.402587890625, 0.0425262451171875, 1.493408203125
40382, -0.37440741062164307, -1.9453575611114502, 12.191275596618652, -0.004240855108946562, -0.0017918646335601807, -32.298343658447266, -0.01244252547621727, -0.005200715269893408, -1.667324423789978, -0.8655386567115784, -1.059282898902893, 0.0525449775159359, -0.7732305784272963, -1.3193567544940095, 0.11854640832910592, 9362.0, 30146.0, 35388.0, 9362.0, 8.112398147583008, -0.06474178284406662, 0.18030813336372375, 0.0744565799832344, -0.09959407150745392, -0.031027376651763916, 0.9940008521080017, -0.08724180608987808, 0.05896186828613281, 1.500732421875, 1.4208984375, 0.063079833984375, 1.491943359375
40392, -0.3748309910297394, -1.9459538459777832, 12.192084312438965, -0.004349770490080118, -0.0018372652120888233, -32.31502151489258, -0.009340530261397362, -0.003879457013681531, -1.6679661273956299, -0.8664807677268982, -1.0591877698898315, 0.053179748356342316, -0.3961454652072496, -0.494488224767764, 0.36762834641915315, 9362.0, 30146.0, 35388.0, 9362.0, 8.112398147583008, 0.06091514602303505, -0.04505717754364014, -0.030899496749043465, -0.09684021770954132, -0.03173074498772621, 0.9941604137420654, -0.08724180608987808, 0.05896186828613281, 1.500732421875, 1.423095703125, 0.06591796875, 1.491943359375
40402, -0.37493011355400085, -1.9463026523590088, 12.191598892211914, -0.004427668638527393, -0.0018694495083764195, -32.331703186035156, -0.006239150185137987, -0.0025573524180799723, -1.6685962677001953, -0.8655561208724976, -1.059287190437317, 0.05252641811966896, -0.7726280944332051, -1.3143378947853819, 0.12303987157516709, 9362.0, 30146.0, 35388.0, 9362.0, 8.112398147583008, 0.06178771331906319, -0.41536417603492737, -0.09530945122241974, -0.09884608536958694, -0.030282560735940933, 0.9942822456359863, -0.08724180608987808, 0.05896186828613281, 1.500732421875, 1.36083984375, 0.016387939453125, 1.490478515625
40412, -0.3753368854522705, -1.943578839302063, 12.192110061645508, -0.004474541172385216, -0.0018884046003222466, -32.348392486572266, -0.003135347506031394, -0.0012336871586740017, -1.6691769361495972, -0.8655611872673035, -1.0592801570892334, 0.05252929776906967, -0.7733354377722755, -1.3081338386907646, 0.1229880448142203, 9362.0, 30146.0, 35388.0, 9362.0, 8.112398147583008, 0.017433227971196175, -0.029692649841308594, -0.47489219903945923, -0.09858755767345428, -0.032483454793691635, 0.9940583109855652, -0.08724180608987808, 0.05896186828613281, 1.500732421875, 1.411376953125, 0.05181884765625, 1.490478515625
40422, -0.3753831386566162, -1.941962718963623, 12.189976692199707, -0.004490379244089127, -0.0018941244343295693, -32.36508560180664, -3.22883679473307e-05, 8.97486534086056e-05, -1.669798493385315, -0.865551769733429, -1.0592738389968872, 0.052539657801389694, -0.7763996413436519, -1.3112657149478366, 0.11046260382900973, 9362.0, 30146.0, 35388.0, 9362.0, 8.112398147583008, 0.024680815637111664, 0.11459577083587646, -0.09403610229492188, -0.09788058698177338, -0.033075276762247086, 0.9949834942817688, -0.08724180608987808, 0.05896186828613281, 1.500732421875, 1.415771484375, 0.0568695068359375, 1.48828125
40432, -0.37515145540237427, -1.9411062002182007, 12.188454627990723, -0.004475194029510021, -0.0018866043537855148, -32.38178634643555, 0.0030693865846842527, 0.0014141473220661283, -1.6703180074691772, -0.8655487298965454, -1.0592820644378662, 0.05253925174474716, -0.7773901752274498, -1.3167037140204059, 0.11415639308575766, 9362.0, 30146.0, 35388.0, 9362.0, 8.112398147583008, 0.004552091471850872, -0.020384792238473892, -0.19446353614330292, -0.10006393492221832, -0.03126438334584236, 0.995242714881897, -0.08724180608987808, 0.05896186828613281, 1.500732421875, 1.281005859375, 0.0816650390625, 1.48828125
40442, -0.3756316006183624, -1.9425221681594849, 12.188546180725098, -0.004429013002663851, -0.0018658466869965196, -32.39849090576172, 0.00616683904081583, 0.0027373116463422775, -1.6708858013153076, -0.8655213713645935, -1.0592982769012451, 0.05251580849289894, -0.7683269360548342, -1.347337928015122, 0.12533710627659966, 9362.0, 30146.0, 35388.0, 9362.0, 8.112398147583008, -0.0708351731300354, 0.12599976360797882, -0.14375048875808716, -0.09974333643913269, -0.0326494425535202, 0.9954926371574402, -0.08724180608987808, 0.05896186828613281, 1.500732421875, 1.367431640625, 0.0183258056640625, 1.49560546875
40452, -0.376219779253006, -1.9444057941436768, 12.189604759216309, -0.00435185432434082, -0.001831857138313353, -32.41520309448242, 0.009264851920306683, 0.004060595296323299, -1.671392798423767, -0.8656285405158997, -1.0591270923614502, 0.05299653112888336, -0.5997649877411639, -1.1445853432678632, 0.2536013285660389, 9362.0, 30146.0, 35388.0, 9362.0, 8.112398147583008, 0.20385292172431946, 0.34422698616981506, 0.0431249625980854, -0.0988537147641182, -0.030814576894044876, 0.9962084889411926, -0.08724180608987808, 0.05896186828613281, 1.500732421875, 1.44287109375, 0.0936279296875, 1.49560546875
40462, -0.3758816123008728, -1.9456098079681396, 12.189446449279785, -0.00424369378015399, -0.0017846234841272235, -32.43191909790039, 0.012367242015898228, 0.0053861914202570915, -1.6718308925628662, -0.8656594753265381, -1.0591144561767578, 0.052984289824962616, -0.6089561318946544, -1.1217929127887771, 0.2584169972779202, 9362.0, 30146.0, 35388.0, 9362.0, 8.112398147583008, -0.08767104148864746, -0.015626348555088043, 0.26096317172050476, -0.09914261847734451, -0.03147057071328163, 0.9961261749267578, -0.08724180608987808, 0.05896186828613281, 1.500732421875, 1.351318359375, 0.0153350830078125, 1.491943359375
40472, -0.376761257648468, -1.9472731351852417, 12.192394256591797, -0.004104492720216513, -0.0017241244204342365, -32.448638916015625, 0.01547296717762947, 0.00671361293643713, -1.6722562313079834, -0.8656730651855469, -1.0591278076171875, 0.05298890918493271, -0.607118080063962, -1.118573484200823, 0.2556237314027597, 9362.0, 30146.0, 35388.0, 9362.0, 8.112398147583008, 0.0819031298160553, 0.18029093742370605, 0.2610052525997162, -0.09958207607269287, -0.03322825953364372, 0.9958409667015076, -0.08724180608987808, 0.05896186828613281, 1.500732421875, 1.371826171875, 0.02008056640625, 1.491943359375
40482, -0.37615853548049927, -1.9489169120788574, 12.194156646728516, -0.003934226464480162, -0.0016503529623150826, -32.465362548828125, 0.018580187112092972, 0.00804082304239273, -1.6726988554000854, -0.8655500411987305, -1.0592796802520752, 0.05254165828227997, -0.7725972648208145, -1.317024205113313, 0.11523058580578706, 9362.0, 30146.0, 35388.0, 9362.0, 8.112398147583008, -0.05164727196097374, 0.0012308231089264154, 0.09827340394258499, -0.10044044256210327, -0.029065394774079323, 0.9973486661911011, -0.10668761283159256, -0.13815879821777344, 1.484619140625, 1.390869140625, 0.0319671630859375, 1.49560546875
40492, -0.37639662623405457, -1.9491311311721802, 12.194015502929688, -0.0037328582257032394, -0.001563290716148913, -32.48208999633789, 0.021693414077162743, 0.009371730498969555, -1.6730290651321411, -0.8655253648757935, -1.0593018531799316, 0.05250103771686554, -0.7680184709387216, -1.3443123681973645, 0.12537888319936683, 9362.0, 30146.0, 35388.0, 9362.0, 8.112398147583008, 0.02607603929936886, 0.19672618806362152, -0.2167612612247467, -0.09731902182102203, -0.030537862330675125, 0.9961228370666504, -0.10668761283159256, -0.13815879821777344, 1.484619140625, 1.333740234375, 0.0189361572265625, 1.49560546875
40502, -0.37623098492622375, -1.9513251781463623, 12.193643569946289, -0.003500360995531082, -0.0014629284851253033, -32.49882125854492, 0.024806039407849312, 0.01070069707930088, -1.6734707355499268, -0.8655281066894531, -1.0592856407165527, 0.05250469595193863, -0.7699962432603237, -1.3415516963203515, 0.12915617371437627, 9362.0, 30146.0, 35388.0, 9362.0, 8.112398147583008, -0.0007602034020237625, -0.050261225551366806, -0.331528902053833, -0.09742571413516998, -0.030122781172394753, 0.9959909319877625, -0.10668761283159256, -0.13815879821777344, 1.484619140625, 1.4296875, 0.07464599609375, 1.49267578125
40512, -0.3765680193901062, -1.9513335227966309, 12.192402839660645, -0.0032367368694394827, -0.0013492746511474252, -32.51555633544922, 0.02791878581047058, 0.012030040845274925, -1.67391836643219, -0.8655600547790527, -1.0592786073684692, 0.052531033754348755, -0.773176765057678, -1.3175172719582235, 0.12189525982487005, 9362.0, 30146.0, 35388.0, 9362.0, 8.112398147583008, -0.022414660081267357, -0.13399173319339752, 0.1514723300933838, -0.09931109845638275, -0.02784133516252041, 0.9956811666488647, -0.10668761283159256, -0.13815879821777344, 1.484619140625, 1.402587890625, 0.0425262451171875, 1.49267578125
40522, -0.376571387052536, -1.9492276906967163, 12.192079544067383, -0.002941976534202695, -0.0012223290977999568, -32.53229904174805, 0.031033292412757874, 0.01335899718105793, -1.6744275093078613, -0.8655270338058472, -1.059287667274475, 0.05250491946935654, -0.7682097287426733, -1.3367092596280372, 0.12292189325599535, 9362.0, 30146.0, 35388.0, 9362.0, 8.112398147583008, -0.2363521307706833, -0.3073764443397522, -0.03755543380975723, -0.09759082645177841, -0.02859703078866005, 0.994417667388916, -0.10668761283159256, -0.13815879821777344, 1.484619140625, 1.417236328125, 0.058624267578125, 1.49267578125
40532, -0.37732887268066406, -1.9479888677597046, 12.19256591796875, -0.0026160776615142822, -0.0010820941533893347, -32.54904556274414, 0.03414652869105339, 0.014687991701066494, -1.6749738454818726, -0.8656193614006042, -1.0591375827789307, 0.05297967791557312, -0.5988708017247933, -1.146735143369085, 0.24323231448769111, 9362.0, 30146.0, 35388.0, 9362.0, 8.112398147583008, -0.11968797445297241, 0.15485194325447083, -0.23961350321769714, -0.09794933348894119, -0.029030555859208107, 0.9958282113075256, -0.10668761283159256, -0.13815879821777344, 1.484619140625, 1.278076171875, 0.087799072265625, 1.49267578125
40542, -0.3783903419971466, -1.949247121810913, 12.190753936767578, -0.002259055385366082, -0.0009285694686695933, -32.5657958984375, 0.03725791722536087, 0.016016965731978416, -1.6754679679870605, -0.8655292391777039, -1.0592865943908691, 0.05248228460550308, -0.7739747652964846, -1.3429442067748312, 0.1304735107952703, 9362.0, 30146.0, 35388.0, 9362.0, 8.112398147583008, -0.05947564169764519, 0.04015180841088295, -0.07073520123958588, -0.0993749350309372, -0.031698767095804214, 0.9956523180007935, -0.10668761283159256, -0.13815879821777344, 1.484619140625, 1.412109375, 0.0526123046875, 1.48974609375
40552, -0.3786923885345459, -1.9503026008605957, 12.191788673400879, -0.0018709322903305292, -0.0007617514347657561, -32.58255386352539, 0.040366724133491516, 0.017346538603305817, -1.6759705543518066, -0.8663867115974426, -1.0591920614242554, 0.053256988525390625, -0.47801479213760584, -0.5853302766732043, 0.3802676615772509, 9362.0, 30146.0, 35388.0, 9362.0, 8.112398147583008, -0.15602612495422363, 0.2640335261821747, 0.18582186102867126, -0.0979105681180954, -0.030040133744478226, 0.9941647052764893, -0.10668761283159256, -0.13815879821777344, 1.484619140625, 1.282470703125, 0.0786590576171875, 1.48974609375
40562, -0.380423367023468, -1.9512276649475098, 12.19218635559082, -0.0014517315430566669, -0.0005816352786496282, -32.59931564331055, 0.043473392724990845, 0.018676752224564552, -1.6765931844711304, -0.8655169010162354, -1.0592927932739258, 0.05251162499189377, -0.7708636908328885, -1.3411863803166568, 0.12337168722813027, 9362.0, 30146.0, 35388.0, 9362.0, 8.112398147583008, 0.10895898193120956, 0.2609105110168457, -0.23894189298152924, -0.09861025214195251, -0.02980002760887146, 0.9946584105491638, -0.10668761283159256, -0.13815879821777344, 1.484619140625, 1.301513671875, 0.046966552734375, 1.48974609375
40572, -0.38092270493507385, -1.9518074989318848, 12.192403793334961, -0.0010014547733590007, -0.00038821171619929373, -32.616085052490234, 0.0465819351375103, 0.020007967948913574, -1.6772081851959229, -0.8655368685722351, -1.0592584609985352, 0.052428457885980606, -0.7498997591671017, -1.3049513145809044, 0.0979774072505274, 9362.0, 30146.0, 35388.0, 9362.0, 8.132232666015625, 0.015596570447087288, -0.13227355480194092, 0.3069791793823242, -0.09771443903446198, -0.030119646340608597, 0.9948759078979492, -0.10668761283159256, -0.13815879821777344, 1.484619140625, 1.379150390625, 0.0238189697265625, 1.48974609375
40582, -0.3814426064491272, -1.9518523216247559, 12.19394302368164, -0.0005200760206207633, -0.00018145465583074838, -32.63285827636719, 0.04969382286071777, 0.021343452855944633, -1.677747368812561, -0.8655588626861572, -1.059242606163025, 0.052476249635219574, -0.7554431038911675, -1.2899179626159025, 0.09887451720506146, 9362.0, 30146.0, 35388.0, 9362.0, 8.132232666015625, 0.19158978760242462, 0.06916224956512451, 0.10956360399723053, -0.09973550587892532, -0.028846073895692825, 0.9961365461349487, -0.17947587370872498, 0.0052013397216796875, 1.496337890625, 1.385009765625, 0.0276336669921875, 1.491943359375
40592, -0.38002732396125793, -1.9523831605911255, 12.19499397277832, -7.565715350210667e-06, 3.8666301406919956e-05, -32.64963912963867, 0.05280821770429611, 0.022680817171931267, -1.6782318353652954, -0.8656666874885559, -1.0591179132461548, 0.052993111312389374, -0.6039127642314526, -1.119674033455027, 0.2519034627759094, 9362.0, 30146.0, 35388.0, 9362.0, 8.132232666015625, -0.05409089848399162, -0.2297065109014511, -0.047566596418619156, -0.10016476362943649, -0.02593528851866722, 0.9934877753257751, -0.17947587370872498, 0.0052013397216796875, 1.496337890625, 1.33740234375, 0.0175323486328125, 1.491943359375
40602, -0.38023877143859863, -1.950279951095581, 12.195582389831543, 0.0005360638024285436, 0.00027215539012104273, -32.66642379760742, 0.0559176504611969, 0.02401706762611866, -1.678866982460022, -0.8655626177787781, -1.0592342615127563, 0.05247883126139641, -0.7601783276332722, -1.2888583460469363, 0.08505742506429358, 9362.0, 30146.0, 35388.0, 9362.0, 8.132232666015625, -0.10084419697523117, 0.058905404061079025, 0.0773550271987915, -0.10180039703845978, -0.026835856959223747, 0.9963597655296326, -0.17947587370872498, 0.0052013397216796875, 1.496337890625, 1.389404296875, 0.03082275390625, 1.4912109375
40612, -0.38038164377212524, -1.9510667324066162, 12.197665214538574, 0.0011108224280178547, 0.0005190084921196103, -32.6832160949707, 0.05903410166501999, 0.025353584438562393, -1.679326057434082, -0.8663705587387085, -1.0591847896575928, 0.053268495947122574, -0.47115928192729517, -0.6018056799353246, 0.37215691354337693, 9362.0, 30146.0, 35388.0, 9362.0, 8.132232666015625, -0.09152793139219284, -0.4239536225795746, 0.0051381769590079784, -0.09969398379325867, -0.03236351162195206, 0.9944986701011658, -0.17947587370872498, 0.0052013397216796875, 1.496337890625, 1.363037109375, 0.0169219970703125, 1.4912109375
40622, -0.3801947236061096, -1.9489508867263794, 12.198843955993652, 0.0017167064361274242, 0.0007792158285155892, -32.70001220703125, 0.06214265525341034, 0.026687979698181152, -1.6799179315567017, -0.8656614422798157, -1.0591071844100952, 0.05300944671034813, -0.6103022147066575, -1.1191524719906454, 0.248141205235245, 9362.0, 30146.0, 35388.0, 9362.0, 8.132232666015625, -0.04037947952747345, 0.1920178085565567, -0.14206022024154663, -0.09828633069992065, -0.0294888224452734, 0.9948326349258423, -0.17947587370872498, 0.0052013397216796875, 1.496337890625, 1.352783203125, 0.015350341796875, 1.496337890625
40632, -0.38096070289611816, -1.9493533372879028, 12.19874382019043, 0.0023536784574389458, 0.0010527686681598425, -32.71681594848633, 0.06525174528360367, 0.02802266553044319, -1.680532693862915, -0.8656689524650574, -1.0591132640838623, 0.052994340658187866, -0.606991941534943, -1.12520409202844, 0.24482715036711522, 9362.0, 30146.0, 35388.0, 9362.0, 8.132232666015625, -0.06357777118682861, 0.22713343799114227, 0.030755609273910522, -0.09847942739725113, -0.027314798906445503, 0.9936257004737854, -0.17947587370872498, 0.0052013397216796875, 1.496337890625, 1.352783203125, 0.015350341796875, 1.496337890625
40642, -0.3804619312286377, -1.9512218236923218, 12.1983060836792, 0.0030217200983315706, 0.001339661655947566, -32.73362350463867, 0.06835661083459854, 0.029355935752391815, -1.681171178817749, -0.8655587434768677, -1.0592992305755615, 0.05254108086228371, -0.7802968255332365, -1.35126801973297, 0.12607448138854283, 9362.0, 30146.0, 35388.0, 9362.0, 8.132232666015625, -0.11190561950206757, -0.266419917345047, 0.2543509900569916, -0.09847942739725113, -0.027314798906445503, 0.9936257004737854, -0.17947587370872498, 0.0052013397216796875, 1.496337890625, 1.352783203125, 0.015350341796875, 1.4970703125
40652, -0.3811911940574646, -1.949293851852417, 12.198671340942383, 0.0030217200983315706, 0.001339661655947566, -32.73362350463867, 0.06835661083459854, 0.029355935752391815, -1.681171178817749, -0.8656828999519348, -1.0591403245925903, 0.05302680656313896, -0.624861863876706, -1.1620303394453515, 0.2561711411538298, 9362.0, 30146.0, 35388.0, 9362.0, 8.132232666015625, 0.15592306852340698, -0.08484695106744766, 0.08645372837781906, -0.09847942739725113, -0.027314798906445503, 0.9936257004737854, -0.17947587370872498, 0.0052013397216796875, 1.496337890625, 1.352783203125, 0.015350341796875, 1.4970703125
40662, -0.3804476857185364, -1.948489785194397, 12.19828987121582, 0.0044511109590530396, 0.001953531987965107, -32.76725769042969, 0.07458712160587311, 0.032032303512096405, -1.6819249391555786, -0.8656086325645447, -1.059317946434021, 0.0525565929710865, -0.7881829514369614, -1.3433754034843162, 0.1252173489586316, 9362.0, 30146.0, 35388.0, 9362.0, 8.132232666015625, -0.16680827736854553, -0.043751876801252365, 0.06592836230993271, -0.09995727986097336, -0.02758050709962845, 0.9973242878913879, -0.17947587370872498, 0.0052013397216796875, 1.496337890625, 1.352783203125, 0.015350341796875, 1.4970703125
40682, -0.3830517828464508, -1.9509260654449463, 12.199243545532227, 0.0052125537768006325, 0.0022805503103882074, -32.784080505371094, 0.07770152390003204, 0.033371344208717346, -1.682270884513855, -0.8656044006347656, -1.0593125820159912, 0.05256200209259987, -0.7897770771166238, -1.339417938211966, 0.12048983957566094, 9362.0, 30146.0, 35388.0, 9362.0, 8.112398147583008, -0.30926933884620667, 0.13054566085338593, -0.21315382421016693, -0.09786555171012878, -0.028613420203328133, 0.9947686195373535, -0.11136814206838608, -0.22775840759277344, 1.477294921875, 1.352783203125, 0.015350341796875, 1.4970703125
40692, -0.38151314854621887, -1.9517821073532104, 12.199833869934082, 0.0052125537768006325, 0.0022805503103882074, -32.784080505371094, 0.07770152390003204, 0.033371344208717346, -1.682270884513855, -0.8655962944030762, -1.0593074560165405, 0.05254282429814339, -0.793667290866677, -1.3372983345967668, 0.11830979663000778, 9362.0, 30146.0, 35388.0, 9362.0, 8.112398147583008, -0.08721636980772018, -0.048046085983514786, 0.13756774365901947, -0.09786555171012878, -0.028613420203328133, 0.9947686195373535, -0.11136814206838608, -0.22775840759277344, 1.477294921875, 1.352783203125, 0.015350341796875, 1.4970703125
40702, -0.3821280598640442, -1.949568510055542, 12.19931411743164, 0.007683614268898964, 0.0033418836537748575, -32.834571838378906, 0.08704135566949844, 0.03738926723599434, -1.683438777923584, -0.8655912280082703, -1.0593150854110718, 0.052556902170181274, -0.7905830447285224, -1.343222945321827, 0.12539216651632826, 9362.0, 30146.0, 35388.0, 9362.0, 8.112398147583008, -0.05416138097643852, -0.31719040870666504, -0.1481766253709793, -0.0998002365231514, -0.029971376061439514, 0.9959530830383301, -0.11136814206838608, -0.22775840759277344, 1.477294921875, 1.352783203125, 0.015350341796875, 1.49267578125
40712, -0.38322317600250244, -1.9472736120224, 12.199037551879883, 0.008569609373807907, 0.003722474444657564, -32.851409912109375, 0.09015762060880661, 0.03872886672616005, -1.6838523149490356, -0.8655670881271362, -1.0593392848968506, 0.05252744257450104, -0.7776819709570243, -1.3630565342480736, 0.13365389710373776, 9362.0, 30146.0, 35388.0, 9362.0, 8.112398147583008, 0.0344405360519886, -0.08273615688085556, 0.031950898468494415, -0.0998002365231514, -0.029971376061439514, 0.9959530830383301, -0.11136814206838608, -0.22775840759277344, 1.477294921875, 1.352783203125, 0.015350341796875, 1.49267578125
40802, -0.38918182253837585, -1.9446444511413574, 12.203531265258789, 0.01794082671403885, 0.007751055061817169, -33.003170013427734, 0.1180669516324997, 0.05080746114253998, -1.6885385513305664, -0.8655763864517212, -1.0593246221542358, 0.05254243314266205, -0.7797542859632278, -1.3675088689927293, 0.12824037878309058, 9362.0, 30146.0, 35388.0, 9362.0, 8.112398147583008, 0.0069226427003741264, 0.21376079320907593, -0.17406629025936127, -0.09902045130729675, -0.03190797567367554, 0.9953131079673767, -0.11136814206838608, -0.22775840759277344, 1.477294921875, 1.352783203125, 0.015350341796875, 1.4912109375
40812, -0.3893807530403137, -1.9460172653198242, 12.202704429626465, 0.01794082671403885, 0.007751055061817169, -33.003170013427734, 0.1180669516324997, 0.05080746114253998, -1.6885385513305664, -0.8656012415885925, -1.0593175888061523, 0.05256856232881546, -0.7979556555058389, -1.3415212242205143, 0.12178380579461463, 9362.0, 30146.0, 35388.0, 9362.0, 8.112398147583008, -0.07249981164932251, -0.41759055852890015, -0.3622604012489319, -0.09902045130729675, -0.03190797567367554, 0.9953131079673767, -0.11136814206838608, -0.22775840759277344, 1.477294921875, 1.352783203125, 0.015350341796875, 1.4912109375
40822, -0.3898852467536926, -1.9449282884597778, 12.199474334716797, 0.020364170894026756, 0.008794184774160385, -33.036949157714844, 0.12426841259002686, 0.05350610613822937, -1.6894053220748901, -0.8655890822410583, -1.059310793876648, 0.052568674087524414, -0.796224213843012, -1.3374620303855238, 0.11648520874542392, 9362.0, 30146.0, 35388.0, 9362.0, 8.112398147583008, 0.07644499838352203, 0.1961686760187149, 0.005383733659982681, -0.09815093129873276, -0.027764346450567245, 0.9963842034339905, -0.11136814206838608, -0.22775840759277344, 1.477294921875, 1.352783203125, 0.015350341796875, 1.4912109375
40832, -0.38867810368537903, -1.945669174194336, 12.199429512023926, 0.020364170894026756, 0.008794184774160385, -33.036949157714844, 0.12426841259002686, 0.05350610613822937, -1.6894053220748901, -0.8656073212623596, -1.0593156814575195, 0.052553702145814896, -0.7905765145914524, -1.3480178106712515, 0.12777787519183714, 9362.0, 30146.0, 35388.0, 9362.0, 8.112398147583008, 0.09418370574712753, 0.1936892569065094, -0.28844836354255676, -0.09815093129873276, -0.027764346450567245, 0.9963842034339905, -0.11136814206838608, -0.22775840759277344, 1.477294921875, 1.352783203125, 0.015350341796875, 1.4912109375
40842, -0.3883799612522125, -1.9471923112869263, 12.199209213256836, 0.020364170894026756, 0.008794184774160385, -33.036949157714844, 0.12426841259002686, 0.05350610613822937, -1.6894053220748901, -0.8655988574028015, -1.0593115091323853, 0.05255745351314545, -0.7888540107653109, -1.3445932925123998, 0.11807422523764194, 9362.0, 30146.0, 35388.0, 9362.0, 8.112398147583008, 0.08970173448324203, 0.1560058891773224, -0.05119802802801132, -0.09815093129873276, -0.027764346450567245, 0.9963842034339905, -0.11136814206838608, -0.22775840759277344, 1.477294921875, 1.352783203125, 0.015350341796875, 1.4912109375
40852, -0.3896038234233856, -1.9486865997314453, 12.198047637939453, 0.020364170894026756, 0.008794184774160385, -33.036949157714844, 0.12426841259002686, 0.05350610613822937, -1.6894053220748901, -0.8656031489372253, -1.0593111515045166, 0.052576616406440735, -0.7933572313373928, -1.3349935731216647, 0.12153596949361656, 9362.0, 30146.0, 35388.0, 9362.0, 8.112398147583008, -0.0036692821886390448, 0.11971504241228104, -0.2046179324388504, -0.09815093129873276, -0.027764346450567245, 0.9963842034339905, -0.11136814206838608, -0.22775840759277344, 1.477294921875, 1.352783203125, 0.015350341796875, 1.4912109375
40862, -0.3897097706794739, -1.9488844871520996, 12.196992874145508, 0.020364170894026756, 0.008794184774160385, -33.036949157714844, 0.12426841259002686, 0.05350610613822937, -1.6894053220748901, -0.8656063079833984, -1.0593160390853882, 0.05256738141179085, -0.7876124635475055, -1.3400684999473924, 0.13077938854368112, 9362.0, 30146.0, 35388.0, 9362.0, 8.112398147583008, 0.018055854365229607, 0.02966996468603611, -0.23950770497322083, -0.09815093129873276, -0.027764346450567245, 0.9963842034339905, -0.11136814206838608, -0.22775840759277344, 1.477294921875, 1.352783203125, 0.015350341796875, 1.493408203125
40872, -0.38934528827667236, -1.950866460800171, 12.196118354797363, 0.020364170894026756, 0.008794184774160385, -33.036949157714844, 0.12426841259002686, 0.05350610613822937, -1.6894053220748901, -0.8657084703445435, -1.0591484308242798, 0.05302022397518158, -0.6308203032123502, -1.1619537530617947, 0.2572235289201289, 9362.0, 30146.0, 35388.0, 9362.0, 8.112398147583008, 0.018055854365229607, 0.02966996468603611, -0.23950770497322083, -0.09815093129873276, -0.027764346450567245, 0.9963842034339905, -0.11136814206838608, -0.22775840759277344, 1.477294921875, 1.352783203125, 0.015350341796875, 1.493408203125
40882, -0.388337105512619, -1.951392412185669, 12.197144508361816, 0.020364170894026756, 0.008794184774160385, -33.036949157714844, 0.12426841259002686, 0.05350610613822937, -1.6894053220748901, -0.8655845522880554, -1.0593270063400269, 0.05254342779517174, -0.77974902635008, -1.369903594982901, 0.13739977614095944, 9362.0, 30146.0, 35388.0, 9362.0, 8.112398147583008, 0.17731668055057526, 0.0981883630156517, -0.11965681612491608, -0.09815093129873276, -0.027764346450567245, 0.9963842034339905, -0.11136814206838608, -0.22775840759277344, 1.477294921875, 1.352783203125, 0.015350341796875, 1.493408203125
40892, -0.38863205909729004, -1.950020432472229, 12.195746421813965, 0.020364170894026756, 0.008794184774160385, -33.036949157714844, 0.12426841259002686, 0.05350610613822937, -1.6894053220748901, -0.865689754486084, -1.0591498613357544, 0.05304688960313797, -0.6315182576979782, -1.1575852571800453, 0.2536720947041354, 9362.0, 30146.0, 35388.0, 9362.0, 8.112398147583008, 0.02541263960301876, 0.0908411294221878, 0.22718946635723114, -0.09815093129873276, -0.027764346450567245, 0.9963842034339905, -0.11136814206838608, -0.22775840759277344, 1.477294921875, 1.352783203125, 0.015350341796875, 1.493408203125
40902, -0.38758528232574463, -1.948939323425293, 12.197957992553711, 0.020364170894026756, 0.008794184774160385, -33.036949157714844, 0.12426841259002686, 0.05350610613822937, -1.6894053220748901, -0.8656080365180969, -1.0593096017837524, 0.05256478115916252, -0.7906578558362191, -1.337968919561746, 0.1278082929414618, 9362.0, 30146.0, 35388.0, 9362.0, 8.112398147583008, 0.19368596374988556, 0.020324163138866425, 0.2318202555179596, -0.09815093129873276, -0.027764346450567245, 0.9963842034339905, -0.11136814206838608, -0.22775840759277344, 1.477294921875, 1.352783203125, 0.015350341796875, 1.493408203125
40912, -0.38769039511680603, -1.9472202062606812, 12.199485778808594, 0.020364170894026756, 0.008794184774160385, -33.036949157714844, 0.12426841259002686, 0.05350610613822937, -1.6894053220748901, -0.8655766844749451, -1.0593256950378418, 0.0525384359061718, -0.7784057402388352, -1.3620023851589735, 0.13080406152100982, 9362.0, 30146.0, 35388.0, 9362.0, 8.112398147583008, 0.006838725879788399, -0.15708328783512115, 0.14091680943965912, -0.09815093129873276, -0.027764346450567245, 0.9963842034339905, -0.11136814206838608, -0.22775840759277344, 1.477294921875, 1.352783203125, 0.015350341796875, 1.493408203125
40922, -0.3889489471912384, -1.948477864265442, 12.201271057128906, 0.020364170894026756, 0.008794184774160385, -33.036949157714844, 0.12426841259002686, 0.05350610613822937, -1.6894053220748901, -0.8656889200210571, -1.0591386556625366, 0.05302133783698082, -0.6332315089912403, -1.1548599838912992, 0.24662198279004632, 9362.0, 30146.0, 35388.0, 9362.0, 8.112398147583008, 0.028620997443795204, -0.01789429783821106, -0.05374152958393097, -0.09815093129873276, -0.027764346450567245, 0.9963842034339905, -0.11136814206838608, -0.22775840759277344, 1.477294921875, 1.352783203125, 0.015350341796875, 1.493408203125
40932, -0.39018023014068604, -1.9478157758712769, 12.199828147888184, 0.020364170894026756, 0.008794184774160385, -33.036949157714844, 0.12426841259002686, 0.05350610613822937, -1.6894053220748901, -0.8656136393547058, -1.0593219995498657, 0.05255856737494469, -0.7939097116810712, -1.3406980711526728, 0.1291445031383392, 9362.0, 30146.0, 35388.0, 9362.0, 8.112398147583008, -0.15083928406238556, -0.21628285944461823, 0.07308394461870193, -0.09815093129873276, -0.027764346450567245, 0.9963842034339905, -0.11136814206838608, -0.22775840759277344, 1.477294921875, 1.352783203125, 0.015350341796875, 1.493408203125
40942, -0.3907007575035095, -1.9467573165893555, 12.20006275177002, 0.03751074895262718, 0.016186391934752464, -33.24004364013672, 0.1615287959575653, 0.0696982890367508, -1.695357084274292, -0.8656860589981079, -1.059159278869629, 0.053031496703624725, -0.6310140699425061, -1.1530833279403225, 0.24865353313651864, 9362.0, 30146.0, 35388.0, 9362.0, 8.112398147583008, -0.1572410762310028, 0.08781369775533676, 0.12486536800861359, -0.09815093129873276, -0.027764346450567245, 0.9963842034339905, -0.11136814206838608, -0.22775840759277344, 1.477294921875, 1.352783203125, 0.015350341796875, 1.49267578125
40952, -0.3919709324836731, -1.9470174312591553, 12.201475143432617, 0.03751074895262718, 0.016186391934752464, -33.24004364013672, 0.1615287959575653, 0.0696982890367508, -1.695357084274292, -0.8655907511711121, -1.059322714805603, 0.05257262662053108, -0.7961836270154392, -1.3330087836663722, 0.12384448393197893, 9362.0, 30146.0, 35388.0, 9362.0, 8.112398147583008, 0.11354853212833405, 0.18045155704021454, 0.10208950936794281, -0.09815093129873276, -0.027764346450567245, 0.9963842034339905, -0.11136814206838608, -0.22775840759277344, 1.477294921875, 1.352783203125, 0.015350341796875, 1.49267578125
40962, -0.39255523681640625, -1.9474213123321533, 12.202580451965332, 0.04080340266227722, 0.017607396468520164, -33.27396011352539, 0.16773593425750732, 0.0724024847149849, -1.6963064670562744, -0.8656036257743835, -1.0593109130859375, 0.052554864436388016, -0.7904278638029285, -1.345245356235381, 0.1270012115906301, 9362.0, 30146.0, 35388.0, 9362.0, 8.112398147583008, 0.07251735776662827, -0.47974950075149536, -0.131906196475029, -0.09996870905160904, -0.027442293241620064, 0.9957598447799683, -0.11136814206838608, -0.22775840759277344, 1.477294921875, 1.352783203125, 0.015350341796875, 1.490478515625
40972, -0.39135506749153137, -1.9437386989593506, 12.202263832092285, 0.04080340266227722, 0.017607396468520164, -33.27396011352539, 0.16773593425750732, 0.0724024847149849, -1.6963064670562744, -0.8655686378479004, -1.059321403503418, 0.052529044449329376, -0.7818829690750808, -1.3565385389640028, 0.12879954913304706, 9362.0, 30146.0, 35388.0, 9362.0, 8.112398147583008, -0.07776837795972824, 0.009773320518434048, 0.26341772079467773, -0.09996870905160904, -0.027442293241620064, 0.9957598447799683, -0.11136814206838608, -0.22775840759277344, 1.477294921875, 1.352783203125, 0.015350341796875, 1.490478515625
40982, -0.3925420045852661, -1.9444085359573364, 12.202006340026855, 0.04080340266227722, 0.017607396468520164, -33.27396011352539, 0.16773593425750732, 0.0724024847149849, -1.6963064670562744, -0.8656699061393738, -1.0591586828231812, 0.05300417169928551, -0.6191139827986587, -1.172554889798647, 0.25195868932185195, 9362.0, 30146.0, 35388.0, 9362.0, 8.112398147583008, -0.2462022602558136, -0.5681607723236084, 0.13959135115146637, -0.09996870905160904, -0.027442293241620064, 0.9957598447799683, -0.1028418242931366, -0.24567794799804688, 1.475830078125, 1.352783203125, 0.015350341796875, 1.49560546875
40992, -0.3929404318332672, -1.941295862197876, 12.203008651733398, 0.04597510024905205, 0.01984044723212719, -33.32487106323242, 0.1770416796207428, 0.07646655291318893, -1.6976386308670044, -0.8656994700431824, -1.059143304824829, 0.053022533655166626, -0.6289630302402854, -1.1488858933063568, 0.25894516233312487, 9362.0, 30146.0, 35388.0, 9362.0, 8.112398147583008, 0.021116266027092934, -0.20557714998722076, 0.5666319131851196, -0.09996870905160904, -0.027442293241620064, 0.9957598447799683, -0.1028418242931366, -0.24567794799804688, 1.475830078125, 1.352783203125, 0.015350341796875, 1.49560546875
41012, -0.39393746852874756, -1.9434269666671753, 12.205878257751465, 0.04957781732082367, 0.021396847441792488, -33.35883331298828, 0.1832260638475418, 0.07917289435863495, -1.6987833976745605, -0.8656046390533447, -1.0593262910842896, 0.052561163902282715, -0.7940240549639356, -1.3419574948453317, 0.1245946053446848, 9362.0, 30146.0, 35388.0, 9362.0, 8.112398147583008, 0.04060754552483559, -1.4846481462882366e-05, -0.15991641581058502, -0.09996870905160904, -0.027442293241620064, 0.9957598447799683, -0.1028418242931366, -0.24567794799804688, 1.475830078125, 1.352783203125, 0.015350341796875, 1.494140625
41032, -0.3948950171470642, -1.9441752433776855, 12.204319953918457, 0.053304072469472885, 0.023007353767752647, -33.392822265625, 0.18940332531929016, 0.08187954872846603, -1.700070858001709, -0.8656759262084961, -1.0593209266662598, 0.05257363244891167, -0.7848622168673488, -1.357172079773477, 0.1876617649726323, 9362.0, 30146.0, 35388.0, 9362.0, 8.112398147583008, 0.05363170802593231, 0.10343679040670395, 0.11094523966312408, -0.09880919754505157, -0.02925650216639042, 0.9946118593215942, -0.1028418242931366, -0.24567794799804688, 1.475830078125, 1.352783203125, 0.015350341796875, 1.494873046875
41052, -0.39528679847717285, -1.944506287574768, 12.204534530639648, 0.057154033333063126, 0.024672070518136024, -33.42683410644531, 0.19559140503406525, 0.08459245413541794, -1.7012311220169067, -0.8656686544418335, -1.0593271255493164, 0.05256892740726471, -0.788883341490253, -1.357619214453507, 0.18129349046176285, 9362.0, 30146.0, 35388.0, 9362.0, 8.112398147583008, 0.19770385324954987, -0.12260500341653824, -0.27217957377433777, -0.09780507534742355, -0.0296745877712965, 0.9943020939826965, -0.1028418242931366, -0.24567794799804688, 1.475830078125, 1.352783203125, 0.015350341796875, 1.494873046875
41092, -0.3951364755630493, -1.9501181840896606, 12.199822425842285, 0.06112777069211006, 0.026391085237264633, -33.46086883544922, 0.20178554952144623, 0.08731057494878769, -1.7021915912628174, -0.8657107949256897, -1.0591727495193481, 0.05301549285650253, -0.6237854026342887, -1.2053047962878907, 0.300075705491815, 9362.0, 30146.0, 35388.0, 9362.0, 8.132232666015625, -0.011282679624855518, 0.39827004075050354, -0.10032045841217041, -0.09780507534742355, -0.0296745877712965, 0.9943020939826965, -0.1028418242931366, -0.24567794799804688, 1.475830078125, 1.352783203125, 0.015350341796875, 1.491943359375
41112, -0.3937464654445648, -1.9521377086639404, 12.20079231262207, 0.06944714486598969, 0.029992226511240005, -33.52899932861328, 0.2141951471567154, 0.09275130182504654, -1.7040507793426514, -0.8656533360481262, -1.0593280792236328, 0.052573345601558685, -0.7849863742833333, -1.367527410705975, 0.18635717361824308, 9362.0, 30146.0, 35388.0, 9362.0, 8.132232666015625, 0.22569788992404938, 0.20846611261367798, 0.02512008138000965, -0.09780507534742355, -0.0296745877712965, 0.9943020939826965, -0.1028418242931366, -0.24567794799804688, 1.475830078125, 1.352783203125, 0.015350341796875, 1.487548828125
41122, -0.39348143339157104, -1.9529104232788086, 12.201119422912598, 0.0716046392917633, 0.030926549807190895, -33.546043395996094, 0.21730424463748932, 0.09411336481571198, -1.7044694423675537, -0.8656230568885803, -1.0593228340148926, 0.05254708603024483, -0.7740055523499969, -1.3849463972683225, 0.19439859326650027, 9362.0, 30146.0, 35388.0, 9362.0, 8.132232666015625, -0.10627200454473495, 0.12168527394533157, 0.4434179663658142, -0.09780507534742355, -0.0296745877712965, 0.9943020939826965, -0.1028418242931366, -0.24567794799804688, 1.475830078125, 1.352783203125, 0.015350341796875, 1.491943359375
41132, -0.3943643271923065, -1.9546117782592773, 12.203123092651367, 0.0716046392917633, 0.030926549807190895, -33.546043395996094, 0.21730424463748932, 0.09411336481571198, -1.7044694423675537, -0.8656615614891052, -1.0593196153640747, 0.052576277405023575, -0.7840950885032133, -1.3607836640468634, 0.17881365536931068, 9362.0, 30146.0, 35388.0, 9362.0, 8.132232666015625, 0.04871049523353577, 0.20354697108268738, -0.45727771520614624, -0.09780507534742355, -0.0296745877712965, 0.9943020939826965, -0.1028418242931366, -0.24567794799804688, 1.475830078125, 1.352783203125, 0.015350341796875, 1.491943359375
41142, -0.3943954408168793, -1.95623779296875, 12.20228385925293, 0.0716046392917633, 0.030926549807190895, -33.546043395996094, 0.21730424463748932, 0.09411336481571198, -1.7044694423675537, -0.8656312227249146, -1.0593165159225464, 0.0525553934276104, -0.7703933252075443, -1.3814976321630468, 0.18801150398004646, 9362.0, 30146.0, 35388.0, 9362.0, 8.132232666015625, 0.01927991770207882, 0.41920050978660583, -0.1139095276594162, -0.09780507534742355, -0.0296745877712965, 0.9943020939826965, -0.1028418242931366, -0.24567794799804688, 1.475830078125, 1.352783203125, 0.015350341796875, 1.491943359375
41172, -0.39590972661972046, -1.9586403369903564, 12.204777717590332, 0.0716046392917633, 0.030926549807190895, -33.546043395996094, 0.21730424463748932, 0.09411336481571198, -1.7044694423675537, -0.8656511306762695, -1.0593198537826538, 0.05256350338459015, -0.7802385702853695, -1.3631990972070298, 0.17951019860141854, 9362.0, 30146.0, 35388.0, 9362.0, 8.112398147583008, 0.0813656747341156, -0.13354003429412842, 0.01767692156136036, -0.09780507534742355, -0.0296745877712965, 0.9943020939826965, -0.1028418242931366, -0.24567794799804688, 1.475830078125, 1.352783203125, 0.015350341796875, 1.491943359375
41192, -0.39541900157928467, -1.9585860967636108, 12.204732894897461, 0.08757935464382172, 0.03784804791212082, -33.66545867919922, 0.23913173377513885, 0.103651262819767, -1.7074346542358398, -0.8656566739082336, -1.0593090057373047, 0.05256616696715355, -0.7816459552417133, -1.3703042855892988, 0.18413400181257536, 9362.0, 30146.0, 35388.0, 9362.0, 8.112398147583008, 0.05195555090904236, 0.06241988018155098, 0.1067456528544426, -0.09780507534742355, -0.0296745877712965, 0.9943020939826965, -0.1028418242931366, -0.24567794799804688, 1.475830078125, 1.352783203125, 0.015350341796875, 1.491943359375
41202, -0.3962891101837158, -1.9575732946395874, 12.204123497009277, 0.08757935464382172, 0.03784804791212082, -33.66545867919922, 0.23913173377513885, 0.103651262819767, -1.7074346542358398, -0.8656688928604126, -1.0593101978302002, 0.05257323384284973, -0.7812457724528895, -1.3656825968404291, 0.1860649865506168, 9362.0, 30146.0, 35388.0, 9362.0, 8.112398147583008, 0.10524693876504898, 0.04865926504135132, 0.08607251197099686, -0.09780507534742355, -0.0296745877712965, 0.9943020939826965, -0.1028418242931366, -0.24567794799804688, 1.475830078125, 1.352783203125, 0.015350341796875, 1.493408203125
41212, -0.39623114466667175, -1.9580649137496948, 12.206076622009277, 0.08757935464382172, 0.03784804791212082, -33.66545867919922, 0.23913173377513885, 0.103651262819767, -1.7074346542358398, -0.8656512498855591, -1.0593304634094238, 0.052595123648643494, -0.7827462544514358, -1.3725331283091577, 0.18446902374444238, 9362.0, 30146.0, 35388.0, 9362.0, 8.112398147583008, -0.15384624898433685, 0.10551609843969345, 0.178320974111557, -0.09780507534742355, -0.0296745877712965, 0.9943020939826965, -0.1028418242931366, -0.24567794799804688, 1.475830078125, 1.352783203125, 0.015350341796875, 1.493408203125
41232, -0.39815399050712585, -1.9553178548812866, 12.207951545715332, 0.09739409387111664, 0.04210324212908745, -33.73379898071289, 0.25160446763038635, 0.10910990089178085, -1.7095342874526978, -0.8656177520751953, -1.0593335628509521, 0.05254503712058067, -0.7735962841405654, -1.3834673923649063, 0.18151466338058517, 9362.0, 30146.0, 35388.0, 9362.0, 8.112398147583008, -0.20229580998420715, -0.08657345175743103, -0.09199971705675125, -0.09780507534742355, -0.0296745877712965, 0.9943020939826965, -0.1028418242931366, -0.24567794799804688, 1.475830078125, 1.352783203125, 0.015350341796875, 1.48974609375
41252, -0.39763548970222473, -1.9555552005767822, 12.207890510559082, 0.1024884283542633, 0.04431276395916939, -33.768001556396484, 0.25782468914985657, 0.11184111982584, -1.7108395099639893, -0.8656502962112427, -1.0593148469924927, 0.05258658528327942, -0.7794805629415055, -1.3624053778289067, 0.1870640915459703, 9362.0, 30146.0, 35388.0, 9362.0, 8.112398147583008, -0.03255627304315567, -0.0498511902987957, -0.041344836354255676, -0.09804429113864899, -0.028535274788737297, 0.9935221076011658, -0.1028418242931366, -0.24567794799804688, 1.475830078125, 1.352783203125, 0.015350341796875, 1.491943359375
41322, -0.39814692735671997, -1.9493346214294434, 12.211508750915527, 0.12129757553339005, 0.05247655138373375, -33.88789367675781, 0.2795742154121399, 0.12141364067792892, -1.7146484851837158, -0.8657287955284119, -1.0591555833816528, 0.05305107682943344, -0.6304811162204359, -1.1711843700223028, 0.28246047763529947, 9362.0, 30146.0, 35388.0, 9362.0, 8.112398147583008, -0.1464466005563736, -0.1724286824464798, 0.34965524077415466, -0.09804429113864899, -0.028535274788737297, 0.9935221076011658, -0.09308219701051712, -0.05751800537109375, 1.4912109375, 1.352783203125, 0.015350341796875, 1.494873046875
41352, -0.3972233235836029, -1.9462008476257324, 12.211591720581055, 0.12695102393627167, 0.054932113736867905, -33.922203063964844, 0.2857705056667328, 0.12414247542619705, -1.7160106897354126, -0.8657190799713135, -1.059163212776184, 0.05304565280675888, -0.6314783390430558, -1.173431127151332, 0.2766868951277173, 9362.0, 30146.0, 35388.0, 9362.0, 8.112398147583008, 0.16089287400245667, -0.11613009870052338, -0.033075496554374695, -0.09804429113864899, -0.028535274788737297, 0.9935221076011658, -0.09308219701051712, -0.05751800537109375, 1.4912109375, 1.352783203125, 0.015350341796875, 1.494873046875
41382, -0.3973679542541504, -1.9442676305770874, 12.216507911682129, 0.13272839784622192, 0.05744225159287453, -33.95653533935547, 0.29196473956108093, 0.1268705278635025, -1.7171932458877563, -0.8656277060508728, -1.0593265295028687, 0.052558593451976776, -0.7779588055694401, -1.3924550033784726, 0.18832884900332394, 9362.0, 30146.0, 35388.0, 9362.0, 8.132232666015625, -0.27663108706474304, 0.006046033930033445, 0.2885628640651703, -0.09804429113864899, -0.028535274788737297, 0.9935221076011658, -0.09308219701051712, -0.05751800537109375, 1.4912109375, 1.352783203125, 0.015350341796875, 1.494873046875
41392, -0.39784613251686096, -1.9429575204849243, 12.218403816223145, 0.1416265219449997, 0.06130961328744888, -34.008079528808594, 0.3012416362762451, 0.13095366954803467, -1.719099998474121, -0.8657065629959106, -1.0591762065887451, 0.0530378520488739, -0.6254392509405151, -1.2027932536054209, 0.29760558882920335, 9362.0, 30146.0, 35388.0, 9362.0, 8.132232666015625, 0.19346678256988525, 0.19893668591976166, -0.0402589812874794, -0.09804429113864899, -0.028535274788737297, 0.9935221076011658, -0.09308219701051712, -0.05751800537109375, 1.4912109375, 1.352783203125, 0.015350341796875, 1.494873046875
41402, -0.3965408504009247, -1.9435293674468994, 12.217206954956055, 0.14465440809726715, 0.06262596696615219, -34.025272369384766, 0.30433639883995056, 0.13231679797172546, -1.719603180885315, -0.8656581044197083, -1.0593225955963135, 0.05258550867438316, -0.7831109807129487, -1.363484690526775, 0.17999381076772838, 9362.0, 30146.0, 35388.0, 9362.0, 8.132232666015625, -0.2997931241989136, -0.14357875287532806, -0.26025205850601196, -0.09804429113864899, -0.028535274788737297, 0.9935221076011658, -0.09308219701051712, -0.05751800537109375, 1.4912109375, 1.352783203125, 0.015350341796875, 1.494873046875
41432, -0.3983616828918457, -1.9432064294815063, 12.216683387756348, 0.15392367541790009, 0.06665679067373276, -34.076881408691406, 0.3136148452758789, 0.1364050656557083, -1.7211978435516357, -0.8656724095344543, -1.0593122243881226, 0.0525827631354332, -0.7847526151028956, -1.364399495118647, 0.1792741615733846, 9362.0, 30146.0, 35388.0, 9362.0, 8.132232666015625, 0.03337032347917557, -0.02946334332227707, 0.15218429267406464, -0.09804429113864899, -0.028535274788737297, 0.9935221076011658, -0.09308219701051712, -0.05751800537109375, 1.4912109375, 1.352783203125, 0.015350341796875, 1.494873046875
41442, -0.39862802624702454, -1.94367516040802, 12.217792510986328, 0.15392367541790009, 0.06665679067373276, -34.076881408691406, 0.3136148452758789, 0.1364050656557083, -1.7211978435516357, -0.8656641840934753, -1.0593042373657227, 0.05258093774318695, -0.7857052321581749, -1.3608708041983846, 0.19187132349325473, 9362.0, 30146.0, 35388.0, 9362.0, 8.132232666015625, -0.007913378067314625, -0.16882164776325226, 0.1295434832572937, -0.09739977866411209, -0.030104150995612144, 0.9966500997543335, -0.09308219701051712, -0.05751800537109375, 1.4912109375, 1.352783203125, 0.015350341796875, 1.494873046875
41452, -0.39872077107429504, -1.9438585042953491, 12.220194816589355, 0.15392367541790009, 0.06665679067373276, -34.076881408691406, 0.3136148452758789, 0.1364050656557083, -1.7211978435516357, -0.865726113319397, -1.059155821800232, 0.05304901301860809, -0.6233539356763936, -1.1823028720941124, 0.3029659137265731, 9362.0, 30146.0, 35388.0, 9362.0, 8.132232666015625, -0.20341849327087402, -0.014092226512730122, 0.0957656055688858, -0.09739977866411209, -0.030104150995612144, 0.9966500997543335, -0.09308219701051712, -0.05751800537109375, 1.4912109375, 1.352783203125, 0.015350341796875, 1.494873046875
41472, -0.40076524019241333, -1.9406969547271729, 12.219511985778809, 0.15392367541790009, 0.06665679067373276, -34.076881408691406, 0.3136148452758789, 0.1364050656557083, -1.7211978435516357, -0.865653932094574, -1.059309720993042, 0.05258525162935257, -0.7882802169763472, -1.3666915496806098, 0.1833712526174563, 9362.0, 30146.0, 35388.0, 9362.0, 8.112398147583008, 0.010255101136863232, -0.11214255541563034, 0.027996709570288658, -0.09739977866411209, -0.030104150995612144, 0.9966500997543335, -0.09308219701051712, -0.05751800537109375, 1.4912109375, 1.352783203125, 0.015350341796875, 1.491943359375
41482, -0.40060070157051086, -1.9413701295852661, 12.218670845031738, 0.15392367541790009, 0.06665679067373276, -34.076881408691406, 0.3136148452758789, 0.1364050656557083, -1.7211978435516357, -0.8656484484672546, -1.0593229532241821, 0.05257230997085571, -0.783385188718757, -1.3698730272796809, 0.18155672234520762, 9362.0, 30146.0, 35388.0, 9362.0, 8.112398147583008, 0.010255101136863232, -0.11214255541563034, 0.027996709570288658, -0.09739977866411209, -0.030104150995612144, 0.9966500997543335, -0.09308219701051712, -0.05751800537109375, 1.4912109375, 1.352783203125, 0.015350341796875, 1.491943359375
41492, -0.4024146795272827, -1.9419630765914917, 12.2188081741333, 0.15392367541790009, 0.06665679067373276, -34.076881408691406, 0.3136148452758789, 0.1364050656557083, -1.7211978435516357, -0.8657230138778687, -1.059157371520996, 0.05305972322821617, -0.6217732138373273, -1.1903297390672094, 0.2963366274285367, 9362.0, 30146.0, 35388.0, 9362.0, 8.112398147583008, -0.2566295266151428, -0.19394689798355103, -0.2614921033382416, -0.09739977866411209, -0.030104150995612144, 0.9966500997543335, -0.09308219701051712, -0.05751800537109375, 1.4912109375, 1.352783203125, 0.015350341796875, 1.491943359375
41502, -0.4034256041049957, -1.9425413608551025, 12.217565536499023, 0.15392367541790009, 0.06665679067373276, -34.076881408691406, 0.3136148452758789, 0.1364050656557083, -1.7211978435516357, -0.8657198548316956, -1.059169054031372, 0.05305038020014763, -0.625888906452592, -1.186313095140406, 0.2906045460893299, 9362.0, 30146.0, 35388.0, 9362.0, 8.112398147583008, -0.01461820863187313, -0.009409002028405666, 0.0011849377769976854, -0.09739977866411209, -0.030104150995612144, 0.9966500997543335, -0.09308219701051712, -0.05751800537109375, 1.4912109375, 1.352783203125, 0.015350341796875, 1.4912109375
41512, -0.4038846492767334, -1.9439406394958496, 12.218070983886719, 0.15392367541790009, 0.06665679067373276, -34.076881408691406, 0.3136148452758789, 0.1364050656557083, -1.7211978435516357, -0.8656509518623352, -1.0593160390853882, 0.05260579660534859, -0.7773430857921766, -1.3723014622217988, 0.18132673892065368, 9362.0, 30146.0, 35388.0, 9362.0, 8.112398147583008, -0.07849213480949402, 0.47402656078338623, 0.028189944103360176, -0.09739977866411209, -0.030104150995612144, 0.9966500997543335, -0.09308219701051712, -0.05751800537109375, 1.4912109375, 1.352783203125, 0.015350341796875, 1.4912109375
41522, -0.40403369069099426, -1.9461573362350464, 12.21840763092041, 0.15392367541790009, 0.06665679067373276, -34.076881408691406, 0.3136148452758789, 0.1364050656557083, -1.7211978435516357, -0.8656549453735352, -1.0593228340148926, 0.05257951095700264, -0.7834728769327832, -1.3540829337545404, 0.1781291302782964, 9362.0, 30146.0, 35388.0, 9362.0, 8.112398147583008, -0.07651327550411224, -0.3914913833141327, 0.12636518478393555, -0.09906239062547684, -0.0294681116938591, 0.9958128929138184, -0.09308219701051712, -0.05751800537109375, 1.4912109375, 1.352783203125, 0.015350341796875, 1.4912109375
41532, -0.4029555320739746, -1.946330189704895, 12.219928741455078, 0.15392367541790009, 0.06665679067373276, -34.076881408691406, 0.3136148452758789, 0.1364050656557083, -1.7211978435516357, -0.8656551241874695, -1.0593085289001465, 0.05260246619582176, -0.7803414001961307, -1.3674692192735165, 0.19716676261010016, 9362.0, 30146.0, 35388.0, 9362.0, 8.112398147583008, 0.29008474946022034, 0.29555073380470276, 0.1386251449584961, -0.09906239062547684, -0.0294681116938591, 0.9958128929138184, -0.09308219701051712, -0.05751800537109375, 1.4912109375, 1.352783203125, 0.015350341796875, 1.4912109375
41542, -0.4026161730289459, -1.9476975202560425, 12.220132827758789, 0.19029204547405243, 0.08248798549175262, -34.266510009765625, 0.34761905670166016, 0.151455357670784, -1.7267407178878784, -0.865615963935852, -1.059326410293579, 0.05257461220026016, -0.7760804140168851, -1.3853690671081438, 0.18955998935801607, 9362.0, 30146.0, 35388.0, 9362.0, 8.112398147583008, 0.03913769870996475, 0.10371126234531403, -0.12408008426427841, -0.09906239062547684, -0.0294681116938591, 0.9958128929138184, -0.09308219701051712, -0.05751800537109375, 1.4912109375, 1.352783203125, 0.015350341796875, 1.49267578125
41552, -0.4023807942867279, -1.9459983110427856, 12.218782424926758, 0.193783700466156, 0.08400939404964447, -34.28377914428711, 0.35071083903312683, 0.15282674133777618, -1.7273790836334229, -0.8656297922134399, -1.059332251548767, 0.052576616406440735, -0.7728277383256976, -1.3951955312775226, 0.20068930011807526, 9362.0, 30146.0, 35388.0, 9362.0, 8.112398147583008, -0.14011235535144806, -0.2104010283946991, 0.19853992760181427, -0.09906239062547684, -0.0294681116938591, 0.9958128929138184, -0.09308219701051712, -0.05751800537109375, 1.4912109375, 1.352783203125, 0.015350341796875, 1.49267578125
41572, -0.40253424644470215, -1.943506121635437, 12.21696662902832, 0.200859934091568, 0.08709341287612915, -34.318336486816406, 0.3569103181362152, 0.15557412803173065, -1.7282257080078125, -0.8657320737838745, -1.0591596364974976, 0.05304428189992905, -0.6290610740716188, -1.1787973704246326, 0.29646633840589426, 9362.0, 30146.0, 35388.0, 9362.0, 8.112398147583008, -0.03730715066194534, 0.1199178397655487, 0.09589818865060806, -0.09906239062547684, -0.0294681116938591, 0.9958128929138184, -0.09308219701051712, -0.05751800537109375, 1.4912109375, 1.352783203125, 0.015350341796875, 1.49267578125
41612, -0.4030410349369049, -1.950045108795166, 12.220952033996582, 0.21538402140140533, 0.09342627972364426, -34.38749694824219, 0.3693000376224518, 0.1610720157623291, -1.729794979095459, -0.8657289743423462, -1.0591567754745483, 0.053043968975543976, -0.6269046642104046, -1.1783131425300724, 0.2968982685265772, 9362.0, 30146.0, 35388.0, 9362.0, 8.112398147583008, 0.07451067119836807, 0.1656160205602646, 0.02774089388549328, -0.09906239062547684, -0.0294681116938591, 0.9958128929138184, -0.0779162272810936, -0.31735801696777344, 1.469970703125, 1.352783203125, 0.015350341796875, 1.493408203125
41652, -0.3995307385921478, -1.9549719095230103, 12.21969223022461, 0.23040398955345154, 0.09997905045747757, -34.45673370361328, 0.3817070722579956, 0.1665671020746231, -1.7320306301116943, -0.8656464219093323, -1.0593328475952148, 0.0525640994310379, -0.7742684562056872, -1.388400020585948, 0.2040995584898403, 9362.0, 30146.0, 35388.0, 9362.0, 8.112398147583008, 0.16387560963630676, 0.10469098389148712, 0.3370683491230011, -0.09906239062547684, -0.0294681116938591, 0.9958128929138184, -0.0779162272810936, -0.31735801696777344, 1.469970703125, 1.352783203125, 0.015350341796875, 1.493408203125
41672, -0.3970699608325958, -1.960423469543457, 12.223541259765625, 0.23810039460659027, 0.103337861597538, -34.49138259887695, 0.3879324197769165, 0.16931205987930298, -1.73295259475708, -0.8656778335571289, -1.0593130588531494, 0.052564382553100586, -0.7851094105754209, -1.3622222416888974, 0.19818070927354547, 9362.0, 30146.0, 35388.0, 9362.0, 8.132232666015625, 0.0515189953148365, 0.3231581449508667, 0.09454977512359619, -0.09906239062547684, -0.0294681116938591, 0.9958128929138184, -0.0779162272810936, -0.31735801696777344, 1.469970703125, 1.352783203125, 0.015350341796875, 1.49560546875
