timeTick, roll, pitch, yaw, stateX, stateY, stateZ, stateVX, stateVY, stateVZ, otX0, otY0, otZ0, otRoll0, otPitch0, otYaw0, left wing, pitch motor, yaw motor, right wing, voltage, roll rate, pitch rate, yaw rate, A_x, A_y, A_z, current, i_raw, v_raw, airflow_voltage, airflow_speed, pot_Pitch
92433, -0.00013224463327787817, -0.0008369078859686852, 0.00046287180157378316, 0, 0, 0, 0, 0, 0, -0.8561151027679443, -1.0548796653747559, 0.05399632081389427, 0.09492693106607404, -0.54023834852444, 1.3180895688342185, 0, 0, 0, 0, 0, 0, 0, 0, 0, 0, 0, 0, 0, 0, 0, 0, 0
92443, 0.0008720980840735137, 0.0004302255401853472, 0.0017322779167443514, 0.0, 0.0, 1.1707190424203873e-05, 3.4200930087990855e-08, 5.404557690269485e-09, 0.0023414373863488436, -0.8561035990715027, -1.0548887252807617, 0.05401983857154846, 0.08998202365941457, -0.5413413820793664, 1.315250064929971, 9362.0, 30146.0, 35388.0, 9362.0, 0, 0, 0, 0, 0, 0, 0, 0, 0, 0, 0, 0, 0
92453, 0.0017873512115329504, -0.00032714399276301265, 0.0005483685526996851, 7.673429891497108e-09, 1.2125837001164541e-09, 4.653952782973647e-05, 1.4499698863801314e-06, 1.9710853393917205e-07, 0.004625423811376095, -0.856102705001831, -1.0548843145370483, 0.05399886891245842, 0.09469539029580078, -0.5444428650882003, 1.3159343277889595, 9362.0, 30146.0, 35388.0, 9362.0, 0, 0.179690882563591, 0.3258952498435974, 0.3261054456233978, 0, 0, 0, 0, 0, 0, 0, 0, 0
92463, 0.0031511413399130106, -0.0025430521927773952, 0.0016252804780378938, 1.8395155620964942e-08, -4.475122494795869e-09, 0.00010545947588980198, 7.278330826920865e-07, -1.3751025562669383e-06, 0.007158967200666666, -0.8561030030250549, -1.0548826456069946, 0.05400477722287178, 0.09047845033326686, -0.5559402990497517, 1.3171599918209451, 9362.0, 30146.0, 35388.0, 9362.0, 0, -0.19419918954372406, -0.020391864702105522, -0.10556545108556747, -0.08222448080778122, -0.018056044355034828, 1.0237562656402588, 0, 0, 0, 1.412841796875, 0.0534515380859375, 0
92473, 0.0037382568698376417, -0.0024701356887817383, 0.0006491420790553093, 2.8544000940655678e-08, -3.390832148397749e-08, 0.00018926162738353014, 1.3964665868115844e-06, -4.569668817566708e-06, 0.009601854719221592, -0.8561103940010071, -1.0548832416534424, 0.05403231084346771, 0.09686817869836649, -0.5336886003745747, 1.3216345750447054, 9362.0, 30146.0, 35388.0, 9362.0, 0, 0.03395339101552963, -0.08507110178470612, -0.23765428364276886, -0.08387091755867004, -0.017762573435902596, 1.023610234260559, 0, 0, 0, 1.41064453125, 0.0509490966796875, 1.487548828125
92483, 0.004902987275272608, -0.0023616922553628683, -0.0011788897681981325, 6.479707082007735e-08, -1.0722131804641322e-07, 0.00029692635871469975, 5.851090463693254e-06, -1.0116875273524784e-05, 0.011931492947041988, -0.856124758720398, -1.0548725128173828, 0.05401265621185303, 0.09902064332352098, -0.5444496660576874, 1.316387775571831, 9362.0, 30146.0, 35388.0, 9362.0, 0, -0.0004258138651493937, 0.2314193695783615, -0.12537555396556854, -0.08011972159147263, -0.017115004360675812, 1.0223735570907593, 0, 0, 0, 1.382080078125, 0.0256195068359375, 1.487548828125
92493, 0.004804185591638088, -0.0020337284076958895, -0.0021212296560406685, 1.4493303979179473e-07, -2.41116140387021e-07, 0.0004273334052413702, 1.017169688566355e-05, -1.6707328541087918e-05, 0.014150314033031464, -0.8561099171638489, -1.054872989654541, 0.05402493104338646, 0.09267506040529033, -0.5391255618182242, 1.318065897164705, 9362.0, 30146.0, 35388.0, 9362.0, 0, 0.06876861304044724, 0.02751995250582695, -0.2623150050640106, -0.08320222049951553, -0.017635710537433624, 1.022119402885437, 0, 0, 0, 1.3798828125, 0.0243377685546875, 1.493408203125
92503, 0.005117396824061871, -0.001572854002006352, -0.002942202612757683, 2.6731763114185014e-07, -4.5109857182978885e-07, 0.0005797630874440074, 1.4292569176177494e-05, -2.5285455194534734e-05, 0.016336023807525635, -0.8561041951179504, -1.0548948049545288, 0.053993772715330124, 0.09221763013722087, -0.5358455901587149, 1.3175713712830848, 9362.0, 30146.0, 35388.0, 9362.0, 0, 0.08909669518470764, 0.1196678951382637, -0.1315416842699051, -0.08431702107191086, -0.019284961745142937, 1.024583101272583, 0, 0, 0, 1.382080078125, 0.0256195068359375, 1.493408203125
92513, 0.00581836374476552, -0.0005747983232140541, -0.002762533724308014, 4.2806644273696293e-07, -7.460602091668989e-07, 0.0007547933491878211, 1.7838299754657783e-05, -3.3719676139298826e-05, 0.018670421093702316, -0.8561096787452698, -1.0548911094665527, 0.054004695266485214, 0.09405470262193794, -0.5496831097005668, 1.3152563284402001, 9362.0, 30146.0, 35388.0, 9362.0, 0, 0.07738465815782547, -0.0400937981903553, 0.006710277404636145, -0.08498463034629822, -0.016814304515719414, 1.0231153964996338, 0, 0, 0, 1.409912109375, 0.0501251220703125, 1.491943359375
92523, 0.006813636515289545, -0.003153520403429866, -0.0022896951995790005, 6.202313329595199e-07, -1.1281055094514159e-06, 0.000953126058448106, 2.0554194634314626e-05, -4.2717820178950205e-05, 0.020996520295739174, -0.8561088442802429, -1.0548834800720215, 0.0540383979678154, 0.0949001542031063, -0.5355089928951031, 1.3106767772141434, 9362.0, 30146.0, 35388.0, 9362.0, 0, -0.1502479612827301, 0.3105998635292053, 0.19944071769714355, -0.08178221434354782, -0.015495164319872856, 1.023064374923706, 0, 0, 0, 1.399658203125, 0.0396575927734375, 1.491943359375
92533, 0.007093952968716621, -0.005331931635737419, -0.0020800037309527397, 8.308055612360477e-07, -1.6062479062384227e-06, 0.0011744543444365263, 2.166301419492811e-05, -5.295014489092864e-05, 0.023269517347216606, -0.856113076210022, -1.054872989654541, 0.054035261273384094, 0.09770299583838143, -0.5396596281407255, 1.3191162801949463, 9362.0, 30146.0, 35388.0, 9362.0, 0, 0.021257642656564713, 0.08865663409233093, -0.0954960435628891, -0.0805593952536583, -0.018153753131628036, 1.0242533683776855, 0, 0, 0, 1.4033203125, 0.043182373046875, 1.48974609375
92543, 0.008487170562148094, -0.005851654335856438, -0.002057855250313878, 1.0750662795544486e-06, -2.1954554085823474e-06, 0.0014187074266374111, 2.727705577854067e-05, -6.490264786407351e-05, 0.0255814827978611, -0.8560975193977356, -1.0548853874206543, 0.0540265254676342, 0.09276126134528198, -0.5473143989676146, 1.3212210279482661, 9362.0, 30146.0, 35388.0, 9362.0, 8.370248794555664, 0.276821494102478, 0.08982810378074646, -0.060061272233724594, -0.08336261659860611, -0.016400262713432312, 1.0240161418914795, 0, 0, 0, 1.348388671875, 0.0154571533203125, 1.48974609375
92553, 0.010908923111855984, -0.00818166695535183, -0.0014889821177348495, 1.3945806358606205e-06, -2.906677536884672e-06, 0.0016863446217030287, 3.664727046270855e-05, -7.739927241345868e-05, 0.027946336194872856, -0.856109619140625, -1.0548828840255737, 0.053999483585357666, 0.09560794367054214, -0.548707118188247, 1.3173124259953612, 9362.0, 30146.0, 35388.0, 9362.0, 8.370248794555664, 0.009467441588640213, -0.29339876770973206, -0.33756163716316223, -0.08329090476036072, -0.017208712175488472, 1.024158239364624, -0.08872031420469284, -0.15607833862304688, 1.483154296875, 1.379150390625, 0.0238189697265625, 1.489013671875
92563, 0.01254962757229805, -0.008500134572386742, -0.0023949749302119017, 1.812346454244107e-06, -3.7550705656030914e-06, 0.00197756290435791, 4.7001616621855646e-05, -9.237861377187073e-05, 0.030297739431262016, -0.8561158776283264, -1.0548760890960693, 0.054058581590652466, 0.09674018461550002, -0.5480364540815117, 1.3157333820496928, 9362.0, 30146.0, 35388.0, 9362.0, 8.370248794555664, 0.06862042099237442, 0.12950927019119263, 0.1577722430229187, -0.07992765307426453, -0.017220495268702507, 1.025967001914978, -0.08872031420469284, -0.15607833862304688, 1.483154296875, 1.3388671875, 0.017120361328125, 1.489013671875
92573, 0.013103025034070015, -0.007690536789596081, -0.001875224756076932, 2.354182470298838e-06, -4.7746216296218336e-06, 0.002293006516993046, 6.137912714621052e-05, -0.00011160322173964232, 0.032791391015052795, -0.8561206459999084, -1.0548784732818604, 0.05406200513243675, 0.09504896788546854, -0.5446080449819135, 1.32182977608946, 9362.0, 30146.0, 35388.0, 9362.0, 8.370248794555664, 0.034515224397182465, -0.28947535157203674, -0.07615712285041809, -0.08160450309515, -0.018017899245023727, 1.0237882137298584, -0.08872031420469284, -0.15607833862304688, 1.483154296875, 1.4150390625, 0.05596923828125, 1.48974609375
92583, 0.014105144888162613, -0.007026656996458769, -0.0031406923662871122, 3.042553771592793e-06, -6.0007737374689896e-06, 0.0026331632398068905, 7.62607523938641e-05, -0.0001336507557425648, 0.03524033725261688, -0.8561034202575684, -1.0548824071884155, 0.054051272571086884, 0.09895541479338106, -0.5410302301172862, 1.3157112361556227, 9362.0, 30146.0, 35388.0, 9362.0, 8.370248794555664, -0.03443571552634239, 0.33323344588279724, 0.23324117064476013, -0.08239816874265671, -0.016259701922535896, 1.0242761373519897, -0.08872031420469284, -0.15607833862304688, 1.483154296875, 1.3564453125, 0.0156707763671875, 1.48974609375
92593, 0.014503934420645237, -0.008070116862654686, -0.002320727566257119, 3.87254203815246e-06, -7.452092177118175e-06, 0.002997092204168439, 8.97097124834545e-05, -0.00015665353566873819, 0.037545837461948395, -0.8561018705368042, -1.0548826456069946, 0.05400396138429642, 0.08772090904804593, -0.5431938369496265, 1.3187004766676242, 9362.0, 30146.0, 35388.0, 9362.0, 8.370248794555664, 0.07038403302431107, -0.11415573209524155, -0.04545053467154503, -0.08495097607374191, -0.016574546694755554, 1.0235309600830078, -0.08872031420469284, -0.15607833862304688, 1.483154296875, 1.39306640625, 0.0337982177734375, 1.48974609375
92603, 0.014631161466240883, -0.007955199107527733, -0.0016865066718310118, 4.831215846934356e-06, -9.142251656157896e-06, 0.0033842031843960285, 0.00010206779552390799, -0.00018139435269404203, 0.03987673297524452, -0.8561127185821533, -1.0548816919326782, 0.05405177175998688, 0.09904868151126002, -0.5383386503919212, 1.3154292361999915, 9362.0, 30146.0, 35388.0, 9362.0, 8.370248794555664, -0.010031471960246563, 0.11121571063995361, 0.05048732832074165, -0.08278623223304749, -0.016995681449770927, 1.0237270593643188, -0.08872031420469284, -0.15607833862304688, 1.483154296875, 1.3505859375, 0.0153045654296875, 1.48974609375
92613, 0.014635945670306683, -0.009079813957214355, -0.0022056102752685547, 5.922632226429414e-06, -1.1083340723416768e-05, 0.0037947308737784624, 0.000116211042040959, -0.00020682858303189278, 0.042229194194078445, -0.85610032081604, -1.0548855066299438, 0.05401093140244484, 0.09036405622154553, -0.549873496013106, 1.3103572003886332, 9362.0, 30146.0, 35388.0, 9362.0, 8.370248794555664, 0.026969904080033302, 0.5689082145690918, 0.08214591443538666, -0.0817260891199112, -0.017877856269478798, 1.0253766775131226, -0.08872031420469284, -0.15607833862304688, 1.483154296875, 1.423828125, 0.066802978515625, 1.493408203125
92623, 0.014121743850409985, -0.014206177555024624, -0.0017276130383834243, 7.154486411309335e-06, -1.3279907761898357e-05, 0.0042288643307983875, 0.00013020601181779057, -0.00023248510842677206, 0.044597893953323364, -0.8561121225357056, -1.0548838376998901, 0.05400654301047325, 0.08560617546406803, -0.5430505428917058, 1.3156752441125732, 9362.0, 30146.0, 35388.0, 9362.0, 8.370248794555664, 0.14028939604759216, 0.20482586324214935, -0.14934182167053223, -0.08350638300180435, -0.014075586572289467, 1.0249862670898438, -0.08872031420469284, -0.15607833862304688, 1.483154296875, 1.4033203125, 0.043182373046875, 1.493408203125
92633, 0.013925455510616302, -0.01626594550907612, -0.002396302530542016, 8.536259883840103e-06, -1.5733261534478515e-05, 0.004687384236603975, 0.00014637326239608228, -0.00025816302513703704, 0.047106463462114334, -0.8561078310012817, -1.0548864603042603, 0.054013174027204514, 0.0931400128128737, -0.5413672461632473, 1.3151883835875715, 9362.0, 30146.0, 35388.0, 9362.0, 8.370248794555664, -0.058233100920915604, 0.010102449916303158, -0.18166153132915497, -0.08388658612966537, -0.01686241291463375, 1.0235931873321533, -0.08872031420469284, -0.15607833862304688, 1.483154296875, 1.44873046875, 0.102813720703125, 1.494873046875
92643, 0.014441171661019325, -0.016794729977846146, -0.00337151694111526, 1.0124625987373292e-05, -1.8438791812513955e-05, 0.005170630291104317, 0.00017138726252596825, -0.0002829349832609296, 0.049543123692274094, -0.856107771396637, -1.0548850297927856, 0.05398326367139816, 0.09400064496542945, -0.5415287003603737, 1.3136758909944333, 9362.0, 30146.0, 35388.0, 9362.0, 8.370248794555664, -0.1142401173710823, -0.06391394883394241, 0.035351283848285675, -0.0794801115989685, -0.01820973865687847, 1.0232380628585815, -0.08872031420469284, -0.15607833862304688, 1.483154296875, 1.40625, 0.04620361328125, 1.494873046875
92653, 0.013827858492732048, -0.016688548028469086, -0.0028210915625095367, 1.1980911040154751e-05, -2.139007301593665e-05, 0.005677216220647097, 0.00019988985150121152, -0.0003073417174164206, 0.05177443102002144, -0.8561179041862488, -1.0548782348632812, 0.054059214890003204, 0.09387689566899285, -0.5431585221841431, 1.323223092785281, 9362.0, 30146.0, 35388.0, 9362.0, 8.370248794555664, 0.21384328603744507, 0.2995001971721649, 0.009421439841389656, -0.0816306620836258, -0.017709093168377876, 1.0247182846069336, -0.0890054926276207, -0.15607833862304688, 1.483154296875, 1.379150390625, 0.0238189697265625, 1.486083984375
92663, 0.014712820760905743, -0.018425149843096733, -0.002621006453409791, 1.4126993846730329e-05, -2.4590062821516767e-05, 0.00620660837739706, 0.00022932258434593678, -0.0003326310543343425, 0.05410434678196907, -0.8561069965362549, -1.0548856258392334, 0.05399315059185028, 0.09448475959676543, -0.549928315572572, 1.3117500020415556, 9362.0, 30146.0, 35388.0, 9362.0, 8.370248794555664, 0.11173900961875916, 0.027797523885965347, -0.20379242300987244, -0.0811617374420166, -0.016497308388352394, 1.0252655744552612, -0.0890054926276207, -0.15607833862304688, 1.483154296875, 1.415771484375, 0.0568695068359375, 1.486083984375
92673, 0.015254434198141098, -0.01907924935221672, -0.004441185388714075, 1.6566717022215016e-05, -2.8037771699018776e-05, 0.006760132499039173, 0.0002586978080216795, -0.00035694899270311, 0.0566009022295475, -0.8560954332351685, -1.0548906326293945, 0.053987305611371994, 0.08907260326376405, -0.5457027453209378, 1.3075757903380398, 9362.0, 30146.0, 35388.0, 9362.0, 8.370248794555664, 0.17556610703468323, -0.010170498862862587, 0.1549726128578186, -0.08183268457651138, -0.01622861996293068, 1.0223747491836548, -0.0890054926276207, -0.15607833862304688, 1.483154296875, 1.326416015625, 0.022705078125, 1.48681640625
92683, 0.015392745845019817, -0.020473679527640343, -0.003117284271866083, 1.931514998432249e-05, -3.1736199161969125e-05, 0.007337726186960936, 0.00029101435211487114, -0.00038275914266705513, 0.05891818553209305, -0.8561010360717773, -1.0548813343048096, 0.05401250347495079, 0.09575399165866835, -0.5516613308872707, 1.3124558802786925, 9362.0, 30146.0, 35388.0, 9362.0, 8.370248794555664, 0.17117154598236084, 0.011318664997816086, 0.06516607850790024, -0.08090135455131531, -0.016596661880612373, 1.023880124092102, -0.0890054926276207, -0.15607833862304688, 1.483154296875, 1.3857421875, 0.0280914306640625, 1.48681640625
92693, 0.015147915109992027, -0.02236761339008808, -0.002975340699777007, 2.2392407117877156e-05, -3.569742330000736e-05, 0.007938290014863014, 0.00032449327409267426, -0.0004094907490070909, 0.061195049434900284, -0.8561066389083862, -1.0548959970474243, 0.05401289835572243, 0.08436867882838328, -0.5464512655277929, 1.309746920725487, 9362.0, 30146.0, 35388.0, 9362.0, 8.370248794555664, 0.004560310393571854, 0.07065900415182114, 0.12907278537750244, -0.08225499838590622, -0.01676817610859871, 1.0261430740356445, -0.0890054926276207, -0.15607833862304688, 1.483154296875, 1.447998046875, 0.1016693115234375, 1.491943359375
92703, 0.01605602726340294, -0.02343517728149891, -0.0030201137997210026, 2.5817093046498485e-05, -3.992749043391086e-05, 0.008562800474464893, 0.00036052698851563036, -0.00043651179294101894, 0.06370750069618225, -0.856094479560852, -1.0548841953277588, 0.05399906262755394, 0.09464492908650125, -0.5478915006660827, 1.3202456971631094, 9362.0, 30146.0, 35388.0, 9362.0, 8.370248794555664, 0.26562005281448364, 0.42156094312667847, 0.028409406542778015, -0.08331459015607834, -0.019016576930880547, 1.0243927240371704, -0.0890054926276207, -0.15607833862304688, 1.483154296875, 1.42236328125, 0.0649566650390625, 1.491943359375
92713, 0.017743661999702454, -0.02470610849559307, -0.0028264333959668875, 2.961864447570406e-05, -4.4425549276638776e-05, 0.00921218004077673, 0.0003998292959295213, -0.0004631392366718501, 0.06616881489753723, -0.8560956716537476, -1.0548911094665527, 0.05400857329368591, 0.08807224037712759, -0.5400039329482809, 1.3162392048905813, 9362.0, 30146.0, 35388.0, 9362.0, 8.370248794555664, -0.15082615613937378, 0.01782207377254963, 0.16990026831626892, -0.08357994258403778, -0.021082470193505287, 1.0247083902359009, -0.0890054926276207, -0.15607833862304688, 1.483154296875, 1.399658203125, 0.0396575927734375, 1.493408203125
92723, 0.017294688150286674, -0.026383254677057266, -0.0022367830388247967, 3.3822489058366045e-05, -4.919778439216316e-05, 0.00988592766225338, 0.0004409929970279336, -0.0004913787706755102, 0.06858114153146744, -0.8561124801635742, -1.054877758026123, 0.05405602604150772, 0.09323998313404622, -0.5420652196629305, 1.3194784551606078, 9362.0, 30146.0, 35388.0, 9362.0, 8.370248794555664, -0.25201889872550964, 0.21307487785816193, -0.10546280443668365, -0.08246330171823502, -0.02050595171749592, 1.0238016843795776, -0.0890054926276207, -0.15607833862304688, 1.483154296875, 1.36083984375, 0.016387939453125, 1.493408203125
92733, 0.017688274383544922, -0.02847716398537159, -0.003715870436280966, 3.844894308713265e-05, -5.426709321909584e-05, 0.010583395138382912, 0.00048436629003845155, -0.0005224643391557038, 0.07091277837753296, -0.8561091423034668, -1.0548874139785767, 0.0540006048977375, 0.08983933179983936, -0.5512699398592531, 1.3151354790057879, 9362.0, 30146.0, 35388.0, 9362.0, 8.370248794555664, 0.1712249517440796, 0.00783512368798256, 0.15079756081104279, -0.08200453966856003, -0.01717352122068405, 1.025240421295166, -0.0890054926276207, -0.15607833862304688, 1.483154296875, 1.3857421875, 0.0280914306640625, 1.491943359375
92743, 0.018062125891447067, -0.030978884547948837, -0.0010924660600721836, 4.3524090870050713e-05, -5.964349111309275e-05, 0.011304747313261032, 0.000530752120539546, -0.0005528335459530354, 0.07335802912712097, -0.8561158180236816, -1.0548728704452515, 0.053974129259586334, 0.09700877077902846, -0.5532665970692392, 1.316972661848176, 9362.0, 30146.0, 35388.0, 9362.0, 8.370248794555664, -0.007847758941352367, 0.2923390567302704, -0.1806114763021469, -0.08178616315126419, -0.01875993050634861, 1.0240951776504517, -0.0890054926276207, -0.15607833862304688, 1.483154296875, 1.42822265625, 0.0726470947265625, 1.491943359375
92753, 0.018402056768536568, -0.03201622515916824, -0.0024408868048340082, 4.9081405450124294e-05, -6.532700354000553e-05, 0.012050427496433258, 0.0005808176938444376, -0.000583882734645158, 0.07577827572822571, -0.8560960292816162, -1.054877758026123, 0.0539836622774601, 0.09647675457561826, -0.5470426702444229, 1.314888132368585, 9362.0, 30146.0, 35388.0, 9362.0, 8.370248794555664, 0.08740455657243729, 0.29603928327560425, 0.30626198649406433, -0.0833592414855957, -0.018085388466715813, 1.022697925567627, -0.1066097617149353, -0.08439826965332031, 1.489013671875, 1.387939453125, 0.0297393798828125, 1.491943359375
92763, 0.019108381122350693, -0.03381521254777908, -0.0006517043802887201, 5.516082455869764e-05, -7.132398604881018e-05, 0.012819379568099976, 0.0006351057672873139, -0.0006155279115773737, 0.07801251858472824, -0.8560914397239685, -1.054893970489502, 0.05399660766124725, 0.09514098308831621, -0.5411937835771425, 1.320666869585338, 9362.0, 30146.0, 35388.0, 9362.0, 8.370248794555664, -0.1740645319223404, -0.051371026784181595, -0.23869100213050842, -0.08387114107608795, -0.01804770529270172, 1.0238083600997925, -0.1066097617149353, -0.08439826965332031, 1.489013671875, 1.336669921875, 0.0177764892578125, 1.491943359375
92773, 0.018830830231308937, -0.03390508517622948, -0.004201083909720182, 6.179239426273853e-05, -7.764050678815693e-05, 0.01361101120710373, 0.0006912808166816831, -0.0006478035356849432, 0.08031422644853592, -0.8560971021652222, -1.054890513420105, 0.0539759062230587, 0.08976508026517067, -0.5458422762374084, 1.3171104122783044, 9362.0, 30146.0, 35388.0, 9362.0, 8.370248794555664, -0.26706308126449585, 0.3457385003566742, 0.2013968825340271, -0.08492470532655716, -0.017177879810333252, 1.0245769023895264, -0.1066097617149353, -0.08439826965332031, 1.489013671875, 1.398193359375, 0.03826904296875, 1.49267578125
92783, 0.01804090104997158, -0.036529745906591415, -0.0030511277727782726, 6.900168227730319e-05, -8.428608271060511e-05, 0.014426001347601414, 0.0007505780667997897, -0.0006813034415245056, 0.08268421143293381, -0.8561118245124817, -1.054871678352356, 0.05403970554471016, 0.10226744983827969, -0.5475442774960868, 1.3233080743888295, 9362.0, 30146.0, 35388.0, 9362.0, 8.370248794555664, -0.06541223078966141, -0.3302019238471985, -0.2949804961681366, -0.08519992232322693, -0.018551087006926537, 1.0233403444290161, -0.1066097617149353, -0.08439826965332031, 1.489013671875, 1.41943359375, 0.0612945556640625, 1.49267578125
92793, 0.017817780375480652, -0.03497879579663277, -0.004458867013454437, 7.68046811572276e-05, -9.126422082772478e-05, 0.015264634042978287, 0.0008101307903416455, -0.0007142907124944031, 0.08504261821508408, -0.8560858964920044, -1.0548858642578125, 0.05400026962161064, 0.09134804285132136, -0.5459451157899764, 1.3090080086527205, 9362.0, 30146.0, 35388.0, 9362.0, 8.370248794555664, 0.23962421715259552, -0.12557442486286163, -0.13115353882312775, -0.0839875191450119, -0.018883729353547096, 1.0263214111328125, -0.1066097617149353, -0.08439826965332031, 1.489013671875, 1.418701171875, 0.0603485107421875, 1.491943359375
92803, 0.019359296187758446, -0.035484373569488525, -0.005397459492087364, 8.522665302734822e-05, -9.85655133263208e-05, 0.016127528622746468, 0.0008741958299651742, -0.0007459601620212197, 0.08753655105829239, -0.856101930141449, -1.0548878908157349, 0.053990282118320465, 0.09151702597310621, -0.541756308679453, 1.3147157040137598, 9362.0, 30146.0, 35388.0, 9362.0, 8.370248794555664, 0.17370033264160156, 0.1777721345424652, 0.061295878142118454, -0.08205408602952957, -0.019739443436264992, 1.0239166021347046, -0.1066097617149353, -0.08439826965332031, 1.489013671875, 1.421630859375, 0.0640716552734375, 1.491943359375
92813, 0.01976623199880123, -0.03850376978516579, -0.0046330285258591175, 9.427533223060891e-05, -0.00010618138185236603, 0.017014825716614723, 0.0009355606161989272, -0.0007772793178446591, 0.0899234414100647, -0.8560950756072998, -1.054890751838684, 0.05399394780397415, 0.08698867777391613, -0.541859722455996, 1.3150753521404637, 9362.0, 30146.0, 35388.0, 9362.0, 8.370248794555664, 0.08682102710008621, 0.1319328397512436, -0.04578378051519394, -0.08334828913211823, -0.017333662137389183, 1.0242385864257812, -0.1066097617149353, -0.08439826965332031, 1.489013671875, 1.43701171875, 0.085052490234375, 1.49560546875
92823, 0.01909235678613186, -0.04006689414381981, -0.003982922527939081, 0.00010394196578999981, -0.00011412389721954241, 0.017925789579749107, 0.0009978896705433726, -0.0008112400537356734, 0.09226979315280914, -0.8560998439788818, -1.0548797845840454, 0.05400858446955681, 0.09347092363825461, -0.5483534730458643, 1.3122704163460237, 9362.0, 30146.0, 35388.0, 9362.0, 8.370248794555664, 0.08960162103176117, -0.07402288913726807, -0.02230719104409218, -0.08317133784294128, -0.019663281738758087, 1.0248448848724365, -0.1066097617149353, -0.08439826965332031, 1.489013671875, 1.37109375, 0.0197906494140625, 1.49560546875
92833, 0.019660549238324165, -0.04022216796875, -0.003959267865866423, 0.00011425866978242993, -0.00012240975047461689, 0.01886068470776081, 0.001065518124960363, -0.0008459007367491722, 0.09470947086811066, -0.8560969233512878, -1.054887294769287, 0.054026756435632706, 0.09342321747199735, -0.5416559761407029, 1.3216779197716253, 9362.0, 30146.0, 35388.0, 9362.0, 8.370248794555664, -0.1489492952823639, -0.026197582483291626, -0.07459449023008347, -0.08317393064498901, -0.01865188591182232, 1.0247220993041992, -0.1066097617149353, -0.08439826965332031, 1.489013671875, 1.415771484375, 0.0568695068359375, 1.4912109375
92843, 0.01953006163239479, -0.038840558379888535, -0.005447813775390387, 0.00012526530190370977, -0.0001310362567892298, 0.019819866865873337, 0.0011358143528923392, -0.0008794245077297091, 0.09712736308574677, -0.8561140298843384, -1.0548741817474365, 0.05404851958155632, 0.09120646865679145, -0.5417999538908589, 1.326541894838799, 9362.0, 30146.0, 35388.0, 9362.0, 8.370248794555664, 0.2612164616584778, 0.36689645051956177, -0.16144657135009766, -0.08317641168832779, -0.018217915669083595, 1.024760127067566, -0.1066097617149353, -0.08439826965332031, 1.489013671875, 1.442138671875, 0.0926361083984375, 1.4912109375
92863, 0.02075757458806038, -0.0429227389395237, -0.005562649108469486, 0.00013697639224119484, -0.00014000304508954287, 0.020803427323698997, 0.0012063441099599004, -0.0009139309404417872, 0.09958507865667343, -0.8560917377471924, -1.0548821687698364, 0.05403014272451401, 0.09362065213876826, -0.5412373894908171, 1.3156880755005638, 9362.0, 30146.0, 35388.0, 9362.0, 8.370248794555664, 0.08799806982278824, 0.07353109121322632, 0.035964179784059525, -0.08317641168832779, -0.018217915669083595, 1.024760127067566, -0.09233952313661575, -0.021678924560546875, 1.494140625, 1.390869140625, 0.0319671630859375, 1.49560546875
92883, 0.0227307491004467, -0.04402313753962517, -0.0030741177033632994, 0.0001763116306392476, -0.00016898973262868822, 0.023893756791949272, 0.0014207111671566963, -0.0010199003154411912, 0.10631389915943146, -0.856096625328064, -1.0548921823501587, 0.054012443870306015, 0.09361722362905647, -0.5414356433550154, 1.318602839496345, 9362.0, 30146.0, 35388.0, 9362.0, 8.370248794555664, -0.07147341966629028, 0.20046761631965637, -0.02191990800201893, -0.08317641168832779, -0.018217915669083595, 1.024760127067566, -0.09233952313661575, -0.021678924560546875, 1.494140625, 1.38720703125, 0.0291900634765625, 1.48974609375
92903, 0.02493995800614357, -0.0468783862888813, -0.0041204518638551235, 0.0001763116306392476, -0.00016898973262868822, 0.023893756791949272, 0.0014207111671566963, -0.0010199003154411912, 0.10631389915943146, -0.8561115860939026, -1.0548774003982544, 0.05405497923493385, 0.09670833803371229, -0.5372224984767229, 1.3211935725093056, 9362.0, 30146.0, 35388.0, 9362.0, 8.370248794555664, 0.05333928391337395, 0.13714225590229034, -0.07098472863435745, -0.08317641168832779, -0.018217915669083595, 1.024760127067566, -0.09233952313661575, -0.021678924560546875, 1.494140625, 1.423828125, 0.066802978515625, 1.48974609375
92923, 0.02552085369825363, -0.047173503786325455, -0.004421043209731579, 0.0002393354516243562, -0.00021287950221449137, 0.028336629271507263, 0.0017357019241899252, -0.0011803214438259602, 0.11604099720716476, -0.8561116456985474, -1.0548619031906128, 0.054058488458395004, 0.09245907287697362, -0.5409098100568315, 1.3177356149436639, 9362.0, 30146.0, 35388.0, 9362.0, 8.370248794555664, -0.043010614812374115, -0.19954150915145874, -0.0905596986413002, -0.08317641168832779, -0.018217915669083595, 1.024760127067566, -0.09233952313661575, -0.021678924560546875, 1.494140625, 1.420166015625, 0.0621337890625, 1.4912109375
92943, 0.02656291052699089, -0.04542752727866173, -0.005557883530855179, 0.00027570847305469215, -0.00023736225557513535, 0.030703984200954437, 0.001901252311654389, -0.001268548658117652, 0.12063669413328171, -0.8560993671417236, -1.0548901557922363, 0.053993143141269684, 0.09431242645020095, -0.5450873236942755, 1.312436892092491, 9362.0, 30146.0, 35388.0, 9362.0, 8.370248794555664, -0.19403952360153198, -9.410805796505883e-05, 0.3680470287799835, -0.08317641168832779, -0.018217915669083595, 1.024760127067566, -0.09233952313661575, -0.021678924560546875, 1.494140625, 1.38427734375, 0.027099609375, 1.4912109375
92963, 0.025821132585406303, -0.04774067923426628, -0.0008819660288281739, 0.0002951080386992544, -0.0002502700372133404, 0.03192228823900223, 0.001978715183213353, -0.001313057611696422, 0.12302428483963013, -0.8560932278633118, -1.0548878908157349, 0.05398550629615784, 0.08957584394372849, -0.5382904758299674, 1.3141854806303161, 9362.0, 30146.0, 35388.0, 9362.0, 8.370248794555664, 0.0031516789458692074, -0.09080417454242706, -0.05446510761976242, -0.08317641168832779, -0.018217915669083595, 1.024760127067566, -0.09818068891763687, -0.021678924560546875, 1.494140625, 1.3330078125, 0.0191650390625, 1.493408203125
92973, 0.026399197056889534, -0.04698057845234871, -0.0009689877042546868, 0.00033628306118771434, -0.0002774620952550322, 0.03443170711398125, 0.002139406045898795, -0.0014059426030144095, 0.12784236669540405, -0.8561021089553833, -1.054880976676941, 0.053986161947250366, 0.09434753606679386, -0.5502976332905121, 1.309794765147252, 9362.0, 30146.0, 35388.0, 9362.0, 8.370248794555664, -0.1408914178609848, 0.09371264278888702, -0.04877326264977455, -0.08317641168832779, -0.018217915669083595, 1.024760127067566, -0.09818068891763687, -0.021678924560546875, 1.494140625, 1.43408203125, 0.080810546875, 1.493408203125
92983, 0.025598380714654922, -0.047988761216402054, 0.0005796612822450697, 0.00033628306118771434, -0.0002774620952550322, 0.03443170711398125, 0.002139406045898795, -0.0014059426030144095, 0.12784236669540405, -0.8560987710952759, -1.0548946857452393, 0.0540047287940979, 0.09450563374829477, -0.5459549135968587, 1.315786472674001, 9362.0, 30146.0, 35388.0, 9362.0, 8.370248794555664, -0.162156879901886, -0.08917008340358734, -0.10461193323135376, -0.08317641168832779, -0.018217915669083595, 1.024760127067566, -0.09818068891763687, -0.021678924560546875, 1.494140625, 1.4208984375, 0.063079833984375, 1.493408203125
93023, 0.02708365023136139, -0.04836847260594368, -0.004110598471015692, 0.0004042172513436526, -0.00032169290352612734, 0.03837710618972778, 0.002389959990978241, -0.0015425498131662607, 0.13536639511585236, -0.8561223149299622, -1.054901361465454, 0.05401601269841194, 0.07806797106335314, -0.5717933766251235, 1.3099632276776654, 9362.0, 30146.0, 35388.0, 9362.0, 8.370248794555664, 0.18469107151031494, -0.08612494170665741, -0.27460673451423645, -0.08317641168832779, -0.018217915669083595, 1.024760127067566, -0.09818068891763687, -0.021678924560546875, 1.494140625, 1.341796875, 0.0162811279296875, 1.493408203125
93033, 0.028238845989108086, -0.048067357391119, -0.005404212046414614, 0.0004042172513436526, -0.00032169290352612734, 0.03837710618972778, 0.002389959990978241, -0.0015425498131662607, 0.13536639511585236, -0.8561122417449951, -1.0549061298370361, 0.05401286482810974, 0.07937394564781441, -0.566093955465476, 1.3155656696593523, 9362.0, 30146.0, 35388.0, 9362.0, 8.370248794555664, -0.18232238292694092, 0.009768689051270485, -0.04779025912284851, -0.08317641168832779, -0.018217915669083595, 1.024760127067566, -0.09818068891763687, -0.021678924560546875, 1.494140625, 1.412841796875, 0.0534515380859375, 1.493408203125
93043, 0.027156732976436615, -0.048767201602458954, -0.0045096720568835735, 0.0004042172513436526, -0.00032169290352612734, 0.03837710618972778, 0.002389959990978241, -0.0015425498131662607, 0.13536639511585236, -0.8561252951622009, -1.0549085140228271, 0.05401556193828583, 0.08277409304975782, -0.5636040658811226, 1.311475869277246, 9362.0, 30146.0, 35388.0, 9362.0, 8.370248794555664, 0.10939909517765045, -0.12547992169857025, -0.4247962534427643, -0.08317641168832779, -0.018217915669083595, 1.024760127067566, -0.09818068891763687, -0.021678924560546875, 1.494140625, 1.40185546875, 0.0417938232421875, 1.493408203125
93073, 0.029338963329792023, -0.04815967381000519, -0.008228577673435211, 0.0005924944416619837, -0.00044112183968536556, 0.04846034198999405, 0.0029857379850000143, -0.0018758793594315648, 0.1524668186903, -0.8561636209487915, -1.0549112558364868, 0.05404967814683914, 0.0832575076700627, -0.5666669668874533, 1.3551757714847046, 9362.0, 30146.0, 35388.0, 9362.0, 8.370248794555664, -0.10687883198261261, 0.12175463140010834, 0.1060844361782074, -0.08317641168832779, -0.018217915669083595, 1.024760127067566, -0.09666761010885239, -0.05751800537109375, 1.4912109375, 1.37109375, 0.0197906494140625, 1.494140625
93083, 0.02857666276395321, -0.04952796548604965, -0.0077791716903448105, 0.0005924944416619837, -0.00044112183968536556, 0.04846034198999405, 0.0029857379850000143, -0.0018758793594315648, 0.1524668186903, -0.8561820387840271, -1.0549461841583252, 0.05402533710002899, 0.08919512564265186, -0.5543190077129907, 1.3524566684787993, 9362.0, 30146.0, 35388.0, 9362.0, 8.370248794555664, 0.03544577583670616, 0.23892587423324585, -0.008457356132566929, -0.08317641168832779, -0.018217915669083595, 1.024760127067566, -0.09666761010885239, -0.05751800537109375, 1.4912109375, 1.435546875, 0.0829315185546875, 1.494140625
93093, 0.028613802045583725, -0.051626164466142654, -0.007681251969188452, 0.0005924944416619837, -0.00044112183968536556, 0.04846034198999405, 0.0029857379850000143, -0.0018758793594315648, 0.1524668186903, -0.8561948537826538, -1.0549304485321045, 0.054060596972703934, 0.0895510133494189, -0.5479529186028458, 1.3550724504805451, 9362.0, 30146.0, 35388.0, 9362.0, 8.370248794555664, 0.10189902037382126, 0.06818147003650665, -0.030999712646007538, -0.08317641168832779, -0.018217915669083595, 1.024760127067566, -0.09666761010885239, -0.05751800537109375, 1.4912109375, 1.423095703125, 0.06591796875, 1.494140625
93143, 0.030288685113191605, -0.05411785468459129, -0.013573584146797657, 0.0007871734560467303, -0.0005628171493299305, 0.05805628001689911, 0.003518439596518874, -0.0021823786664754152, 0.16737695038318634, -0.8561714887619019, -1.054938793182373, 0.05402623489499092, 0.09487129177962861, -0.5624343464099582, 1.3507880643751506, 9362.0, 30146.0, 35388.0, 9362.0, 8.370248794555664, 0.08253830671310425, 0.3006782531738281, 0.11162867397069931, -0.08317641168832779, -0.018217915669083595, 1.024760127067566, -0.09666761010885239, -0.05751800537109375, 1.4912109375, 1.41943359375, 0.0612945556640625, 1.5
93153, 0.03134053200483322, -0.05599181354045868, -0.013902154751121998, 0.0007871734560467303, -0.0005628171493299305, 0.05805628001689911, 0.003518439596518874, -0.0021823786664754152, 0.16737695038318634, -0.8561549782752991, -1.0549176931381226, 0.05401920527219772, 0.07787399211280906, -0.5780154408769533, 1.3504277207878166, 9362.0, 30146.0, 35388.0, 9362.0, 8.370248794555664, 0.08253830671310425, 0.3006782531738281, 0.11162867397069931, -0.08317641168832779, -0.018217915669083595, 1.024760127067566, -0.11127781122922897, -0.2635974884033203, 1.474365234375, 1.41943359375, 0.0612945556640625, 1.5
93163, 0.03139859810471535, -0.05692023038864136, -0.013733023777604103, 0.0007871734560467303, -0.0005628171493299305, 0.05805628001689911, 0.003518439596518874, -0.0021823786664754152, 0.16737695038318634, -0.8561875820159912, -1.0549477338790894, 0.05402113497257233, 0.09101717148084057, -0.5632518800378818, 1.3468010253361509, 9362.0, 30146.0, 35388.0, 9362.0, 8.370248794555664, -0.034316327422857285, -0.1546761393547058, 0.005468138959258795, -0.08317641168832779, -0.018217915669083595, 1.024760127067566, -0.11127781122922897, -0.2635974884033203, 1.474365234375, 1.4267578125, 0.070709228515625, 1.5
93183, 0.03211706504225731, -0.05977599695324898, -0.011635216884315014, 0.0009355380898341537, -0.0006543024210259318, 0.06493983417749405, 0.0039016904775053263, -0.0023944764398038387, 0.17679202556610107, -0.8561424612998962, -1.054924726486206, 0.05400504544377327, 0.07752304475073746, -0.5719858126079203, 1.3471054781958658, 9362.0, 30146.0, 35388.0, 9362.0, 8.370248794555664, 0.19778111577033997, 0.21340559422969818, 0.06077118590474129, -0.08317641168832779, -0.018217915669083595, 1.024760127067566, -0.11127781122922897, -0.2635974884033203, 1.474365234375, 1.36376953125, 0.017181396484375, 1.5
93193, 0.0338217057287693, -0.061171162873506546, -0.01038746815174818, 0.0010155562777072191, -0.0007032938883639872, 0.06852253526449203, 0.00409924890846014, -0.002504756674170494, 0.18149220943450928, -0.8561768531799316, -1.0549379587173462, 0.05403482913970947, 0.08627158132209599, -0.5593476337886898, 1.3525879620573389, 9362.0, 30146.0, 35388.0, 9362.0, 8.370248794555664, 0.031472183763980865, 0.15950092673301697, 0.01463708933442831, -0.08317641168832779, -0.018217915669083595, 1.024760127067566, -0.11127781122922897, -0.2635974884033203, 1.474365234375, 1.431884765625, 0.07769775390625, 1.493408203125
93203, 0.03421373292803764, -0.06330350786447525, -0.010701088234782219, 0.0010570731246843934, -0.000728623301256448, 0.07034961879253387, 0.004204182419925928, -0.0025612011086195707, 0.18392479419708252, -0.8561822772026062, -1.0549405813217163, 0.05402173846960068, 0.08836420720568583, -0.5581717301874107, 1.3436385485776516, 9362.0, 30146.0, 35388.0, 9362.0, 8.370248794555664, 0.02131509780883789, 0.4876827597618103, 0.08762478083372116, -0.08317641168832779, -0.018217915669083595, 1.024760127067566, -0.11127781122922897, -0.2635974884033203, 1.474365234375, 1.35205078125, 0.015380859375, 1.493408203125
93213, 0.03473169729113579, -0.06497517973184586, -0.0122102415189147, 0.001099651213735342, -0.0007545319385826588, 0.07220068573951721, 0.004311518743634224, -0.002620541723445058, 0.1862896978855133, -0.8561632037162781, -1.0549396276474, 0.05404171347618103, 0.08796075576925225, -0.5559675094107774, 1.3504046169272848, 9362.0, 30146.0, 35388.0, 9362.0, 8.370248794555664, 0.06597831845283508, -0.1061098501086235, -0.09141889959573746, -0.08167417347431183, -0.018309220671653748, 1.022812843322754, -0.11127781122922897, -0.2635974884033203, 1.474365234375, 1.427490234375, 0.0716400146484375, 1.4970703125
93223, 0.03509048372507095, -0.06473464518785477, -0.013662050478160381, 0.0011433204635977745, -0.000781036913394928, 0.07407459616661072, 0.004422391299158335, -0.002680480480194092, 0.18849319219589233, -0.8561668395996094, -1.0549362897872925, 0.05403071641921997, 0.09132124687373291, -0.5632081423607644, 1.3473793516493433, 9362.0, 30146.0, 35388.0, 9362.0, 8.370248794555664, -0.027009950950741768, -0.41544896364212036, -0.32890433073043823, -0.08167417347431183, -0.018309220671653748, 1.022812843322754, -0.11127781122922897, -0.2635974884033203, 1.474365234375, 1.35498046875, 0.01556396484375, 1.4970703125
93233, 0.03407611697912216, -0.061044592410326004, -0.015553167089819908, 0.001188113004900515, -0.0008081458508968353, 0.07597050070762634, 0.004536105319857597, -0.0027413181960582733, 0.19068831205368042, -0.8561824560165405, -1.0549336671829224, 0.054030466824769974, 0.0897642310691958, -0.5549028820612136, 1.3420070092137246, 9362.0, 30146.0, 35388.0, 9362.0, 8.370248794555664, 0.12073050439357758, 0.08880876749753952, 0.08760738372802734, -0.08167417347431183, -0.018309220671653748, 1.022812843322754, -0.11127781122922897, -0.2635974884033203, 1.474365234375, 1.332275390625, 0.019561767578125, 1.490478515625
93243, 0.03441324084997177, -0.0627484917640686, -0.014927825890481472, 0.001234041410498321, -0.0008358667837455869, 0.07788914442062378, 0.004649430979043245, -0.0028028287924826145, 0.1930404156446457, -0.8561713099479675, -1.0549464225769043, 0.054039400070905685, 0.08988201970940786, -0.5611514279344476, 1.3547236748599079, 9362.0, 30146.0, 35388.0, 9362.0, 8.370248794555664, 0.04764050990343094, 0.3623085021972656, -0.03546711057424545, -0.08167417347431183, -0.018309220671653748, 1.022812843322754, -0.11127781122922897, -0.2635974884033203, 1.474365234375, 1.436279296875, 0.0838775634765625, 1.490478515625
93253, 0.03522135689854622, -0.06539896130561829, -0.016171537339687347, 0.001234041410498321, -0.0008358667837455869, 0.07788914442062378, 0.004649430979043245, -0.0028028287924826145, 0.1930404156446457, -0.8561753034591675, -1.0549408197402954, 0.05401606112718582, 0.09226435634712564, -0.5556592777133744, 1.3506850034506903, 9362.0, 30146.0, 35388.0, 9362.0, 8.370248794555664, 0.21864810585975647, 0.3166698217391968, 0.3318714201450348, -0.08167417347431183, -0.018309220671653748, 1.022812843322754, -0.1470034420490265, 0.0052013397216796875, 1.496337890625, 1.436279296875, 0.0838775634765625, 1.494873046875
93263, 0.03599924221634865, -0.06749707460403442, -0.014580358751118183, 0.001234041410498321, -0.0008358667837455869, 0.07788914442062378, 0.004649430979043245, -0.0028028287924826145, 0.1930404156446457, -0.856171190738678, -1.054936408996582, 0.054015833884477615, 0.08770924019955598, -0.5600221406966739, 1.3488310002215842, 9362.0, 30146.0, 35388.0, 9362.0, 8.370248794555664, -0.22380246222019196, -0.08884575963020325, 0.3308798372745514, -0.08167417347431183, -0.018309220671653748, 1.022812843322754, -0.1470034420490265, 0.0052013397216796875, 1.496337890625, 1.3681640625, 0.0185394287109375, 1.494873046875
93273, 0.03421049565076828, -0.06759031116962433, -0.012449228204786777, 0.0013784219045192003, -0.0009226590627804399, 0.08378318697214127, 0.004981216508895159, -0.002984754042699933, 0.19998249411582947, -0.85617995262146, -1.054930329322815, 0.05407490208745003, 0.0956877331933951, -0.5502016176439781, 1.3559435104948305, 9362.0, 30146.0, 35388.0, 9362.0, 8.370248794555664, 0.15840889513492584, 0.21204017102718353, 0.36505165696144104, -0.08167417347431183, -0.018309220671653748, 1.022812843322754, -0.1470034420490265, 0.0052013397216796875, 1.496337890625, 1.43115234375, 0.0766143798828125, 1.48828125
93283, 0.03463415801525116, -0.06916862726211548, -0.009201498702168465, 0.0014288261299952865, -0.0009528226219117641, 0.08579520136117935, 0.005099646281450987, -0.003047873033210635, 0.20242124795913696, -0.8561685085296631, -1.054935097694397, 0.05402345582842827, 0.08860615210105227, -0.5587329102451122, 1.3515130068753238, 9362.0, 30146.0, 35388.0, 9362.0, 8.370248794555664, 0.09571784734725952, 0.02315259352326393, -0.03400911018252373, -0.08167417347431183, -0.018309220671653748, 1.022812843322754, -0.1470034420490265, 0.0052013397216796875, 1.496337890625, 1.412109375, 0.0526123046875, 1.48828125
93303, 0.0363304428756237, -0.07031547278165817, -0.010289555415511131, 0.0015332050388678908, -0.0010149847948923707, 0.08989212661981583, 0.005339743569493294, -0.003168791066855192, 0.20733869075775146, -0.8561375737190247, -1.054916262626648, 0.0540192537009716, 0.0767246105614854, -0.5738644511656332, 1.3509882835715523, 9362.0, 30146.0, 35388.0, 9362.0, 8.370248794555664, -0.09030012041330338, 0.10467038303613663, 0.04263991117477417, -0.08167417347431183, -0.018309220671653748, 1.022812843322754, -0.1470034420490265, 0.0052013397216796875, 1.496337890625, 1.307373046875, 0.039581298828125, 1.493408203125
93313, 0.03490182012319565, -0.07104521244764328, -0.009109139442443848, 0.0015872149961069226, -0.0010469836415722966, 0.09197790175676346, 0.005462263710796833, -0.00323100876994431, 0.2098170965909958, -0.8561681509017944, -1.0549381971359253, 0.05403422191739082, 0.09053793982423307, -0.5648702072779201, 1.3452928490987028, 9362.0, 30146.0, 35388.0, 9362.0, 8.370248794555664, 0.04987141117453575, 0.2228761613368988, 0.3109225034713745, -0.08167417347431183, -0.018309220671653748, 1.022812843322754, -0.1470034420490265, 0.0052013397216796875, 1.496337890625, 1.402587890625, 0.0425262451171875, 1.491943359375
93323, 0.03529290854930878, -0.0707019716501236, -0.007464682683348656, 0.0015872149961069226, -0.0010469836415722966, 0.09197790175676346, 0.005462263710796833, -0.00323100876994431, 0.2098170965909958, -0.8561674356460571, -1.0549383163452148, 0.05401124805212021, 0.08906952131225103, -0.5564800608017038, 1.3550666627344665, 9362.0, 30146.0, 35388.0, 9362.0, 8.370248794555664, 0.17849139869213104, -0.20945017039775848, -0.009927519597113132, -0.08167417347431183, -0.018309220671653748, 1.022812843322754, -0.1470034420490265, 0.0052013397216796875, 1.496337890625, 1.370361328125, 0.0194549560546875, 1.491943359375
93333, 0.03713251277804375, -0.07205045223236084, -0.008784462697803974, 0.0015872149961069226, -0.0010469836415722966, 0.09197790175676346, 0.005462263710796833, -0.00323100876994431, 0.2098170965909958, -0.8561629056930542, -1.0549321174621582, 0.05402678623795509, 0.08875057398381718, -0.5579355346874593, 1.349707824169464, 9362.0, 30146.0, 35388.0, 9362.0, 8.370248794555664, -0.08232253789901733, -0.11407135426998138, 0.2911800444126129, -0.08167417347431183, -0.018309220671653748, 1.022812843322754, -0.1470034420490265, 0.0052013397216796875, 1.496337890625, 1.43115234375, 0.0766143798828125, 1.490478515625
93343, 0.03727114573121071, -0.07087114453315735, -0.007843771949410439, 0.0015872149961069226, -0.0010469836415722966, 0.09197790175676346, 0.005462263710796833, -0.00323100876994431, 0.2098170965909958, -0.8561785221099854, -1.0549397468566895, 0.05403377488255501, 0.08949808920899992, -0.5585775233491006, 1.3440368942172547, 9362.0, 30146.0, 35388.0, 9362.0, 8.370248794555664, 0.15118995308876038, 0.2998025715351105, -0.0695909708738327, -0.08167417347431183, -0.018309220671653748, 1.022812843322754, -0.1470034420490265, 0.0052013397216796875, 1.496337890625, 1.4091796875, 0.04937744140625, 1.490478515625
93363, 0.03762063756585121, -0.07421256601810455, -0.007935999892652035, 0.0018758579390123487, -0.00121639808639884, 0.10276882350444794, 0.006085025612264872, -0.0035485606640577316, 0.22187471389770508, -0.8561418056488037, -1.054923176765442, 0.0540110245347023, 0.07683749411251098, -0.5736669407794466, 1.3544186015948398, 9362.0, 30146.0, 35388.0, 9362.0, 8.370248794555664, 0.09810924530029297, 0.21898964047431946, 0.19021712243556976, -0.08167417347431183, -0.018309220671653748, 1.022812843322754, -0.09386955201625824, -0.3442363739013672, 1.4677734375, 1.455322265625, 0.1134796142578125, 1.490478515625
93383, 0.03860558941960335, -0.07697518914937973, -0.006585875991731882, 0.0018758579390123487, -0.00121639808639884, 0.10276882350444794, 0.006085025612264872, -0.0035485606640577316, 0.22187471389770508, -0.8561767339706421, -1.0549432039260864, 0.054033588618040085, 0.08973162521279877, -0.5550345220109989, 1.347562521118122, 9362.0, 30146.0, 35388.0, 9362.0, 8.370248794555664, 0.1236746534705162, 0.1468660533428192, -0.056740518659353256, -0.08167417347431183, -0.018309220671653748, 1.022812843322754, -0.09386955201625824, -0.3442363739013672, 1.4677734375, 1.401123046875, 0.041015625, 1.491943359375
93413, 0.041247304528951645, -0.07764903455972672, -0.012243697419762611, 0.0022031464613974094, -0.0014060994144529104, 0.11439135670661926, 0.006763241719454527, -0.003894547699019313, 0.2338200956583023, -0.8561496138572693, -1.0549094676971436, 0.05402486398816109, 0.07309666752757685, -0.5784057642664493, 1.3532944766139028, 9362.0, 30146.0, 35388.0, 9362.0, 8.370248794555664, -0.07422711700201035, -0.11254806071519852, 0.04744958505034447, -0.08167417347431183, -0.018309220671653748, 1.022812843322754, -0.09386955201625824, -0.3442363739013672, 1.4677734375, 1.34033203125, 0.0166168212890625, 1.4853515625
93423, 0.04142913967370987, -0.07720620930194855, -0.01146551314741373, 0.0022031464613974094, -0.0014060994144529104, 0.11439135670661926, 0.006763241719454527, -0.003894547699019313, 0.2338200956583023, -0.8561643958091736, -1.0549309253692627, 0.054027069360017776, 0.08908049727756079, -0.5517332753000233, 1.3493040769724107, 9362.0, 30146.0, 35388.0, 9362.0, 8.370248794555664, 0.020372672006487846, 0.1269986629486084, 0.07730008661746979, -0.08167417347431183, -0.018309220671653748, 1.022812843322754, -0.09386955201625824, -0.3442363739013672, 1.4677734375, 1.453125, 0.1099090576171875, 1.4853515625
93463, 0.040883954614400864, -0.07533387094736099, -0.014920634217560291, 0.0025584923569113016, -0.001609817729331553, 0.1263705939054489, 0.0074470010586082935, -0.004255685023963451, 0.2456294447183609, -0.8561708927154541, -1.0549315214157104, 0.054055117070674896, 0.09132438678264672, -0.5539180242281816, 1.3476094005030126, 9362.0, 30146.0, 35388.0, 9362.0, 8.370248794555664, -0.0962284579873085, -0.2125399112701416, -0.05176606774330139, -0.08167417347431183, -0.018309220671653748, 1.022812843322754, -0.09789489954710007, -0.03959846496582031, 1.49267578125, 1.329345703125, 0.02105712890625, 1.493408203125
93473, 0.03989814966917038, -0.07543297111988068, -0.013432348147034645, 0.0026336282026022673, -0.0016527341213077307, 0.12883909046649933, 0.007580137811601162, -0.0043276031501591206, 0.24807149171829224, -0.85617595911026, -1.0549333095550537, 0.05404675751924515, 0.092144403034652, -0.5610997508212847, 1.3556385823684132, 9362.0, 30146.0, 35388.0, 9362.0, 8.370248794555664, -0.053340256214141846, -0.029332196339964867, 0.09398095309734344, -0.08167417347431183, -0.018309220671653748, 1.022812843322754, -0.09789489954710007, -0.03959846496582031, 1.49267578125, 1.39013671875, 0.0314483642578125, 1.493408203125
93483, 0.039179179817438126, -0.075344979763031, -0.013062971644103527, 0.0026336282026022673, -0.0016527341213077307, 0.12883909046649933, 0.007580137811601162, -0.0043276031501591206, 0.24807149171829224, -0.8561753630638123, -1.0549345016479492, 0.05404847860336304, 0.0898760236005742, -0.5536071364374493, 1.3495047921623922, 9362.0, 30146.0, 35388.0, 9362.0, 8.370248794555664, -0.1100466251373291, 0.17630012333393097, -0.0033351387828588486, -0.08167417347431183, -0.018309220671653748, 1.022812843322754, -0.09789489954710007, -0.03959846496582031, 1.49267578125, 1.42529296875, 0.0688018798828125, 1.493408203125
93493, 0.03886541724205017, -0.07758273929357529, -0.013364462181925774, 0.0027878719847649336, -0.0017407108098268509, 0.13384675979614258, 0.007844340987503529, -0.004469174891710281, 0.252705842256546, -0.8561733961105347, -1.0549325942993164, 0.054040808230638504, 0.08850289585881381, -0.5590676897660387, 1.3478464741484963, 9362.0, 30146.0, 35388.0, 9362.0, 8.370248794555664, -0.19949232041835785, -0.14421683549880981, -0.06702936440706253, -0.08167417347431183, -0.018309220671653748, 1.022812843322754, -0.09789489954710007, -0.03959846496582031, 1.49267578125, 1.365966796875, 0.017791748046875, 1.494873046875
93503, 0.03831121325492859, -0.07778222858905792, -0.013283168897032738, 0.0027878719847649336, -0.0017407108098268509, 0.13384675979614258, 0.007844340987503529, -0.004469174891710281, 0.252705842256546, -0.856151819229126, -1.0549083948135376, 0.0540287047624588, 0.07722910150164179, -0.578436891021795, 1.3578830511569253, 9362.0, 30146.0, 35388.0, 9362.0, 8.370248794555664, -0.04132634028792381, 0.1687610000371933, 0.055367566645145416, -0.08167417347431183, -0.018309220671653748, 1.022812843322754, -0.09789489954710007, -0.03959846496582031, 1.49267578125, 1.402587890625, 0.0425262451171875, 1.494873046875
93513, 0.03817050904035568, -0.07897857576608658, -0.013286247849464417, 0.0029474259354174137, -0.001831468427553773, 0.1389516144990921, 0.008112783543765545, -0.004606161266565323, 0.257602721452713, -0.8561509847640991, -1.054912805557251, 0.05404192581772804, 0.07578030919458152, -0.5713227243747951, 1.3610683372731673, 9362.0, 30146.0, 35388.0, 9362.0, 8.370248794555664, 0.03451967239379883, 0.02745124138891697, 0.36215218901634216, -0.08167417347431183, -0.018309220671653748, 1.022812843322754, -0.09789489954710007, -0.03959846496582031, 1.49267578125, 1.387939453125, 0.0297393798828125, 1.48974609375
93523, 0.037858474999666214, -0.07938653230667114, -0.011451170779764652, 0.0029474259354174137, -0.001831468427553773, 0.1389516144990921, 0.008112783543765545, -0.004606161266565323, 0.257602721452713, -0.8561741709709167, -1.054923176765442, 0.05404151603579521, 0.08915556673743921, -0.5519540405005046, 1.3544227471868873, 9362.0, 30146.0, 35388.0, 9362.0, 8.370248794555664, 0.223918154835701, -0.034145746380090714, 0.062146496027708054, -0.08167417347431183, -0.018309220671653748, 1.022812843322754, -0.09789489954710007, -0.03959846496582031, 1.49267578125, 1.37548828125, 0.021820068359375, 1.48974609375
93533, 0.03919561579823494, -0.07981604337692261, -0.010744748637080193, 0.0031124164815992117, -0.0019249327015131712, 0.1441483050584793, 0.008387376554310322, -0.004740156698971987, 0.262104332447052, -0.8561553359031677, -1.0549113750457764, 0.05404645949602127, 0.07178847658084729, -0.5711605316519126, 1.3603002171992324, 9362.0, 30146.0, 35388.0, 9362.0, 8.370248794555664, 0.03691495954990387, 0.1250009685754776, -0.3235718607902527, -0.08167417347431183, -0.018309220671653748, 1.022812843322754, -0.09789489954710007, -0.03959846496582031, 1.49267578125, 1.3564453125, 0.0156707763671875, 1.49267578125
93543, 0.04019730165600777, -0.08226168155670166, -0.013713765889406204, 0.0031124164815992117, -0.0019249327015131712, 0.1441483050584793, 0.008387376554310322, -0.004740156698971987, 0.262104332447052, -0.8561463952064514, -1.0549134016036987, 0.05402807891368866, 0.08231430090156922, -0.575270077311103, 1.35646306622885, 9362.0, 30146.0, 35388.0, 9362.0, 8.370248794555664, -0.13063347339630127, 0.4914645552635193, 0.3864918351173401, -0.08167417347431183, -0.018309220671653748, 1.022812843322754, -0.09789489954710007, -0.03959846496582031, 1.49267578125, 1.376953125, 0.0225982666015625, 1.49267578125
93563, 0.04105718061327934, -0.08849761635065079, -0.013122940436005592, 0.003370333695784211, -0.002070180606096983, 0.152114138007164, 0.008811049163341522, -0.0049459682777523994, 0.26924100518226624, -0.8561655879020691, -1.0549362897872925, 0.05404496565461159, 0.0905560356653706, -0.5523132461142382, 1.3517277642520213, 9362.0, 30146.0, 35388.0, 9362.0, 8.370248794555664, 0.15997996926307678, 0.537748396396637, -0.07081159204244614, -0.08167417347431183, -0.018309220671653748, 1.022812843322754, -0.06885013729333878, -0.030637741088867188, 1.493408203125, 1.423095703125, 0.06591796875, 1.49267578125
93583, 0.04251553863286972, -0.0904325395822525, -0.01477832067757845, 0.0034591928124427795, -0.00211999355815351, 0.15481942892074585, 0.008960934355854988, -0.005016684532165527, 0.27181851863861084, -0.8561662435531616, -1.0549386739730835, 0.05405949056148529, 0.08347144201539279, -0.555393152220006, 1.3568262868430354, 9362.0, 30146.0, 35388.0, 9362.0, 8.370248794555664, -0.15486039221286774, -0.04975828900933266, -0.057395730167627335, -0.08167417347431183, -0.018309220671653748, 1.022812843322754, -0.06885013729333878, -0.030637741088867188, 1.493408203125, 1.38427734375, 0.027099609375, 1.49560546875
93603, 0.0418025478720665, -0.08951203525066376, -0.015754958614706993, 0.0034591928124427795, -0.00211999355815351, 0.15481942892074585, 0.008960934355854988, -0.005016684532165527, 0.27181851863861084, -0.8561574816703796, -1.0549229383468628, 0.054010774940252304, 0.07312375469131609, -0.5744642314994053, 1.3521098547421058, 9362.0, 30146.0, 35388.0, 9362.0, 8.370248794555664, -0.04725279659032822, 0.07543281465768814, 0.08963675796985626, -0.08167417347431183, -0.018309220671653748, 1.022812843322754, -0.06885013729333878, -0.030637741088867188, 1.493408203125, 1.39453125, 0.035003662109375, 1.491943359375
93623, 0.04046379774808884, -0.09189995378255844, -0.01045781560242176, 0.0039269463159143925, -0.00237995944917202, 0.1687096208333969, 0.009749412536621094, -0.00538372527807951, 0.28374427556991577, -0.8561411499977112, -1.0549083948135376, 0.0540442131459713, 0.07728122285508103, -0.5792041322871739, 1.3444328572680693, 9362.0, 30146.0, 35388.0, 9362.0, 8.370248794555664, 0.09619118273258209, 0.4381222128868103, 0.05764389410614967, -0.08167417347431183, -0.018309220671653748, 1.022812843322754, -0.06885013729333878, -0.030637741088867188, 1.493408203125, 1.351318359375, 0.0153350830078125, 1.49267578125
93653, 0.04061495512723923, -0.09426214545965195, -0.006553239654749632, 0.0041251289658248425, -0.0024890739005059004, 0.17443478107452393, 0.010069928131997585, -0.005527045112103224, 0.2886946201324463, -0.8561742305755615, -1.0549418926239014, 0.054026227444410324, 0.08938543031139877, -0.5589787241042927, 1.350633573126695, 9362.0, 30146.0, 35388.0, 9362.0, 8.370248794555664, 0.09821221977472305, 0.10153109580278397, 0.1316012293100357, -0.08167417347431183, -0.018309220671653748, 1.022812843322754, -0.07527810335159302, -0.20087814331054688, 1.4794921875, 1.3447265625, 0.0158538818359375, 1.48828125
93663, 0.04179238900542259, -0.09603087604045868, -0.0061332182958722115, 0.0041251289658248425, -0.0024890739005059004, 0.17443478107452393, 0.010069928131997585, -0.005527045112103224, 0.2886946201324463, -0.8561728000640869, -1.0549376010894775, 0.05403982847929001, 0.09038341569504926, -0.5504646319425603, 1.3559124257031376, 9362.0, 30146.0, 35388.0, 9362.0, 8.370248794555664, -0.13940328359603882, -0.06815677881240845, 0.128879114985466, -0.08167417347431183, -0.018309220671653748, 1.022812843322754, -0.07527810335159302, -0.20087814331054688, 1.4794921875, 1.3974609375, 0.03759765625, 1.48828125
93673, 0.041909459978342056, -0.09617065638303757, -0.00565691851079464, 0.0041251289658248425, -0.0024890739005059004, 0.17443478107452393, 0.010069928131997585, -0.005527045112103224, 0.2886946201324463, -0.8561393022537231, -1.0549170970916748, 0.0540318600833416, 0.07771709598251987, -0.5699978484415738, 1.3461867950237574, 9362.0, 30146.0, 35388.0, 9362.0, 8.370248794555664, -0.047106098383665085, -0.05798675864934921, 0.10028411448001862, -0.08167417347431183, -0.018309220671653748, 1.022812843322754, -0.07527810335159302, -0.20087814331054688, 1.4794921875, 1.377685546875, 0.023040771484375, 1.48828125
93683, 0.041874706745147705, -0.09543178230524063, -0.005165777634829283, 0.0041251289658248425, -0.0024890739005059004, 0.17443478107452393, 0.010069928131997585, -0.005527045112103224, 0.2886946201324463, -0.8561708331108093, -1.054938554763794, 0.054017387330532074, 0.08840110789323453, -0.5550936542703937, 1.3522029407984344, 9362.0, 30146.0, 35388.0, 9362.0, 8.370248794555664, 0.22276218235492706, 0.19625656306743622, -0.08314875513315201, -0.08167417347431183, -0.018309220671653748, 1.022812843322754, -0.07527810335159302, -0.20087814331054688, 1.4794921875, 1.439208984375, 0.0882415771484375, 1.48828125
93723, 0.042330868542194366, -0.1001431792974472, -0.0011600585421547294, 0.00475902296602726, -0.002833524951711297, 0.19216686487197876, 0.01106602419167757, -0.005959091242402792, 0.3025217056274414, -0.8561650514602661, -1.0549386739730835, 0.054038770496845245, 0.08263830511397928, -0.5619772512627605, 1.3463708853981164, 9362.0, 30146.0, 35388.0, 9362.0, 8.370248794555664, 0.07573707401752472, 0.47492972016334534, -0.09434384852647781, -0.08167417347431183, -0.018309220671653748, 1.022812843322754, -0.07527810335159302, -0.20087814331054688, 1.4794921875, 1.43408203125, 0.080810546875, 1.49560546875
93733, 0.042601995170116425, -0.10193630307912827, -0.0015995281282812357, 0.00509859062731266, -0.0030156283173710108, 0.20134583115577698, 0.01157363224774599, -0.006181590259075165, 0.3093768060207367, -0.856158435344696, -1.0549348592758179, 0.054047711193561554, 0.08885946317046779, -0.5634441788518814, 1.3484935616474232, 9362.0, 30146.0, 35388.0, 9362.0, 8.370248794555664, -0.15212535858154297, -0.09878399223089218, 0.013872520066797733, -0.08167417347431183, -0.018309220671653748, 1.022812843322754, -0.07527810335159302, -0.20087814331054688, 1.4794921875, 1.411376953125, 0.05181884765625, 1.49560546875
