timeTick, roll, pitch, yaw, stateX, stateY, stateZ, stateVX, stateVY, stateVZ, otX0, otY0, otZ0, otRoll0, otPitch0, otYaw0, left wing, pitch motor, yaw motor, right wing, voltage, roll rate, pitch rate, yaw rate, A_x, A_y, A_z, current, i_raw, v_raw, airflow_voltage, airflow_speed, pot_Pitch
59166, -0.0008743394282646477, -0.0031877753790467978, -0.000577358587179333, 0, 0, 0, 0, 0, 0, -0.862330973148346, -1.0555062294006348, 0.05327048525214195, -0.13259911720422626, -0.6720895803947826, 8.534776101768202, 0, 0, 0, 0, 0, 0, 0, 0, 0, 0, 0, 0, 0, 0, 0, 0, 0
59176, 0.0006074858247302473, -0.006420425605028868, -0.0008572738734073937, 0.0, 0.0, -2.485408913344145e-06, -2.7656406942355716e-08, -7.585253314346119e-09, -0.0004970826557837427, -0.8623430728912354, -1.0555111169815063, 0.053258784115314484, -0.13159663671045616, -0.6592443880692258, 8.535127389739761, 9362.0, 30146.0, 35388.0, 9362.0, 0, 0.029969390481710434, 0.040068212896585464, -0.29572904109954834, -0.08723040670156479, -0.02168845199048519, 0.9955242872238159, 0, 0, 0, 0, 0, 0
59186, -0.0003809401241596788, -0.00870595220476389, -0.001487143337726593, 2.690189582210678e-08, 7.378315292072557e-09, -9.464012691751122e-06, 5.385410531744128e-06, 1.4935967556084506e-06, -0.0008982374565675855, -0.8623446226119995, -1.0555129051208496, 0.05325442552566528, -0.13376831010869397, -0.6706718016033335, 8.537005331050304, 9362.0, 30146.0, 35388.0, 9362.0, 0, 0.11220836639404297, 0.3563898801803589, -0.1763623207807541, -0.08847540616989136, -0.02125442959368229, 0.9949079155921936, 0, 0, 0, 1.423828125, 0.066802978515625, 0
59196, -0.0014260730240494013, -0.009129198268055916, -0.0032238606363534927, 1.3546382149343117e-07, 1.7137139707301685e-08, -2.0734965801239014e-05, 1.6308722479152493e-05, 4.5015926275482343e-07, -0.0013555553741753101, -0.8623456358909607, -1.055513620376587, 0.053255245089530945, -0.13936479466431545, -0.6660860505352844, 8.540439807117911, 9362.0, 30146.0, 35388.0, 9362.0, 0, 0.050908755511045456, 0.353299081325531, -0.06996168196201324, -0.08959181606769562, -0.022617656737565994, 0.9956952333450317, 0, 0, 0, 1.406982421875, 0.046966552734375, 1.493408203125
59206, -0.0014273046981543303, -0.010867536999285221, -0.004216398578137159, 3.727172952494584e-07, 2.4882037763518383e-08, -3.668770659714937e-05, 3.113845377811231e-05, 1.089633087758557e-06, -0.0018345984863117337, -0.8623415231704712, -1.0555236339569092, 0.05325663089752197, -0.13141618277514278, -0.6713203817989495, 8.540121192652032, 9362.0, 30146.0, 35388.0, 9362.0, 0, 0.06426563113927841, 0.034473154693841934, -0.24704039096832275, -0.08679980039596558, -0.021995415911078453, 0.9945043325424194, 0, 0, 0, 1.459716796875, 0.120849609375, 1.493408203125
59216, -0.001030492945574224, -0.012007667683064938, -0.004534041974693537, 7.619122470714501e-07, 4.792862640101703e-08, -5.719313048757613e-05, 4.6687480789842084e-05, 3.5194061638321728e-06, -0.002266092924401164, -0.8623412251472473, -1.0555235147476196, 0.05326371639966965, -0.13584888868291856, -0.671691115973573, 8.531734770921503, 9362.0, 30146.0, 35388.0, 9362.0, 0, 0.058307163417339325, 0.05587112531065941, -0.006908987648785114, -0.08762798458337784, -0.02369552105665207, 0.9962900280952454, 0, 0, 0, 1.464111328125, 0.1283111572265625, 1.4912109375
59226, -0.0003441759617999196, -0.012081733904778957, -0.005615635775029659, 1.3213624470154173e-06, 9.527427380362496e-08, -8.228406659327447e-05, 6.519291491713375e-05, 5.952982974122278e-06, -0.002751699648797512, -0.8623195886611938, -1.0555400848388672, 0.05336788296699524, -0.13996036417156194, -0.5842451159997495, 8.56541258971004, 9362.0, 30146.0, 35388.0, 9362.0, 0, -0.05662725120782852, 0.09381482750177383, -0.048250116407871246, -0.08974558115005493, -0.024756835773587227, 0.9958961009979248, 0, 0, 0, 1.3828125, 0.0261077880859375, 1.4912109375
59236, 0.0005843854160048068, -0.015493734739720821, -0.004610233008861542, 2.075687461911002e-06, 1.6358347920686356e-07, -0.00011171371443197131, 8.567161421524361e-05, 7.713049853919074e-06, -0.0031338322442024946, -0.8623459339141846, -1.0555157661437988, 0.05325184017419815, -0.13097439667155564, -0.662040458635829, 8.535027046346706, 9362.0, 30146.0, 35388.0, 9362.0, 0, 0.029323890805244446, 0.5755828022956848, 0.23236775398254395, -0.09105422347784042, -0.02197784185409546, 0.9971621632575989, 0, 0, 0, 1.37255859375, 0.02044677734375, 1.49267578125
59246, 0.0007975957123562694, -0.016570787876844406, -0.0046495916321873665, 3.0353994588949718e-06, 2.436379418213619e-07, -0.00014511175686493516, 0.00010624629794619977, 8.304877155751456e-06, -0.0035453825257718563, -0.86238032579422, -1.0555438995361328, 0.05327736958861351, -0.11587873050905309, -0.6438669664462111, 8.536213580203219, 9362.0, 30146.0, 35388.0, 9362.0, 0, 0.04000924155116081, 0.13861222565174103, -0.04180898889899254, -0.09030809253454208, -0.02313995733857155, 0.9950193762779236, 0, 0, 0, 1.434814453125, 0.081787109375, 1.49267578125
59256, 0.0002100885903928429, -0.016120942309498787, -0.004006895702332258, 4.2300030145270284e-06, 3.2169205610443896e-07, -0.0001824100618250668, 0.00013266746827866882, 7.307299256353872e-06, -0.003913892898708582, -0.8623136281967163, -1.0555367469787598, 0.05337582156062126, -0.13580428838975903, -0.5768216873718188, 8.56878784174918, 9362.0, 30146.0, 35388.0, 9362.0, 0, -0.0308414064347744, -0.25615543127059937, -0.1249876394867897, -0.0889989584684372, -0.023592228069901466, 0.9963196516036987, 0, 0, 0, 1.48974609375, 0.1755218505859375, 1.493408203125
59266, 0.0009435233077965677, -0.014506609179079533, -0.004407609347254038, 5.697957021766342e-06, 3.879534347106528e-07, -0.00022355630062520504, 0.000160926443641074, 5.941182280366775e-06, -0.004314958583563566, -0.8623586893081665, -1.0555258989334106, 0.053258415311574936, -0.12691841854225558, -0.6641285727831132, 8.549090931240551, 9362.0, 30146.0, 35388.0, 9362.0, 8.152067184448242, -0.0669131875038147, -0.24515356123447418, 0.20122046768665314, -0.08876687288284302, -0.02461404725909233, 0.9924969673156738, -0.09469127655029297, -0.030637741088867188, 1.493408203125, 1.439208984375, 0.0882415771484375, 1.493408203125
59276, 0.001320250565186143, -0.013007677160203457, -0.005071655381470919, 7.44449243939016e-06, 4.455667408365116e-07, -0.0002693283895496279, 0.0001883954246295616, 5.587993200606434e-06, -0.004839062690734863, -0.8623611330986023, -1.0555610656738281, 0.05331690236926079, -0.17517229452139965, -0.7156583785589419, 8.543599304467381, 9362.0, 30146.0, 35388.0, 9362.0, 8.152067184448242, -0.0809328630566597, -0.3363204300403595, 0.007533697877079248, -0.08928412944078445, -0.023231498897075653, 0.9952532052993774, -0.09469127655029297, -0.030637741088867188, 1.493408203125, 1.456787109375, 0.115966796875, 1.491943359375
59286, 0.0014669590163975954, -0.009819380939006805, -0.005397826433181763, 9.451795449422207e-06, 4.934144044455024e-07, -0.0003210350696463138, 0.0002130825159838423, 3.985616785939783e-06, -0.005501885898411274, -0.862402617931366, -1.0555890798568726, 0.05335673689842224, -0.14913716635326302, -0.6869209685071667, 8.550852678675104, 9362.0, 30146.0, 35388.0, 9362.0, 8.152067184448242, -0.02317439578473568, -0.0954379141330719, 0.17455507814884186, -0.08816996216773987, -0.021270575001835823, 0.9956915974617004, -0.09469127655029297, -0.030637741088867188, 1.493408203125, 1.4384765625, 0.0871429443359375, 1.491943359375
59296, 0.0011106751626357436, -0.008919166401028633, -0.005400064866989851, 1.169349707197398e-05, 5.220069283495832e-07, -0.00037816338590346277, 0.0002352813316974789, 1.7338356883556116e-06, -0.005923374090343714, -0.862397313117981, -1.0555912256240845, 0.053348369896411896, -0.15962625165422348, -0.6970285630587796, 8.543704307334975, 9362.0, 30146.0, 35388.0, 9362.0, 8.152067184448242, -0.10005650669336319, -0.2924089729785919, -0.0336914137005806, -0.08913853764533997, -0.022945208474993706, 0.995537519454956, -0.09469127655029297, -0.030637741088867188, 1.493408203125, 1.411376953125, 0.05181884765625, 1.49267578125
59306, -0.0002518717956263572, -0.006227049045264721, -0.004406307823956013, 1.412996971339453e-05, 5.26838960013265e-07, -0.0004397398151922971, 0.00025202063261531293, -7.703364417466219e-07, -0.0063915131613612175, -0.8623654842376709, -1.0555697679519653, 0.053338680416345596, -0.169550322760402, -0.7213997105654073, 8.54675861706002, 9362.0, 30146.0, 35388.0, 9362.0, 8.152067184448242, -0.12824241816997528, -0.34126096963882446, 0.14572957158088684, -0.09036187082529068, -0.02572771906852722, 0.9983322024345398, -0.09469127655029297, -0.030637741088867188, 1.493408203125, 1.453857421875, 0.1110687255859375, 1.49267578125
59316, -0.0007925207610242069, -0.0034698438830673695, -0.0053372508846223354, 1.6726313333492726e-05, 5.096472364130022e-07, -0.0005050540203228593, 0.00026726117357611656, -2.674390543688787e-06, -0.006670929957181215, -0.862362802028656, -1.0555623769760132, 0.05333516746759415, -0.1781045730393892, -0.7204770921858312, 8.545185032488758, 9362.0, 30146.0, 35388.0, 9362.0, 8.152067184448242, 0.09369909763336182, -0.10475274175405502, 0.1843409538269043, -0.08974437415599823, -0.025286724790930748, 0.9969705939292908, -0.09469127655029297, -0.030637741088867188, 1.493408203125, 1.46337890625, 0.1270751953125, 1.4912109375
59326, 0.00041677456465549767, -0.005422850605100393, -0.0032727867364883423, 1.945211442944128e-05, 4.850506343245797e-07, -0.0005728691467083991, 0.00027790956664830446, -2.2471870124718407e-06, -0.006891694385558367, -0.862395167350769, -1.0555917024612427, 0.05332799255847931, -0.16163038242255354, -0.7029695584036801, 8.541814834153705, 9362.0, 30146.0, 35388.0, 9362.0, 8.152067184448242, 0.1752932220697403, 0.06645379215478897, 0.16402918100357056, -0.08777014911174774, -0.0237205158919096, 0.9956516027450562, -0.09469127655029297, -0.030637741088867188, 1.493408203125, 1.437744140625, 0.086029052734375, 1.4912109375
59336, 0.00042156034032814205, -0.004046009387820959, -0.0036062600556761026, 2.2260814148467034e-05, 4.6933757857914316e-07, -0.0006434551323764026, 0.00028381904121488333, -8.881756912160199e-07, -0.007225109729915857, -0.8624293804168701, -1.055606722831726, 0.05337031930685043, -0.15328578850171495, -0.708945041159069, 8.583509278542302, 9362.0, 30146.0, 35388.0, 9362.0, 8.152067184448242, 0.03881317749619484, -0.31966057419776917, -0.27750352025032043, -0.0886523649096489, -0.02411550097167492, 0.993833601474762, -0.09469127655029297, -0.030637741088867188, 1.493408203125, 1.382080078125, 0.0256195068359375, 1.491943359375
59346, 0.001091835554689169, -0.0038238652050495148, -0.005992647726088762, 2.5145187464659102e-05, 4.569037344026583e-07, -0.0007182469125837088, 0.00029306794749572873, -1.5986066728146398e-06, -0.007732859347015619, -0.8624293804168701, -1.055614709854126, 0.05335766822099686, -0.1519957604325377, -0.711819728800009, 8.588932954252375, 9362.0, 30146.0, 35388.0, 9362.0, 8.152067184448242, 0.1329943686723709, -0.04729115590453148, -0.06208218261599541, -0.08980222046375275, -0.024741780012845993, 0.9935927391052246, -0.09469127655029297, -0.030637741088867188, 1.493408203125, 1.399658203125, 0.0396575927734375, 1.491943359375
59356, 0.001793069881387055, -0.0025650649331510067, -0.006964095402508974, 2.811027479765471e-05, 4.3733044208238425e-07, -0.000798817491158843, 0.0002999520511366427, -2.308758894287166e-06, -0.008380851708352566, -0.8623680472373962, -1.0556049346923828, 0.05347415804862976, -0.17269599133740024, -0.6577275418082138, 8.60654040625604, 9362.0, 30146.0, 35388.0, 9362.0, 8.152067184448242, -0.07917596399784088, -0.035587623715400696, -0.2055373340845108, -0.08916322886943817, -0.023676998913288116, 0.9946394562721252, -0.09469127655029297, -0.030637741088867188, 1.493408203125, 1.46923828125, 0.137359619140625, 1.490478515625
59366, 0.0030406536534428596, -0.004417350981384516, -0.007346243131905794, 3.1142346415435895e-05, 4.0494444419891806e-07, -0.0008853558683767915, 0.00030647448147647083, -4.161876859143376e-06, -0.008926423266530037, -0.8624462485313416, -1.0556182861328125, 0.05336679518222809, -0.15249772954241453, -0.7045361909656265, 8.586278523740765, 9362.0, 30146.0, 35388.0, 9362.0, 8.152067184448242, 0.11339092999696732, 0.1431267410516739, -0.04610927775502205, -0.08861123025417328, -0.022358670830726624, 0.9941962361335754, -0.09562526643276215, -0.030637741088867188, 1.493408203125, 1.45458984375, 0.11224365234375, 1.490478515625
59376, 0.003198677208274603, -0.00214986689388752, -0.008198789320886135, 3.4228931326651946e-05, 3.480557495549874e-07, -0.000977269490249455, 0.0003108251257799566, -7.204367193480721e-06, -0.009455905295908451, -0.8623794913291931, -1.0556211471557617, 0.05346056818962097, -0.1716931969201659, -0.6489068079151821, 8.602278230401838, 9362.0, 30146.0, 35388.0, 9362.0, 8.152067184448242, 0.0408552922308445, -0.27240607142448425, -0.31151145696640015, -0.08762320876121521, -0.021561605855822563, 0.9956620931625366, -0.09562526643276215, -0.030637741088867188, 1.493408203125, 1.428955078125, 0.073577880859375, 1.494140625
59386, 0.004983056336641312, -0.004146777559071779, -0.009391295723617077, 3.7374786188593134e-05, 2.5012019477799186e-07, -0.0010745322797447443, 0.00031836729613132775, -1.238136610481888e-05, -0.0099962642416358, -0.8624429106712341, -1.0556180477142334, 0.05337594822049141, -0.14845110919898338, -0.7101363819845972, 8.585033182359679, 9362.0, 30146.0, 35388.0, 9362.0, 8.152067184448242, 0.05093507096171379, 0.17412599921226501, 0.07886764407157898, -0.08770836889743805, -0.02358844503760338, 0.9949909448623657, -0.09562526643276215, -0.030637741088867188, 1.493408203125, 1.3681640625, 0.0185394287109375, 1.494140625
59396, 0.004475068300962448, -0.005387124139815569, -0.009798680432140827, 4.057678597746417e-05, 9.902792896809842e-08, -0.0011764185037463903, 0.00032201953581534326, -1.782520121196285e-05, -0.01038057915866375, -0.8624348044395447, -1.055612325668335, 0.05335749685764313, -0.15362854141957344, -0.719027514923539, 8.581057391790596, 9362.0, 30146.0, 35388.0, 9362.0, 8.152067184448242, 0.11990225315093994, 0.06921664625406265, -0.10274067521095276, -0.09010016918182373, -0.023546449840068817, 0.9943768978118896, -0.09562526643276215, -0.030637741088867188, 1.493408203125, 1.42236328125, 0.0649566650390625, 1.494873046875
59406, 0.00593442702665925, -0.006232862826436758, -0.010707490146160126, 4.383227860671468e-05, -1.2165560292487498e-07, -0.001282908022403717, 0.0003290676395408809, -2.6316309231333435e-05, -0.010916934348642826, -0.8624377250671387, -1.0556156635284424, 0.05337589234113693, -0.15091442708775704, -0.7121964723229155, 8.58813033393399, 9362.0, 30146.0, 35388.0, 9362.0, 8.152067184448242, -0.19380058348178864, 0.5145598649978638, 0.08635465800762177, -0.08951788395643234, -0.024291450157761574, 0.9960138201713562, -0.09562526643276215, -0.030637741088867188, 1.493408203125, 1.423095703125, 0.06591796875, 1.494873046875
59416, 0.005666166078299284, -0.009412593208253384, -0.009155485779047012, 4.7168839955702424e-05, -4.229498529184639e-07, -0.0013944723177701235, 0.0003382377908565104, -3.39305006491486e-05, -0.011395524255931377, -0.8624262809753418, -1.055615782737732, 0.05337011069059372, -0.15008833209635844, -0.7186507885744788, 8.581998809407027, 9362.0, 30146.0, 35388.0, 9362.0, 8.152067184448242, 0.09044227749109268, 0.12170689553022385, 0.08378812670707703, -0.08653706312179565, -0.02298922836780548, 0.994626522064209, -0.09562526643276215, -0.030637741088867188, 1.493408203125, 1.447998046875, 0.1016693115234375, 1.491943359375
59426, 0.006457674317061901, -0.012289226055145264, -0.009899606928229332, 5.0604314310476184e-05, -8.128292279252491e-07, -0.001510737231001258, 0.00034883207990787923, -4.404723586048931e-05, -0.011857076548039913, -0.8623875975608826, -1.0555740594863892, 0.05336342006921768, -0.1674924823993201, -0.733415516483916, 8.589619657642189, 9362.0, 30146.0, 35388.0, 9362.0, 8.152067184448242, -0.0817638635635376, 0.015795229002833366, 0.004851009231060743, -0.08938721567392349, -0.024096276611089706, 0.995917558670044, -0.09562526643276215, -0.030637741088867188, 1.493408203125, 1.40478515625, 0.0446624755859375, 1.491943359375
59436, 0.006555511150509119, -0.012154915370047092, -0.010828699916601181, 5.417284774011932e-05, -1.3016051525482908e-06, -0.0016314962413161993, 0.0003648525453172624, -5.3702118748333305e-05, -0.012294350191950798, -0.8624517917633057, -1.0556141138076782, 0.05337781831622124, -0.14382670691190266, -0.7012291288258439, 8.586035623313482, 9362.0, 30146.0, 35388.0, 9362.0, 8.152067184448242, -0.183146670460701, -0.15228934586048126, -0.5724178552627563, -0.0892505794763565, -0.026913587003946304, 0.995451807975769, -0.09562526643276215, -0.030637741088867188, 1.493408203125, 1.4091796875, 0.04937744140625, 1.491943359375
59446, 0.007065967656672001, -0.015347974374890327, -0.01252943929284811, 5.792611409560777e-05, -1.8936883634523838e-06, -0.0017565611051395535, 0.00038580168620683253, -6.47141641820781e-05, -0.01271823514252901, -0.8624097108840942, -1.0555919408798218, 0.05334926024079323, -0.16878488550674056, -0.7291128321078304, 8.59419888993253, 9362.0, 30146.0, 35388.0, 9362.0, 8.152067184448242, -0.24873417615890503, 0.19097411632537842, 0.14868322014808655, -0.08960481733083725, -0.02372538112103939, 0.996009886264801, -0.09562526643276215, -0.030637741088867188, 1.493408203125, 1.4677734375, 0.1347198486328125, 1.491943359375
59456, 0.00716735515743494, -0.014711189083755016, -0.012138326652348042, 6.188770203152671e-05, -2.59671514868387e-06, -0.0018859723350033164, 0.0004064911918248981, -7.58878595661372e-05, -0.013163621537387371, -0.8624438643455505, -1.0556082725524902, 0.0533955842256546, -0.14568811889168637, -0.7070702019254327, 8.588068343564323, 9362.0, 30146.0, 35388.0, 9362.0, 8.152067184448242, 0.057535286992788315, -0.1682555377483368, -0.22660408914089203, -0.09005354344844818, -0.021489841863512993, 0.997103214263916, -0.09562526643276215, -0.030637741088867188, 1.493408203125, 1.41943359375, 0.0612945556640625, 1.494873046875
59466, 0.007421232759952545, -0.015831924974918365, -0.014076738618314266, 6.608361582038924e-05, -3.4159390907007037e-06, -0.002019018167629838, 0.00043269459274597466, -8.795627218205482e-05, -0.01344515010714531, -0.86243736743927, -1.0556118488311768, 0.053398214280605316, -0.14860612370602375, -0.7022019476111439, 8.583136468810325, 9362.0, 30146.0, 35388.0, 9362.0, 8.152067184448242, 0.27482035756111145, 0.23937423527240753, -0.10314372181892395, -0.08758027106523514, -0.022979842498898506, 0.9946199655532837, -0.10606152564287186, 0.10376167297363281, 1.50439453125, 1.393798828125, 0.0344085693359375, 1.494873046875
59476, 0.008592236787080765, -0.01646624505519867, -0.015238874591886997, 7.053596345940605e-05, -4.356631507107522e-06, -0.002155513036996126, 0.0004577667568810284, -0.00010018121975008398, -0.01385345496237278, -0.8624255061149597, -1.0555928945541382, 0.05338778346776962, -0.15231189534766829, -0.7011835987764812, 8.58313653907648, 9362.0, 30146.0, 35388.0, 9362.0, 8.152067184448242, 0.10875192284584045, 0.0445975698530674, -0.25640204548835754, -0.08915811032056808, -0.021385423839092255, 0.9956475496292114, -0.10606152564287186, 0.10376167297363281, 1.50439453125, 1.458251953125, 0.1184234619140625, 1.496337890625
59486, 0.008631347678601742, -0.016165688633918762, -0.014766022562980652, 7.524845568696037e-05, -5.421684363682289e-06, -0.002296553226187825, 0.0004847263335250318, -0.00011281965998932719, -0.014354179613292217, -0.8624510169029236, -1.055600643157959, 0.05338586866855621, -0.1498803236442406, -0.6951618724697539, 8.58940323535518, 9362.0, 30146.0, 35388.0, 9362.0, 8.152067184448242, 0.2480051964521408, -0.06371881812810898, -0.008941850624978542, -0.08837635815143585, -0.02252059616148472, 0.9956638813018799, -0.10606152564287186, 0.10376167297363281, 1.50439453125, 1.465576171875, 0.130889892578125, 1.496337890625
59496, 0.008355590514838696, -0.016432326287031174, -0.01653566025197506, 8.02360664238222e-05, -6.623161425522994e-06, -0.0024421848356723785, 0.0005127976764924824, -0.00012747528671752661, -0.014771753922104836, -0.8624270558357239, -1.0556055307388306, 0.05338579788804054, -0.15498111377407026, -0.700017382647161, 8.588642307966404, 9362.0, 30146.0, 35388.0, 9362.0, 8.152067184448242, -0.044622354209423065, 0.1821322739124298, 0.0912410318851471, -0.08949670195579529, -0.023686135187745094, 0.9959414005279541, -0.10606152564287186, 0.10376167297363281, 1.50439453125, 1.48388671875, 0.1642303466796875, 1.4912109375
59506, 0.009577167220413685, -0.017601992934942245, -0.014790878631174564, 8.550179336452857e-05, -7.971510058268905e-06, -0.0025920995976775885, 0.0005403459072113037, -0.00014219745935406536, -0.015210828743875027, -0.8624439835548401, -1.0555999279022217, 0.05339252948760986, -0.14921541059394053, -0.7026811925166498, 8.59259169801309, 9362.0, 30146.0, 35388.0, 9362.0, 8.152067184448242, 0.13225889205932617, 0.19779396057128906, 0.31096288561820984, -0.08930660039186478, -0.023111797869205475, 0.9955815076828003, -0.10606152564287186, 0.10376167297363281, 1.50439453125, 1.440673828125, 0.090423583984375, 1.4912109375
59516, 0.01022262405604124, -0.018412508070468903, -0.014944331720471382, 9.10453381948173e-05, -9.464767572353594e-06, -0.0027461834251880646, 0.0005683557828888297, -0.00015644483210053295, -0.015605542808771133, -0.8623833656311035, -1.0556000471115112, 0.05348009616136551, -0.17232449730387492, -0.6332502454624489, 8.616929673631883, 9362.0, 30146.0, 35388.0, 9362.0, 8.152067184448242, -0.012156187556684017, -0.08159935474395752, -0.12262522429227829, -0.08690223097801208, -0.024316230788826942, 0.9944485425949097, -0.10606152564287186, 0.10376167297363281, 1.50439453125, 1.37109375, 0.0197906494140625, 1.4912109375
59526, 0.009081712923943996, -0.01981816440820694, -0.012493222020566463, 9.687884448794648e-05, -1.1110852938145399e-05, -0.002904576249420643, 0.0005983388982713223, -0.00017276700236834586, -0.016072627156972885, -0.8624471426010132, -1.0556033849716187, 0.0533934161067009, -0.14978626204888518, -0.699639008326443, 8.590725634937805, 9362.0, 30146.0, 35388.0, 9362.0, 8.152067184448242, -0.10200820863246918, 0.3160485625267029, 0.09474289417266846, -0.08804556727409363, -0.024208541959524155, 0.9945446848869324, -0.10606152564287186, 0.10376167297363281, 1.50439453125, 1.421630859375, 0.0640716552734375, 1.4912109375
59536, 0.00952200498431921, -0.019387833774089813, -0.010242924094200134, 0.00010301896691089496, -1.292559227294987e-05, -0.0030680238269269466, 0.0006296722567640245, -0.00019019040337298065, -0.016616476699709892, -0.8624264597892761, -1.0555905103683472, 0.05338770151138306, -0.1535755984330222, -0.7030070544842602, 8.593888309133833, 9362.0, 30146.0, 35388.0, 9362.0, 8.152067184448242, 0.07260981947183609, -0.113445945084095, 0.338377982378006, -0.08806949108839035, -0.021519433706998825, 0.9959831237792969, -0.10606152564287186, 0.10376167297363281, 1.50439453125, 1.43994140625, 0.089324951171875, 1.497802734375
59546, 0.01038429792970419, -0.0189835112541914, -0.009880066849291325, 0.00010948452836601064, -1.490491285949247e-05, -0.0032365056686103344, 0.0006634448072873056, -0.0002056688244920224, -0.017079483717679977, -0.8623935580253601, -1.0556082725524902, 0.05348929017782211, -0.16885042470470504, -0.6403580912129314, 8.613063112379626, 9362.0, 30146.0, 35388.0, 9362.0, 8.152067184448242, -0.07762070000171661, 0.2365669459104538, -0.047805055975914, -0.08819559961557388, -0.020053906366229057, 0.9989163279533386, -0.10606152564287186, 0.10376167297363281, 1.50439453125, 1.4384765625, 0.0871429443359375, 1.497802734375
59556, 0.010107253678143024, -0.018969940021634102, -0.009116383269429207, 0.00011628444190137088, -1.7042904801201075e-05, -0.003408762626349926, 0.000696540460921824, -0.00022192482720129192, -0.01737155020236969, -0.8624254465103149, -1.0555508136749268, 0.053307633846998215, -0.18340067595238793, -0.7347065643865847, 8.591743238759161, 9362.0, 30146.0, 35388.0, 9362.0, 8.152067184448242, -0.17218033969402313, -0.3601323068141937, 0.00904746912419796, -0.08964715898036957, -0.02291315607726574, 0.9975360631942749, -0.10606152564287186, 0.10376167297363281, 1.50439453125, 1.4326171875, 0.0786895751953125, 1.49267578125
59566, 0.009869411587715149, -0.01976710744202137, -0.007758918683975935, 0.00012341215915512294, -1.9350980437593535e-05, -0.003583022626116872, 0.0007290045614354312, -0.000239690431044437, -0.017480073496699333, -0.8623838424682617, -1.0556159019470215, 0.053487323224544525, -0.16603862361286584, -0.6438833742919883, 8.615952371465365, 9362.0, 30146.0, 35388.0, 9362.0, 8.152067184448242, -0.1633964478969574, 0.11955991387367249, -0.08776560425758362, -0.0893087387084961, -0.02295697294175625, 0.9938268661499023, -0.08849120885133743, -0.19191741943359375, 1.480224609375, 1.360107421875, 0.0162506103515625, 1.49267578125
59576, 0.008672269992530346, -0.01920476369559765, -0.009146303869783878, 0.00013086384569760412, -2.1834037397638895e-05, -0.0037600863724946976, 0.0007613258785568178, -0.00025692215422168374, -0.01793232001364231, -0.8624380230903625, -1.0555932521820068, 0.05337446182966232, -0.1455959485263664, -0.6956199735194559, 8.584746557154096, 9362.0, 30146.0, 35388.0, 9362.0, 8.152067184448242, -0.030567489564418793, -0.13297338783740997, -0.22555235028266907, -0.08940744400024414, -0.025283614173531532, 0.9944654107093811, -0.08849120885133743, -0.19191741943359375, 1.480224609375, 1.3916015625, 0.0325927734375, 1.49267578125
59586, 0.009415377862751484, -0.017217453569173813, -0.010994534939527512, 0.00013864530774299055, -2.4487268092343584e-05, -0.003942332696169615, 0.000794971885625273, -0.0002737371250987053, -0.01851658895611763, -0.8623635172843933, -1.0555912256240845, 0.05346857011318207, -0.1839000832212217, -0.6602968377983132, 8.619325837441732, 9362.0, 30146.0, 35388.0, 9362.0, 8.152067184448242, 0.09848194569349289, 0.012753051705658436, -0.04326875880360603, -0.08759180456399918, -0.025039788335561752, 0.9969756007194519, -0.08849120885133743, -0.19191741943359375, 1.480224609375, 1.453857421875, 0.1110687255859375, 1.49267578125
59596, 0.00850375834852457, -0.01689169555902481, -0.008703812025487423, 0.00014675874263048172, -2.729859625105746e-05, -0.0041295550763607025, 0.0008277272572740912, -0.0002885241701733321, -0.018927546218037605, -0.8624399304389954, -1.055613398551941, 0.05337595194578171, -0.1540081124257831, -0.7055668004511801, 8.591543350444894, 9362.0, 30146.0, 35388.0, 9362.0, 8.152067184448242, -0.09495223313570023, -0.13190340995788574, 0.06502919644117355, -0.08863228559494019, -0.022690868005156517, 0.9967454075813293, -0.08849120885133743, -0.19191741943359375, 1.480224609375, 1.4443359375, 0.0959930419921875, 1.491943359375
59606, 0.0082049909979105, -0.015435216017067432, -0.010861610062420368, 0.00015518299187533557, -3.026425292773638e-05, -0.0043201507069170475, 0.0008571262005716562, -0.00030461017740890384, -0.019191144034266472, -0.8624515533447266, -1.055615782737732, 0.053387340158224106, -0.15080679433141006, -0.6905470239595104, 8.58563329815043, 9362.0, 30146.0, 35388.0, 9362.0, 8.152067184448242, 0.030315754935145378, 0.09453818947076797, 0.03763784095644951, -0.08850198239088058, -0.022035818547010422, 0.9946654438972473, -0.08849120885133743, -0.19191741943359375, 1.480224609375, 1.442138671875, 0.0926361083984375, 1.491943359375
59616, 0.008842741139233112, -0.016663426533341408, -0.009266700595617294, 0.0001638982503209263, -3.3382872061338276e-05, -0.004514114931225777, 0.0008859342779032886, -0.00031911666155792773, -0.01960134319961071, -0.8624398708343506, -1.0556164979934692, 0.053392309695482254, -0.14689394481488255, -0.6925617848847594, 8.588811517357293, 9362.0, 30146.0, 35388.0, 9362.0, 8.152067184448242, 0.02980484440922737, 0.2542562484741211, -0.15712837874889374, -0.088992178440094, -0.02626258321106434, 0.9945523738861084, -0.08849120885133743, -0.19191741943359375, 1.480224609375, 1.46484375, 0.1295928955078125, 1.493408203125
59626, 0.008140659891068935, -0.01671598106622696, -0.007789794355630875, 0.00017288897652179003, -3.6643908970290795e-05, -0.004712894558906555, 0.0009121988550759852, -0.0003330838808324188, -0.020154183730483055, -0.8624285459518433, -1.055601716041565, 0.053386665880680084, -0.1547008513972796, -0.7060541701418117, 8.590393606529792, 9362.0, 30146.0, 35388.0, 9362.0, 8.152067184448242, -0.15734200179576874, -0.09868641942739487, 0.14977818727493286, -0.08792503923177719, -0.023476382717490196, 0.9949651956558228, -0.08849120885133743, -0.19191741943359375, 1.480224609375, 1.430419921875, 0.0756378173828125, 1.493408203125
59636, 0.0070901294238865376, -0.016551094129681587, -0.007207119837403297, 0.00018215281306765974, -4.005004666396417e-05, -0.00491718715056777, 0.0009405669406987727, -0.0003481498279143125, -0.020703976973891258, -0.862405002117157, -1.0555849075317383, 0.05337512865662575, -0.1683108799576004, -0.7306621242015012, 8.588731817367371, 9362.0, 30146.0, 35388.0, 9362.0, 8.152067184448242, -0.13423624634742737, -0.3401399254798889, 0.008917870931327343, -0.08710824698209763, -0.02354799397289753, 0.9975520372390747, -0.08849120885133743, -0.19191741943359375, 1.480224609375, 1.385009765625, 0.0276336669921875, 1.49267578125
59646, 0.0076205311343073845, -0.01680167019367218, -0.007088574580848217, 0.00019170105224475265, -4.360099774203263e-05, -0.005126037634909153, 0.0009690811857581139, -0.00036204676143825054, -0.02106570638716221, -0.8623781800270081, -1.0555987358093262, 0.053487379103899, -0.17919430375561773, -0.6381286092856726, 8.62037610061461, 9362.0, 30146.0, 35388.0, 9362.0, 8.152067184448242, 0.13195407390594482, 0.06685575097799301, 0.26148486137390137, -0.08537693321704865, -0.023594366386532784, 0.997380256652832, -0.08849120885133743, -0.19191741943359375, 1.480224609375, 1.452392578125, 0.10870361328125, 1.49267578125
59656, 0.007733805570751429, -0.014880288392305374, -0.00757781695574522, 0.00020153327204752713, -4.728206477011554e-05, -0.005337629467248917, 0.0009973631240427494, -0.00037416486884467304, -0.021252300590276718, -0.8624173402786255, -1.0555753707885742, 0.05336363613605499, -0.16436138825011867, -0.7223003658897653, 8.590693041150109, 9362.0, 30146.0, 35388.0, 9362.0, 8.152067184448242, 0.033418744802474976, -0.14725275337696075, -0.32846522331237793, -0.08942718803882599, -0.022824116051197052, 0.9948553442955017, -0.08849120885133743, -0.19191741943359375, 1.480224609375, 1.475830078125, 0.1492767333984375, 1.49267578125
59666, 0.009164964780211449, -0.016872694715857506, -0.007927735336124897, 0.00021165020007174462, -5.1088725740555674e-05, -0.0055519770830869675, 0.0010260340059176087, -0.0003871670051012188, -0.021616866812109947, -0.8624373078346252, -1.0555999279022217, 0.05337735638022423, -0.15812914173225873, -0.6994029773219097, 8.578149828530172, 9362.0, 30146.0, 35388.0, 9362.0, 8.152067184448242, 0.08798385411500931, 0.21243168413639069, 0.09493394196033478, -0.08836755156517029, -0.023422833532094955, 0.9934311509132385, -0.07917850464582443, -0.03959846496582031, 1.49267578125, 1.41650390625, 0.0577545166015625, 1.49267578125
59676, 0.010739139281213284, -0.01665686070919037, -0.008815953508019447, 0.00021165020007174462, -5.1088725740555674e-05, -0.0055519770830869675, 0.0010260340059176087, -0.0003871670051012188, -0.021616866812109947, -0.8624513745307922, -1.0556066036224365, 0.05338378995656967, -0.14785283315937797, -0.6985070249291709, 8.585288445992466, 9362.0, 30146.0, 35388.0, 9362.0, 8.152067184448242, 0.030959198251366615, 0.12368015944957733, -0.06026389077305794, -0.08836755156517029, -0.023422833532094955, 0.9934311509132385, -0.07917850464582443, -0.03959846496582031, 1.49267578125, 1.393798828125, 0.0344085693359375, 1.49267578125
59686, 0.009005782194435596, -0.015067016705870628, -0.009887964464724064, 0.00021165020007174462, -5.1088725740555674e-05, -0.0055519770830869675, 0.0010260340059176087, -0.0003871670051012188, -0.021616866812109947, -0.8624366521835327, -1.0555968284606934, 0.053391821682453156, -0.1561683512614529, -0.6973860794406619, 8.590972336382064, 9362.0, 30146.0, 35388.0, 9362.0, 8.152067184448242, -0.0026010440196841955, -0.30841153860092163, 0.0499168261885643, -0.09038440138101578, -0.024225005879998207, 0.9941797256469727, -0.07917850464582443, -0.03959846496582031, 1.49267578125, 1.3212890625, 0.026214599609375, 1.49267578125
59696, 0.00837765634059906, -0.01598200760781765, -0.009050566703081131, 0.00021165020007174462, -5.1088725740555674e-05, -0.0055519770830869675, 0.0010260340059176087, -0.0003871670051012188, -0.021616866812109947, -0.862424373626709, -1.0556021928787231, 0.053410854190588, -0.15525532004693215, -0.7121891615543632, 8.584765668244321, 9362.0, 30146.0, 35388.0, 9362.0, 8.152067184448242, 0.17403177917003632, 0.05904761701822281, -0.04283686354756355, -0.08932290971279144, -0.023923741653561592, 0.994822084903717, -0.07917850464582443, -0.03959846496582031, 1.49267578125, 1.3212890625, 0.026214599609375, 1.49267578125
59706, 0.008875112980604172, -0.01887008175253868, -0.009314307942986488, 0.00021165020007174462, -5.1088725740555674e-05, -0.0055519770830869675, 0.0010260340059176087, -0.0003871670051012188, -0.021616866812109947, -0.8624400496482849, -1.0556108951568604, 0.05340420454740524, -0.1498763480615028, -0.7031790180342341, 8.586004699555554, 9362.0, 30146.0, 35388.0, 9362.0, 8.152067184448242, -0.20816776156425476, 0.14596228301525116, -0.16446532309055328, -0.08994641900062561, -0.02408399060368538, 0.9942017197608948, -0.07917850464582443, -0.03959846496582031, 1.49267578125, 1.3212890625, 0.026214599609375, 1.49267578125
59716, 0.009439163841307163, -0.020006900653243065, -0.011784220114350319, 0.00021165020007174462, -5.1088725740555674e-05, -0.0055519770830869675, 0.0010260340059176087, -0.0003871670051012188, -0.021616866812109947, -0.8624460101127625, -1.0556137561798096, 0.053399890661239624, -0.14715797530654504, -0.7051879779006924, 8.585618367380144, 9362.0, 30146.0, 35388.0, 9362.0, 8.152067184448242, -0.20816776156425476, 0.14596228301525116, -0.16446532309055328, -0.08994641900062561, -0.02408399060368538, 0.9942017197608948, -0.07917850464582443, -0.03959846496582031, 1.49267578125, 1.3212890625, 0.026214599609375, 1.49267578125
59726, 0.009756860323250294, -0.022425156086683273, -0.011402205564081669, 0.00021165020007174462, -5.1088725740555674e-05, -0.0055519770830869675, 0.0010260340059176087, -0.0003871670051012188, -0.021616866812109947, -0.8623806238174438, -1.0556045770645142, 0.053477510809898376, -0.1748790324110776, -0.6492740883571173, 8.610460366770058, 9362.0, 30146.0, 35388.0, 9362.0, 8.152067184448242, 0.1197953149676323, -0.07860513031482697, -0.011866993270814419, -0.08994641900062561, -0.02408399060368538, 0.9942017197608948, -0.07917850464582443, -0.03959846496582031, 1.49267578125, 1.41796875, 0.05950927734375, 1.49267578125
59736, 0.009912572801113129, -0.021434271708130836, -0.011876394972205162, 0.00021165020007174462, -5.1088725740555674e-05, -0.0055519770830869675, 0.0010260340059176087, -0.0003871670051012188, -0.021616866812109947, -0.8624458312988281, -1.0555992126464844, 0.053385596722364426, -0.15241272306320522, -0.6984561411465791, 8.587508527014757, 9362.0, 30146.0, 35388.0, 9362.0, 8.152067184448242, -0.0781000554561615, 0.3508228361606598, -0.07729905098676682, -0.09199750423431396, -0.0216571893543005, 0.9952700138092041, -0.07917850464582443, -0.03959846496582031, 1.49267578125, 1.41796875, 0.05950927734375, 1.49267578125
59746, 0.009431025013327599, -0.020701708272099495, -0.012361004017293453, 0.00030266708927229047, -8.69600335136056e-05, -0.007463021203875542, 0.0012655486352741718, -0.0005116068641655147, -0.026173127815127373, -0.8624290823936462, -1.0555943250656128, 0.05338424816727638, -0.15218547631801999, -0.7132340585890233, 8.586626164036096, 9362.0, 30146.0, 35388.0, 9362.0, 8.152067184448242, -0.1026267260313034, 0.10392884910106659, -0.06972089409828186, -0.09199750423431396, -0.0216571893543005, 0.9952700138092041, -0.07917850464582443, -0.03959846496582031, 1.49267578125, 1.41796875, 0.05950927734375, 1.49267578125
59766, 0.010928846895694733, -0.024003278464078903, -0.012605680152773857, 0.00030266708927229047, -8.69600335136056e-05, -0.007463021203875542, 0.0012655486352741718, -0.0005116068641655147, -0.026173127815127373, -0.8623923063278198, -1.055607795715332, 0.05347626656293869, -0.16855731336769034, -0.6438071068128863, 8.614730355133489, 9362.0, 30146.0, 35388.0, 9362.0, 8.152067184448242, 0.03473150357604027, 0.12241242080926895, 0.165658101439476, -0.08682304620742798, -0.02215900644659996, 0.9972226023674011, -0.09426329284906387, -0.07543754577636719, 1.48974609375, 1.41796875, 0.05950927734375, 1.4970703125
59776, 0.011399669572710991, -0.025154216215014458, -0.014013539999723434, 0.00030266708927229047, -8.69600335136056e-05, -0.007463021203875542, 0.0012655486352741718, -0.0005116068641655147, -0.026173127815127373, -0.8624393939971924, -1.0556048154830933, 0.05338850989937782, -0.1548924513120812, -0.703348052035011, 8.584141006049501, 9362.0, 30146.0, 35388.0, 9362.0, 8.152067184448242, 0.0815192237496376, 0.03347724676132202, -0.3660108745098114, -0.09040456265211105, -0.022879501804709435, 0.9947951436042786, -0.09426329284906387, -0.07543754577636719, 1.48974609375, 1.41796875, 0.05950927734375, 1.4970703125
59786, 0.0128400269895792, -0.025926457718014717, -0.016245249658823013, 0.00030266708927229047, -8.69600335136056e-05, -0.007463021203875542, 0.0012655486352741718, -0.0005116068641655147, -0.026173127815127373, -0.8624324202537537, -1.0555939674377441, 0.05338005721569061, -0.1538742746269738, -0.7097763048770389, 8.58112841433058, 9362.0, 30146.0, 35388.0, 9362.0, 8.152067184448242, 0.14170952141284943, -0.28787052631378174, -0.31652387976646423, -0.08897914737462997, -0.023159250617027283, 0.9951095581054688, -0.09426329284906387, -0.07543754577636719, 1.48974609375, 1.41796875, 0.05950927734375, 1.4970703125
59796, 0.013758939690887928, -0.023715605959296227, -0.01789034903049469, 0.00030266708927229047, -8.69600335136056e-05, -0.007463021203875542, 0.0012655486352741718, -0.0005116068641655147, -0.026173127815127373, -0.8624222278594971, -1.0555942058563232, 0.05338989198207855, -0.15550222545737205, -0.7079900481945742, 8.578967899760306, 9362.0, 30146.0, 35388.0, 9362.0, 8.152067184448242, 0.11977039277553558, 0.26421165466308594, 0.06164158508181572, -0.08826921880245209, -0.023837268352508545, 0.9949001669883728, -0.09426329284906387, -0.07543754577636719, 1.48974609375, 1.41796875, 0.05950927734375, 1.4970703125
59806, 0.013690308667719364, -0.025831837207078934, -0.015338631346821785, 0.0003855347167700529, -0.00012076304119545966, -0.009100832976400852, 0.0015067493077367544, -0.0006212760927155614, -0.0285910926759243, -0.8624226450920105, -1.0555912256240845, 0.05338428169488907, -0.15320805253827904, -0.7015233758494901, 8.582929116685612, 9362.0, 30146.0, 35388.0, 9362.0, 8.152067184448242, -0.038893185555934906, 0.026313457638025284, 0.27882206439971924, -0.08809319883584976, -0.023171039298176765, 0.996688961982727, -0.09426329284906387, -0.07543754577636719, 1.48974609375, 1.41796875, 0.05950927734375, 1.4970703125
59816, 0.013333268463611603, -0.026826735585927963, -0.01441703736782074, 0.0003855347167700529, -0.00012076304119545966, -0.009100832976400852, 0.0015067493077367544, -0.0006212760927155614, -0.0285910926759243, -0.86245197057724, -1.0556153059005737, 0.053371358662843704, -0.15246231855841214, -0.6978911020156318, 8.592082132957662, 9362.0, 30146.0, 35388.0, 9362.0, 8.152067184448242, -0.05051746964454651, -0.19758076965808868, 0.08971524238586426, -0.08822469413280487, -0.023442545905709267, 0.9974461793899536, -0.09426329284906387, -0.07543754577636719, 1.48974609375, 1.41796875, 0.05950927734375, 1.4970703125
59826, 0.011984208598732948, -0.02713184617459774, -0.014521993696689606, 0.0004164964484516531, -0.000133657522383146, -0.009680287912487984, 0.0015912592643871903, -0.0006681344821117818, -0.02927187830209732, -0.86244797706604, -1.0556116104125977, 0.053380087018013, -0.14711549315624997, -0.7009986921627558, 8.58936416047802, 9362.0, 30146.0, 35388.0, 9362.0, 8.152067184448242, -0.254692405462265, 0.11186566203832626, 0.13266721367835999, -0.08834812790155411, -0.02309412695467472, 0.9961854815483093, -0.09426329284906387, -0.07543754577636719, 1.48974609375, 1.41796875, 0.05950927734375, 1.4970703125
59836, 0.01370064914226532, -0.027371253818273544, -0.018264634534716606, 0.00043263795669190586, -0.00014045271382201463, -0.009974557906389236, 0.0016370384255424142, -0.0006909099174663424, -0.02958168461918831, -0.8623836040496826, -1.0555922985076904, 0.053491465747356415, -0.17200760892916067, -0.6465229834804234, 8.612747929954642, 9362.0, 30146.0, 35388.0, 9362.0, 8.152067184448242, 0.2172769457101822, 0.05643025040626526, -0.07226556539535522, -0.08834812790155411, -0.02309412695467472, 0.9961854815483093, -0.09426329284906387, -0.07543754577636719, 1.48974609375, 1.41796875, 0.05950927734375, 1.4970703125
59846, 0.01318427361547947, -0.02886396460235119, -0.014652677811682224, 0.00043263795669190586, -0.00014045271382201463, -0.009974557906389236, 0.0016370384255424142, -0.0006909099174663424, -0.02958168461918831, -0.8624512553215027, -1.0556060075759888, 0.05338814854621887, -0.14338115042993305, -0.7023726353208986, 8.588801885707863, 9362.0, 30146.0, 35388.0, 9362.0, 8.152067184448242, 0.10232798755168915, 0.2482897937297821, 0.3045310974121094, -0.08834812790155411, -0.02309412695467472, 0.9961854815483093, -0.09426329284906387, -0.07543754577636719, 1.48974609375, 1.41796875, 0.05950927734375, 1.4970703125
59856, 0.013540654443204403, -0.02979380451142788, -0.012713867239654064, 0.00043263795669190586, -0.00014045271382201463, -0.009974557906389236, 0.0016370384255424142, -0.0006909099174663424, -0.02958168461918831, -0.8624407052993774, -1.0556102991104126, 0.05340979993343353, -0.1480881153423145, -0.7008737019843068, 8.589248199649168, 9362.0, 30146.0, 35388.0, 9362.0, 8.152067184448242, -0.0215385090559721, 0.1652609258890152, 0.3012891709804535, -0.08901114016771317, -0.023439694195985794, 0.9976081848144531, -0.09426329284906387, -0.07543754577636719, 1.48974609375, 1.41796875, 0.05950927734375, 1.48974609375
59876, 0.013890606351196766, -0.03261670097708702, -0.015041314996778965, 0.00043263795669190586, -0.00014045271382201463, -0.009974557906389236, 0.0016370384255424142, -0.0006909099174663424, -0.02958168461918831, -0.8623954057693481, -1.0556060075759888, 0.05347324162721634, -0.17360535490404982, -0.6440150930140476, 8.617962499597892, 9362.0, 30146.0, 35388.0, 9362.0, 8.152067184448242, -0.1071658506989479, 0.4285818040370941, -0.04756711423397064, -0.08941545337438583, -0.0239102765917778, 0.9947417974472046, -0.09426329284906387, -0.07543754577636719, 1.48974609375, 1.439208984375, 0.0882415771484375, 1.48974609375
59886, 0.014870692044496536, -0.03499755263328552, -0.015120315365493298, 0.0005204574554227293, -0.00017776557069737464, -0.011499867774546146, 0.001881746924482286, -0.0008042843546718359, -0.03151475265622139, -0.8624319434165955, -1.055605173110962, 0.053393878042697906, -0.1553812958703692, -0.7097571204999156, 8.586603196959125, 9362.0, 30146.0, 35388.0, 9362.0, 8.152067184448242, 0.0954335555434227, -0.03963472694158554, -0.051326412707567215, -0.08922716230154037, -0.02431314066052437, 0.9970939755439758, -0.09426329284906387, -0.07543754577636719, 1.48974609375, 1.439208984375, 0.0882415771484375, 1.48974609375
59896, 0.014777932316064835, -0.036405205726623535, -0.014604662545025349, 0.0005204574554227293, -0.00017776557069737464, -0.011499867774546146, 0.001881746924482286, -0.0008042843546718359, -0.03151475265622139, -0.862442135810852, -1.055603265762329, 0.05339692533016205, -0.14761717751722944, -0.6991562011708936, 8.590937899985542, 9362.0, 30146.0, 35388.0, 9362.0, 8.152067184448242, 0.04610384255647659, 0.013887213543057442, 0.16371853649616241, -0.08999736607074738, -0.02352503314614296, 0.9968634247779846, -0.09426329284906387, -0.07543754577636719, 1.48974609375, 1.40771484375, 0.0478363037109375, 1.48974609375
59906, 0.014957805164158344, -0.03777199611067772, -0.014123077504336834, 0.0005204574554227293, -0.00017776557069737464, -0.011499867774546146, 0.001881746924482286, -0.0008042843546718359, -0.03151475265622139, -0.8623852729797363, -1.0556029081344604, 0.05347844213247299, -0.16848518518377778, -0.6459718627974382, 8.61835089367634, 9362.0, 30146.0, 35388.0, 9362.0, 8.152067184448242, -0.1208006739616394, 0.2267136573791504, 0.24684953689575195, -0.08999736607074738, -0.02352503314614296, 0.9968634247779846, -0.09426329284906387, -0.07543754577636719, 1.48974609375, 1.370361328125, 0.0194549560546875, 1.48974609375
59916, 0.015551203861832619, -0.03729632496833801, -0.014716842211782932, 0.0005204574554227293, -0.00017776557069737464, -0.011499867774546146, 0.001881746924482286, -0.0008042843546718359, -0.03151475265622139, -0.8623931407928467, -1.055613398551941, 0.05347830802202225, -0.17809718204859096, -0.6449274498202726, 8.607665468197032, 9362.0, 30146.0, 35388.0, 9362.0, 8.152067184448242, -0.08426105231046677, 0.22899053990840912, 0.02910354919731617, -0.08766325563192368, -0.02302302047610283, 0.9964784383773804, -0.09426329284906387, -0.07543754577636719, 1.48974609375, 1.370361328125, 0.0194549560546875, 1.496337890625
59926, 0.015088875778019428, -0.04018213599920273, -0.012965632602572441, 0.0006004206952638924, -0.00021190757979638875, -0.012787885032594204, 0.0021236028987914324, -0.000904136395547539, -0.032906580716371536, -0.8623858690261841, -1.055603265762329, 0.05349614471197128, -0.1746684437606771, -0.6526394456383571, 8.616673382824672, 9362.0, 30146.0, 35388.0, 9362.0, 8.152067184448242, -0.13928775489330292, -0.2469434142112732, -0.06511298567056656, -0.08877169340848923, -0.024500183761119843, 0.9949707388877869, -0.09426329284906387, -0.07543754577636719, 1.48974609375, 1.409912109375, 0.0501251220703125, 1.496337890625
59936, 0.015767693519592285, -0.03810340538620949, -0.012861301191151142, 0.0006004206952638924, -0.00021190757979638875, -0.012787885032594204, 0.0021236028987914324, -0.000904136395547539, -0.032906580716371536, -0.8624208569526672, -1.0555853843688965, 0.053386323153972626, -0.1566666703575523, -0.7103946092896081, 8.585125146675063, 9362.0, 30146.0, 35388.0, 9362.0, 8.152067184448242, 0.022872617468237877, -0.31909605860710144, -0.051098812371492386, -0.08754228055477142, -0.024395572021603584, 0.9942393898963928, -0.09426329284906387, -0.07543754577636719, 1.48974609375, 1.370361328125, 0.0194549560546875, 1.496337890625
59946, 0.01566113345324993, -0.036114469170570374, -0.015066319145262241, 0.0006441891309805214, -0.00023051712196320295, -0.013453801162540913, 0.0022556488402187824, -0.0009563884232193232, -0.03378765657544136, -0.8624302744865417, -1.0555986166000366, 0.05335569009184837, -0.15519634909939847, -0.709226892672234, 8.587069262871278, 9362.0, 30146.0, 35388.0, 9362.0, 8.152067184448242, -0.05017364025115967, 0.014028474688529968, 0.002911968156695366, -0.08825930207967758, -0.02344123087823391, 0.9949771165847778, -0.09426329284906387, -0.07543754577636719, 1.48974609375, 1.370361328125, 0.0194549560546875, 1.496337890625
59956, 0.016158636659383774, -0.03479848802089691, -0.015387891791760921, 0.0006441891309805214, -0.00023051712196320295, -0.013453801162540913, 0.0022556488402187824, -0.0009563884232193232, -0.03378765657544136, -0.8624175190925598, -1.0555474758148193, 0.053296662867069244, -0.19451150339424472, -0.7322301021526414, 8.588721049775156, 9362.0, 30146.0, 35388.0, 9362.0, 8.152067184448242, 0.13965797424316406, -0.4240291118621826, 0.007344534620642662, -0.08868123590946198, -0.022910458967089653, 0.9959243535995483, -0.09426329284906387, -0.07543754577636719, 1.48974609375, 1.370361328125, 0.0194549560546875, 1.49267578125
59966, 0.015462590381503105, -0.03433811664581299, -0.015870021656155586, 0.0006441891309805214, -0.00023051712196320295, -0.013453801162540913, 0.0022556488402187824, -0.0009563884232193232, -0.03378765657544136, -0.862440288066864, -1.0555964708328247, 0.05340147763490677, -0.15653962946918515, -0.7066162200823385, 8.589070541207764, 9362.0, 30146.0, 35388.0, 9362.0, 8.152067184448242, -0.24206720292568207, 0.2539817988872528, -0.010199669748544693, -0.08868123590946198, -0.022910458967089653, 0.9959243535995483, -0.09426329284906387, -0.07543754577636719, 1.48974609375, 1.3330078125, 0.0191650390625, 1.49267578125
59976, 0.01579711213707924, -0.034549299627542496, -0.015175965614616871, 0.0006441891309805214, -0.00023051712196320295, -0.013453801162540913, 0.0022556488402187824, -0.0009563884232193232, -0.03378765657544136, -0.8624343872070312, -1.055588960647583, 0.05339992791414261, -0.15935874206269537, -0.7177598572343982, 8.583552641336711, 9362.0, 30146.0, 35388.0, 9362.0, 8.152067184448242, -0.125417560338974, -0.2723841965198517, 0.14925968647003174, -0.08991757780313492, -0.02432248741388321, 0.9968731999397278, -0.09426329284906387, -0.07543754577636719, 1.48974609375, 1.3330078125, 0.0191650390625, 1.496337890625
59986, 0.014810617081820965, -0.03461276367306709, -0.014274189248681068, 0.0006441891309805214, -0.00023051712196320295, -0.013453801162540913, 0.0022556488402187824, -0.0009563884232193232, -0.03378765657544136, -0.8624159097671509, -1.0555446147918701, 0.05331560969352722, -0.1936112270888198, -0.7286379845614874, 8.584046102958958, 9362.0, 30146.0, 35388.0, 9362.0, 8.152067184448242, -0.12793070077896118, 0.34169846773147583, 0.2936784327030182, -0.08999306708574295, -0.02413870207965374, 0.9965127110481262, -0.09426329284906387, -0.07543754577636719, 1.48974609375, 1.389404296875, 0.03082275390625, 1.496337890625
59996, 0.014613757841289043, -0.03760698437690735, -0.014463415369391441, 0.0006441891309805214, -0.00023051712196320295, -0.013453801162540913, 0.0022556488402187824, -0.0009563884232193232, -0.03378765657544136, -0.862422525882721, -1.0555832386016846, 0.05339325964450836, -0.16349330013519406, -0.7096135135965653, 8.590982605337748, 9362.0, 30146.0, 35388.0, 9362.0, 8.152067184448242, -0.01838621497154236, 0.20810115337371826, -0.3401246666908264, -0.09017815440893173, -0.023088864982128143, 0.9954229593276978, -0.09426329284906387, -0.07543754577636719, 1.48974609375, 1.332275390625, 0.019561767578125, 1.49267578125
60006, 0.015227400697767735, -0.03779260814189911, -0.013968460261821747, 0.0007905878592282534, -0.0002927359892055392, -0.015559590421617031, 0.002617972670122981, -0.001116186031140387, -0.03621254861354828, -0.8624473214149475, -1.0556037425994873, 0.05340941995382309, -0.15490279108566474, -0.7043919245481902, 8.585045475106723, 9362.0, 30146.0, 35388.0, 9362.0, 8.152067184448242, 0.02027478814125061, -0.07754997909069061, -0.03511574864387512, -0.08914173394441605, -0.022406062111258507, 0.9946814179420471, -0.09426329284906387, -0.07543754577636719, 1.48974609375, 1.439208984375, 0.0882415771484375, 1.49267578125
60016, 0.01652809977531433, -0.04001705348491669, -0.01454862393438816, 0.0007905878592282534, -0.0002927359892055392, -0.015559590421617031, 0.002617972670122981, -0.001116186031140387, -0.03621254861354828, -0.8624210357666016, -1.0555856227874756, 0.053375616669654846, -0.16269028485660622, -0.7120397202166657, 8.583301622859922, 9362.0, 30146.0, 35388.0, 9362.0, 8.152067184448242, 0.0982460081577301, 0.5516017079353333, 0.0758688822388649, -0.08978287875652313, -0.023426653817296028, 0.9965593814849854, -0.09426329284906387, -0.07543754577636719, 1.48974609375, 1.4384765625, 0.0871429443359375, 1.49267578125
60026, 0.01723276637494564, -0.04014979675412178, -0.01506753358989954, 0.0007905878592282534, -0.0002927359892055392, -0.015559590421617031, 0.002617972670122981, -0.001116186031140387, -0.03621254861354828, -0.8624337315559387, -1.0555917024612427, 0.053397804498672485, -0.15717806515898625, -0.7083169743702058, 8.589588673242792, 9362.0, 30146.0, 35388.0, 9362.0, 8.152067184448242, 0.23648841679096222, 0.013041737489402294, 0.09961497783660889, -0.08663871139287949, -0.02391868829727173, 0.9964778423309326, -0.09426329284906387, -0.07543754577636719, 1.48974609375, 1.39013671875, 0.0314483642578125, 1.49267578125
60036, 0.01648152433335781, -0.04098201170563698, -0.01584404706954956, 0.0007905878592282534, -0.0002927359892055392, -0.015559590421617031, 0.002617972670122981, -0.001116186031140387, -0.03621254861354828, -0.8623958230018616, -1.0555661916732788, 0.053370483219623566, -0.16943055592869494, -0.7305662744493304, 8.598401533097054, 9362.0, 30146.0, 35388.0, 9362.0, 8.152067184448242, -0.04121469706296921, -0.14448288083076477, -0.0965222418308258, -0.08778708428144455, -0.022999588400125504, 0.9990279078483582, -0.09426329284906387, -0.07543754577636719, 1.48974609375, 1.39013671875, 0.0314483642578125, 1.491943359375
60046, 0.017583323642611504, -0.04418253153562546, -0.016937363892793655, 0.0007905878592282534, -0.0002927359892055392, -0.015559590421617031, 0.002617972670122981, -0.001116186031140387, -0.03621254861354828, -0.8624321222305298, -1.0555949211120605, 0.05338970199227333, -0.15923385043718152, -0.7134644948282869, 8.589624713440728, 9362.0, 30146.0, 35388.0, 9362.0, 8.152067184448242, 0.21291595697402954, 0.3527173697948456, -0.23252315819263458, -0.0885130763053894, -0.020908309146761894, 0.9972182512283325, -0.09426329284906387, -0.07543754577636719, 1.48974609375, 1.389404296875, 0.03082275390625, 1.491943359375
60056, 0.018518909811973572, -0.046452559530735016, -0.017651543021202087, 0.0007905878592282534, -0.0002927359892055392, -0.015559590421617031, 0.002617972670122981, -0.001116186031140387, -0.03621254861354828, -0.8624310493469238, -1.0555959939956665, 0.053370874375104904, -0.16397925162039995, -0.7033265088334417, 8.580687111668103, 9362.0, 30146.0, 35388.0, 9362.0, 8.152067184448242, 0.17992128431797028, -0.07524587213993073, 0.1578301638364792, -0.08860719949007034, -0.02228386327624321, 0.9957718849182129, -0.09426329284906387, -0.07543754577636719, 1.48974609375, 1.389404296875, 0.03082275390625, 1.491943359375
60066, 0.018339844420552254, -0.046362824738025665, -0.017762625589966774, 0.0009596191230230033, -0.0003645425022114068, -0.017800014466047287, 0.0030286575201898813, -0.0012829330516979098, -0.03821796551346779, -0.8624191284179688, -1.055561900138855, 0.05332452803850174, -0.18729693868276912, -0.723756048978089, 8.591819448386778, 9362.0, 30146.0, 35388.0, 9362.0, 8.152067184448242, -0.026411864906549454, -0.020392486825585365, 0.0038739745505154133, -0.08860719949007034, -0.02228386327624321, 0.9957718849182129, -0.10548858344554901, -0.2635974884033203, 1.474365234375, 1.483154296875, 0.162841796875, 1.491943359375
60076, 0.017834704369306564, -0.045979104936122894, -0.01635500229895115, 0.0009596191230230033, -0.0003645425022114068, -0.017800014466047287, 0.0030286575201898813, -0.0012829330516979098, -0.03821796551346779, -0.8624352216720581, -1.0555942058563232, 0.053388115018606186, -0.15350064105316688, -0.701266841737322, 8.588197489792943, 9362.0, 30146.0, 35388.0, 9362.0, 8.152067184448242, 0.14618396759033203, -0.032827600836753845, 0.11135448515415192, -0.09231356531381607, -0.02231331169605255, 0.9941726922988892, -0.10548858344554901, -0.2635974884033203, 1.474365234375, 1.483154296875, 0.162841796875, 1.491943359375
60086, 0.018909044563770294, -0.04574714973568916, -0.01621999219059944, 0.0010217735543847084, -0.000390830886317417, -0.018574871122837067, 0.003186688059940934, -0.0013457490131258965, -0.03929298743605614, -0.8624334335327148, -1.0555613040924072, 0.053328290581703186, -0.18159468172627166, -0.7209135189026199, 8.5881349305316, 9362.0, 30146.0, 35388.0, 9362.0, 8.152067184448242, 0.029066720977425575, 0.01871669851243496, 0.11264126002788544, -0.09231356531381607, -0.02231331169605255, 0.9941726922988892, -0.10548858344554901, -0.2635974884033203, 1.474365234375, 1.483154296875, 0.162841796875, 1.491943359375
60096, 0.018109716475009918, -0.046559154987335205, -0.01489904336631298, 0.0010217735543847084, -0.000390830886317417, -0.018574871122837067, 0.003186688059940934, -0.0013457490131258965, -0.03929298743605614, -0.8624542355537415, -1.0556057691574097, 0.053405143320560455, -0.15403401568848238, -0.6971478127693445, 8.593035246891287, 9362.0, 30146.0, 35388.0, 9362.0, 8.152067184448242, 0.02981843613088131, 0.01625768654048443, 0.007291740272194147, -0.09231356531381607, -0.02231331169605255, 0.9941726922988892, -0.10548858344554901, -0.2635974884033203, 1.474365234375, 1.360107421875, 0.0162506103515625, 1.491943359375
60106, 0.018148738890886307, -0.04914696887135506, -0.014938258565962315, 0.0010217735543847084, -0.000390830886317417, -0.018574871122837067, 0.003186688059940934, -0.0013457490131258965, -0.03929298743605614, -0.8624368906021118, -1.0555980205535889, 0.05338612571358681, -0.15253324335316848, -0.7011241287214602, 8.591147607534316, 9362.0, 30146.0, 35388.0, 9362.0, 8.152067184448242, 0.02507246658205986, -0.17476199567317963, 0.19078198075294495, -0.08933719992637634, -0.024802155792713165, 0.9948226809501648, -0.10548858344554901, -0.2635974884033203, 1.474365234375, 1.35791015625, 0.015869140625, 1.491943359375
60116, 0.018658315762877464, -0.048610128462314606, -0.016333963721990585, 0.0010217735543847084, -0.000390830886317417, -0.018574871122837067, 0.003186688059940934, -0.0013457490131258965, -0.03929298743605614, -0.862438440322876, -1.055592656135559, 0.053387973457574844, -0.15524630166325915, -0.7011644095440204, 8.584535438307558, 9362.0, 30146.0, 35388.0, 9362.0, 8.152067184448242, 0.12588708102703094, -0.07355362921953201, -0.09724623709917068, -0.08990856260061264, -0.02644960582256317, 0.9955585598945618, -0.10548858344554901, -0.2635974884033203, 1.474365234375, 1.35791015625, 0.015869140625, 1.491943359375
60126, 0.020376896485686302, -0.04913248121738434, -0.01731114275753498, 0.0010217735543847084, -0.000390830886317417, -0.018574871122837067, 0.003186688059940934, -0.0013457490131258965, -0.03929298743605614, -0.8624201416969299, -1.055594801902771, 0.05339007079601288, -0.15913564313961245, -0.7047352249938967, 8.58179748982055, 9362.0, 30146.0, 35388.0, 9362.0, 8.152067184448242, 0.001426505041308701, 0.19741681218147278, -0.0326760895550251, -0.08839409053325653, -0.025735091418027878, 0.9950187802314758, -0.10548858344554901, -0.2635974884033203, 1.474365234375, 1.399658203125, 0.0396575927734375, 1.491943359375
60136, 0.019593268632888794, -0.048415277153253555, -0.017706528306007385, 0.0010217735543847084, -0.000390830886317417, -0.018574871122837067, 0.003186688059940934, -0.0013457490131258965, -0.03929298743605614, -0.8624401688575745, -1.0556015968322754, 0.05338802561163902, -0.14982792556422558, -0.702351544254924, 8.587416302788325, 9362.0, 30146.0, 35388.0, 9362.0, 8.152067184448242, -0.08978910744190216, -0.20251697301864624, -0.31089842319488525, -0.08667294681072235, -0.023060621693730354, 0.9962189793586731, -0.10548858344554901, -0.2635974884033203, 1.474365234375, 1.399658203125, 0.0396575927734375, 1.491943359375
