timeTick, roll, pitch, yaw, stateX, stateY, stateZ, stateVX, stateVY, stateVZ, otX0, otY0, otZ0, otRoll0, otPitch0, otYaw0, left wing, pitch motor, yaw motor, right wing, voltage, roll rate, pitch rate, yaw rate, A_x, A_y, A_z, current, i_raw, v_raw, airflow_voltage, airflow_speed, pot_Pitch
59597, -0.0009333908092230558, 0.002931469352915883, -0.0006985871004872024, 0, 0, 0, 0, 0, 0, -0.8594409227371216, -1.054518461227417, 0.05348796024918556, -0.4017907436353996, -0.9525776939896105, 3.2030130059445057, 0, 0, 0, 0, 0, 0, 0, 0, 0, 0, 0, 0, 0, 0, 0, 0, 0
59607, -0.002431785687804222, 0.0035386455710977316, -0.0004756786220241338, 0.0, 0.0, 1.2043921742588282e-05, -1.2324190379331412e-07, 3.924225566720452e-08, 0.0024087761994451284, -0.8594017028808594, -1.0545189380645752, 0.053555428981781006, -0.41760760994603985, -0.8970306220582245, 3.2484500812560007, 9362.0, 30146.0, 35388.0, 9362.0, 0, 0.23884743452072144, -0.047317683696746826, 0.150277242064476, 0, 0, 0, 0, 0, 0, 0, 0, 0
59617, -0.001738912658765912, 0.004310228396207094, 0.0006483887555077672, -2.691181499869799e-08, 8.569164933192042e-09, 4.753819666802883e-05, -5.283306563796941e-06, 1.7342408682452515e-06, 0.004690483212471008, -0.85947185754776, -1.0545450448989868, 0.05349048972129822, -0.387310499214886, -0.9341409531138822, 3.2077296693644386, 9362.0, 30146.0, 35388.0, 9362.0, 0, 0.0375385619699955, 0.07082786411046982, -0.08771661669015884, -0.09334645420312881, -0.032639868557453156, 1.021760106086731, 0, 0, 0, 1.45751953125, 0.117095947265625, 0
59627, -0.0027681041974574327, 0.005017571151256561, 0.000621589832007885, -1.1071819017161033e-07, 4.719701252042796e-08, 0.00010544742690399289, -1.1507693670864683e-05, 5.964589036011603e-06, 0.00689174747094512, -0.8594545125961304, -1.0545157194137573, 0.053479064255952835, -0.41029725507320347, -0.9495555584742306, 3.2092996946449674, 9362.0, 30146.0, 35388.0, 9362.0, 0, -0.1888214498758316, 0.19367022812366486, -0.10693737864494324, -0.09094808995723724, -0.031236514449119568, 1.0253313779830933, 0, 0, 0, 1.46044921875, 0.12200927734375, 1.496337890625
59637, -0.0037567780818790197, 0.004033723846077919, 0.0017714453861117363, -2.6362732796769706e-07, 1.221053480549017e-07, 0.00018676440231502056, -1.9104754755971953e-05, 9.06163222680334e-06, 0.009372036904096603, -0.8594114780426025, -1.0545235872268677, 0.053572915494441986, -0.4176893204757909, -0.8990810276033869, 3.2406954791234526, 9362.0, 30146.0, 35388.0, 9362.0, 0, -0.0756910964846611, -0.30422428250312805, -0.10146735608577728, -0.09114357829093933, -0.029833324253559113, 1.02555513381958, 0, 0, 0, 1.41064453125, 0.0509490966796875, 1.496337890625
59647, -0.004160274285823107, 0.006967890076339245, 0.0012235344620421529, -4.987338115824969e-07, 2.3702752116605552e-07, 0.00029309093952178955, -2.787334415188525e-05, 1.3966134247311857e-05, 0.011893668211996555, -0.8593997955322266, -1.0545133352279663, 0.053557492792606354, -0.41931494479304815, -0.8854917632513377, 3.2371336501612036, 9362.0, 30146.0, 35388.0, 9362.0, 0, -0.002040437189862132, -0.08190828561782837, 0.10755977034568787, -0.09117668867111206, -0.030345745384693146, 1.0268491506576538, 0, 0, 0, 1.48388671875, 0.1642303466796875, 1.491943359375
59657, -0.004457446280866861, 0.008158290758728981, 0.000510243873577565, -8.129243838084221e-07, 4.09709457471763e-07, 0.0004251516656950116, -3.509912858135067e-05, 2.058880272670649e-05, 0.014518876560032368, -0.8594277501106262, -1.0545271635055542, 0.05356946215033531, -0.4028477951712259, -0.8777190362012846, 3.245233851032645, 9362.0, 30146.0, 35388.0, 9362.0, 0, -0.13717058300971985, -0.0777234211564064, -0.12289934605360031, -0.09202969074249268, -0.030885761603713036, 1.0253432989120483, 0, 0, 0, 1.43115234375, 0.0766143798828125, 1.491943359375
59667, -0.005065444856882095, 0.00825635064393282, -0.0010484822560101748, -1.2250950476300204e-06, 6.521236173284706e-07, 0.000582900654990226, -4.7387107770191506e-05, 2.7907208277611062e-05, 0.017031321302056313, -0.8594021797180176, -1.054510474205017, 0.05356743931770325, -0.42041476855158116, -0.8923403769231584, 3.240756477538249, 9362.0, 30146.0, 35388.0, 9362.0, 0, -0.08793209493160248, -0.24562905728816986, -0.03824416175484657, -0.09220340847969055, -0.033034034073352814, 1.025468111038208, 0, 0, 0, 1.45166015625, 0.107452392578125, 1.496337890625
59677, -0.004775197245180607, 0.010457458905875683, -0.0015671453438699245, -1.7705858681438258e-06, 9.70325686466822e-07, 0.0007656970410607755, -6.171513086883351e-05, 3.576009112293832e-05, 0.019528355449438095, -0.8594076037406921, -1.0545183420181274, 0.053574420511722565, -0.4140991016315157, -0.8885647832304073, 3.2429971090502936, 9362.0, 30146.0, 35388.0, 9362.0, 0, 0.07240546494722366, 0.010820914059877396, -0.29195931553840637, -0.09157378226518631, -0.031433165073394775, 1.0238796472549438, 0, 0, 0, 1.46337890625, 0.1270751953125, 1.496337890625
59687, -0.004231828730553389, 0.010481673292815685, -0.0029241912998259068, -2.460134055581875e-06, 1.372345309391676e-06, 0.0009728900622576475, -7.628590537933633e-05, 4.463189179659821e-05, 0.021910639479756355, -0.8594431281089783, -1.054518699645996, 0.053491588681936264, -0.40164816623768057, -0.9576385945661912, 3.2101832191823103, 9362.0, 30146.0, 35388.0, 9362.0, 0, -0.04659354314208031, -0.10564453154802322, -0.11693203449249268, -0.08930201828479767, -0.03168240934610367, 1.0248991250991821, 0, 0, 0, 1.3857421875, 0.0280914306640625, 1.49560546875
59697, -0.005261683836579323, 0.012242814525961876, -0.003168659983202815, -3.3147425710922107e-06, 1.860562861111248e-06, 0.0012041917070746422, -9.463664173381403e-05, 5.2988918469054624e-05, 0.024350082501769066, -0.859442412853241, -1.054534673690796, 0.053619928658008575, -0.40705156227223505, -0.8721210812347522, 3.235393019031545, 9362.0, 30146.0, 35388.0, 9362.0, 8.112398147583008, 0.3519509434700012, 0.14019517600536346, 0.0908709168434143, -0.08954033255577087, -0.03299157693982124, 1.0244508981704712, 0, 0, 0, 1.4619140625, 0.1246185302734375, 1.49560546875
59707, -0.0033886218443512917, 0.010805774480104446, -0.002462881850078702, -4.353033091319958e-06, 2.4275705072795972e-06, 0.0014596856199204922, -0.00011309517140034586, 6.0455808124970645e-05, 0.02674909308552742, -0.8594094514846802, -1.0545204877853394, 0.053557831794023514, -0.42084078866619234, -0.8985841480447618, 3.2476528112896754, 9362.0, 30146.0, 35388.0, 9362.0, 8.112398147583008, -0.027207093313336372, 0.1715041548013687, -0.2791939675807953, -0.0913873165845871, -0.033622898161411285, 1.0236698389053345, -0.07364834100008011, -0.11127853393554688, 1.48681640625, 1.435546875, 0.0829315185546875, 1.491943359375
59717, -0.0030949434731155634, 0.00994247104972601, -0.004738877061754465, -5.591280569205992e-06, 3.078248710153275e-06, 0.0017388248816132545, -0.0001344959600828588, 6.960340397199616e-05, 0.02907918021082878, -0.859404444694519, -1.0545066595077515, 0.053560394793748856, -0.4177830634540417, -0.8979063117794794, 3.239422525148488, 9362.0, 30146.0, 35388.0, 9362.0, 8.112398147583008, -2.0046970803377917e-06, 0.21750199794769287, -0.024003688246011734, -0.09077700972557068, -0.031504493206739426, 1.0241185426712036, -0.07364834100008011, -0.11127853393554688, 1.48681640625, 1.46337890625, 0.1270751953125, 1.491943359375
59727, -0.0029716810677200556, 0.0097525455057621, -0.0053583369590342045, -7.03095065546222e-06, 3.8039877381379483e-06, 0.002041308907791972, -0.00015340260870289057, 7.553318573627621e-05, 0.03141801059246063, -0.8594545125961304, -1.0545165538787842, 0.0534917488694191, -0.40924488222704397, -0.9449598551513247, 3.2061561540593035, 9362.0, 30146.0, 35388.0, 9362.0, 8.112398147583008, 0.037837836891412735, -0.2989545166492462, 0.19038404524326324, -0.08912290632724762, -0.03355425223708153, 1.02347731590271, -0.07364834100008011, -0.11127853393554688, 1.48681640625, 1.475830078125, 0.1492767333984375, 1.494873046875
59737, -0.0022620998788625, 0.011589443311095238, -0.004028935916721821, -8.652080396132078e-06, 4.586441718856804e-06, 0.0023669551592320204, -0.00017081564874388278, 8.09528210083954e-05, 0.03371162712574005, -0.859438419342041, -1.0545231103897095, 0.053498510271310806, -0.40619984275432136, -0.9528088817919524, 3.212019836818059, 9362.0, 30146.0, 35388.0, 9362.0, 8.112398147583008, 0.16217385232448578, 0.1427745223045349, 0.00590130127966404, -0.09355519711971283, -0.03413781896233559, 1.022920846939087, -0.07364834100008011, -0.11127853393554688, 1.48681640625, 1.4619140625, 0.1246185302734375, 1.494873046875
59747, -0.0014886988792568445, 0.010885404422879219, -0.004413543734699488, -1.044563305185875e-05, 5.421999503596453e-06, 0.002715284936130047, -0.00018796695803757757, 8.613060344941914e-05, 0.03595474362373352, -0.8594069480895996, -1.054519534111023, 0.053556982427835464, -0.4171987357403178, -0.892506723623228, 3.240837248577411, 9362.0, 30146.0, 35388.0, 9362.0, 8.112398147583008, -0.1394468992948532, 0.010800087824463844, -0.1185663491487503, -0.09158411622047424, -0.033636294305324554, 1.024315357208252, -0.07364834100008011, -0.11127853393554688, 1.48681640625, 1.4912109375, 0.178253173828125, 1.5
59757, -0.0021682982333004475, 0.010067480616271496, -0.005271536763757467, -1.2426897228579037e-05, 6.303142981778365e-06, 0.0030866034794598818, -0.00020825705723837018, 9.006643813336268e-05, 0.038309358060359955, -0.8594040274620056, -1.0545167922973633, 0.05356702581048012, -0.41520748921944217, -0.9008707331305459, 3.2382545879974853, 9362.0, 30146.0, 35388.0, 9362.0, 8.112398147583008, 0.11504989862442017, -0.2594809830188751, -0.028379425406455994, -0.09166871756315231, -0.032100364565849304, 1.0226895809173584, -0.07364834100008011, -0.11127853393554688, 1.48681640625, 1.411376953125, 0.05181884765625, 1.5
59767, -0.0012920349836349487, 0.011482560075819492, -0.006091586779803038, -1.4604809621232562e-05, 7.216854100988712e-06, 0.003481038613244891, -0.00022729307238478214, 9.270293230656534e-05, 0.04057806730270386, -0.8594499826431274, -1.054527997970581, 0.05347689986228943, -0.39937265385342313, -0.9471144187690186, 3.2120997962950355, 9362.0, 30146.0, 35388.0, 9362.0, 8.112398147583008, 0.15542110800743103, 0.14276698231697083, -0.06177433207631111, -0.09049928933382034, -0.03243227303028107, 1.0235060453414917, -0.07364834100008011, -0.11127853393554688, 1.48681640625, 1.477294921875, 0.1519775390625, 1.49267578125
59777, 0.00020492840849328786, 0.010507483035326004, -0.006362927611917257, -1.6965925169643015e-05, 8.162885023921262e-06, 0.0038982026744633913, -0.0002449861785862595, 9.646864054957405e-05, 0.04285512864589691, -0.8594045042991638, -1.054520845413208, 0.05357776954770088, -0.4201745720805401, -0.8979232979751259, 3.2401703178451817, 9362.0, 30146.0, 35388.0, 9362.0, 8.112398147583008, 0.03646319359540939, -0.27662453055381775, -0.13247063755989075, -0.0896952897310257, -0.03154994174838066, 1.024497151374817, -0.07364834100008011, -0.11127853393554688, 1.48681640625, 1.458984375, 0.1195831298828125, 1.49267578125
59787, 0.0009489249787293375, 0.011821558699011803, -0.006869359873235226, -1.9516461179591715e-05, 9.138910172623582e-06, 0.004338608589023352, -0.00026508086011745036, 9.867459448287264e-05, 0.04522642865777016, -0.8593937754631042, -1.0545157194137573, 0.05355868861079216, -0.41500826197745655, -0.8899707147784284, 3.2388476393209076, 9362.0, 30146.0, 35388.0, 9362.0, 8.112398147583008, -0.014980161562561989, -0.16867123544216156, -0.0996536985039711, -0.09012550860643387, -0.0313405841588974, 1.0245786905288696, -0.07364834100008011, -0.11127853393554688, 1.48681640625, 1.487548828125, 0.1712188720703125, 1.49267578125
59797, 0.0016528216656297445, 0.013085822574794292, -0.008077877573668957, -2.225941716460511e-05, 1.0123869287781417e-05, 0.004802842624485493, -0.00028356543043628335, 9.828629845287651e-05, 0.0476207435131073, -0.859401524066925, -1.0545164346694946, 0.05355321243405342, -0.4200737927822845, -0.8918092984201849, 3.24122059980646, 9362.0, 30146.0, 35388.0, 9362.0, 8.112398147583008, 0.06959666311740875, 0.12356869131326675, 0.01766120456159115, -0.09157522767782211, -0.03167128562927246, 1.0261915922164917, -0.07364834100008011, -0.11127853393554688, 1.48681640625, 1.4384765625, 0.0871429443359375, 1.49267578125
59807, 0.0022114277817308903, 0.012018554843962193, -0.007697579450905323, -2.5198867660947144e-05, 1.1098412869614549e-05, 0.005291616544127464, -0.0003043802280444652, 9.659201168688014e-05, 0.050134483724832535, -0.8594469428062439, -1.0545175075531006, 0.053487081080675125, -0.40757545366524317, -0.9498053393496662, 3.208980614811192, 9362.0, 30146.0, 35388.0, 9362.0, 8.112398147583008, -0.2588580548763275, 0.41146454215049744, 0.3568820655345917, -0.09436865895986557, -0.034247394651174545, 1.023768663406372, -0.10416717082262039, -0.31735801696777344, 1.469970703125, 1.4091796875, 0.04937744140625, 1.491943359375
59817, 0.0006257873028516769, 0.008838605135679245, -0.005092397332191467, -2.8357349947327748e-05, 1.2049864380969666e-05, 0.0058045769110322, -0.0003272730973549187, 9.367552411276847e-05, 0.05245795473456383, -0.8594096302986145, -1.0545190572738647, 0.05356977507472038, -0.42039120108144945, -0.8939956131711995, 3.2427720515006575, 9362.0, 30146.0, 35388.0, 9362.0, 8.112398147583008, -0.0636780858039856, 0.09404060989618301, 0.20543572306632996, -0.09319230914115906, -0.032198887318372726, 1.023000955581665, -0.10416717082262039, -0.31735801696777344, 1.469970703125, 1.37109375, 0.0197906494140625, 1.491943359375
59827, -0.0002156151895178482, 0.008433729410171509, -0.004170000087469816, -3.173533332301304e-05, 1.2967268048669212e-05, 0.006340415216982365, -0.0003481986641418189, 8.986636385088786e-05, 0.054710086435079575, -0.8594003915786743, -1.0545095205307007, 0.05356486886739731, -0.4158546814199105, -0.8914459221950892, 3.2496944041781584, 9362.0, 30146.0, 35388.0, 9362.0, 8.112398147583008, -0.11018300801515579, 0.48418039083480835, -0.155189648270607, -0.08894159644842148, -0.03227892890572548, 1.0252782106399536, -0.10416717082262039, -0.31735801696777344, 1.469970703125, 1.453125, 0.1099090576171875, 1.497802734375
59837, -0.0009122901246882975, 0.006229550112038851, -0.00581361586228013, -3.5294873669045046e-05, 1.3860447324987035e-05, 0.006899751722812653, -0.000363692146493122, 8.880523091647774e-05, 0.057157620787620544, -0.8593965172767639, -1.0545119047164917, 0.053571466356515884, -0.4175597229131819, -0.8919802014662821, 3.2394627132275824, 9362.0, 30146.0, 35388.0, 9362.0, 8.112398147583008, 0.036613233387470245, 0.3390314280986786, -0.043249260634183884, -0.09125491231679916, -0.031710732728242874, 1.023337960243225, -0.10416717082262039, -0.31735801696777344, 1.469970703125, 1.427490234375, 0.0716400146484375, 1.497802734375
59847, -0.0007979904185049236, 0.004002962727099657, -0.006238662637770176, -3.900568844983354e-05, 1.4750394257134758e-05, 0.007482841145247221, -0.00037838253774680197, 8.921256812755018e-05, 0.05946066230535507, -0.8594049215316772, -1.054518222808838, 0.05359436199069023, -0.4161936520856779, -0.8913196290870644, 3.2462689288065545, 9362.0, 30146.0, 35388.0, 9362.0, 8.112398147583008, -0.08035612106323242, -0.12057933956384659, 0.11854676902294159, -0.09271489083766937, -0.03214775398373604, 1.021199345588684, -0.10416717082262039, -0.31735801696777344, 1.469970703125, 1.440673828125, 0.090423583984375, 1.49267578125
59857, -0.0012426289031282067, 0.005219070706516504, -0.004416591487824917, -4.2843999835895374e-05, 1.5650504792574793e-05, 0.008088089525699615, -0.0003891971427947283, 9.080539166461676e-05, 0.06158938631415367, -0.859409511089325, -1.0545135736465454, 0.05360139533877373, -0.42136972419198787, -0.8793316725186742, 3.24167474056979, 9362.0, 30146.0, 35388.0, 9362.0, 8.112398147583008, -0.11602741479873657, 0.012424235232174397, 0.13447429239749908, -0.09394040703773499, -0.03315306082367897, 1.0214139223098755, -0.10416717082262039, -0.31735801696777344, 1.469970703125, 1.44140625, 0.0914459228515625, 1.49267578125
59867, -0.0022462375927716494, 0.004427875392138958, -0.0033453565556555986, -4.6770976041443646e-05, 1.6565540136070922e-05, 0.008714503608644009, -0.0003962423943448812, 9.22178805922158e-05, 0.06369379907846451, -0.8594174981117249, -1.0545157194137573, 0.053592752665281296, -0.41762535814699014, -0.8859994552524313, 3.242015798874006, 9362.0, 30146.0, 35388.0, 9362.0, 8.112398147583008, -0.0015966901555657387, -0.29482150077819824, -0.307651162147522, -0.09662847220897675, -0.03284082189202309, 1.023753046989441, -0.10416717082262039, -0.31735801696777344, 1.469970703125, 1.412841796875, 0.0534515380859375, 1.493408203125
59877, -0.0030535345431417227, 0.00798100046813488, -0.004975813906639814, -5.0779115554178134e-05, 1.74986071215244e-05, 0.009362803772091866, -0.00040535384323447943, 9.443505405215546e-05, 0.06596662849187851, -0.8594006299972534, -1.0545120239257812, 0.05359180271625519, -0.4179927075770616, -0.8964806538265009, 3.239491105525379, 9362.0, 30146.0, 35388.0, 9362.0, 8.112398147583008, 0.11831934750080109, 0.0806933045387268, 0.1371254175901413, -0.09285159409046173, -0.03341051563620567, 1.0242780447006226, -0.10416717082262039, -0.31735801696777344, 1.469970703125, 1.396728515625, 0.0370025634765625, 1.493408203125
59887, -0.0025215072091668844, 0.009367202408611774, -0.0043886746279895306, -5.48714779142756e-05, 1.8462655134499073e-05, 0.010034359991550446, -0.00041326595237478614, 9.840833808993921e-05, 0.06834499537944794, -0.8594129085540771, -1.0545109510421753, 0.0535869263112545, -0.4144587390805532, -0.8950898095516777, 3.2359335590128295, 9362.0, 30146.0, 35388.0, 9362.0, 8.112398147583008, 0.027572577819228172, -0.08531992882490158, 0.014126195572316647, -0.09404095262289047, -0.034269072115421295, 1.0231297016143799, -0.10416717082262039, -0.31735801696777344, 1.469970703125, 1.4501953125, 0.1050872802734375, 1.49267578125
59897, -0.0020551271736621857, 0.00989335123449564, -0.004367378074675798, -5.9074049204355106e-05, 1.9473493011901155e-05, 0.010729223489761353, -0.00042730357381515205, 0.00010373805707786232, 0.07062815129756927, -0.8593934178352356, -1.0545134544372559, 0.053587689995765686, -0.41472003544133584, -0.8979575009678911, 3.23683429220739, 9362.0, 30146.0, 35388.0, 9362.0, 8.092562675476074, -0.007023721467703581, 0.41717857122421265, 0.09145160764455795, -0.09056533128023148, -0.033842187374830246, 1.0246442556381226, -0.10416717082262039, -0.31735801696777344, 1.469970703125, 1.452392578125, 0.10870361328125, 1.49267578125
59907, -0.0021959373261779547, 0.007502974942326546, -0.0030230600386857986, -6.342921551549807e-05, 2.053298885584809e-05, 0.011447390541434288, -0.0004437519528437406, 0.00010814183042384684, 0.07300557941198349, -0.8594150543212891, -1.0545179843902588, 0.05356676131486893, -0.42232345207060923, -0.8916930169978627, 3.2384146436456627, 9362.0, 30146.0, 35388.0, 9362.0, 8.092562675476074, -0.052841074764728546, 0.4598691463470459, 0.29530957341194153, -0.09130869060754776, -0.029470905661582947, 1.0249173641204834, -0.09032339602708817, -0.19191741943359375, 1.480224609375, 1.434814453125, 0.081787109375, 1.494140625
59917, -0.003751539159566164, 0.006120296660810709, -0.0016679824329912663, -6.795355875510722e-05, 2.163244971598033e-05, 0.012189758010208607, -0.00046101337647996843, 0.00011175579129485413, 0.07546834647655487, -0.8594093322753906, -1.0545169115066528, 0.053596094250679016, -0.4228087541748158, -0.8936720543367471, 3.2489318068458495, 9362.0, 30146.0, 35388.0, 9362.0, 8.092562675476074, 0.06766737997531891, 0.20120012760162354, 0.09847423434257507, -0.09123878926038742, -0.03098343499004841, 1.0252423286437988, -0.09032339602708817, -0.19191741943359375, 1.480224609375, 1.417236328125, 0.058624267578125, 1.494140625
59927, -0.0038310554809868336, 0.005668768659234047, -0.0006686171400360763, -7.262952567543834e-05, 2.276927807542961e-05, 0.01295666117221117, -0.00047412069397978485, 0.0001156759390141815, 0.07791260629892349, -0.8594030141830444, -1.0545068979263306, 0.05360553786158562, -0.42913865080216, -0.8886092447815201, 3.2378986436075303, 9362.0, 30146.0, 35388.0, 9362.0, 8.092562675476074, 0.087459497153759, -0.07659799605607986, 0.0016662542475387454, -0.09275401383638382, -0.03532210737466812, 1.022385597229004, -0.09032339602708817, -0.19191741943359375, 1.480224609375, 1.4736328125, 0.1452178955078125, 1.48974609375
59937, -0.0033158266451209784, 0.005172384437173605, -0.0007484583766199648, -7.742430898360908e-05, 2.3958878955454566e-05, 0.01374684739857912, -0.0004848184762522578, 0.00012224723468534648, 0.08012499660253525, -0.8594050407409668, -1.0545114278793335, 0.05354750156402588, -0.41745019284543444, -0.8954674812271719, 3.243246897019842, 9362.0, 30146.0, 35388.0, 9362.0, 8.092562675476074, -0.2622985243797302, -0.17395496368408203, 0.009538492187857628, -0.09273567795753479, -0.03831355646252632, 1.0236055850982666, -0.09032339602708817, -0.19191741943359375, 1.480224609375, 1.4560546875, 0.1147003173828125, 1.48974609375
59947, -0.00504867359995842, 0.00618326710537076, -0.001890862826257944, -8.232216350734234e-05, 2.5214920242433436e-05, 0.014559646137058735, -0.000494732812512666, 0.00012894044630229473, 0.08243507146835327, -0.8593973517417908, -1.0545094013214111, 0.053583864122629166, -0.41670196662642545, -0.893083819828405, 3.247094042108176, 9362.0, 30146.0, 35388.0, 9362.0, 8.092562675476074, 0.014231439679861069, 0.1571117341518402, -0.01973956823348999, -0.09209820628166199, -0.033273305743932724, 1.0241432189941406, -0.09032339602708817, -0.19191741943359375, 1.480224609375, 1.4443359375, 0.0959930419921875, 1.48828125
59957, -0.004750601015985012, 0.005419457796961069, -0.002783677540719509, -8.731483103474602e-05, 2.6533389245742e-05, 0.01539570465683937, -0.000503841380123049, 0.00013482426584232599, 0.08477703481912613, -0.8594045042991638, -1.0545141696929932, 0.05357706546783447, -0.41473639641231047, -0.8893417909979462, 3.245356806362159, 9362.0, 30146.0, 35388.0, 9362.0, 8.092562675476074, -0.013519630767405033, 0.0132704246789217, -0.11150258034467697, -0.0948394387960434, -0.03181497007608414, 1.0211143493652344, -0.09032339602708817, -0.19191741943359375, 1.480224609375, 1.47802734375, 0.1532745361328125, 1.48828125
59967, -0.004874274600297213, 0.006727046333253384, -0.0031130993738770485, -9.240731742465869e-05, 2.7925783797400072e-05, 0.016254018992185593, -0.0005146272014826536, 0.00014364384696818888, 0.08688636124134064, -0.8594028353691101, -1.0545120239257812, 0.053574785590171814, -0.4182479878525138, -0.8970838684269324, 3.2429415226378433, 9362.0, 30146.0, 35388.0, 9362.0, 8.092562675476074, -0.07394473999738693, 0.12230382859706879, 0.12890422344207764, -0.09242035448551178, -0.032443463802337646, 1.0243562459945679, -0.09032339602708817, -0.19191741943359375, 1.480224609375, 1.46630859375, 0.132171630859375, 1.491943359375
59977, -0.005180343519896269, 0.006021271925419569, -0.0017853925237432122, -9.760110697243363e-05, 2.94038763968274e-05, 0.017134737223386765, -0.0005241841427050531, 0.00015197988250292838, 0.0892576277256012, -0.8594037890434265, -1.054518461227417, 0.05359978601336479, -0.4174082015210901, -0.9028979431465984, 3.247101151865914, 9362.0, 30146.0, 35388.0, 9362.0, 8.092562675476074, -0.0972522646188736, -0.2231861650943756, 0.2432214617729187, -0.0900488793849945, -0.03297094628214836, 1.025839924812317, -0.09032339602708817, -0.19191741943359375, 1.480224609375, 1.45166015625, 0.107452392578125, 1.491943359375
59987, -0.005175113212317228, 0.007006392348557711, 0.0005946422461420298, -0.00010290202044416219, 3.096648651990108e-05, 0.018039992079138756, -0.0005359682254493237, 0.00016055507876444608, 0.09179375320672989, -0.8594130277633667, -1.0545134544372559, 0.05357198789715767, -0.42015673086896743, -0.8932487468113095, 3.241418745936273, 9362.0, 30146.0, 35388.0, 9362.0, 8.092562675476074, -0.1440383493900299, 0.03041865862905979, 0.061647411435842514, -0.09330883622169495, -0.0324648953974247, 1.0235673189163208, -0.09032339602708817, -0.19191741943359375, 1.480224609375, 1.449462890625, 0.103973388671875, 1.49267578125
59997, -0.005533421412110329, 0.006039454601705074, 0.0025163618847727776, -0.00010831447434611619, 3.261744132032618e-05, 0.018969587981700897, -0.0005465628928504884, 0.0001696352264843881, 0.09412591904401779, -0.8594450950622559, -1.0545170307159424, 0.0534965880215168, -0.40328088261507106, -0.9511402558798068, 3.2077912584186863, 9362.0, 30146.0, 35388.0, 9362.0, 8.112398147583008, 0.0034136923495680094, -0.1385537087917328, -0.1585216522216797, -0.09158680588006973, -0.03311072662472725, 1.0233913660049438, -0.09032339602708817, -0.19191741943359375, 1.480224609375, 1.354248046875, 0.0154266357421875, 1.49267578125
60007, -0.005345473065972328, 0.006935506593436003, 0.003412703750655055, -0.0001138414882007055, 3.435913458815776e-05, 0.019922325387597084, -0.0005588014610111713, 0.00017871701857075095, 0.09642205387353897, -0.8594211339950562, -1.0545109510421753, 0.05359208211302757, -0.42300469501958915, -0.8917241161153129, 3.2449933191756424, 9362.0, 30146.0, 35388.0, 9362.0, 8.112398147583008, 0.03320832923054695, 0.004316679202020168, 0.08551895618438721, -0.09274331480264664, -0.031985629349946976, 1.0234057903289795, -0.0737396627664566, -0.09335899353027344, 1.48828125, 1.47509765625, 0.147857666015625, 1.491943359375
60017, -0.004335601348429918, 0.006252376828342676, 0.0041145323775708675, -0.0001194824289996177, 3.619479321059771e-05, 0.02089814469218254, -0.0005694233695976436, 0.00018840697885025293, 0.09874218702316284, -0.8594198822975159, -1.0545756816864014, 0.0536688007414341, -0.46365376748784765, -0.9443486679721786, 3.2537497780300573, 9362.0, 30146.0, 35388.0, 9362.0, 8.112398147583008, 0.07579005509614944, 0.22304154932498932, -0.011001965962350368, -0.09116003662347794, -0.03388224542140961, 1.0220698118209839, -0.0737396627664566, -0.09335899353027344, 1.48828125, 1.4501953125, 0.1050872802734375, 1.491943359375
60027, -0.002418685704469681, 0.0034860072191804647, 0.0031237881630659103, -0.0001252373622264713, 3.812564318650402e-05, 0.02189650759100914, -0.0005815376644022763, 0.00019772408995777369, 0.10093078017234802, -0.8594287037849426, -1.0545889139175415, 0.053702957928180695, -0.4664474059488619, -0.9437985826320983, 3.261694734703219, 9362.0, 30146.0, 35388.0, 9362.0, 8.112398147583008, -0.16993297636508942, 0.031690843403339386, -0.15224015712738037, -0.09051341563463211, -0.033622290939092636, 1.022120475769043, -0.0737396627664566, -0.09335899353027344, 1.48828125, 1.4091796875, 0.04937744140625, 1.491943359375
60037, -0.0020358350593596697, 0.002903897548094392, 0.002718671690672636, -0.0001252373622264713, 3.812564318650402e-05, 0.02189650759100914, -0.0005815376644022763, 0.00019772408995777369, 0.10093078017234802, -0.8594346046447754, -1.0545793771743774, 0.0536915585398674, -0.46435449196971895, -0.9425604933553586, 3.2574132411016956, 9362.0, 30146.0, 35388.0, 9362.0, 8.112398147583008, -0.16993297636508942, 0.031690843403339386, -0.15224015712738037, -0.09051341563463211, -0.033622290939092636, 1.022120475769043, -0.0737396627664566, -0.09335899353027344, 1.48828125, 1.4091796875, 0.04937744140625, 1.491943359375
60047, -0.002188025740906596, 0.0025517509784549475, 0.002288738265633583, -0.0001252373622264713, 3.812564318650402e-05, 0.02189650759100914, -0.0005815376644022763, 0.00019772408995777369, 0.10093078017234802, -0.8594172596931458, -1.054579257965088, 0.0536576509475708, -0.4577208972528126, -0.9418409206672322, 3.2505869509448786, 9362.0, 30146.0, 35388.0, 9362.0, 8.112398147583008, 0.0973905622959137, -0.035973336547613144, -0.15064935386180878, -0.09051341563463211, -0.033622290939092636, 1.022120475769043, -0.0737396627664566, -0.09335899353027344, 1.48828125, 1.418701171875, 0.0603485107421875, 1.491943359375
60077, -0.0010913154110312462, 0.002874132012948394, 0.0018615397857502103, -0.0001552286121295765, 4.8658497689757496e-05, 0.027218196541070938, -0.0006118612946011126, 0.00021961110178381205, 0.11200638860464096, -0.8594142198562622, -1.0545802116394043, 0.05366815999150276, -0.45878638781220715, -0.9471710247279077, 3.2629820131182186, 9362.0, 30146.0, 35388.0, 9362.0, 8.112398147583008, 0.2594892084598541, 0.42970892786979675, 0.17466026544570923, -0.09051341563463211, -0.033622290939092636, 1.022120475769043, -0.0737396627664566, -0.09335899353027344, 1.48828125, 1.41796875, 0.05950927734375, 1.494873046875
60087, 0.00024609261890873313, 0.0012219931231811643, 0.0033628724049776793, -0.0001613627973711118, 5.086575765744783e-05, 0.028349705040454865, -0.000615019234828651, 0.00022183389228302985, 0.11429576575756073, -0.8594219088554382, -1.0545834302902222, 0.053674254566431046, -0.4635597495919299, -0.95134058996166, 3.2592601835915866, 9362.0, 30146.0, 35388.0, 9362.0, 8.112398147583008, -0.008454891853034496, 0.295035719871521, 0.3808867931365967, -0.09051341563463211, -0.033622290939092636, 1.022120475769043, -0.0737396627664566, -0.09335899353027344, 1.48828125, 1.41796875, 0.05950927734375, 1.494873046875
60117, 0.0009470428340137005, 0.003409669501706958, 0.004418218974024057, -0.000179965456482023, 5.755771417170763e-05, 0.03187877684831619, -0.0006213368033058941, 0.00022260246623773128, 0.12096249312162399, -0.8594198822975159, -1.0545809268951416, 0.053678859025239944, -0.4590211701109214, -0.9523729433111328, 3.265001186366264, 9362.0, 30146.0, 35388.0, 9362.0, 8.112398147583008, 0.11898866295814514, 0.21670721471309662, 0.05903057008981705, -0.09051341563463211, -0.033622290939092636, 1.022120475769043, -0.0737396627664566, -0.09335899353027344, 1.48828125, 1.400390625, 0.04034423828125, 1.494873046875
60137, 0.0013719303533434868, 0.0017275790451094508, 0.006004065275192261, -0.00019244792929384857, 6.199178460519761e-05, 0.0343417227268219, -0.0006290200399234891, 0.00022026858641766012, 0.12533777952194214, -0.85947585105896, -1.054586410522461, 0.053600504994392395, -0.445157135836284, -0.9998919764024663, 3.232196858227334, 9362.0, 30146.0, 35388.0, 9362.0, 8.112398147583008, -0.12415588647127151, -0.2230907380580902, -0.19489456713199615, -0.09051341563463211, -0.033622290939092636, 1.022120475769043, -0.0737396627664566, -0.09335899353027344, 1.48828125, 1.377685546875, 0.023040771484375, 1.494873046875
60147, 0.0011498809326440096, 0.0028634038753807545, 0.005717619322240353, -0.00019244792929384857, 6.199178460519761e-05, 0.0343417227268219, -0.0006290200399234891, 0.00022026858641766012, 0.12533777952194214, -0.8594532608985901, -1.054605484008789, 0.05368824303150177, -0.4531066167563149, -0.9239943312055061, 3.2566080006574127, 9362.0, 30146.0, 35388.0, 9362.0, 8.112398147583008, 0.09241802990436554, -0.11677448451519012, 0.07368628680706024, -0.09051341563463211, -0.033622290939092636, 1.022120475769043, -0.0737396627664566, -0.09335899353027344, 1.48828125, 1.456787109375, 0.115966796875, 1.494873046875
60157, 0.0019075048621743917, 0.002760761184617877, 0.006789428181946278, -0.00019244792929384857, 6.199178460519761e-05, 0.0343417227268219, -0.0006290200399234891, 0.00022026858641766012, 0.12533777952194214, -0.8594430685043335, -1.0546045303344727, 0.053691279143095016, -0.4549970292309097, -0.9356602429093641, 3.2623070296063226, 9362.0, 30146.0, 35388.0, 9362.0, 8.112398147583008, 0.1059078574180603, 0.30070942640304565, 0.1710774451494217, -0.09051341563463211, -0.033622290939092636, 1.022120475769043, -0.0737396627664566, -0.09335899353027344, 1.48828125, 1.4443359375, 0.0959930419921875, 1.494873046875
60167, 0.003188481554389, 0.0006310518947429955, 0.008127429522573948, -0.00021148950327187777, 6.848645716672763e-05, 0.0382080115377903, -0.0006411157664842904, 0.0002131281653419137, 0.13258858025074005, -0.8594385981559753, -1.054591417312622, 0.05367680639028549, -0.44807999676488036, -0.9267551732594086, 3.2602636754530456, 9362.0, 30146.0, 35388.0, 9362.0, 8.112398147583008, 0.11854489892721176, -0.4132327735424042, 0.00517688412219286, -0.09051341563463211, -0.033622290939092636, 1.022120475769043, -0.0737396627664566, -0.09335899353027344, 1.48828125, 1.4443359375, 0.0959930419921875, 1.490478515625
60177, 0.0038680958095937967, 0.0026427870616316795, 0.008849509991705418, -0.00021792485495097935, 7.060101779643446e-05, 0.03954556584358215, -0.0006458680727519095, 0.00020973164646420628, 0.13492289185523987, -0.8594586253166199, -1.054606318473816, 0.05368573218584061, -0.4510543042810506, -0.9258335568931955, 3.2535424570335914, 9362.0, 30146.0, 35388.0, 9362.0, 8.112398147583008, -0.11576356738805771, -0.3341272473335266, -0.09154608845710754, -0.09051341563463211, -0.033622290939092636, 1.022120475769043, -0.0737396627664566, -0.09335899353027344, 1.48828125, 1.4443359375, 0.0959930419921875, 1.490478515625
60197, 0.0038391759153455496, 0.005105346906930208, 0.008725862950086594, -0.00023088272428140044, 7.467770774383098e-05, 0.042289625853300095, -0.0006517824367620051, 0.00019736062677111477, 0.1394500732421875, -0.8594995141029358, -1.0546152591705322, 0.0537099689245224, -0.44949225649819524, -0.9477482634131889, 3.3125126286742224, 9362.0, 30146.0, 35388.0, 9362.0, 8.112398147583008, 0.051286932080984116, -0.05455704405903816, -0.3306485116481781, -0.09051341563463211, -0.033622290939092636, 1.022120475769043, -0.0737396627664566, -0.09335899353027344, 1.48828125, 1.4091796875, 0.04937744140625, 1.49560546875
60207, 0.0041176932863891125, 0.0037494697608053684, 0.006809365004301071, -0.00023088272428140044, 7.467770774383098e-05, 0.042289625853300095, -0.0006517824367620051, 0.00019736062677111477, 0.1394500732421875, -0.8594841957092285, -1.0546026229858398, 0.053643848747015, -0.4519207035441498, -0.9134864042301558, 3.2855487846556892, 9362.0, 30146.0, 35388.0, 9362.0, 8.112398147583008, 0.0010403624037280679, -0.3480078876018524, 0.16319577395915985, -0.09051341563463211, -0.033622290939092636, 1.022120475769043, -0.0737396627664566, -0.09335899353027344, 1.48828125, 1.434814453125, 0.081787109375, 1.494873046875
60227, 0.004728447180241346, 0.005279087461531162, 0.00757788447663188, -0.00025083357468247414, 8.031115430640057e-05, 0.04657825455069542, -0.000676554802339524, 0.0001773674157448113, 0.146494522690773, -0.859481930732727, -1.0546050071716309, 0.05366969108581543, -0.4559842770955493, -0.9229981012582016, 3.278596832470433, 9362.0, 30146.0, 35388.0, 9362.0, 8.112398147583008, -0.25657227635383606, -0.2765870690345764, -0.032457150518894196, -0.09051341563463211, -0.033622290939092636, 1.022120475769043, -0.0737396627664566, -0.09335899353027344, 1.48828125, 1.3857421875, 0.0280914306640625, 1.494873046875
60247, 0.0053579541854560375, 0.008004589937627316, 0.007596190553158522, -0.00026455585611984134, 8.369710121769458e-05, 0.049553897231817245, -0.0006955820717848837, 0.00016111393051687628, 0.1510569304227829, -0.859470009803772, -1.0545892715454102, 0.05365165323019028, -0.4623316521873238, -0.9441340818324306, 3.2950054833929836, 9362.0, 30146.0, 35388.0, 9362.0, 8.112398147583008, -0.19551855325698853, -0.4892454147338867, -0.3063896894454956, -0.09051341563463211, -0.033622290939092636, 1.022120475769043, -0.0737396627664566, -0.09335899353027344, 1.48828125, 1.3857421875, 0.0280914306640625, 1.494873046875
60257, 0.004759626928716898, 0.011261029168963432, 0.005986651871353388, -0.0002715849841479212, 8.527372119715437e-05, 0.051076751202344894, -0.0007102285162545741, 0.00015414955851156265, 0.15351428091526031, -0.8594622611999512, -1.0545804500579834, 0.05367893725633621, -0.4629864585665138, -0.9519004890316296, 3.2942855660468915, 9362.0, 30146.0, 35388.0, 9362.0, 8.112398147583008, -0.20508059859275818, -0.3851432800292969, -0.03429383784532547, -0.09051341563463211, -0.033622290939092636, 1.022120475769043, -0.0737396627664566, -0.09335899353027344, 1.48828125, 1.3857421875, 0.0280914306640625, 1.494873046875
60267, 0.003757994621992111, 0.013294544070959091, 0.005868461914360523, -0.00027875753585249186, 8.676815923536196e-05, 0.05262447148561478, -0.0007244269945658743, 0.00014476523210760206, 0.15603025257587433, -0.8594872355461121, -1.0545951128005981, 0.05367981642484665, -0.4493400080653163, -0.9271398321885727, 3.2865398314557743, 9362.0, 30146.0, 35388.0, 9362.0, 8.112398147583008, 0.0774446427822113, -0.1500023454427719, 0.19384555518627167, -0.09051341563463211, -0.033622290939092636, 1.022120475769043, -0.0737396627664566, -0.09335899353027344, 1.48828125, 1.3857421875, 0.0280914306640625, 1.49560546875
60297, 0.004473877139389515, 0.01334210205823183, 0.009364395402371883, -0.0003014572721440345, 9.07630383153446e-05, 0.057411469519138336, -0.0007919001509435475, 0.00012164831423433498, 0.16300876438617706, -0.8594909906387329, -1.0546214580535889, 0.05368512123823166, -0.45503431231549524, -0.9279116759211092, 3.290626965383797, 9362.0, 30146.0, 35388.0, 9362.0, 8.112398147583008, -0.04546339064836502, 0.39358025789260864, -0.09434942156076431, -0.09051341563463211, -0.033622290939092636, 1.022120475769043, -0.0737396627664566, -0.09335899353027344, 1.48828125, 1.434814453125, 0.081787109375, 1.49560546875
60307, 0.004367619287222624, 0.010379768908023834, 0.009945079684257507, -0.00030949153006076813, 9.194009908242151e-05, 0.05905260145664215, -0.0008149587665684521, 0.00011376450856914744, 0.16521795094013214, -0.8594653010368347, -1.0545860528945923, 0.05366453900933266, -0.46449955436331614, -0.9420338395551084, 3.300809180808002, 9362.0, 30146.0, 35388.0, 9362.0, 8.112398147583008, -0.07393120974302292, -0.3992810547351837, 0.018916945904493332, -0.09051341563463211, -0.033622290939092636, 1.022120475769043, -0.0737396627664566, -0.09335899353027344, 1.48828125, 1.434814453125, 0.081787109375, 1.49560546875
60327, 0.0045473696663975716, 0.01070830412209034, 0.01143875252455473, -0.00031775800744071603, 9.303852857556194e-05, 0.060716304928064346, -0.0008382190717384219, 0.00010592472972348332, 0.16752290725708008, -0.8594767451286316, -1.0545849800109863, 0.053653668612241745, -0.4585371908497754, -0.9487814518331561, 3.296226352093168, 9362.0, 30146.0, 35388.0, 9362.0, 8.112398147583008, 0.2249118536710739, 0.17017602920532227, 0.03933095932006836, -0.09102487564086914, -0.03476895019412041, 1.0234848260879517, -0.0737396627664566, -0.09335899353027344, 1.48828125, 1.43115234375, 0.0766143798828125, 1.49560546875
60337, 0.003829789115116, 0.006360236555337906, 0.012080451473593712, -0.00031775800744071603, 9.303852857556194e-05, 0.060716304928064346, -0.0008382190717384219, 0.00010592472972348332, 0.16752290725708008, -0.8594835996627808, -1.0546094179153442, 0.05366889387369156, -0.45421736959848247, -0.9284899006335365, 3.2855131300310303, 9362.0, 30146.0, 35388.0, 9362.0, 8.112398147583008, -0.13964374363422394, 0.09641789644956589, -0.022519614547491074, -0.09102487564086914, -0.03476895019412041, 1.0234848260879517, -0.0737396627664566, -0.09335899353027344, 1.48828125, 1.496337890625, 0.1883087158203125, 1.49560546875
60347, 0.0023112110793590546, 0.0055619473569095135, 0.01172068901360035, -0.00031775800744071603, 9.303852857556194e-05, 0.060716304928064346, -0.0008382190717384219, 0.00010592472972348332, 0.16752290725708008, -0.859463632106781, -1.0545880794525146, 0.05366503447294235, -0.46492834922631965, -0.9478062287771536, 3.294771146552602, 9362.0, 30146.0, 35388.0, 9362.0, 8.112398147583008, 0.09094369411468506, 0.04978210851550102, 0.17835664749145508, -0.09102487564086914, -0.03476895019412041, 1.0234848260879517, -0.0737396627664566, -0.09335899353027344, 1.48828125, 1.496337890625, 0.1883087158203125, 1.49560546875
60377, 0.0038162425626069307, 0.0015780191170051694, 0.011800241656601429, -0.00037121245986782014, 9.814311488298699e-05, 0.07118309289216995, -0.0009283163235522807, 6.800103437853977e-05, 0.1814282387495041, -0.8594978451728821, -1.054606556892395, 0.05366811901330948, -0.4531992247511124, -0.9244647871198595, 3.293076396493441, 9362.0, 30146.0, 35388.0, 9362.0, 8.112398147583008, -0.15541839599609375, 0.3042829930782318, 0.004193966742604971, -0.09102487564086914, -0.03476895019412041, 1.0234848260879517, -0.0737396627664566, -0.09335899353027344, 1.48828125, 1.4033203125, 0.043182373046875, 1.49560546875
60417, 0.0023300277534872293, -0.0002677357697393745, 0.01353286299854517, -0.00040870840894058347, 0.00010025301162386313, 0.07862763851881027, -0.0009452463127672672, 3.903188553522341e-05, 0.19080138206481934, -0.8594796657562256, -1.0545856952667236, 0.05365150794386864, -0.466248884375989, -0.9422270097618366, 3.2988651442857218, 9362.0, 30146.0, 35388.0, 9362.0, 8.092562675476074, 0.11571166664361954, -0.041974954307079315, -0.1361294388771057, -0.09102487564086914, -0.03476895019412041, 1.0234848260879517, -0.09938439726829529, -0.10231781005859375, 1.487548828125, 1.36376953125, 0.017181396484375, 1.490478515625
60447, 0.0009519386803731322, -0.0029094063211232424, 0.011789911426603794, -0.00043712026672437787, 0.00010122711682925001, 0.0844549760222435, -0.0009459894499741495, 2.6747544325189665e-05, 0.19768136739730835, -0.8594847321510315, -1.0546010732650757, 0.05368350073695183, -0.45616760150329433, -0.9268336904601711, 3.2904959379967456, 9362.0, 30146.0, 35388.0, 9362.0, 8.092562675476074, 0.2542024552822113, -0.20997673273086548, -0.405742347240448, -0.09102487564086914, -0.03476895019412041, 1.0234848260879517, -0.09938439726829529, -0.10231781005859375, 1.487548828125, 1.41796875, 0.05950927734375, 1.49267578125
60457, 0.0021124156191945076, -0.0019380669109523296, 0.008714679628610611, -0.00044657892431132495, 0.00010148625005967915, 0.0864439383149147, -0.0009456274565309286, 2.5079158149310388e-05, 0.20011214911937714, -0.8594702482223511, -1.0545787811279297, 0.05366084352135658, -0.465185796704961, -0.9417118491842871, 3.2842975287407743, 9362.0, 30146.0, 35388.0, 9362.0, 8.092562675476074, 0.049005672335624695, 0.4903264045715332, 0.20467914640903473, -0.09102487564086914, -0.03476895019412041, 1.0234848260879517, -0.09938439726829529, -0.10231781005859375, 1.487548828125, 1.41796875, 0.05950927734375, 1.49267578125
60477, 0.0033337955828756094, -0.008061020635068417, 0.011464596726000309, -0.0004653983924072236, 0.00010194384958595037, 0.09049242734909058, -0.0009370258776471019, 1.963475369848311e-05, 0.20468829572200775, -0.8594613671302795, -1.05458402633667, 0.05363798514008522, -0.47319987267935576, -0.9337066366399824, 3.2817668249271317, 9362.0, 30146.0, 35388.0, 9362.0, 8.092562675476074, -0.0931168645620346, 0.14354932308197021, 0.03856256976723671, -0.09102487564086914, -0.03476895019412041, 1.0234848260879517, -0.09938439726829529, -0.10231781005859375, 1.487548828125, 1.41796875, 0.05950927734375, 1.4912109375
60487, 0.0026414692401885986, -0.008800234645605087, 0.010810992680490017, -0.0004747188650071621, 0.00010211490007350221, 0.09255090355873108, -0.0009269701549783349, 1.455781875847606e-05, 0.20700675249099731, -0.8594875335693359, -1.0545951128005981, 0.0536646842956543, -0.4578095428521261, -0.9153935081467353, 3.26583817834063, 9362.0, 30146.0, 35388.0, 9362.0, 8.092562675476074, -0.10047747194766998, 0.32989493012428284, -0.4197356104850769, -0.09102487564086914, -0.03476895019412041, 1.0234848260879517, -0.09938439726829529, -0.10231781005859375, 1.487548828125, 1.41796875, 0.05950927734375, 1.49267578125
60497, 0.0014977195532992482, -0.010536493733525276, 0.007579216733574867, -0.0004839178582187742, 0.00010223124991171062, 0.0946330651640892, -0.0009127958328463137, 8.740945304452907e-06, 0.20942537486553192, -0.8594680428504944, -1.0545912981033325, 0.05367567390203476, -0.4619567188358166, -0.9454296614231907, 3.305025367558317, 9362.0, 30146.0, 35388.0, 9362.0, 8.092562675476074, -0.10047747194766998, 0.32989493012428284, -0.4197356104850769, -0.09102487564086914, -0.03476895019412041, 1.0234848260879517, -0.09938439726829529, -0.10231781005859375, 1.487548828125, 1.41796875, 0.05950927734375, 1.49267578125
60517, 7.679651753278449e-05, -0.01265858393162489, 0.012208398431539536, -0.0005018496885895729, 0.00010232407657895237, 0.09886600077152252, -0.0008788469713181257, 1.5681235936426674e-06, 0.213932067155838, -0.8594284057617188, -1.0545791387557983, 0.053674887865781784, -0.4649624297498299, -0.9459993675359044, 3.2560643042382114, 9362.0, 30146.0, 35388.0, 9362.0, 8.092562675476074, -0.13935305178165436, -0.348509281873703, -0.02076736092567444, -0.09102487564086914, -0.03476895019412041, 1.0234848260879517, -0.09938439726829529, -0.10231781005859375, 1.487548828125, 1.3916015625, 0.0325927734375, 1.49267578125
60557, -0.00020880758529528975, -0.01124508585780859, 0.012979145161807537, -0.0005354281165637076, 0.00010235414083581418, 0.10760608315467834, -0.0008028928423300385, 1.2052031479470315e-06, 0.22279974818229675, -0.8594965934753418, -1.0546022653579712, 0.05361482873558998, -0.43410844194640863, -0.9818182543958187, 3.223351602116344, 9362.0, 30146.0, 35388.0, 9362.0, 8.092562675476074, -0.005329691804945469, -0.02723981998860836, -0.11781760305166245, -0.09102487564086914, -0.03476895019412041, 1.0234848260879517, -0.09938439726829529, -0.10231781005859375, 1.487548828125, 1.359375, 0.0160980224609375, 1.49267578125
60567, -0.0012221195502206683, -0.010378053411841393, 0.01353861391544342, -0.0005354281165637076, 0.00010235414083581418, 0.10760608315467834, -0.0008028928423300385, 1.2052031479470315e-06, 0.22279974818229675, -0.859445333480835, -1.054589033126831, 0.053697146475315094, -0.4492604358511695, -0.9364249983439095, 3.2603876781018526, 9362.0, 30146.0, 35388.0, 9362.0, 8.092562675476074, 0.1630699783563614, -0.13279128074645996, -0.014389654621481895, -0.09102487564086914, -0.03476895019412041, 1.0234848260879517, -0.09938439726829529, -0.10231781005859375, 1.487548828125, 1.420166015625, 0.0621337890625, 1.49267578125
60617, -0.0004018810286652297, -0.005879901349544525, 0.014464139007031918, -0.0005802984815090895, 0.00010264216689392924, 0.12138591706752777, -0.0006984281935729086, 1.0403402484371327e-05, 0.23655468225479126, -0.8594438433647156, -1.0545859336853027, 0.0536903478205204, -0.45331619004144746, -0.939515188922968, 3.2524575377573854, 9362.0, 30146.0, 35388.0, 9362.0, 8.092562675476074, -0.041896235197782516, -0.37216436862945557, -0.09421529620885849, -0.09102487564086914, -0.03476895019412041, 1.0234848260879517, -0.05809134989976883, 0.05000114440917969, 1.5, 1.423095703125, 0.06591796875, 1.49267578125
60627, -0.00028212208417244256, -0.0034010380040854216, 0.014367937110364437, -0.0005872200126759708, 0.00010275295790052041, 0.12376357614994049, -0.000685926410369575, 1.1738974535546731e-05, 0.23897773027420044, -0.8594311475753784, -1.0546042919158936, 0.05368438735604286, -0.4470747241903413, -0.9287219566044769, 3.259990925546069, 9362.0, 30146.0, 35388.0, 9362.0, 8.092562675476074, 0.058035917580127716, 0.365793913602829, -0.14892855286598206, -0.09102487564086914, -0.03476895019412041, 1.0234848260879517, -0.05809134989976883, 0.05000114440917969, 1.5, 1.423095703125, 0.06591796875, 1.49853515625
60637, 0.0007766994531266391, -0.005373937077820301, 0.013711568899452686, -0.0005940276896581054, 0.00010287389159202576, 0.1261657476425171, -0.0006757118389941752, 1.2441829312592745e-05, 0.24145622551441193, -0.8594459891319275, -1.0545921325683594, 0.05368664860725403, -0.4513015859309335, -0.9388848734130875, 3.259914305459237, 9362.0, 30146.0, 35388.0, 9362.0, 8.092562675476074, 0.07668460160493851, -0.28934741020202637, 0.14625614881515503, -0.09102487564086914, -0.03476895019412041, 1.0234848260879517, -0.05809134989976883, 0.05000114440917969, 1.5, 1.404052734375, 0.04400634765625, 1.49853515625
60657, -0.000314327102387324, -0.004585517570376396, 0.0184701569378376, -0.0006074042175896466, 0.00010312290396541357, 0.13104599714279175, -0.0006603073561564088, 1.1516840459080413e-05, 0.2465893030166626, -0.8594441413879395, -1.0545927286148071, 0.05369841307401657, -0.4474319835681697, -0.9365504395590563, 3.25688073301316, 9362.0, 30146.0, 35388.0, 9362.0, 8.092562675476074, -0.1621793806552887, 0.337828665971756, -0.005478016100823879, -0.09102487564086914, -0.03476895019412041, 1.0234848260879517, -0.05809134989976883, 0.05000114440917969, 1.5, 1.404052734375, 0.04400634765625, 1.49853515625
60677, -0.0018704768735915422, -0.01066067535430193, 0.019006934016942978, -0.0006204873789101839, 0.00010332866804674268, 0.13602429628372192, -0.0006466275081038475, 1.0296572327206377e-05, 0.2510855793952942, -0.8594387769699097, -1.0545951128005981, 0.05367260053753853, -0.45370564818646913, -0.9216883854510911, 3.258308009318513, 9362.0, 30146.0, 35388.0, 9362.0, 8.092562675476074, -0.008031375706195831, -0.1178651675581932, -0.2358621209859848, -0.09102487564086914, -0.03476895019412041, 1.0234848260879517, -0.05809134989976883, 0.05000114440917969, 1.5, 1.370361328125, 0.0194549560546875, 1.49853515625
60687, -0.001898827962577343, -0.011267444118857384, 0.017218586057424545, -0.0006204873789101839, 0.00010332866804674268, 0.13602429628372192, -0.0006466275081038475, 1.0296572327206377e-05, 0.2510855793952942, -0.8594351410865784, -1.05459725856781, 0.05369405820965767, -0.4487781780971394, -0.9288781645360871, 3.259340320867523, 9362.0, 30146.0, 35388.0, 9362.0, 8.092562675476074, -0.10691944509744644, -0.3171594440937042, 0.021758267655968666, -0.09102487564086914, -0.03476895019412041, 1.0234848260879517, -0.05809134989976883, 0.05000114440917969, 1.5, 1.41943359375, 0.0612945556640625, 1.49853515625
60707, -0.0031105848029255867, -0.010882504284381866, 0.018239649012684822, -0.0006204873789101839, 0.00010332866804674268, 0.13602429628372192, -0.0006466275081038475, 1.0296572327206377e-05, 0.2510855793952942, -0.8594369292259216, -1.0545921325683594, 0.0537128783762455, -0.448811278237595, -0.9305581529111464, 3.257230928127964, 9362.0, 30146.0, 35388.0, 9362.0, 8.092562675476074, -0.1668773740530014, 0.06147175282239914, -0.2215220183134079, -0.09102487564086914, -0.03476895019412041, 1.0234848260879517, -0.07996596395969391, -0.12023735046386719, 1.486083984375, 1.363037109375, 0.0169219970703125, 1.491943359375
60717, -0.004235565196722746, -0.011317423544824123, 0.017949063330888748, -0.000645022199023515, 0.00010396773723186925, 0.14624936878681183, -0.0005762781365774572, 2.3631990188732743e-05, 0.26041728258132935, -0.8594141602516174, -1.0545768737792969, 0.05368109792470932, -0.46460355154512634, -0.9510020819022031, 3.261993427148512, 9362.0, 30146.0, 35388.0, 9362.0, 8.092562675476074, 0.25947949290275574, -0.004262268543243408, 0.1341133713722229, -0.09102487564086914, -0.03476895019412041, 1.0234848260879517, -0.07996596395969391, -0.12023735046386719, 1.486083984375, 1.363037109375, 0.0169219970703125, 1.491943359375
60737, -0.004598838742822409, -0.005263591650873423, 0.020609738305211067, -0.0006561626214534044, 0.0001045597527991049, 0.15150268375873566, -0.0005374168395064771, 3.6531502701109275e-05, 0.2650059163570404, -0.8594352006912231, -1.0546011924743652, 0.053697384893894196, -0.44771457432276973, -0.9281488706869254, 3.261711797542654, 9362.0, 30146.0, 35388.0, 9362.0, 8.092562675476074, 0.31506022810935974, 0.1715112328529358, -0.06052764877676964, -0.09428954124450684, -0.03229057788848877, 1.0246418714523315, -0.07996596395969391, -0.12023735046386719, 1.486083984375, 1.401123046875, 0.041015625, 1.491943359375
60747, -0.0034856023266911507, -0.005647259298712015, 0.020377982407808304, -0.0006614483427256346, 0.00010495586320757866, 0.15416419506072998, -0.0005199206061661243, 4.273452577763237e-05, 0.2672969698905945, -0.8594335913658142, -1.0545977354049683, 0.05369579792022705, -0.4540816735106911, -0.9324053192847543, 3.2521509719820467, 9362.0, 30146.0, 35388.0, 9362.0, 8.092562675476074, -0.1395750790834427, 0.15516945719718933, 0.031863924115896225, -0.09428954124450684, -0.03229057788848877, 1.0246418714523315, -0.07996596395969391, -0.12023735046386719, 1.486083984375, 1.401123046875, 0.041015625, 1.496337890625
60757, -0.004902946297079325, -0.005995981860905886, 0.02072989009320736, -0.0006666014087386429, 0.00010542355448706076, 0.15684908628463745, -0.0005106762982904911, 5.0756996643031016e-05, 0.2696821093559265, -0.8594447374343872, -1.0545903444290161, 0.053680866956710815, -0.45452108126100843, -0.9315139217664807, 3.2607255145882643, 9362.0, 30146.0, 35388.0, 9362.0, 8.092562675476074, -0.0979732796549797, -0.018539687618613243, 0.1172599121928215, -0.09428954124450684, -0.03229057788848877, 1.0246418714523315, -0.07996596395969391, -0.12023735046386719, 1.486083984375, 1.401123046875, 0.041015625, 1.496337890625
60767, -0.0057317763566970825, -0.005039294715970755, 0.021755583584308624, -0.0006716587231494486, 0.00010596167703624815, 0.15955738723278046, -0.000500769296195358, 5.692473496310413e-05, 0.2719773054122925, -0.859437108039856, -1.0545976161956787, 0.05370128154754639, -0.45157611454859725, -0.933588257514316, 3.2619990230836793, 9362.0, 30146.0, 35388.0, 9362.0, 8.092562675476074, -0.0979732796549797, -0.018539687618613243, 0.1172599121928215, -0.09298339486122131, -0.032647505402565, 1.0225979089736938, -0.07996596395969391, -0.12023735046386719, 1.486083984375, 1.43115234375, 0.0766143798828125, 1.496337890625
60777, -0.005541090387851, -0.003319395938888192, 0.01973010040819645, -0.0006766139413230121, 0.00010657386883394793, 0.16228824853897095, -0.0004903111257590353, 6.554525316460058e-05, 0.2741961181163788, -0.8594411611557007, -1.0546082258224487, 0.05371415615081787, -0.4561584752545979, -0.932492147689203, 3.257128977591623, 9362.0, 30146.0, 35388.0, 9362.0, 8.092562675476074, 0.1284589171409607, 0.20591990649700165, -0.025802738964557648, -0.09298339486122131, -0.032647505402565, 1.0225979089736938, -0.07996596395969391, -0.12023735046386719, 1.486083984375, 1.43115234375, 0.0766143798828125, 1.496337890625
60787, -0.00402938574552536, -0.005196662619709969, 0.018991198390722275, -0.0006814729422330856, 0.00010727953485911712, 0.1650414913892746, -0.0004815556458197534, 7.558007928309962e-05, 0.27645236253738403, -0.8594435453414917, -1.0545965433120728, 0.05370395630598068, -0.4480712145441933, -0.932574358715101, 3.2633757261542544, 9362.0, 30146.0, 35388.0, 9362.0, 8.092562675476074, -0.24359993636608124, 0.0961071103811264, 0.05123522877693176, -0.09298339486122131, -0.032647505402565, 1.0225979089736938, -0.07996596395969391, -0.12023735046386719, 1.486083984375, 1.3740234375, 0.0210723876953125, 1.496337890625
60797, -0.005382100120186806, -0.00566456513479352, 0.01824834756553173, -0.0006814729422330856, 0.00010727953485911712, 0.1650414913892746, -0.0004815556458197534, 7.558007928309962e-05, 0.27645236253738403, -0.8594391345977783, -1.0545965433120728, 0.05368306487798691, -0.45203101249023486, -0.9383828945682353, 3.255306160077189, 9362.0, 30146.0, 35388.0, 9362.0, 8.092562675476074, -0.07148879766464233, 0.014662878587841988, 0.059294234961271286, -0.09298339486122131, -0.032647505402565, 1.0225979089736938, -0.07996596395969391, -0.12023735046386719, 1.486083984375, 1.446533203125, 0.09930419921875, 1.496337890625
60827, -0.005633233115077019, -0.0059952023439109325, 0.016059942543506622, -0.0007000930490903556, 0.0001110100929508917, 0.1762903332710266, -0.0004448025720193982, 0.00011168896890012547, 0.2860211730003357, -0.8594430088996887, -1.0546082258224487, 0.05370153859257698, -0.4473538384127472, -0.9312573958081032, 3.263183850141023, 9362.0, 30146.0, 35388.0, 9362.0, 8.092562675476074, -0.08463812619447708, -0.07130420953035355, -0.19929413497447968, -0.09298339486122131, -0.032647505402565, 1.0225979089736938, -0.07996596395969391, -0.12023735046386719, 1.486083984375, 1.3916015625, 0.0325927734375, 1.496337890625
60857, -0.004521884955465794, -0.006676998920738697, 0.009384105913341045, -0.0007087272824719548, 0.00011343479854986072, 0.1820606291294098, -0.00042037732782773674, 0.0001310082443524152, 0.29090237617492676, -0.8594446778297424, -1.0546003580093384, 0.05370314046740532, -0.44863154860548293, -0.9300167666386301, 3.2531201895193873, 9362.0, 30146.0, 35388.0, 9362.0, 8.092562675476074, 0.2731069028377533, 0.1757257878780365, 0.02850192040205002, -0.09298339486122131, -0.032647505402565, 1.0225979089736938, -0.07996596395969391, -0.12023735046386719, 1.486083984375, 1.3681640625, 0.0185394287109375, 1.496337890625
60897, -0.004071705508977175, -0.008519003167748451, 0.005370854865759611, -0.0007283437880687416, 0.00012100433377781883, 0.19690744578838348, -0.00035934997140429914, 0.00016677480016369373, 0.30293285846710205, -0.8594450950622559, -1.0545951128005981, 0.053692497313022614, -0.4546733488393128, -0.9353445776623346, 3.252930309675008, 9362.0, 30146.0, 35388.0, 9362.0, 8.112398147583008, -0.11210199445486069, 0.002691171830520034, -0.5270166397094727, -0.09298339486122131, -0.032647505402565, 1.0225979089736938, -0.07996596395969391, -0.12023735046386719, 1.486083984375, 1.475830078125, 0.1492767333984375, 1.49560546875
60907, -0.004144508857280016, -0.011074075475335121, 0.007222923915833235, -0.0007283437880687416, 0.00012100433377781883, 0.19690744578838348, -0.00035934997140429914, 0.00016677480016369373, 0.30293285846710205, -0.8594364523887634, -1.0545992851257324, 0.05369243025779724, -0.44894269733291864, -0.9291956518913196, 3.2540765799152926, 9362.0, 30146.0, 35388.0, 9362.0, 8.112398147583008, -0.11210199445486069, 0.002691171830520034, -0.5270166397094727, -0.09298339486122131, -0.032647505402565, 1.0225979089736938, -0.07996596395969391, -0.12023735046386719, 1.486083984375, 1.396728515625, 0.0370025634765625, 1.49560546875
60917, -0.0031019572634249926, -0.012071236968040466, 0.006877916399389505, -0.0007283437880687416, 0.00012100433377781883, 0.19690744578838348, -0.00035934997140429914, 0.00016677480016369373, 0.30293285846710205, -0.8594477772712708, -1.0545920133590698, 0.053706247359514236, -0.4449381177802153, -0.9359449620710336, 3.2596462860514364, 9362.0, 30146.0, 35388.0, 9362.0, 8.112398147583008, -0.11210199445486069, 0.002691171830520034, -0.5270166397094727, -0.09298339486122131, -0.032647505402565, 1.0225979089736938, -0.07996596395969391, -0.12023735046386719, 1.486083984375, 1.385009765625, 0.0276336669921875, 1.49560546875
60957, -0.002947417553514242, -0.009266375564038754, 0.003882111981511116, -0.0007468292023986578, 0.00013204534479882568, 0.21549727022647858, -0.00024643464712426066, 0.00019658492237795144, 0.31706005334854126, -0.8594112992286682, -1.0545761585235596, 0.053688060492277145, -0.4608641604291613, -0.9558230609425777, 3.268922419598727, 9362.0, 30146.0, 35388.0, 9362.0, 8.112398147583008, 0.20512808859348297, 0.4643471837043762, 0.20803911983966827, -0.09298339486122131, -0.032647505402565, 1.0225979089736938, -0.07996596395969391, -0.12023735046386719, 1.486083984375, 1.385009765625, 0.0276336669921875, 1.49560546875
60967, -0.0016672787023708224, -0.011832118965685368, 0.005265417508780956, -0.0007468292023986578, 0.00013204534479882568, 0.21549727022647858, -0.00024643464712426066, 0.00019658492237795144, 0.31706005334854126, -0.8594396710395813, -1.0545953512191772, 0.05370478332042694, -0.44615513031561826, -0.935080586734216, 3.260874749820456, 9362.0, 30146.0, 35388.0, 9362.0, 8.112398147583008, 0.20512808859348297, 0.4643471837043762, 0.20803911983966827, -0.09298339486122131, -0.032647505402565, 1.0225979089736938, -0.07996596395969391, -0.12023735046386719, 1.486083984375, 1.3359375, 0.01806640625, 1.49560546875
