timeTick, roll, pitch, yaw, stateX, stateY, stateZ, stateVX, stateVY, stateVZ, otX0, otY0, otZ0, otRoll0, otPitch0, otYaw0, left wing, pitch motor, yaw motor, right wing, voltage, roll rate, pitch rate, yaw rate, A_x, A_y, A_z, current, i_raw, v_raw, airflow_voltage, airflow_speed, pot_Pitch
95812, -0.0007856321753934026, -0.001307693193666637, 0.0016374420374631882, 0, 0, 0, 0, 0, 0, -0.8617629408836365, -1.0340675115585327, 0.05379993095993996, -0.25766506266739053, -0.24441672354026878, -0.27864412869391353, 0, 0, 0, 0, 0, 0, 0, 0, 0, 0, 0, 0, 0, 0, 0, 0, 0
95822, -0.002571531804278493, -0.0003630377468653023, 0.0020191469229757786, 0.0, 0.0, -2.031272742897272e-06, -9.272039136476451e-09, -5.5707793933379435e-09, -0.00040625492692925036, -0.8617440462112427, -1.0340697765350342, 0.05376783758401871, -0.26284333970404183, -0.26091533871192496, -0.285881703721437, 9362.0, 30146.0, 35388.0, 9362.0, 0, -0.0030244311783462763, -0.008333638310432434, -0.020487796515226364, -0.07152049988508224, -0.022152651101350784, 0.9974364042282104, 0, 0, 0, 0, 0, 0
95832, -0.0022841410245746374, 0.0005414760089479387, 0.0012110293610021472, 1.1057397664160362e-08, 6.643449790288969e-09, -8.05075978860259e-06, 2.2271894977166085e-06, 1.3220883374742698e-06, -0.0007972642779350281, -0.8617878556251526, -1.0340973138809204, 0.05378745123744011, -0.27721787285114663, -0.27480792264574916, -0.28843267897708347, 9362.0, 30146.0, 35388.0, 9362.0, 0, -0.08247580379247665, 0.006933926604688168, 0.10739240795373917, -0.07230792939662933, -0.023150507360696793, 0.998113751411438, 0, 0, 0, 1.3740234375, 0.0210723876953125, 0
95842, -0.0020804875530302525, 0.0014499861281365156, 0.0018915660912171006, 3.6428467353744054e-08, 4.1822495688847994e-08, -1.7280573956668377e-05, 2.8510492029454326e-06, 5.7149704844050575e-06, -0.0010483009973540902, -0.8617826700210571, -1.0340842008590698, 0.053763773292303085, -0.2692589084542263, -0.2749428829777969, -0.2895979377926478, 9362.0, 30146.0, 35388.0, 9362.0, 0, 0.06935611367225647, -0.1095646545290947, -0.29490771889686584, -0.0722801461815834, -0.023543251678347588, 0.9949952363967896, 0, 0, 0, 1.368896484375, 0.01885986328125, 1.494873046875
95852, -0.0014787927502766252, -0.000469554855953902, 0.0010165558196604252, 6.03143206490131e-08, 1.1847871661530007e-07, -2.8956535970792174e-05, 1.9298518054711167e-06, 9.61710793490056e-06, -0.0012864918680861592, -0.8617944121360779, -1.0340828895568848, 0.053799837827682495, -0.266708792221677, -0.25959424462502056, -0.2871985553330826, 9362.0, 30146.0, 35388.0, 9362.0, 0, 0.11383724957704544, 0.21353021264076233, 0.15069171786308289, -0.07295002788305283, -0.023104045540094376, 0.9944540858268738, 0, 0, 0, 1.35205078125, 0.015380859375, 1.494873046875
95862, -0.0012046966003254056, -0.001437914907000959, 0.0005243649939075112, 6.726147461222354e-08, 2.3237065249759326e-07, -4.428502870723605e-05, -5.568599590333179e-07, 1.3166487406124361e-05, -0.0017788077238947153, -0.8617851138114929, -1.034083604812622, 0.05382245406508446, -0.26604703162720217, -0.25640092957627303, -0.28577739463785656, 9362.0, 30146.0, 35388.0, 9362.0, 0, 0.13190312683582306, 0.13390524685382843, -0.01742623746395111, -0.07244918495416641, -0.020358378067612648, 0.9989056587219238, 0, 0, 0, 1.400390625, 0.04034423828125, 1.494873046875
95872, -0.0008783902740105987, -0.0038049009162932634, 0.0007874101866036654, 6.569366917119623e-08, 3.766361658108508e-07, -6.436431431211531e-05, 2.355827604105798e-07, 1.568879815749824e-05, -0.002236648229882121, -0.8617796897888184, -1.0340875387191772, 0.05379517003893852, -0.27305367412514814, -0.25999425347134775, -0.2831006511883293, 9362.0, 30146.0, 35388.0, 9362.0, 0, 0.031616758555173874, -0.04118531942367554, 0.3178688585758209, -0.07311327755451202, -0.02189849317073822, 0.9996931552886963, 0, 0, 0, 1.37255859375, 0.02044677734375, 1.494873046875
95882, -0.0015880268765613437, -0.003589490195736289, 0.0015271332813426852, 8.034775333953803e-08, 5.438279231384513e-07, -8.718634489923716e-05, 2.691479721761425e-06, 1.7750076949596405e-05, -0.0023273632396012545, -0.8617673516273499, -1.0340819358825684, 0.05378751456737518, -0.26923387022565587, -0.26088079242620665, -0.28880021770957537, 9362.0, 30146.0, 35388.0, 9362.0, 0, 0.04467363283038139, -0.0766160786151886, 0.043520256876945496, -0.07085995376110077, -0.024191997945308685, 0.9965421557426453, 0, 0, 0, 1.393798828125, 0.0344085693359375, 1.494140625
95892, -0.0014724318170920014, -0.003544752486050129, 0.0028258729726076126, 1.3979877167002996e-07, 7.288404049177188e-07, -0.00011101545533165336, 9.199120540870354e-06, 1.9251127014285885e-05, -0.002438067691400647, -0.8617908358573914, -1.0340839624404907, 0.05380379408597946, -0.26693776146784354, -0.26237758661090993, -0.2831019417239987, 9362.0, 30146.0, 35388.0, 9362.0, 0, 0.11946627497673035, 0.045271679759025574, 0.12127556651830673, -0.07247434556484222, -0.02293245866894722, 0.994121789932251, 0, 0, 0, 1.37841796875, 0.023406982421875, 1.494140625
95902, -0.0011024136329069734, -0.004591766279190779, 0.003090165788307786, 2.623954173941456e-07, 9.348927960672881e-07, -0.0001373641425743699, 1.532046007923782e-05, 2.196028253820259e-05, -0.0028312685899436474, -0.8617814183235168, -1.0340808629989624, 0.05380604416131973, -0.2681874605238189, -0.2548377876303505, -0.2861800994963113, 9362.0, 30146.0, 35388.0, 9362.0, 0, -0.1048136055469513, 0.10896804928779602, -0.019254792481660843, -0.07240036875009537, -0.021638916805386543, 0.9950001239776611, 0, 0, 0, 1.308837890625, 0.0379486083984375, 1.494140625
95912, -0.0016112311277538538, -0.006450250279158354, 0.004897161386907101, 4.4576722757483367e-07, 1.1670283583953278e-06, -0.00016855873400345445, 2.13433650060324e-05, 2.4470566131640226e-05, -0.0034072506241500378, -0.861819863319397, -1.0341041088104248, 0.05383400619029999, -0.26173372612625256, -0.27292520164954226, -0.23941584138142663, 9362.0, 30146.0, 35388.0, 9362.0, 8.390083312988281, 0.15368707478046417, -0.38773056864738464, 0.23001140356063843, -0.0732419341802597, -0.023694997653365135, 0.998062014579773, -0.06952768564224243, 0.08584022521972656, 1.5029296875, 1.401123046875, 0.041015625, 1.494140625
95922, -0.0017953666392713785, -0.005617213901132345, 0.0056029269471764565, 6.983381695135904e-07, 1.4211325378710171e-06, -0.0002047735615633428, 2.915687764470931e-05, 2.6346708182245493e-05, -0.003835319308564067, -0.8618058562278748, -1.0341041088104248, 0.05382981151342392, -0.2604502383099914, -0.266905464518544, -0.2474470703611441, 9362.0, 30146.0, 35388.0, 9362.0, 8.390083312988281, -0.022784622386097908, -0.01002610381692648, -0.05948168411850929, -0.07345547527074814, -0.023146234452724457, 0.9987889528274536, -0.06952768564224243, 0.08584022521972656, 1.5029296875, 1.4208984375, 0.063079833984375, 1.493408203125
95932, -0.0012579492758959532, -0.00539852911606431, 0.0038228395860642195, 1.0450298759678844e-06, 1.6983740351861343e-06, -0.00024397484958171844, 4.0183909732149914e-05, 2.910117109422572e-05, -0.00400454131886363, -0.8618126511573792, -1.0341023206710815, 0.05380583181977272, -0.26405179840407395, -0.276996540608593, -0.24011223089049832, 9362.0, 30146.0, 35388.0, 9362.0, 8.390083312988281, 0.10199884325265884, -0.12966841459274292, -0.09106632322072983, -0.07216107845306396, -0.023324865847826004, 0.996660590171814, -0.06952768564224243, 0.08584022521972656, 1.5029296875, 1.404052734375, 0.04400634765625, 1.493408203125
95942, -0.0007561735692434013, -0.00576974730938673, 0.0036685713566839695, 1.4948873285902664e-06, 2.0047384623467224e-06, -0.00028471631230786443, 4.978821743861772e-05, 3.217272023903206e-05, -0.004143360070884228, -0.8618201613426208, -1.0341068506240845, 0.05383424088358879, -0.26283282385432105, -0.26911949256245293, -0.245105568314885, 9362.0, 30146.0, 35388.0, 9362.0, 8.390083312988281, -0.04778613895177841, 0.09298650920391083, -0.10998935997486115, -0.07182186841964722, -0.020507125183939934, 0.997037947177887, -0.06952768564224243, 0.08584022521972656, 1.5029296875, 1.3857421875, 0.0280914306640625, 1.494873046875
95952, -0.0003179439518135041, -0.0071263741701841354, 0.004399172496050596, 2.038847469520988e-06, 2.3372058421955444e-06, -0.0003276067436672747, 5.900195537833497e-05, 3.432327866903506e-05, -0.004434328060597181, -0.8618082404136658, -1.0341054201126099, 0.05382285267114639, -0.2626439974302178, -0.2786955715856436, -0.24158195512467065, 9362.0, 30146.0, 35388.0, 9362.0, 8.390083312988281, -0.06608922779560089, 0.05934153124690056, 0.11952292174100876, -0.07411812990903854, -0.01965629681944847, 0.9979959726333618, -0.06952768564224243, 0.08584022521972656, 1.5029296875, 1.382080078125, 0.0256195068359375, 1.494873046875
95962, -0.0005225722561590374, -0.006728094536811113, 0.0049219983629882336, 2.6781181077240035e-06, 2.686896550585516e-06, -0.00037336364039219916, 6.884549657115713e-05, 3.5617158573586494e-05, -0.004716656636446714, -0.8618125319480896, -1.0340995788574219, 0.05382809042930603, -0.2610594019594964, -0.27976732700801676, -0.2474617152693803, 9362.0, 30146.0, 35388.0, 9362.0, 8.390083312988281, 0.22823582589626312, 0.024743257090449333, 0.2516096234321594, -0.07488145679235458, -0.019782012328505516, 0.9986289739608765, -0.06952768564224243, 0.08584022521972656, 1.5029296875, 1.311767578125, 0.0348052978515625, 1.48828125
95972, -0.00014601732254959643, -0.006275813095271587, 0.0077256103977561, 3.4274664812983247e-06, 3.0457895263680257e-06, -0.00042144866893067956, 8.10254568932578e-05, 3.6160909075988457e-05, -0.004899955354630947, -0.86179119348526, -1.0341064929962158, 0.053804993629455566, -0.2693979062354488, -0.2878007658643469, -0.24740038527672809, 9362.0, 30146.0, 35388.0, 9362.0, 8.390083312988281, 0.037634190171957016, 0.18151985108852386, -0.05521724745631218, -0.07306652516126633, -0.022159254178404808, 0.9963776469230652, -0.06952768564224243, 0.08584022521972656, 1.5029296875, 1.357177734375, 0.0157928466796875, 1.48828125
95982, 7.386720881186193e-06, -0.0072265141643583775, 0.006885462440550327, 4.295214694138849e-06, 3.41186910191027e-06, -0.0004713337984867394, 9.252558083971962e-05, 3.7056732253404334e-05, -0.0050766728818416595, -0.861808717250824, -1.034119963645935, 0.053816091269254684, -0.26373092834241385, -0.27626893622812077, -0.24345810865692333, 9362.0, 30146.0, 35388.0, 9362.0, 8.390083312988281, 0.06572874635457993, -0.08812481164932251, 0.014848391525447369, -0.0713791772723198, -0.024582240730524063, 0.9963406920433044, -0.06952768564224243, 0.08584022521972656, 1.5029296875, 1.360107421875, 0.0162506103515625, 1.5
95992, 0.0010036329040303826, -0.007859454490244389, 0.006364550907164812, 5.274011527944822e-06, 3.7836894080101047e-06, -0.000523793394677341, 0.00010322812886442989, 3.730806929524988e-05, -0.005414849612861872, -0.8617900609970093, -1.0341061353683472, 0.05379468947649002, -0.2664752185196505, -0.28115991831361953, -0.25161949212848883, 9362.0, 30146.0, 35388.0, 9362.0, 8.390083312988281, -0.09460941702127457, 0.46083346009254456, 0.03130657225847244, -0.07123881578445435, -0.02230273000895977, 0.9962873458862305, -0.06952768564224243, 0.08584022521972656, 1.5029296875, 1.4033203125, 0.043182373046875, 1.5
96002, -5.539474295801483e-05, -0.010306659154593945, 0.005639088340103626, 6.367908099491615e-06, 4.156714567216113e-06, -0.0005799224600195885, 0.00011554683442227542, 3.73037182725966e-05, -0.0058105699717998505, -0.8618114590644836, -1.034112572669983, 0.05381697788834572, -0.256798699310168, -0.27659479151179767, -0.24342873216787211, 9362.0, 30146.0, 35388.0, 9362.0, 8.390083312988281, 0.10007571429014206, -0.2600041329860687, -0.08412707597017288, -0.07145088911056519, -0.0223439559340477, 0.9987064003944397, -0.06952768564224243, 0.08584022521972656, 1.5029296875, 1.29931640625, 0.0500640869140625, 1.494140625
96012, 0.00033923215232789516, -0.009372618049383163, 0.005986298434436321, 7.590452241856838e-06, 4.5211936594569124e-06, -0.0006395503878593445, 0.000128949002828449, 3.5586359445005655e-05, -0.00611461978405714, -0.8618017435073853, -1.0341037511825562, 0.053795602172613144, -0.26118032156418186, -0.28455775816425444, -0.2526859681600322, 9362.0, 30146.0, 35388.0, 9362.0, 8.390083312988281, -0.05487102270126343, -0.3321402668952942, 0.17502373456954956, -0.07093127071857452, -0.021083854138851166, 0.996041476726532, -0.08399028331041336, -0.20087814331054688, 1.4794921875, 1.395263671875, 0.035675048828125, 1.494140625
96022, 0.0004311943193897605, -0.007645424921065569, 0.00815421249717474, 8.968010661192238e-06, 4.877539140579756e-06, -0.0007016134914010763, 0.00014656575513072312, 3.5684130125446245e-05, -0.006297602783888578, -0.8618038892745972, -1.0341049432754517, 0.05381253734230995, -0.2653244705877492, -0.2780746110956045, -0.2470283482104366, 9362.0, 30146.0, 35388.0, 9362.0, 8.390083312988281, 0.1454378068447113, 0.4320433735847473, 0.22084686160087585, -0.0707089900970459, -0.0207527969032526, 0.9943710565567017, -0.08399028331041336, -0.20087814331054688, 1.4794921875, 1.310302734375, 0.036285400390625, 1.491943359375
96032, 0.0006903291214257479, -0.00941589754074812, 0.010109848342835903, 1.0513571396586485e-05, 5.2314967433630954e-06, -0.0007666373276151717, 0.00016255870286840945, 3.510866008582525e-05, -0.00670676538720727, -0.8618084788322449, -1.034104347229004, 0.0538165308535099, -0.26581678594878244, -0.2786712690560478, -0.24420479718310567, 9362.0, 30146.0, 35388.0, 9362.0, 8.390083312988281, -0.07438147813081741, 0.08864366263151169, -0.15792642533779144, -0.0736641064286232, -0.023257922381162643, 0.9959970116615295, -0.08399028331041336, -0.20087814331054688, 1.4794921875, 1.408447265625, 0.0485382080078125, 1.491943359375
96042, 0.0005812387098558247, -0.009202265180647373, 0.00752317113801837, 1.2204263839521445e-05, 5.578920536208898e-06, -0.0008363048546016216, 0.00017556367674842477, 3.437894338276237e-05, -0.00722634419798851, -0.8617951273918152, -1.0341132879257202, 0.053786713629961014, -0.266614556938825, -0.2872078747076898, -0.24919825921275887, 9362.0, 30146.0, 35388.0, 9362.0, 8.390083312988281, -0.03996672108769417, 0.01814684271812439, 0.08081565797328949, -0.07411772012710571, -0.02340342290699482, 0.9964991807937622, -0.08399028331041336, -0.20087814331054688, 1.4794921875, 1.4091796875, 0.04937744140625, 1.4912109375
96052, 0.0005902185803279281, -0.00934783834964037, 0.00673921313136816, 1.4040225323697086e-05, 5.916835107200313e-06, -0.0009103006450459361, 0.0001916298206197098, 3.320261021144688e-05, -0.007572406902909279, -0.8618098497390747, -1.0341070890426636, 0.05382952094078064, -0.2630942812605044, -0.2674151558562414, -0.25166853945381745, 9362.0, 30146.0, 35388.0, 9362.0, 8.390083312988281, 0.07777701318264008, -0.17662344872951508, -0.19269607961177826, -0.07264591008424759, -0.023929109796881676, 0.9972730278968811, -0.08399028331041336, -0.20087814331054688, 1.4794921875, 1.400390625, 0.04034423828125, 1.4912109375
96062, 0.0016623184783384204, -0.009804939851164818, 0.005174720194190741, 1.6035062799346633e-05, 6.24391077508335e-06, -0.0009875218383967876, 0.00020733693963848054, 3.221235965611413e-05, -0.007871445268392563, -0.8618108630180359, -1.0340967178344727, 0.05377822369337082, -0.26713785450691735, -0.28300326711681123, -0.24657280438239626, 9362.0, 30146.0, 35388.0, 9362.0, 8.390083312988281, -0.10307489335536957, 0.22498604655265808, -0.12371531873941422, -0.07312615215778351, -0.020860176533460617, 0.9956238865852356, -0.08399028331041336, -0.20087814331054688, 1.4794921875, 1.351318359375, 0.0153350830078125, 1.4912109375
96072, 0.0011967801256105304, -0.0112364012748003, 0.00481192534789443, 1.81882187462179e-05, 6.5610061028564814e-06, -0.0010677007958292961, 0.00022329202329274267, 3.121173722320236e-05, -0.008163961581885815, -0.861812949180603, -1.034112572669983, 0.05380918085575104, -0.2637967571222682, -0.2789192349137295, -0.2448401450685559, 9362.0, 30146.0, 35388.0, 9362.0, 8.390083312988281, -0.19788716733455658, 0.08641635626554489, -0.025234775617718697, -0.07383913546800613, -0.020624591037631035, 0.9969519376754761, -0.08399028331041336, -0.20087814331054688, 1.4794921875, 1.29052734375, 0.06378173828125, 1.4912109375
96082, 0.00020101334666833282, -0.011469676159322262, 0.004396450240164995, 2.0504732674453408e-05, 6.858958840894047e-06, -0.0011513597564771771, 0.0002400007942924276, 2.8375410693115555e-05, -0.008567442186176777, -0.8618031740188599, -1.0341031551361084, 0.05382866784930229, -0.2621261334159437, -0.2768239424598846, -0.24494463943037037, 9362.0, 30146.0, 35388.0, 9362.0, 8.390083312988281, -0.07646510004997253, -0.2549341917037964, -0.3194997310638428, -0.07312433421611786, -0.021948250010609627, 0.997256338596344, -0.08399028331041336, -0.20087814331054688, 1.4794921875, 1.396728515625, 0.0370025634765625, 1.497802734375
96092, 0.0005625745980069041, -0.012387382797896862, 0.004005723167210817, 2.3000637156656012e-05, 7.13250710759894e-06, -0.0012385513400658965, 0.00025917889433912933, 2.6328867534175515e-05, -0.008870488032698631, -0.8618080019950867, -1.034109115600586, 0.053830210119485855, -0.2627321483671848, -0.2752169413815011, -0.24199093806069788, 9362.0, 30146.0, 35388.0, 9362.0, 8.390083312988281, -0.01971856877207756, 0.5065184235572815, 0.010064448229968548, -0.07248090952634811, -0.022851955145597458, 0.9959731698036194, -0.08399028331041336, -0.20087814331054688, 1.4794921875, 1.376220703125, 0.0222930908203125, 1.497802734375
96102, 0.0013788628857582808, -0.01319439522922039, 0.0025274406652897596, 2.569032585597597e-05, 7.394087333523203e-06, -0.0013287069741636515, 0.0002787542180158198, 2.598891114757862e-05, -0.00916025135666132, -0.8618084192276001, -1.03411066532135, 0.05379834026098251, -0.2678938392197811, -0.28908854910190485, -0.2545722152812076, 9362.0, 30146.0, 35388.0, 9362.0, 8.390083312988281, 0.3397968113422394, 0.1971290409564972, -0.14712102711200714, -0.0730365663766861, -0.02305583469569683, 0.9958452582359314, -0.08399028331041336, -0.20087814331054688, 1.4794921875, 1.4208984375, 0.063079833984375, 1.4970703125
96112, 0.0026764424983412027, -0.013088867999613285, 0.0017017885111272335, 2.8583535822690465e-05, 7.649185135960579e-06, -0.0014220655430108309, 0.00029988272581249475, 2.5035064027179033e-05, -0.009511069394648075, -0.8618085384368896, -1.0341054201126099, 0.053834978491067886, -0.259225257683499, -0.27645226976903814, -0.2515837951311661, 9362.0, 30146.0, 35388.0, 9362.0, 8.390083312988281, 0.021543148905038834, -0.2363022416830063, 0.10968171805143356, -0.07533161342144012, -0.021936867386102676, 0.9953394532203674, -0.11183005571365356, -0.03959846496582031, 1.49267578125, 1.330810546875, 0.0203399658203125, 1.4970703125
96122, 0.0023061800748109818, -0.0116276228800416, -0.00036329866270534694, 3.169484989484772e-05, 7.887785614002496e-06, -0.0015192062128335238, 0.0003223811218049377, 2.269383730890695e-05, -0.00991666316986084, -0.8618033528327942, -1.0341100692749023, 0.053814493119716644, -0.2637658363332457, -0.28229277354787996, -0.2497912863657902, 9362.0, 30146.0, 35388.0, 9362.0, 8.390083312988281, -0.09613177925348282, 0.0100712226703763, -0.008564235642552376, -0.07443870604038239, -0.01992720551788807, 0.9959735870361328, -0.11183005571365356, -0.03959846496582031, 1.49267578125, 1.392333984375, 0.03314208984375, 1.493408203125
96132, 0.0015628817491233349, -0.01160789467394352, -0.0005156530532985926, 3.5030236176680773e-05, 8.091912604868412e-06, -0.001620469382032752, 0.0003447063791099936, 1.8128062947653234e-05, -0.010335580445826054, -0.8618077039718628, -1.0341085195541382, 0.05381054803729057, -0.26137202629624756, -0.275002020156478, -0.24464655109103745, 9362.0, 30146.0, 35388.0, 9362.0, 8.390083312988281, 0.08064588159322739, -0.12250896543264389, 0.05396917834877968, -0.0734378919005394, -0.019264495000243187, 0.9960749745368958, -0.11183005571365356, -0.03959846496582031, 1.49267578125, 1.39892578125, 0.0390167236328125, 1.493408203125
96142, 0.002246311865746975, -0.01169161219149828, 0.0020269369706511497, 3.857645424432121e-05, 8.253527084889356e-06, -0.0017257361905649304, 0.00036453737993724644, 1.4189750800142065e-05, -0.010717389173805714, -0.8618143796920776, -1.0341042280197144, 0.05380977690219879, -0.2625214034354544, -0.2767709077891993, -0.24217407525314782, 9362.0, 30146.0, 35388.0, 9362.0, 8.390083312988281, 0.1898043304681778, -0.06058705598115921, -0.100235715508461, -0.07526396960020065, -0.019328851252794266, 0.995553195476532, -0.11183005571365356, -0.03959846496582031, 1.49267578125, 1.4326171875, 0.0786895751953125, 1.49267578125
96152, 0.0026948880404233932, -0.011186894960701466, 0.0020595721434801817, 4.232076753396541e-05, 8.382102350878995e-06, -0.0018350526224821806, 0.00038432475412264466, 1.1531326890690252e-05, -0.011145507916808128, -0.8618128299713135, -1.034104824066162, 0.053826332092285156, -0.25706658904833946, -0.27954256966583557, -0.24391414282885243, 9362.0, 30146.0, 35388.0, 9362.0, 8.390083312988281, 0.1566915363073349, 0.18540598452091217, -0.08784095197916031, -0.07556483894586563, -0.02270427532494068, 0.9961381554603577, -0.11183005571365356, -0.03959846496582031, 1.49267578125, 1.41796875, 0.05950927734375, 1.49267578125
96162, 0.003414119826629758, -0.012270800769329071, 0.0011951837223023176, 4.6263710828498006e-05, 8.478264135192148e-06, -0.001948439865373075, 0.00040426745545119047, 7.704150448262226e-06, -0.011531556956470013, -0.8617962598800659, -1.0341063737869263, 0.05379050597548485, -0.2654053161801715, -0.28535926442026494, -0.2513588761900396, 9362.0, 30146.0, 35388.0, 9362.0, 8.390083312988281, 0.14011915028095245, 0.041704073548316956, 0.29147589206695557, -0.07225941121578217, -0.021361252292990685, 0.9965569972991943, -0.11183005571365356, -0.03959846496582031, 1.49267578125, 1.3564453125, 0.0156707763671875, 1.487548828125
96172, 0.0037679688539355993, -0.01343387458473444, 0.002850467339158058, 5.040180985815823e-05, 8.532321771781426e-06, -0.0020655207335948944, 0.00042334586032666266, 3.1114743705984438e-06, -0.01188420969992876, -0.8618136048316956, -1.034111499786377, 0.053818996995687485, -0.2640036028266212, -0.2779795037769759, -0.24655536257922087, 9362.0, 30146.0, 35388.0, 9362.0, 8.390083312988281, -0.016806868836283684, 0.02154228836297989, 0.012260781601071358, -0.07375677675008774, -0.02211109735071659, 0.9974924325942993, -0.11183005571365356, -0.03959846496582031, 1.49267578125, 1.404052734375, 0.04400634765625, 1.487548828125
96182, 0.003872192930430174, -0.012995865195989609, 0.0023991307243704796, 5.473997225635685e-05, 8.534307198715396e-06, -0.002185974270105362, 0.0004442803037818521, -2.711836714297533e-06, -0.012206117622554302, -0.861809492111206, -1.0341154336929321, 0.05378737300634384, -0.26657626095269843, -0.2882416040515068, -0.25323103533095637, 9362.0, 30146.0, 35388.0, 9362.0, 8.390083312988281, 0.02227863296866417, -0.4711063802242279, -0.058920230716466904, -0.07272541522979736, -0.022044073790311813, 0.9975494146347046, -0.11183005571365356, -0.03959846496582031, 1.49267578125, 1.283935546875, 0.075897216796875, 1.499267578125
96192, 0.003823227249085903, -0.010626544244587421, 0.004130321554839611, 5.9297461120877415e-05, 8.475027243548539e-06, -0.0023094010539352894, 0.000467219710117206, -9.143814168055542e-06, -0.012478872202336788, -0.861809492111206, -1.0341013669967651, 0.05382043495774269, -0.260081288727663, -0.2868471308239009, -0.2488747780221227, 9362.0, 30146.0, 35388.0, 9362.0, 8.390083312988281, 0.010446829721331596, -0.22665704786777496, -0.16200248897075653, -0.07037542015314102, -0.02249741554260254, 0.9976505041122437, -0.11183005571365356, -0.03959846496582031, 1.49267578125, 1.3681640625, 0.0185394287109375, 1.499267578125
96202, 0.004351229872554541, -0.008863775990903378, 0.0032737236469984055, 6.408066110452637e-05, 8.350521056854632e-06, -0.002435317263007164, 0.0004894294543191791, -1.5757019355078228e-05, -0.01270397286862135, -0.8618006110191345, -1.034112572669983, 0.05381729081273079, -0.2625469704462659, -0.2730595669122806, -0.24806160619105772, 9362.0, 30146.0, 35388.0, 9362.0, 8.390083312988281, 0.06180024892091751, 0.3058445155620575, -0.14036989212036133, -0.07075050473213196, -0.021231696009635925, 0.9976298809051514, -0.11183005571365356, -0.03959846496582031, 1.49267578125, 1.336669921875, 0.0177764892578125, 1.49267578125
96222, 0.004373133648186922, -0.01219948846846819, 0.0033499959390610456, 6.906572525622323e-05, 8.160301149473526e-06, -0.00256346445530653, 0.0005075900116935372, -2.2285172235569917e-05, -0.012925080955028534, -0.8618047833442688, -1.0341148376464844, 0.05381840839982033, -0.26293999198243745, -0.2786486152772625, -0.24484706696084607, 9362.0, 30146.0, 35388.0, 9362.0, 8.370248794555664, 0.16190429031848907, 0.6083367466926575, 0.04828912764787674, -0.06964483857154846, -0.02191314287483692, 0.9971756339073181, -0.07174909114837646, 0.08584022521972656, 1.5029296875, 1.364501953125, 0.0173492431640625, 1.49267578125
96232, 0.004136566072702408, -0.016380131244659424, 0.006506326142698526, 6.906572525622323e-05, 8.160301149473526e-06, -0.00256346445530653, 0.0005075900116935372, -2.2285172235569917e-05, -0.012925080955028534, -0.8618161082267761, -1.0341160297393799, 0.05383157730102539, -0.26127106023732427, -0.2803617944040582, -0.2452647425239687, 9362.0, 30146.0, 35388.0, 9362.0, 8.370248794555664, 0.25043541193008423, 0.3773980438709259, 0.2719464600086212, -0.0728503167629242, -0.022706763818860054, 0.9969326853752136, -0.07174909114837646, 0.08584022521972656, 1.5029296875, 1.364501953125, 0.0173492431640625, 1.49267578125
96242, 0.005243747029453516, -0.01848585717380047, 0.007623826153576374, 6.906572525622323e-05, 8.160301149473526e-06, -0.00256346445530653, 0.0005075900116935372, -2.2285172235569917e-05, -0.012925080955028534, -0.8617938756942749, -1.0341013669967651, 0.053795356303453445, -0.2678758252596874, -0.2828974105273119, -0.2447970936197928, 9362.0, 30146.0, 35388.0, 9362.0, 8.370248794555664, 0.14471548795700073, -0.11840413510799408, -0.16109471023082733, -0.07315842062234879, -0.0211135596036911, 0.9961234927177429, -0.07174909114837646, 0.08584022521972656, 1.5029296875, 1.364501953125, 0.0173492431640625, 1.493408203125
96272, 0.005288207903504372, -0.01928848586976528, 0.005356046836823225, 6.906572525622323e-05, 8.160301149473526e-06, -0.00256346445530653, 0.0005075900116935372, -2.2285172235569917e-05, -0.012925080955028534, -0.8618144392967224, -1.0341053009033203, 0.05381818860769272, -0.2646519330979402, -0.276585008602126, -0.2462530541125727, 9362.0, 30146.0, 35388.0, 9362.0, 8.370248794555664, 0.30453455448150635, -0.4338681101799011, -0.26243916153907776, -0.07315842062234879, -0.0211135596036911, 0.9961234927177429, -0.07174909114837646, 0.08584022521972656, 1.5029296875, 1.364501953125, 0.0173492431640625, 1.493408203125
96282, 0.006902086082845926, -0.017863765358924866, 0.0043253106996417046, 6.906572525622323e-05, 8.160301149473526e-06, -0.00256346445530653, 0.0005075900116935372, -2.2285172235569917e-05, -0.012925080955028534, -0.8618148565292358, -1.0341041088104248, 0.05380938947200775, -0.26065390152778667, -0.2808087276079334, -0.24758504117066002, 9362.0, 30146.0, 35388.0, 9362.0, 8.370248794555664, -0.049464039504528046, -0.012196067720651627, -0.07236013561487198, -0.07161197066307068, -0.02256295084953308, 0.9983219504356384, -0.07174909114837646, 0.08584022521972656, 1.5029296875, 1.364501953125, 0.0173492431640625, 1.493408203125
96292, 0.005894624162465334, -0.01655605249106884, 0.003993024118244648, 0.00011691671534208581, 3.8558496271434706e-06, -0.0036985415499657393, 0.0007151806494221091, -8.905639697331935e-05, -0.015510492026805878, -0.8618054389953613, -1.0341050624847412, 0.05381379276514053, -0.2629200477681405, -0.2729144116380553, -0.24827364051220802, 9362.0, 30146.0, 35388.0, 9362.0, 8.370248794555664, -0.029057815670967102, -0.33146142959594727, -0.1743212640285492, -0.07166968286037445, -0.021307624876499176, 0.9971106052398682, -0.07174909114837646, 0.08584022521972656, 1.5029296875, 1.364501953125, 0.0173492431640625, 1.493408203125
96302, 0.005670655518770218, -0.015927623957395554, 0.0027518407441675663, 0.00011691671534208581, 3.8558496271434706e-06, -0.0036985415499657393, 0.0007151806494221091, -8.905639697331935e-05, -0.015510492026805878, -0.8618133068084717, -1.0341010093688965, 0.05381300300359726, -0.26233782601242633, -0.2782786564610831, -0.24515588394528665, 9362.0, 30146.0, 35388.0, 9362.0, 8.370248794555664, -0.18506823480129242, -0.17395465075969696, -0.3069780170917511, -0.0725707858800888, -0.021936481818556786, 0.9970007538795471, -0.07174909114837646, 0.08584022521972656, 1.5029296875, 1.33154296875, 0.0198516845703125, 1.493408203125
96322, 0.006145476829260588, -0.01617029868066311, 0.0009927005739882588, 0.00011691671534208581, 3.8558496271434706e-06, -0.0036985415499657393, 0.0007151806494221091, -8.905639697331935e-05, -0.015510492026805878, -0.861815333366394, -1.03410804271698, 0.05381467565894127, -0.26553418170014886, -0.27009449733859014, -0.2535649519542142, 9362.0, 30146.0, 35388.0, 9362.0, 8.370248794555664, 0.04189423471689224, 0.17782647907733917, 0.047348927706480026, -0.0728907436132431, -0.021839888766407967, 0.9943534731864929, -0.06444485485553741, 0.014162063598632812, 1.4970703125, 1.3095703125, 0.037139892578125, 1.4970703125
96332, 0.006560793612152338, -0.017048662528395653, -0.0005897351074963808, 0.00011691671534208581, 3.8558496271434706e-06, -0.0036985415499657393, 0.0007151806494221091, -8.905639697331935e-05, -0.015510492026805878, -0.8618012070655823, -1.0341174602508545, 0.05378948524594307, -0.2677856508860083, -0.28264896973198006, -0.24741381756380568, 9362.0, 30146.0, 35388.0, 9362.0, 8.370248794555664, 0.03872346878051758, 0.006388405337929726, -0.08831839263439178, -0.0728907436132431, -0.021839888766407967, 0.9943534731864929, -0.06444485485553741, 0.014162063598632812, 1.4970703125, 1.3095703125, 0.037139892578125, 1.4970703125
96352, 0.005901684053242207, -0.017688358202576637, -0.0013277954421937466, 0.00011691671534208581, 3.8558496271434706e-06, -0.0036985415499657393, 0.0007151806494221091, -8.905639697331935e-05, -0.015510492026805878, -0.8617976903915405, -1.0341087579727173, 0.0537729486823082, -0.2677437113683501, -0.28316765473829264, -0.2496607827358473, 9362.0, 30146.0, 35388.0, 9362.0, 8.370248794555664, -0.022465357556939125, -0.06379874050617218, -0.12019488960504532, -0.07314187288284302, -0.01949971541762352, 0.9962126016616821, -0.06444485485553741, 0.014162063598632812, 1.4970703125, 1.31396484375, 0.0325469970703125, 1.4970703125
96382, 0.005057909991592169, -0.020905807614326477, -0.003977435175329447, 0.00011691671534208581, 3.8558496271434706e-06, -0.0036985415499657393, 0.0007151806494221091, -8.905639697331935e-05, -0.015510492026805878, -0.861814022064209, -1.0341047048568726, 0.05380885303020477, -0.2660409662123758, -0.28031233699323366, -0.2548669023177825, 9362.0, 30146.0, 35388.0, 9362.0, 8.370248794555664, -0.2201053500175476, -0.01313122920691967, -0.12943591177463531, -0.07469451427459717, -0.022625019773840904, 0.9956966042518616, -0.06444485485553741, 0.014162063598632812, 1.4970703125, 1.313232421875, 0.0333251953125, 1.4970703125
96392, 0.0038125005085021257, -0.020623741671442986, -0.005383988842368126, 0.00011691671534208581, 3.8558496271434706e-06, -0.0036985415499657393, 0.0007151806494221091, -8.905639697331935e-05, -0.015510492026805878, -0.8618056178092957, -1.0341085195541382, 0.05380549281835556, -0.2656290262914235, -0.27922229986248226, -0.24924223282959038, 9362.0, 30146.0, 35388.0, 9362.0, 8.370248794555664, 0.024226728826761246, -0.0060041616670787334, 0.016118403524160385, -0.07310205698013306, -0.022362397983670235, 0.9965353608131409, -0.06444485485553741, 0.014162063598632812, 1.4970703125, 1.313232421875, 0.0333251953125, 1.4970703125
96402, 0.0038530309684574604, -0.022038975730538368, -0.00510234571993351, 0.00011691671534208581, 3.8558496271434706e-06, -0.0036985415499657393, 0.0007151806494221091, -8.905639697331935e-05, -0.015510492026805878, -0.8618147969245911, -1.0341074466705322, 0.05381762981414795, -0.27038895144810815, -0.2743611457477755, -0.2507285711121569, 9362.0, 30146.0, 35388.0, 9362.0, 8.370248794555664, 0.028282275423407555, -0.10686592757701874, 0.21048714220523834, -0.07530950009822845, -0.02181096561253071, 0.9986966848373413, -0.06444485485553741, 0.014162063598632812, 1.4970703125, 1.3681640625, 0.0185394287109375, 1.4970703125
96412, 0.0033407516311854124, -0.02006327547132969, -0.004754793364554644, 0.00011691671534208581, 3.8558496271434706e-06, -0.0036985415499657393, 0.0007151806494221091, -8.905639697331935e-05, -0.015510492026805878, -0.8618136048316956, -1.0341053009033203, 0.05382576957345009, -0.2652640076980251, -0.2772396098677916, -0.24408903184199846, 9362.0, 30146.0, 35388.0, 9362.0, 8.370248794555664, -0.0042814514599740505, -0.3260182738304138, -0.13861489295959473, -0.07416766881942749, -0.02372366562485695, 0.997256875038147, -0.06444485485553741, 0.014162063598632812, 1.4970703125, 1.3681640625, 0.0185394287109375, 1.4970703125
96422, 0.003406080650165677, -0.018738778308033943, -0.006027969531714916, 0.00011691671534208581, 3.8558496271434706e-06, -0.0036985415499657393, 0.0007151806494221091, -8.905639697331935e-05, -0.015510492026805878, -0.8618149757385254, -1.0341137647628784, 0.053818099200725555, -0.26350820499732924, -0.28276553803164006, -0.2447244147230111, 9362.0, 30146.0, 35388.0, 9362.0, 8.370248794555664, -0.017558898776769638, 0.09583685547113419, 0.05106750875711441, -0.07244794815778732, -0.021688738837838173, 0.9942846298217773, -0.06444485485553741, 0.014162063598632812, 1.4970703125, 1.3681640625, 0.0185394287109375, 1.4970703125
96432, 0.0036988749634474516, -0.020150255411863327, -0.00558019382879138, 0.0002459737879689783, -1.827083178795874e-05, -0.006227784790098667, 0.0011513998033478856, -0.0002158753341063857, -0.02048628032207489, -0.8618360161781311, -1.034074306488037, 0.053801026195287704, -0.2555860476870468, -0.28710603524558564, -0.2352999407985778, 9362.0, 30146.0, 35388.0, 9362.0, 8.370248794555664, -0.10459191352128983, -0.061353541910648346, -0.20448929071426392, -0.07121022790670395, -0.01991477608680725, 0.9950815439224243, -0.06444485485553741, 0.014162063598632812, 1.4970703125, 1.3681640625, 0.0185394287109375, 1.4970703125
96442, 0.003611004212871194, -0.020863167941570282, -0.006635634228587151, 0.0002459737879689783, -1.827083178795874e-05, -0.006227784790098667, 0.0011513998033478856, -0.0002158753341063857, -0.02048628032207489, -0.8618330359458923, -1.0340691804885864, 0.05381038412451744, -0.2581728725038458, -0.28423198768200564, -0.2421592840338587, 9362.0, 30146.0, 35388.0, 9362.0, 8.370248794555664, 0.08362563699483871, -0.1159195527434349, -0.08923725038766861, -0.07121022790670395, -0.01991477608680725, 0.9950815439224243, -0.06444485485553741, 0.014162063598632812, 1.4970703125, 1.3681640625, 0.0185394287109375, 1.4970703125
96452, 0.003531121648848057, -0.020566971972584724, -0.007548190653324127, 0.0002696519950404763, -2.27068921958562e-05, -0.00664782477542758, 0.0012176294112578034, -0.00022798411373514682, -0.02147519774734974, -0.8618584871292114, -1.034076452255249, 0.05381084978580475, -0.25592876049269486, -0.28501953711685246, -0.2316229637815656, 9362.0, 30146.0, 35388.0, 9362.0, 8.370248794555664, 0.01665266416966915, 0.18364937603473663, 0.15131250023841858, -0.07332195341587067, -0.02072441577911377, 0.9981322884559631, -0.06444485485553741, 0.014162063598632812, 1.4970703125, 1.3681640625, 0.0185394287109375, 1.4970703125
96462, 0.0047459593042731285, -0.023217014968395233, -0.0068518975749611855, 0.0002696519950404763, -2.27068921958562e-05, -0.00664782477542758, 0.0012176294112578034, -0.00022798411373514682, -0.02147519774734974, -0.8618330955505371, -1.0340715646743774, 0.05381146818399429, -0.2508747441086235, -0.29077193923203026, -0.24119309824253754, 9362.0, 30146.0, 35388.0, 9362.0, 8.370248794555664, -0.224903866648674, 0.178624227643013, 0.18298302590847015, -0.0729602500796318, -0.01962161809206009, 0.9971933960914612, -0.06444485485553741, 0.014162063598632812, 1.4970703125, 1.363037109375, 0.0169219970703125, 1.48828125
96472, 0.0042401389218866825, -0.025073722004890442, -0.005551448557525873, 0.0002947150787804276, -2.7389398383093067e-05, -0.00708111934363842, 0.0012884180760011077, -0.00024019402917474508, -0.02185497060418129, -0.8618485927581787, -1.034079670906067, 0.05379089340567589, -0.25305427405497977, -0.2889346687659895, -0.23480698946659145, 9362.0, 30146.0, 35388.0, 9362.0, 8.370248794555664, 0.11029302328824997, -0.24055364727973938, 0.12273421138525009, -0.07486121356487274, -0.020497139543294907, 0.9945648908615112, -0.06444485485553741, 0.014162063598632812, 1.4970703125, 1.39453125, 0.035003662109375, 1.48828125
96482, 0.004734011832624674, -0.024439698085188866, -0.005097105633467436, 0.00030779733788222075, -2.9831855499651283e-05, -0.007301326375454664, 0.0013280237326398492, -0.00024829921312630177, -0.02218606136739254, -0.8618398308753967, -1.0340794324874878, 0.05380877107381821, -0.2578359495731186, -0.27659147947198903, -0.23860917634125567, 9362.0, 30146.0, 35388.0, 9362.0, 8.370248794555664, 0.039983078837394714, 0.123270183801651, -0.07161030918359756, -0.07362493872642517, -0.02157033421099186, 0.9962234497070312, -0.06444485485553741, 0.014162063598632812, 1.4970703125, 1.376220703125, 0.0222930908203125, 1.49853515625
96492, 0.005099769216030836, -0.0261211134493351, -0.004805525299161673, 0.00032129112514667213, -3.2350981200579554e-05, -0.007525729015469551, 0.001370736863464117, -0.0002555208629928529, -0.022694075480103493, -0.8618417978286743, -1.0340787172317505, 0.0538138747215271, -0.2557758147873711, -0.28509703217861215, -0.23936028287424105, 9362.0, 30146.0, 35388.0, 9362.0, 8.370248794555664, 0.03435686603188515, -0.28220751881599426, -0.359090656042099, -0.07389210909605026, -0.02176068164408207, 0.9968814849853516, -0.06444485485553741, 0.014162063598632812, 1.4970703125, 1.3740234375, 0.0210723876953125, 1.49853515625
96502, 0.004887765273451805, -0.023064706474542618, -0.0067251985892653465, 0.00032129112514667213, -3.2350981200579554e-05, -0.007525729015469551, 0.001370736863464117, -0.0002555208629928529, -0.022694075480103493, -0.8618385791778564, -1.0340733528137207, 0.05379451811313629, -0.25301530949124346, -0.28163341233650385, -0.23739560940841486, 9362.0, 30146.0, 35388.0, 9362.0, 8.370248794555664, -0.0002686209627427161, 0.34750357270240784, -0.28334638476371765, -0.07454971224069595, -0.022124536335468292, 0.9979448914527893, -0.06444485485553741, 0.014162063598632812, 1.4970703125, 1.324951171875, 0.0236663818359375, 1.48681640625
96512, 0.005128259304910898, -0.02487228810787201, -0.007183964364230633, 0.0003495540586300194, -3.762611231650226e-05, -0.007986470125615597, 0.0014570208732038736, -0.0002723093784879893, -0.023348737508058548, -0.8618447780609131, -1.0340805053710938, 0.05382709205150604, -0.2549093363402889, -0.290645288647454, -0.22823198930840882, 9362.0, 30146.0, 35388.0, 9362.0, 8.370248794555664, -0.21476925909519196, -0.043650731444358826, 0.016162248328328133, -0.07337839901447296, -0.02237093448638916, 0.997012734413147, -0.06444485485553741, 0.014162063598632812, 1.4970703125, 1.38427734375, 0.027099609375, 1.48681640625
96522, 0.004809012170881033, -0.024711672216653824, -0.006535778287798166, 0.0003495540586300194, -3.762611231650226e-05, -0.007986470125615597, 0.0014570208732038736, -0.0002723093784879893, -0.023348737508058548, -0.8618404865264893, -1.0340763330459595, 0.05380788818001747, -0.25446623505000576, -0.2798315527793136, -0.23600779003818217, 9362.0, 30146.0, 35388.0, 9362.0, 8.370248794555664, 0.20853906869888306, 0.1133856400847435, 0.05382145568728447, -0.07286999374628067, -0.022731151431798935, 0.998094379901886, -0.06444485485553741, 0.014162063598632812, 1.4970703125, 1.38427734375, 0.027099609375, 1.48681640625
96532, 0.006081551779061556, -0.023686755448579788, -0.006843957584351301, 0.0003495540586300194, -3.762611231650226e-05, -0.007986470125615597, 0.0014570208732038736, -0.0002723093784879893, -0.023348737508058548, -0.8618432879447937, -1.0340726375579834, 0.05380964279174805, -0.2561330780748176, -0.2889045189406261, -0.23980685552269748, 9362.0, 30146.0, 35388.0, 9362.0, 8.370248794555664, 0.04409258812665939, -0.027491731569170952, -0.0618353895843029, -0.07377571612596512, -0.022514672949910164, 0.9972085356712341, -0.06444485485553741, 0.014162063598632812, 1.4970703125, 1.38427734375, 0.027099609375, 1.48681640625
96552, 0.007170245051383972, -0.02443847246468067, -0.009093365631997585, 0.00041111133759841323, -4.920523497276008e-05, -0.00893842987716198, 0.0016215534415096045, -0.0003080327296629548, -0.024308672174811363, -0.8618535995483398, -1.034082293510437, 0.05380526930093765, -0.2550965655461538, -0.2804876259507978, -0.24450767265257525, 9362.0, 30146.0, 35388.0, 9362.0, 8.370248794555664, 0.2750478982925415, -0.22350437939167023, -0.1304049789905548, -0.07320839166641235, -0.021661514416337013, 0.9955377578735352, -0.06444485485553741, 0.014162063598632812, 1.4970703125, 1.38427734375, 0.027099609375, 1.493408203125
96562, 0.007645301520824432, -0.0238001998513937, -0.009674344211816788, 0.00041111133759841323, -4.920523497276008e-05, -0.00893842987716198, 0.0016215534415096045, -0.0003080327296629548, -0.024308672174811363, -0.861850917339325, -1.0340726375579834, 0.05381209775805473, -0.25981257338926367, -0.28305838009677586, -0.24008397464600784, 9362.0, 30146.0, 35388.0, 9362.0, 8.370248794555664, 0.04602091386914253, 0.3079914450645447, 0.15903513133525848, -0.07320839166641235, -0.021661514416337013, 0.9955377578735352, -0.06444485485553741, 0.014162063598632812, 1.4970703125, 1.38427734375, 0.027099609375, 1.493408203125
96572, 0.008093014359474182, -0.02681262232363224, -0.00892926286906004, 0.00041111133759841323, -4.920523497276008e-05, -0.00893842987716198, 0.0016215534415096045, -0.0003080327296629548, -0.024308672174811363, -0.8618385791778564, -1.0340851545333862, 0.05382353812456131, -0.2510934649730134, -0.2865988653290401, -0.24085757436056512, 9362.0, 30146.0, 35388.0, 9362.0, 8.370248794555664, 0.22816340625286102, 0.17211684584617615, 0.08676213771104813, -0.07320839166641235, -0.021661514416337013, 0.9955377578735352, -0.06444485485553741, 0.014162063598632812, 1.4970703125, 1.38427734375, 0.027099609375, 1.493408203125
96602, 0.009320707991719246, -0.031868740916252136, -0.010427179746329784, 0.00041111133759841323, -4.920523497276008e-05, -0.00893842987716198, 0.0016215534415096045, -0.0003080327296629548, -0.024308672174811363, -0.861839771270752, -1.0340819358825684, 0.053811654448509216, -0.25172633699916463, -0.2879058928974132, -0.2317201374642853, 9362.0, 30146.0, 35388.0, 9362.0, 8.370248794555664, 0.1428542137145996, -0.0062051797285676, -0.11153963953256607, -0.07320839166641235, -0.021661514416337013, 0.9955377578735352, -0.06444485485553741, 0.014162063598632812, 1.4970703125, 1.38427734375, 0.027099609375, 1.493408203125
96622, 0.010080968961119652, -0.031123897060751915, -0.009893587790429592, 0.0005160001455806196, -6.98838266544044e-05, -0.01046097744256258, 0.0018862818833440542, -0.000385711551643908, -0.02616135962307453, -0.8618059158325195, -1.0341044664382935, 0.053810060024261475, -0.2641704981953319, -0.2711138277589953, -0.25137068918384314, 9362.0, 30146.0, 35388.0, 9362.0, 8.390083312988281, -0.07270140945911407, 0.34194624423980713, 0.02097349427640438, -0.07115945965051651, -0.02172311395406723, 0.9983258247375488, -0.06444485485553741, 0.014162063598632812, 1.4970703125, 1.38427734375, 0.027099609375, 1.493408203125
96632, 0.009913208894431591, -0.03281591460108757, -0.009316988289356232, 0.0005160001455806196, -6.98838266544044e-05, -0.01046097744256258, 0.0018862818833440542, -0.000385711551643908, -0.02616135962307453, -0.8618150949478149, -1.0341079235076904, 0.05380437150597572, -0.26932104658255157, -0.27475954690049775, -0.2439903293168029, 9362.0, 30146.0, 35388.0, 9362.0, 8.390083312988281, -0.07769563794136047, 0.35724037885665894, -0.11517972499132156, -0.07188497483730316, -0.02200349234044552, 0.99736088514328, -0.06444485485553741, 0.014162063598632812, 1.4970703125, 1.3388671875, 0.017120361328125, 1.493408203125
96642, 0.010192377492785454, -0.03494204580783844, -0.010248914361000061, 0.0005160001455806196, -6.98838266544044e-05, -0.01046097744256258, 0.0018862818833440542, -0.000385711551643908, -0.02616135962307453, -0.8618261218070984, -1.0341085195541382, 0.053816404193639755, -0.26781761315873603, -0.27834445934431074, -0.24305412668827497, 9362.0, 30146.0, 35388.0, 9362.0, 8.390083312988281, -0.0994531586766243, 0.02828802913427353, -0.25092339515686035, -0.07324185967445374, -0.020914124324917793, 0.9958662986755371, -0.06444485485553741, 0.014162063598632812, 1.4970703125, 1.31689453125, 0.0298919677734375, 1.493408203125
96652, 0.008932990953326225, -0.03722577914595604, -0.011555280536413193, 0.0005957288085483015, -8.663222979521379e-05, -0.011535624973475933, 0.0021017177496105433, -0.00045258839963935316, -0.027429688721895218, -0.8617987632751465, -1.0341085195541382, 0.053790383040905, -0.2698985943317425, -0.288109164785908, -0.24414377804783244, 9362.0, 30146.0, 35388.0, 9362.0, 8.390083312988281, 0.13646535575389862, 0.23832453787326813, 0.12162602692842484, -0.07430797815322876, -0.019595559686422348, 0.9969848990440369, -0.06444485485553741, 0.014162063598632812, 1.4970703125, 1.3330078125, 0.0191650390625, 1.493408203125
96662, 0.009481070563197136, -0.03893320634961128, -0.010767546482384205, 0.0006170439883135259, -9.124509961111471e-05, -0.011811753734946251, 0.002161302836611867, -0.0004699943237937987, -0.02779572643339634, -0.8618074059486389, -1.0340983867645264, 0.05381116271018982, -0.2670259986366246, -0.28334406928016165, -0.24128219203343815, 9362.0, 30146.0, 35388.0, 9362.0, 8.390083312988281, 0.24491290748119354, 0.19365888833999634, -0.1535283476114273, -0.07232637703418732, -0.022419514134526253, 0.9959557056427002, -0.06444485485553741, 0.014162063598632812, 1.4970703125, 1.367431640625, 0.0183258056640625, 1.493408203125
96672, 0.010707743465900421, -0.04014205187559128, -0.011607946828007698, 0.0006389745976775885, -9.602132195141166e-05, -0.012091388925909996, 0.0022248090244829655, -0.0004852455167565495, -0.028130922466516495, -0.8618008494377136, -1.0341004133224487, 0.05381800979375839, -0.27248179607561124, -0.27894772772819465, -0.24931759818986773, 9362.0, 30146.0, 35388.0, 9362.0, 8.390083312988281, 0.12382455170154572, 0.08610967546701431, 0.010886350646615028, -0.07345649600028992, -0.02219899371266365, 0.9971623420715332, -0.06444485485553741, 0.014162063598632812, 1.4970703125, 1.364501953125, 0.0173492431640625, 1.493408203125
96682, 0.012037870474159718, -0.0412898026406765, -0.01176072470843792, 0.0006615548045374453, -0.0001009547122521326, -0.012374455109238625, 0.0022912200074642897, -0.000501426518894732, -0.028481904417276382, -0.8618112206459045, -1.0340962409973145, 0.05377810820937157, -0.2737297951741474, -0.29772934839886034, -0.24607756643144646, 9362.0, 30146.0, 35388.0, 9362.0, 8.390083312988281, 0.0020404988899827003, 0.17138279974460602, 0.009671071544289589, -0.07385729253292084, -0.022536465898156166, 0.9991940259933472, -0.06444485485553741, 0.014162063598632812, 1.4970703125, 1.364501953125, 0.0173492431640625, 1.493408203125
96692, 0.011726588942110538, -0.041020870208740234, -0.012874899432063103, 0.0006615548045374453, -0.0001009547122521326, -0.012374455109238625, 0.0022912200074642897, -0.000501426518894732, -0.028481904417276382, -0.8618006110191345, -1.0340977907180786, 0.053805798292160034, -0.268621849861845, -0.28358918686794254, -0.24111038456667497, 9362.0, 30146.0, 35388.0, 9362.0, 8.390083312988281, -0.08585724979639053, -0.10849376767873764, -0.27291250228881836, -0.0715772956609726, -0.023082954809069633, 0.9988744854927063, -0.06444485485553741, 0.014162063598632812, 1.4970703125, 1.31396484375, 0.0325469970703125, 1.493408203125
96702, 0.011778831481933594, -0.04084067791700363, -0.014983593486249447, 0.0006615548045374453, -0.0001009547122521326, -0.012374455109238625, 0.0022912200074642897, -0.000501426518894732, -0.028481904417276382, -0.861801028251648, -1.034097671508789, 0.05377062410116196, -0.27382063653879846, -0.2910941902373452, -0.24886546414713193, 9362.0, 30146.0, 35388.0, 9362.0, 8.390083312988281, 0.03072798252105713, 0.1760118156671524, 0.21543008089065552, -0.07468817383050919, -0.02281240001320839, 0.9952842593193054, -0.06444485485553741, 0.014162063598632812, 1.4970703125, 1.373291015625, 0.0207366943359375, 1.493408203125
96712, 0.012271679937839508, -0.040824469178915024, -0.013598141260445118, 0.0006615548045374453, -0.0001009547122521326, -0.012374455109238625, 0.0022912200074642897, -0.000501426518894732, -0.028481904417276382, -0.8617907762527466, -1.0340899229049683, 0.053791068494319916, -0.2792957063318619, -0.291062477088019, -0.25315559357325257, 9362.0, 30146.0, 35388.0, 9362.0, 8.390083312988281, 0.06864744424819946, 0.3408326208591461, -0.14044032990932465, -0.07468817383050919, -0.02281240001320839, 0.9952842593193054, -0.06444485485553741, 0.014162063598632812, 1.4970703125, 1.36962890625, 0.01910400390625, 1.493408203125
96722, 0.013223761692643166, -0.04568774625658989, -0.013951155357062817, 0.0006615548045374453, -0.0001009547122521326, -0.012374455109238625, 0.0022912200074642897, -0.000501426518894732, -0.028481904417276382, -0.8618091940879822, -1.0340933799743652, 0.05382228642702103, -0.27260903502034073, -0.2785119336443813, -0.2517141054062349, 9362.0, 30146.0, 35388.0, 9362.0, 8.390083312988281, -0.034964997321367264, 0.11927472800016403, -0.07025109976530075, -0.07211389392614365, -0.022074922919273376, 0.9963677525520325, -0.06444485485553741, 0.014162063598632812, 1.4970703125, 1.36962890625, 0.01910400390625, 1.493408203125
96732, 0.012677774764597416, -0.045817628502845764, -0.013862879015505314, 0.0007848170353099704, -0.0001284781756112352, -0.013825969770550728, 0.0026396785397082567, -0.0006014154059812427, -0.02983580343425274, -0.861802339553833, -1.034088134765625, 0.053802650421857834, -0.27508857250864255, -0.2770439365363586, -0.24670578647288896, 9362.0, 30146.0, 35388.0, 9362.0, 8.390083312988281, 0.12190599739551544, 0.0303480364382267, -0.1261235922574997, -0.07224485278129578, -0.021923359483480453, 0.999761700630188, -0.06444485485553741, 0.014162063598632812, 1.4970703125, 1.36962890625, 0.01910400390625, 1.493408203125
96742, 0.012957939878106117, -0.04429418966174126, -0.014948477037250996, 0.0007848170353099704, -0.0001284781756112352, -0.013825969770550728, 0.0026396785397082567, -0.0006014154059812427, -0.02983580343425274, -0.8618005514144897, -1.034091830253601, 0.053778063505887985, -0.2783754136088406, -0.28706683614805684, -0.24424376949210394, 9362.0, 30146.0, 35388.0, 9362.0, 8.390083312988281, -0.028558984398841858, -0.3574710488319397, -0.22171813249588013, -0.07198667526245117, -0.021612094715237617, 0.9999464750289917, -0.06444485485553741, 0.014162063598632812, 1.4970703125, 1.34912109375, 0.015380859375, 1.493408203125
96752, 0.011985198594629765, -0.04486522078514099, -0.015682432800531387, 0.0007848170353099704, -0.0001284781756112352, -0.013825969770550728, 0.0026396785397082567, -0.0006014154059812427, -0.02983580343425274, -0.8618060350418091, -1.034092903137207, 0.05382433906197548, -0.27780049702381104, -0.27951204308425304, -0.24490886811772902, 9362.0, 30146.0, 35388.0, 9362.0, 8.390083312988281, -0.057209208607673645, 0.31751319766044617, 0.0828082412481308, -0.07222004234790802, -0.02049197442829609, 0.9951978325843811, -0.06444485485553741, 0.014162063598632812, 1.4970703125, 1.34912109375, 0.015380859375, 1.493408203125
96772, 0.011577646248042583, -0.046174392104148865, -0.016372932121157646, 0.0007848170353099704, -0.0001284781756112352, -0.013825969770550728, 0.0026396785397082567, -0.0006014154059812427, -0.02983580343425274, -0.8617987632751465, -1.0340937376022339, 0.053833816200494766, -0.2719611300311125, -0.285116966213792, -0.24124366546259135, 9362.0, 30146.0, 35388.0, 9362.0, 8.390083312988281, 0.0002708412357605994, -0.04492616280913353, -0.0006930332747288048, -0.07454372942447662, -0.021230004727840424, 0.9977039694786072, -0.06444485485553741, 0.014162063598632812, 1.4970703125, 1.34912109375, 0.015380859375, 1.496337890625
96782, 0.012816025875508785, -0.04540777578949928, -0.01854502223432064, 0.0007848170353099704, -0.0001284781756112352, -0.013825969770550728, 0.0026396785397082567, -0.0006014154059812427, -0.02983580343425274, -0.8617950081825256, -1.034095287322998, 0.05378716439008713, -0.2750895688796718, -0.2866030006146332, -0.2545754120182205, 9362.0, 30146.0, 35388.0, 9362.0, 8.390083312988281, 0.009891048073768616, -0.06854094564914703, 0.16495180130004883, -0.07217682152986526, -0.022006891667842865, 0.9985459446907043, -0.06444485485553741, 0.014162063598632812, 1.4970703125, 1.31689453125, 0.0298919677734375, 1.496337890625
96792, 0.013242555782198906, -0.04552510753273964, -0.017794499173760414, 0.000957168114837259, -0.00016847513325046748, -0.01565048284828663, 0.0031068362295627594, -0.0007285094470717013, -0.031011056154966354, -0.8618107438087463, -1.0340948104858398, 0.05382877588272095, -0.27361311942293887, -0.2795256876952692, -0.24830600789870094, 9362.0, 30146.0, 35388.0, 9362.0, 8.390083312988281, -0.03808007016777992, -0.009563677944242954, -0.02866193652153015, -0.07237114012241364, -0.022692322731018066, 0.9972963333129883, -0.06444485485553741, 0.014162063598632812, 1.4970703125, 1.31689453125, 0.0298919677734375, 1.496337890625
96802, 0.013768671080470085, -0.045989714562892914, -0.01637881249189377, 0.000957168114837259, -0.00016847513325046748, -0.01565048284828663, 0.0031068362295627594, -0.0007285094470717013, -0.031011056154966354, -0.8618025183677673, -1.034101963043213, 0.05381042882800102, -0.2731083160239114, -0.27825100334013086, -0.24102571934796194, 9362.0, 30146.0, 35388.0, 9362.0, 8.390083312988281, -0.007135251071304083, -0.20896141231060028, -0.5484161972999573, -0.07237114012241364, -0.022692322731018066, 0.9972963333129883, -0.06444485485553741, 0.014162063598632812, 1.4970703125, 1.417236328125, 0.058624267578125, 1.493408203125
96812, 0.014295440167188644, -0.045742493122816086, -0.018716583028435707, 0.000957168114837259, -0.00016847513325046748, -0.01565048284828663, 0.0031068362295627594, -0.0007285094470717013, -0.031011056154966354, -0.8618136048316956, -1.0341005325317383, 0.05378621071577072, -0.2678255879975643, -0.27576165832448396, -0.24766885605195393, 9362.0, 30146.0, 35388.0, 9362.0, 8.370248794555664, -0.07703633606433868, 0.043193064630031586, -0.04838738590478897, -0.07237114012241364, -0.022692322731018066, 0.9972963333129883, -0.06444485485553741, 0.014162063598632812, 1.4970703125, 1.417236328125, 0.058624267578125, 1.493408203125
96822, 0.01372436061501503, -0.046539612114429474, -0.01782997138798237, 0.000957168114837259, -0.00016847513325046748, -0.01565048284828663, 0.0031068362295627594, -0.0007285094470717013, -0.031011056154966354, -0.8617929816246033, -1.0341051816940308, 0.05378774181008339, -0.26677966867799335, -0.28369829022025783, -0.2477835412321762, 9362.0, 30146.0, 35388.0, 9362.0, 8.370248794555664, -0.10598696768283844, 0.14581727981567383, -0.024591218680143356, -0.07091429829597473, -0.021581551060080528, 0.9980859756469727, -0.06444485485553741, 0.014162063598632812, 1.4970703125, 1.417236328125, 0.058624267578125, 1.493408203125
96832, 0.013378135859966278, -0.048433613032102585, -0.01608046516776085, 0.000957168114837259, -0.00016847513325046748, -0.01565048284828663, 0.0031068362295627594, -0.0007285094470717013, -0.031011056154966354, -0.8618062138557434, -1.0340980291366577, 0.05380524322390556, -0.26840594744865914, -0.2724657724797055, -0.24173274487342764, 9362.0, 30146.0, 35388.0, 9362.0, 8.370248794555664, -0.09384468197822571, 0.09129486232995987, 0.016186388209462166, -0.07234388589859009, -0.021845204755663872, 0.9975963830947876, -0.06444485485553741, 0.014162063598632812, 1.4970703125, 1.417236328125, 0.058624267578125, 1.493408203125
96842, 0.014014266431331635, -0.04894609749317169, -0.016254447400569916, 0.000957168114837259, -0.00016847513325046748, -0.01565048284828663, 0.0031068362295627594, -0.0007285094470717013, -0.031011056154966354, -0.8618047833442688, -1.0341062545776367, 0.05377255007624626, -0.27071618793814534, -0.2824756727508202, -0.24965427490854883, 9362.0, 30146.0, 35388.0, 9362.0, 8.370248794555664, 0.16977138817310333, -0.20127959549427032, -0.2691817581653595, -0.07340666651725769, -0.020143015310168266, 0.9969736933708191, -0.06444485485553741, 0.014162063598632812, 1.4970703125, 1.417236328125, 0.058624267578125, 1.49560546875
96852, 0.014782839454710484, -0.04597531631588936, -0.01710553653538227, 0.0011576557299122214, -0.00021631272102240473, -0.01754668913781643, 0.003581116907298565, -0.0008674190030433238, -0.032277654856443405, -0.8618211150169373, -1.0341031551361084, 0.0538143552839756, -0.26074142521182825, -0.2742761099485449, -0.24419378502665845, 9362.0, 30146.0, 35388.0, 9362.0, 8.370248794555664, 0.02710368111729622, -0.11437898874282837, -0.2587561309337616, -0.07252450287342072, -0.022944549098610878, 0.9995853900909424, -0.06444485485553741, 0.014162063598632812, 1.4970703125, 1.417236328125, 0.058624267578125, 1.49560546875
96862, 0.015319867990911007, -0.04571853578090668, -0.02012893743813038, 0.0011576557299122214, -0.00021631272102240473, -0.01754668913781643, 0.003581116907298565, -0.0008674190030433238, -0.032277654856443405, -0.861797571182251, -1.0341126918792725, 0.053784944117069244, -0.2701707395788728, -0.2812288649832908, -0.24957492742630633, 9362.0, 30146.0, 35388.0, 9362.0, 8.370248794555664, -0.0743497759103775, 0.20666220784187317, 0.23567689955234528, -0.07252450287342072, -0.022944549098610878, 0.9995853900909424, -0.06444485485553741, 0.014162063598632812, 1.4970703125, 1.417236328125, 0.058624267578125, 1.49560546875
96872, 0.014040841720998287, -0.04610805958509445, -0.01941256783902645, 0.0011576557299122214, -0.00021631272102240473, -0.01754668913781643, 0.003581116907298565, -0.0008674190030433238, -0.032277654856443405, -0.8618089556694031, -1.0341023206710815, 0.053784456104040146, -0.275347334952546, -0.2811003933871632, -0.2516346924220525, 9362.0, 30146.0, 35388.0, 9362.0, 8.370248794555664, -0.21435041725635529, -0.5214686393737793, -0.2853202521800995, -0.07436800003051758, -0.01977461948990822, 0.9991025328636169, -0.06444485485553741, 0.014162063598632812, 1.4970703125, 1.417236328125, 0.058624267578125, 1.49560546875
96882, 0.012955572456121445, -0.04226743429899216, -0.02218017354607582, 0.0011576557299122214, -0.00021631272102240473, -0.01754668913781643, 0.003581116907298565, -0.0008674190030433238, -0.032277654856443405, -0.8618202805519104, -1.034106731414795, 0.05378858372569084, -0.27092317604797544, -0.27970230103233007, -0.24704515952976833, 9362.0, 30146.0, 35388.0, 9362.0, 8.370248794555664, -0.14858993887901306, 0.5984882116317749, 0.3188416659832001, -0.07400684058666229, -0.02154342457652092, 0.9969810843467712, -0.06444485485553741, 0.014162063598632812, 1.4970703125, 1.37548828125, 0.021820068359375, 1.49560546875
