timeTick, roll, pitch, yaw, stateX, stateY, stateZ, stateVX, stateVY, stateVZ, otX0, otY0, otZ0, otRoll0, otPitch0, otYaw0, left wing, pitch motor, yaw motor, right wing, voltage, roll rate, pitch rate, yaw rate, A_x, A_y, A_z, current, i_raw, v_raw, airflow_voltage, airflow_speed, pot_Pitch
40054, 0.0012752541806548834, -0.0004871988494414836, -0.0022687797900289297, 0, 0, 0, 0, 0, 0, -0.7809513807296753, -0.9889509081840515, 0.05600810796022415, -2.2244634031968213, 0.7131367547027878, -175.42298612923153, 0, 0, 0, 0, 0, 0, 0, 0, 0, 0, 0, 0, 0, 0, 0, 0, 0
40064, 0.00043390272185206413, -0.00010047674004454166, -0.00392884062603116, 4.490821936542488e-09, -1.1756205786639384e-08, 5.038530798628926e-05, 8.599188845437311e-07, -2.2586445993511006e-06, 0.004997496958822012, -0.7809372544288635, -0.9889509081840515, 0.056013017892837524, -2.2189838973598865, 0.7171261875789412, -175.41848580514056, 9362.0, 30146.0, 35388.0, 9362.0, 0, -0.12718884646892548, 0.21772290766239166, -0.05260162428021431, -0.0842740535736084, -0.024771343916654587, 1.026151418685913, 0, 0, 0, 0, 0, 0
40074, -0.0007446117815561593, -0.0008996629039756954, -0.005074953660368919, 1.3972656809357886e-08, -3.815549121100048e-08, 0.00011332804569974542, 1.0726164418883855e-06, -2.9678658393095247e-06, 0.00759144639596343, -0.7822486162185669, -0.9883347153663635, 0.05581200122833252, -1.7372074072449517, -0.06779204672710648, -175.24781878564883, 9362.0, 30146.0, 35388.0, 9362.0, 0, 0.3546750843524933, -0.16848453879356384, 0.04613935574889183, -0.08244980871677399, -0.026065362617373466, 1.024523377418518, 0, 0, 0, 1.401123046875, 0.041015625, 0
40084, 0.00048741771024651825, -0.0013074453454464674, -0.0033002172131091356, 3.259150815893008e-08, -6.130291296813084e-08, 0.00020135700469836593, 2.6683539999794448e-06, -1.713674123493547e-06, 0.010014745406806469, -0.7809348106384277, -0.988943338394165, 0.0560346394777298, -2.223253474650526, 0.7186434279903722, -175.41534797550375, 9362.0, 30146.0, 35388.0, 9362.0, 0, -0.16888299584388733, -0.04185176268219948, -0.08297529816627502, -0.08357462286949158, -0.023535219952464104, 1.0260363817214966, 0, 0, 0, 1.446533203125, 0.09930419921875, 1.49853515625
40094, -0.0005315621383488178, 0.0001406494848197326, -0.004158542025834322, 7.075265529010721e-08, -8.27192678798383e-08, 0.00031399406725540757, 4.900728981738212e-06, -2.5252018076571403e-06, 0.012513061054050922, -0.7809352874755859, -0.9889519214630127, 0.055870622396469116, -2.2201045880132866, 0.7060134121691988, -175.41185641541387, 9362.0, 30146.0, 35388.0, 9362.0, 0, -0.046135783195495605, -0.14078892767429352, -0.14495429396629333, -0.08322003483772278, -0.024547284469008446, 1.02412748336792, 0, 0, 0, 1.4736328125, 0.1452178955078125, 1.49853515625
40104, -0.00029929191805422306, 0.0019613662734627724, -0.0048347460106015205, 1.1852666403910916e-07, -1.0330895605648038e-07, 0.00045115628745406866, 4.577614163281396e-06, -1.6024839624151355e-06, 0.014919785782694817, -0.7809401154518127, -0.9889563918113708, 0.05588746815919876, -2.22521522849005, 0.7054451581009289, -175.40090998904856, 9362.0, 30146.0, 35388.0, 9362.0, 0, -0.30475810170173645, 0.30455395579338074, 0.10490068048238754, -0.08542521297931671, -0.02315763756632805, 1.0262668132781982, 0, 0, 0, 1.469970703125, 0.1386566162109375, 1.493408203125
40114, -0.0013704467564821243, -0.0003101143811363727, -0.003726385300979018, 1.4707696038840368e-07, -1.1670375954508927e-07, 0.0006130640977062285, 1.233218313245743e-06, -1.0290319778505364e-06, 0.01746217906475067, -0.780972421169281, -0.988896906375885, 0.0559873953461647, -2.2133667433232835, 0.7229503374595936, -175.3729651917862, 9362.0, 30146.0, 35388.0, 9362.0, 0, 0.011876995675265789, -0.10272854566574097, -0.08710704743862152, -0.08645734190940857, -0.02236648090183735, 1.027132272720337, 0, 0, 0, 1.44287109375, 0.0936279296875, 1.493408203125
40124, -0.0005296149756759405, 0.0006414931849576533, -0.0036549835931509733, 1.6213414255616954e-07, -1.1495554019802512e-07, 0.000800501846242696, 1.735641035338631e-06, 1.3410647170530865e-06, 0.020025763660669327, -0.7809411287307739, -0.988950252532959, 0.056014534085989, -2.2287220272201402, 0.7154039070817646, -175.42196905590566, 9362.0, 30146.0, 35388.0, 9362.0, 0, -0.010711727663874626, -0.20184382796287537, -0.11273957043886185, -0.08349864184856415, -0.026378171518445015, 1.0270012617111206, 0, 0, 0, 1.430419921875, 0.0756378173828125, 1.489013671875
40134, -0.000397053750930354, 0.001453524804674089, -0.005615900736302137, 1.7384695638611447e-07, -9.688496049875539e-08, 0.0010143495164811611, 5.684343022949179e-07, 2.2668000383418985e-06, 0.022744186222553253, -0.7809463143348694, -0.988967776298523, 0.05584210902452469, -2.2320646870970875, 0.7253888251256342, -175.420241155831, 9362.0, 30146.0, 35388.0, 9362.0, 0, -0.0005934765795245767, -0.0713137611746788, 0.16132566332817078, -0.08236705511808395, -0.02666335366666317, 1.0253547430038452, 0, 0, 0, 1.445068359375, 0.0970306396484375, 1.489013671875
40144, -0.0016592189203947783, 0.003405296942219138, -0.005162563640624285, 1.6676602854204248e-07, -7.072858210221966e-08, 0.0012544916244223714, -2.0711388515337603e-06, 3.020417125298991e-06, 0.02528463304042816, -0.7822219729423523, -0.9884403347969055, 0.05580824613571167, -1.7887114929945112, -0.06649305465754196, -175.290284606685, 9362.0, 30146.0, 35388.0, 9362.0, 0, 0.11131980270147324, 0.1293858140707016, 0.17569975554943085, -0.08280406892299652, -0.025926532223820686, 1.0257123708724976, 0, 0, 0, 1.453857421875, 0.1110687255859375, 1.493408203125
40154, -0.0021576278377324343, 0.0030891511123627424, -0.00466528395190835, 1.161551494988089e-07, -2.595268711047538e-08, 0.001519932528026402, -8.037161933316384e-06, 5.956618679192616e-06, 0.02780393697321415, -0.7809527516365051, -0.9889547228813171, 0.05599704384803772, -2.2202439241169794, 0.7051398959700919, -175.4134779386244, 9362.0, 30146.0, 35388.0, 9362.0, 8.370248794555664, 0.12661360204219818, 0.1690608263015747, -0.08478602021932602, -0.08266478776931763, -0.026010340079665184, 1.025563359260559, -0.07764097303152084, -0.15607833862304688, 1.483154296875, 1.3798828125, 0.0243377685546875, 1.493408203125
40164, -0.00190801324788481, 0.0025366139598190784, -0.00570792518556118, 8.675790752477042e-09, 5.25502343862172e-08, 0.001810278045013547, -1.3434907486953307e-05, 9.733344086271245e-06, 0.030265575274825096, -0.7822341918945312, -0.988416850566864, 0.05582057312130928, -1.7745438866204961, -0.07364501385197286, -175.28530371285717, 9362.0, 30146.0, 35388.0, 9362.0, 8.370248794555664, 0.11308977752923965, 0.026910513639450073, 0.17524456977844238, -0.08258352428674698, -0.025594284757971764, 1.0258071422576904, -0.07764097303152084, -0.15607833862304688, 1.483154296875, 1.449462890625, 0.103973388671875, 1.496337890625
40174, -0.0022655674256384373, 0.0018142263870686293, -0.005727823358029127, -1.479552338423673e-07, 1.666473394834611e-07, 0.0021257640328258276, -1.785894710337743e-05, 1.3102087905281223e-05, 0.03283200040459633, -0.7809512615203857, -0.9889598488807678, 0.055834755301475525, -2.223056472785652, 0.7246400708092153, -175.42066574228642, 9362.0, 30146.0, 35388.0, 9362.0, 8.370248794555664, -0.007084212731570005, 0.09625358879566193, 0.2537795603275299, -0.08184028416872025, -0.02457346022129059, 1.0255136489868164, -0.07764097303152084, -0.15607833862304688, 1.483154296875, 1.4619140625, 0.1246185302734375, 1.496337890625
40184, -0.0014339098706841469, 0.0012660447973757982, -0.005154324229806662, -3.42475175330037e-07, 3.175658775944612e-07, 0.002466751728206873, -2.1020847270847298e-05, 1.70448147400748e-05, 0.03536594659090042, -0.7809423208236694, -0.9889572262763977, 0.055991560220718384, -2.2301071327994753, 0.7094408154357552, -175.42166764032257, 9362.0, 30146.0, 35388.0, 9362.0, 8.370248794555664, 0.020142214372754097, -0.03979598358273506, 0.15396498143672943, -0.08234772086143494, -0.02581946738064289, 1.0269358158111572, -0.07764097303152084, -0.15607833862304688, 1.483154296875, 1.4970703125, 0.18975830078125, 1.496337890625
40194, -0.0006010737852193415, 0.0014975117519497871, -0.00498556811362505, -5.638089533022139e-07, 5.006166929888423e-07, 0.0028334460221230984, -2.325645436940249e-05, 1.9527460608514957e-05, 0.03797332942485809, -0.7809461355209351, -0.9889699220657349, 0.05585261434316635, -2.230484843715495, 0.7207481971857135, -175.41723467912416, 9362.0, 30146.0, 35388.0, 9362.0, 8.370248794555664, -0.04470289871096611, 0.15000534057617188, -0.24635764956474304, -0.08422016352415085, -0.02500208094716072, 1.0277732610702515, -0.07764097303152084, -0.15607833862304688, 1.483154296875, 1.452392578125, 0.10870361328125, 1.496337890625
40204, -0.0002389939472777769, 0.0003383243456482887, -0.005821692757308483, -8.095445878097962e-07, 7.011792604316724e-07, 0.0032266308553516865, -2.5836241547949612e-05, 2.056809353234712e-05, 0.04066403955221176, -0.7822554111480713, -0.9884175062179565, 0.0558093823492527, -1.7689141468019345, -0.09457687424483652, -175.2907150885378, 9362.0, 30146.0, 35388.0, 9362.0, 8.370248794555664, -0.01580863632261753, 0.48721784353256226, -0.11219664663076401, -0.08355040103197098, -0.023055080324411392, 1.0265891551971436, -0.07764097303152084, -0.15607833862304688, 1.483154296875, 1.395263671875, 0.035675048828125, 1.49560546875
40214, 0.0002962872094940394, -0.003217238700017333, -0.0062674060463905334, -1.0708798754421878e-06, 9.089606578527309e-07, 0.0036462631542235613, -2.6269603040418588e-05, 2.0963914721505716e-05, 0.04326281696557999, -0.7809360027313232, -0.9889513254165649, 0.05598423257470131, -2.2254351434457105, 0.7038880879214844, -175.41631911373915, 9362.0, 30146.0, 35388.0, 9362.0, 8.370248794555664, -0.15876629948616028, -0.1763431578874588, 0.09208174794912338, -0.0829792395234108, -0.023959342390298843, 1.0254888534545898, -0.07764097303152084, -0.15607833862304688, 1.483154296875, 1.474365234375, 0.14654541015625, 1.49560546875
40224, 0.0007540296064689755, -0.0017433937173336744, -0.00643963273614645, -1.3053239626970026e-06, 1.115994905376283e-06, 0.004091533366590738, -2.0684243281721137e-05, 2.0422725356183946e-05, 0.04579164832830429, -0.7809322476387024, -0.9889612197875977, 0.055798426270484924, -2.219947183173519, 0.7344582239035446, -175.4180251112667, 9362.0, 30146.0, 35388.0, 9362.0, 8.370248794555664, 0.04354649782180786, -0.03176802024245262, -0.1294076144695282, -0.08156663924455643, -0.025685053318738937, 1.026196002960205, -0.07764097303152084, -0.15607833862304688, 1.483154296875, 1.3740234375, 0.0210723876953125, 1.493408203125
40234, 0.0010230778716504574, -0.001564127509482205, -0.007569995243102312, -1.4968533150749863e-06, 1.3135970675648423e-06, 0.004562229383736849, -1.7629652575124055e-05, 1.908565900521353e-05, 0.048347968608140945, -0.7809297442436218, -0.9889541268348694, 0.05599603056907654, -2.2308961788309736, 0.7192581790172028, -175.41614002907968, 9362.0, 30146.0, 35388.0, 9362.0, 8.370248794555664, -0.05958486348390579, 0.18634964525699615, 0.3822292685508728, -0.08426416665315628, -0.025142397731542587, 1.0253641605377197, -0.07764097303152084, -0.15607833862304688, 1.483154296875, 1.458984375, 0.1195831298828125, 1.493408203125
40244, 0.0013558364007622004, -0.003878770163282752, -0.004734683781862259, -1.6594201497355243e-06, 1.495470655754616e-06, 0.005058183800429106, -1.4782885955355596e-05, 1.7274656784138642e-05, 0.050843290984630585, -0.7809571027755737, -0.9888694286346436, 0.05597638711333275, -2.2055945233198333, 0.7044023828328818, -175.35500131608123, 9362.0, 30146.0, 35388.0, 9362.0, 8.370248794555664, -0.018127864226698875, 0.08562937378883362, 0.08660483360290527, -0.08364450931549072, -0.023196609690785408, 1.027659296989441, -0.07764097303152084, -0.15607833862304688, 1.483154296875, 1.44140625, 0.0914459228515625, 1.49267578125
40254, 0.0009175365557894111, -0.0044021024368703365, -0.00377078540623188, -1.7731472325976938e-06, 1.6562937616981799e-06, 0.005579869728535414, -7.93827621237142e-06, 1.4910327990946826e-05, 0.053494296967983246, -0.7809439301490784, -0.988968551158905, 0.055846162140369415, -2.2285972416807476, 0.7168956376897881, -175.41694414532225, 9362.0, 30146.0, 35388.0, 9362.0, 8.370248794555664, 0.12413476407527924, -0.015657540410757065, -0.34353700280189514, -0.08412162214517593, -0.026522217318415642, 1.0250855684280396, -0.09088696539402008, -0.09335899353027344, 1.48828125, 1.477294921875, 0.1519775390625, 1.49267578125
40264, 0.002858210587874055, -0.005208415910601616, -0.005914647597819567, -1.8138445057047647e-06, 1.7973311514651868e-06, 0.006127830594778061, -1.645963720875443e-07, 1.3208712516643573e-05, 0.056098319590091705, -0.7809562087059021, -0.9888682961463928, 0.0559932142496109, -2.1998376498967316, 0.701956122172021, -175.35536818431132, 9362.0, 30146.0, 35388.0, 9362.0, 8.370248794555664, -0.02431240864098072, -0.19429227709770203, -0.3410778045654297, -0.08149559050798416, -0.026061374694108963, 1.0262128114700317, -0.09088696539402008, -0.09335899353027344, 1.48828125, 1.44287109375, 0.0936279296875, 1.4912109375
40274, 0.0030257017351686954, -0.003340057097375393, -0.007320828270167112, -1.7697691419016337e-06, 1.9043218344449997e-06, 0.006701303645968437, 8.898115993360989e-06, 8.181886187230702e-06, 0.0585966594517231, -0.7809398174285889, -0.988925039768219, 0.056019533425569534, -2.213826817145536, 0.6726685754305777, -175.39340432717145, 9362.0, 30146.0, 35388.0, 9362.0, 8.370248794555664, 0.1324615776538849, -0.0068710981868207455, 0.03391251713037491, -0.08211579918861389, -0.02726696990430355, 1.0254791975021362, -0.09088696539402008, -0.09335899353027344, 1.48828125, 1.420166015625, 0.0621337890625, 1.4912109375
40284, 0.002788460347801447, -0.003183697583153844, -0.006191879976540804, -1.6514663911948446e-06, 1.959572045961977e-06, 0.007299812976270914, 1.4755691154277883e-05, 2.878652821891592e-06, 0.0611056387424469, -0.7809557914733887, -0.9889504909515381, 0.055988069623708725, -2.2158839117255003, 0.7053090976988017, -175.41541379271408, 9362.0, 30146.0, 35388.0, 9362.0, 8.370248794555664, 0.05177249386906624, -0.08937440812587738, -0.041914790868759155, -0.08495499938726425, -0.02772817760705948, 1.0275557041168213, -0.09088696539402008, -0.09335899353027344, 1.48828125, 1.456787109375, 0.115966796875, 1.497802734375
40294, 0.0030084261670708656, -0.0036361750680953264, -0.006966731511056423, -1.4759111763851251e-06, 1.9638307549030287e-06, 0.007924290373921394, 2.0376477550598793e-05, -2.0372795006551314e-06, 0.06379031389951706, -0.780934751033783, -0.9889204502105713, 0.05601268261671066, -2.215538799729653, 0.6846993340699328, -175.39515520524637, 9362.0, 30146.0, 35388.0, 9362.0, 8.370248794555664, -0.039225704967975616, 0.036788806319236755, -0.029939085245132446, -0.08380736410617828, -0.02577938698232174, 1.0267283916473389, -0.09088696539402008, -0.09335899353027344, 1.48828125, 1.417236328125, 0.058624267578125, 1.497802734375
40304, 0.0032140391413122416, -0.004126003012061119, -0.006850874051451683, -1.2401801541273016e-06, 1.9170038285665214e-06, 0.008575440384447575, 2.679237695701886e-05, -7.337592705880525e-06, 0.06644009053707123, -0.7809500694274902, -0.988925576210022, 0.056011684238910675, -2.213867908334728, 0.6796879689948412, -175.39459040680438, 9362.0, 30146.0, 35388.0, 9362.0, 8.370248794555664, 0.1460515707731247, -0.37642911076545715, 0.09565151482820511, -0.08149557560682297, -0.0233254823833704, 1.0263757705688477, -0.09088696539402008, -0.09335899353027344, 1.48828125, 1.376953125, 0.0225982666015625, 1.493408203125
40314, 0.003905702382326126, -0.00046548075624741614, -0.007174678146839142, -9.359780506201787e-07, 1.8153612018068088e-06, 0.009253166615962982, 3.387782635400072e-05, -1.3023122846789192e-05, 0.06910555064678192, -0.7809829115867615, -0.9888728857040405, 0.055973269045352936, -2.2083451535040877, 0.7120192682466495, -175.36978886532933, 9362.0, 30146.0, 35388.0, 9362.0, 8.370248794555664, 0.10771902650594711, 0.5561910271644592, 0.08355405181646347, -0.08322104066610336, -0.02368948422372341, 1.025420069694519, -0.09088696539402008, -0.09335899353027344, 1.48828125, 1.480224609375, 0.157379150390625, 1.493408203125
40324, 0.003650811268016696, -0.0025865123607218266, -0.006819648668169975, -5.931170790063334e-07, 1.6508366798007046e-06, 0.009956789202988148, 3.478741200524382e-05, -1.9870618416462094e-05, 0.07161939889192581, -0.7809641361236572, -0.9888604879379272, 0.05598236992955208, -2.200796836618794, 0.7064608798266079, -175.37020534234725, 9362.0, 30146.0, 35388.0, 9362.0, 8.370248794555664, -0.21761956810951233, -0.1688314527273178, -0.23609714210033417, -0.08106975257396698, -0.026613429188728333, 1.0249539613723755, -0.09088696539402008, -0.09335899353027344, 1.48828125, 1.4091796875, 0.04937744140625, 1.500732421875
40334, 0.0022491069976240396, -0.0019204396521672606, -0.007104882039129734, -2.2254843656810408e-07, 1.4200896885085967e-06, 0.010685289278626442, 3.9297683542827144e-05, -2.621862768137362e-05, 0.07408101856708527, -0.7809585928916931, -0.9889440536499023, 0.05599195882678032, -2.2205305231194608, 0.6987281783822255, -175.40818180915977, 9362.0, 30146.0, 35388.0, 9362.0, 8.370248794555664, 0.052772365510463715, 0.09476254135370255, 0.17340776324272156, -0.08418069034814835, -0.026947304606437683, 1.0249756574630737, -0.09088696539402008, -0.09335899353027344, 1.48828125, 1.477294921875, 0.1519775390625, 1.500732421875
40344, 0.0026903608813881874, -0.003583306912332773, -0.005978546105325222, 1.872799941793346e-07, 1.1381628155504586e-06, 0.011438434012234211, 4.273962622391991e-05, -3.0185681680450216e-05, 0.07654831558465958, -0.7809572219848633, -0.9889379143714905, 0.056004028767347336, -2.218941733874254, 0.7035377539727108, -175.4103641660151, 9362.0, 30146.0, 35388.0, 9362.0, 8.370248794555664, -0.06368140876293182, -0.10919836163520813, 0.030280504375696182, -0.08483996242284775, -0.0250224806368351, 1.0249089002609253, -0.09088696539402008, -0.09335899353027344, 1.48828125, 1.41064453125, 0.0509490966796875, 1.493408203125
40354, 0.003276205388829112, -0.0029425066895782948, -0.006884343922138214, 6.461237944677123e-07, 8.126899615490402e-07, 0.012216290459036827, 4.900140629615635e-05, -3.4934277209686115e-05, 0.07902337610721588, -0.7809557914733887, -0.9889565110206604, 0.055997543036937714, -2.2205890821216268, 0.7032044634634076, -175.41941900926238, 9362.0, 30146.0, 35388.0, 9362.0, 8.370248794555664, -0.037161413580179214, 0.11698626726865768, -0.03379252180457115, -0.08533123135566711, -0.028155431151390076, 1.0276035070419312, -0.06288636475801468, -0.06647872924804688, 1.490478515625, 1.445068359375, 0.0970306396484375, 1.493408203125
40364, 0.0036621817853301764, -0.005070848856121302, -0.006885952781885862, 1.1619883935054531e-06, 4.345581601228332e-07, 0.013019445352256298, 5.426744610304013e-05, -4.070949580636807e-05, 0.08160805702209473, -0.7809461951255798, -0.9889176487922668, 0.05601009726524353, -2.214366537807056, 0.6676322308726128, -175.3977941611195, 9362.0, 30146.0, 35388.0, 9362.0, 8.370248794555664, 0.1396208554506302, 0.17045855522155762, -0.34499508142471313, -0.08569803088903427, -0.026492001488804817, 1.0258607864379883, -0.06288636475801468, -0.06647872924804688, 1.490478515625, 1.406982421875, 0.046966552734375, 1.4912109375
40374, 0.00434987572953105, -0.007783620618283749, -0.00959709007292986, 1.7492309325461974e-06, -4.732129355033976e-09, 0.013848645612597466, 6.330494943540543e-05, -4.7180383262457326e-05, 0.08423245698213577, -0.7822706699371338, -0.9884425401687622, 0.05580440163612366, -1.782655508014181, -0.10796507622595186, -175.29216545278143, 9362.0, 30146.0, 35388.0, 9362.0, 8.370248794555664, 0.21302659809589386, -0.11569392681121826, -0.100873664021492, -0.08360007405281067, -0.024745918810367584, 1.0253093242645264, -0.06288636475801468, -0.06647872924804688, 1.490478515625, 1.36669921875, 0.01806640625, 1.4912109375
40384, 0.005344628356397152, -0.0074469177052378654, -0.010629819706082344, 2.4506161935278215e-06, -5.147403498995118e-07, 0.014703541062772274, 7.695720705669373e-05, -5.4865129641257226e-05, 0.08674697577953339, -0.7809399962425232, -0.9889163374900818, 0.05599498748779297, -2.2121148636047754, 0.6950395933503728, -175.39909604051107, 9362.0, 30146.0, 35388.0, 9362.0, 8.370248794555664, 0.03676487132906914, 0.05591423809528351, 0.08845766633749008, -0.08202268928289413, -0.02472660504281521, 1.0254606008529663, -0.06288636475801468, -0.06647872924804688, 1.490478515625, 1.446533203125, 0.09930419921875, 1.487548828125
40394, 0.005952019244432449, -0.00779162859544158, -0.01020718738436699, 3.2855098197615007e-06, -1.110291009354114e-06, 0.015583153814077377, 9.003619197756052e-05, -6.427064363379031e-05, 0.08917602151632309, -0.780970573425293, -0.9889587163925171, 0.055811140686273575, -2.21075933870259, 0.7021091932148238, -175.4148740837023, 9362.0, 30146.0, 35388.0, 9362.0, 8.370248794555664, 0.1559390276670456, 0.145717054605484, -0.2235913872718811, -0.08259037882089615, -0.02470078319311142, 1.0281926393508911, -0.06288636475801468, -0.06647872924804688, 1.490478515625, 1.390869140625, 0.0319671630859375, 1.487548828125
40404, 0.006663521286100149, -0.007545380853116512, -0.011645804159343243, 4.2543751987977885e-06, -1.8053461872113985e-06, 0.016488220542669296, 0.00010372515680501238, -7.477377221221104e-05, 0.09183774888515472, -0.7809441089630127, -0.9889476895332336, 0.055982109159231186, -2.232823281563345, 0.7157023962955407, -175.41286282942244, 9362.0, 30146.0, 35388.0, 9362.0, 8.370248794555664, 0.029204359278082848, -0.22978636622428894, -0.09184911847114563, -0.08372169733047485, -0.02717011421918869, 1.0268586874008179, -0.06288636475801468, -0.06647872924804688, 1.490478515625, 1.4853515625, 0.1669921875, 1.493408203125
40414, 0.0069699715822935104, -0.0065550412982702255, -0.012832464650273323, 5.358001089916797e-06, -2.6117247671209043e-06, 0.017420200631022453, 0.00011695278953993693, -8.65167603478767e-05, 0.09455860406160355, -0.7809457182884216, -0.9889070391654968, 0.055998314172029495, -2.207043325535865, 0.6906456973958655, -175.38408499501972, 9362.0, 30146.0, 35388.0, 9362.0, 8.370248794555664, -0.03469167649745941, -0.04705078899860382, -0.1919955015182495, -0.08577878773212433, -0.024408554658293724, 1.0254021883010864, -0.06288636475801468, -0.06647872924804688, 1.490478515625, 1.462646484375, 0.125823974609375, 1.493408203125
40424, 0.006641160696744919, -0.0076163834892213345, -0.013418678194284439, 6.5851018007379025e-06, -3.53813652509416e-06, 0.01837863028049469, 0.00012851471547037363, -9.875098476186395e-05, 0.09712781012058258, -0.7809461951255798, -0.9889435172080994, 0.05600491911172867, -2.2180323113021285, 0.7066888898987145, -175.4176368950388, 9362.0, 30146.0, 35388.0, 9362.0, 8.370248794555664, -0.09013433754444122, -0.06518407166004181, -0.11422884464263916, -0.08310168981552124, -0.025348296388983727, 1.0258461236953735, -0.06288636475801468, -0.06647872924804688, 1.490478515625, 1.4619140625, 0.1246185302734375, 1.493408203125
40434, 0.006310316734015942, -0.00783468596637249, -0.014895094558596611, 7.93710660218494e-06, -4.583970621752087e-06, 0.01936246082186699, 0.00014189549256116152, -0.00011040172830689698, 0.09963851422071457, -0.7809451222419739, -0.9889106750488281, 0.05601917952299118, -2.2052862416720282, 0.6811417686012646, -175.40400842946394, 9362.0, 30146.0, 35388.0, 9362.0, 8.370248794555664, -0.08829490095376968, 0.13378067314624786, 0.12686078250408173, -0.08322405815124512, -0.02693893387913704, 1.0245082378387451, -0.06288636475801468, -0.06647872924804688, 1.490478515625, 1.468505859375, 0.13604736328125, 1.493408203125
40444, 0.0060698469169437885, -0.0072348457761108875, -0.01395957637578249, 9.424791642231867e-06, -5.743374913436128e-06, 0.020371083170175552, 0.00015561618783976883, -0.00012146865628892556, 0.10208622366189957, -0.7809580564498901, -0.9889342188835144, 0.05585397034883499, -2.2097192801036236, 0.6831546962375796, -175.39868701233098, 9362.0, 30146.0, 35388.0, 9362.0, 8.370248794555664, 0.24193395674228668, 0.2165697067975998, -0.008383483625948429, -0.08292780071496964, -0.02699103392660618, 1.0254508256912231, -0.06288636475801468, -0.06647872924804688, 1.490478515625, 1.405517578125, 0.0454254150390625, 1.48681640625
40454, 0.006942414678633213, -0.007462676614522934, -0.014163040556013584, 1.1044433449569624e-05, -7.011346042418154e-06, 0.021404273808002472, 0.00016832197434268892, -0.00013216312800068408, 0.10455232858657837, -0.7809409499168396, -0.9889325499534607, 0.055991917848587036, -2.2116985734554224, 0.7096180143631159, -175.41584965046775, 9362.0, 30146.0, 35388.0, 9362.0, 8.370248794555664, 0.22236183285713196, 0.06346546113491058, 0.0014978557592257857, -0.08212496340274811, -0.026779932901263237, 1.0230884552001953, -0.07606763392686844, 0.014162063598632812, 1.4970703125, 1.3916015625, 0.0325927734375, 1.48681640625
40464, 0.007618137635290623, -0.00820901244878769, -0.015525045804679394, 1.2793074347428046e-05, -8.393866664846428e-06, 0.02246168814599514, 0.0001814367569750175, -0.00014436942001339048, 0.10693078488111496, -0.7822930216789246, -0.9884288907051086, 0.055795058608055115, -1.7807016762544752, -0.12583303773087096, -175.28271269143832, 9362.0, 30146.0, 35388.0, 9362.0, 8.370248794555664, 0.19050899147987366, -0.06678009778261185, 0.4367913603782654, -0.08308952301740646, -0.02492378279566765, 1.0255149602890015, -0.07606763392686844, 0.014162063598632812, 1.4970703125, 1.427490234375, 0.0716400146484375, 1.493408203125
40474, 0.008234606124460697, -0.00793750025331974, -0.012992115691304207, 1.4679403648187872e-05, -9.904379112413153e-06, 0.023542888462543488, 0.00019581847300287336, -0.00015775804058648646, 0.1093098372220993, -0.7809509038925171, -0.9889459609985352, 0.05599884316325188, -2.224707655638303, 0.7106141986449757, -175.41018056402666, 9362.0, 30146.0, 35388.0, 9362.0, 8.370248794555664, 0.14676222205162048, 0.39973050355911255, 0.027907781302928925, -0.08148843050003052, -0.02428009733557701, 1.025342345237732, -0.07606763392686844, 0.014162063598632812, 1.4970703125, 1.39013671875, 0.0314483642578125, 1.493408203125
40484, 0.007916519418358803, -0.011016900651156902, -0.012790270149707794, 1.6707272152416408e-05, -1.1554284355952404e-05, 0.024648606777191162, 0.0002098908444168046, -0.00017220900917891413, 0.11183441430330276, -0.7809510231018066, -0.9889262318611145, 0.05599290877580643, -2.2222812123082063, 0.72312507758636, -175.41161950302873, 9362.0, 30146.0, 35388.0, 9362.0, 8.370248794555664, 0.22148069739341736, 0.10677319765090942, -0.2966954708099365, -0.07999937236309052, -0.02468159981071949, 1.0257236957550049, -0.07606763392686844, 0.014162063598632812, 1.4970703125, 1.464111328125, 0.1283111572265625, 1.49267578125
40494, 0.008553861640393734, -0.011767406947910786, -0.014598126523196697, 1.8902852389146574e-05, -1.3345873412617948e-05, 0.02577929198741913, 0.00022925701341591775, -0.00018613676365930587, 0.11430292576551437, -0.7809656262397766, -0.9889436364173889, 0.05598435550928116, -2.2236310249259783, 0.7066838654568244, -175.41852884173238, 9362.0, 30146.0, 35388.0, 9362.0, 8.370248794555664, 0.12416701763868332, -0.056125424802303314, -0.11025601625442505, -0.08201276510953903, -0.02497698739171028, 1.0263053178787231, -0.07606763392686844, 0.014162063598632812, 1.4970703125, 1.37548828125, 0.021820068359375, 1.49267578125
40504, 0.009178689680993557, -0.011224482208490372, -0.015382417477667332, 2.1298823412507772e-05, -1.5282445019693114e-05, 0.02693537436425686, 0.0002499122638255358, -0.0002012061740970239, 0.11691401898860931, -0.7809419631958008, -0.9889419674873352, 0.05602205544710159, -2.2233360380252236, 0.7123632773039503, -175.41601592130235, 9362.0, 30146.0, 35388.0, 9362.0, 8.370248794555664, 0.17562885582447052, 0.20440204441547394, -0.5057669878005981, -0.08386893570423126, -0.024979066103696823, 1.0267950296401978, -0.07606763392686844, 0.014162063598632812, 1.4970703125, 1.48974609375, 0.1755218505859375, 1.48974609375
40514, 0.00978130754083395, -0.012679223902523518, -0.01857675425708294, 2.389658948231954e-05, -1.7375214156345464e-05, 0.028117651119828224, 0.0002697066229302436, -0.00021737646602559835, 0.11954161524772644, -0.7809300422668457, -0.9889195561408997, 0.056028664112091064, -2.2139001515012326, 0.6818547999294253, -175.40191619425863, 9362.0, 30146.0, 35388.0, 9362.0, 8.370248794555664, -0.036170121282339096, -0.3008934259414673, -0.1270926147699356, -0.08508942276239395, -0.025821853429079056, 1.0264012813568115, -0.07606763392686844, 0.014162063598632812, 1.4970703125, 1.41064453125, 0.0509490966796875, 1.48974609375
40524, 0.008871142752468586, -0.011736452579498291, -0.02062886767089367, 2.670504545676522e-05, -1.9634968339232728e-05, 0.029326051473617554, 0.00029194133821874857, -0.00023453382891602814, 0.12213876098394394, -0.7809775471687317, -0.9888502359390259, 0.05598023533821106, -2.2029920731457824, 0.7015390020572738, -175.3559042790683, 9362.0, 30146.0, 35388.0, 9362.0, 8.370248794555664, -0.04136427864432335, -0.17832764983177185, -0.49434754252433777, -0.08480684459209442, -0.025368578732013702, 1.02262544631958, -0.07606763392686844, 0.014162063598632812, 1.4970703125, 1.447998046875, 0.1016693115234375, 1.493408203125
40534, 0.008831581100821495, -0.010183054022490978, -0.025856101885437965, 2.9727325454587117e-05, -2.205811870226171e-05, 0.03055925853550434, 0.0003124494105577469, -0.0002500965492799878, 0.12450315058231354, -0.7809723019599915, -0.9889430403709412, 0.055999767035245895, -2.210305609325667, 0.7061588725610761, -175.42411633804772, 9362.0, 30146.0, 35388.0, 9362.0, 8.370248794555664, 0.03258682042360306, -0.06068038195371628, -0.03286683186888695, -0.0820566937327385, -0.024229487404227257, 1.0254594087600708, -0.07606763392686844, 0.014162063598632812, 1.4970703125, 1.446533203125, 0.09930419921875, 1.493408203125
40544, 0.008966747671365738, -0.011065720580518246, -0.026879748329520226, 2.9727325454587117e-05, -2.205811870226171e-05, 0.03055925853550434, 0.0003124494105577469, -0.0002500965492799878, 0.12450315058231354, -0.780951738357544, -0.98893803358078, 0.055987030267715454, -2.21822911374772, 0.7164118431707891, -175.41801843271836, 9362.0, 30146.0, 35388.0, 9362.0, 8.370248794555664, 0.03258682042360306, -0.06068038195371628, -0.03286683186888695, -0.0820566937327385, -0.024229487404227257, 1.0254594087600708, -0.07606763392686844, 0.014162063598632812, 1.4970703125, 1.436279296875, 0.0838775634765625, 1.493408203125
40554, 0.009927433915436268, -0.012143870815634727, -0.027497073635458946, 3.6341603845357895e-05, -2.7371355827199295e-05, 0.03309779241681099, 0.00034981174394488335, -0.0002813985920511186, 0.1294141560792923, -0.7809499502182007, -0.9889411926269531, 0.05586441606283188, -2.208556350453695, 0.6916630722657828, -175.40124064567004, 9362.0, 30146.0, 35388.0, 9362.0, 8.370248794555664, 0.16765134036540985, -0.21377912163734436, -0.3137424886226654, -0.08261176198720932, -0.02483721636235714, 1.0282212495803833, -0.07606763392686844, 0.014162063598632812, 1.4970703125, 1.48681640625, 0.1698150634765625, 1.493408203125
40574, 0.010356402955949306, -0.015386311337351799, -0.030283141881227493, 3.9946575270732865e-05, -3.02727785310708e-05, 0.034405771642923355, 0.0003712039615493268, -0.000298922328511253, 0.13218216598033905, -0.780922532081604, -0.9889211058616638, 0.05604539439082146, -2.2122234574461443, 0.6882384102328842, -175.40493024849337, 9362.0, 30146.0, 35388.0, 9362.0, 8.370248794555664, 0.061972472816705704, 0.11077248305082321, 0.03907013684511185, -0.08337485790252686, -0.02401120215654373, 1.0250083208084106, -0.07606763392686844, 0.014162063598632812, 1.4970703125, 1.3681640625, 0.0185394287109375, 1.493408203125
40594, 0.011656402610242367, -0.017258930951356888, -0.03172197565436363, 3.9946575270732865e-05, -3.02727785310708e-05, 0.034405771642923355, 0.0003712039615493268, -0.000298922328511253, 0.13218216598033905, -0.78096604347229, -0.9889615774154663, 0.05578555911779404, -2.2114596523839705, 0.7276640800434961, -175.41720401398746, 9362.0, 30146.0, 35388.0, 9362.0, 8.370248794555664, -0.1217997744679451, -0.09338383376598358, 0.03601175174117088, -0.08289323002099991, -0.025169609114527702, 1.0279879570007324, -0.07606763392686844, 0.014162063598632812, 1.4970703125, 1.367431640625, 0.0183258056640625, 1.493408203125
40614, 0.011020977981388569, -0.02015741914510727, -0.030230455100536346, 5.681476977770217e-05, -4.3713076593121514e-05, 0.039896342903375626, 0.00047854267177172005, -0.0003744120476767421, 0.14255446195602417, -0.7809692621231079, -0.9889578819274902, 0.05582728236913681, -2.2170146661088914, 0.7213777627474371, -175.42547155383522, 9362.0, 30146.0, 35388.0, 9362.0, 8.370248794555664, -0.11164677143096924, 0.05100882798433304, 0.10697781294584274, -0.0830577090382576, -0.025423116981983185, 1.0257079601287842, -0.07606763392686844, 0.014162063598632812, 1.4970703125, 1.433349609375, 0.0797576904296875, 1.493408203125
40624, 0.01055899541825056, -0.021678999066352844, -0.029374854639172554, 5.681476977770217e-05, -4.3713076593121514e-05, 0.039896342903375626, 0.00047854267177172005, -0.0003744120476767421, 0.14255446195602417, -0.7809473872184753, -0.98893141746521, 0.055970001965761185, -2.210430305280435, 0.7206751147599846, -175.42231774752727, 9362.0, 30146.0, 35388.0, 9362.0, 8.370248794555664, -0.039349768310785294, 0.5475422143936157, 0.09669283777475357, -0.08603383600711823, -0.025222791358828545, 1.0245957374572754, -0.07606763392686844, 0.014162063598632812, 1.4970703125, 1.385009765625, 0.0276336669921875, 1.493408203125
40634, 0.010871865786612034, -0.024596359580755234, -0.02964329905807972, 7.26723374100402e-05, -5.584278915193863e-05, 0.04428667947649956, 0.00058332848129794, -0.00043287358130328357, 0.1499837040901184, -0.7809568643569946, -0.9889444708824158, 0.056005820631980896, -2.2163215960612983, 0.7165855105050127, -175.41599948401256, 9362.0, 30146.0, 35388.0, 9362.0, 8.370248794555664, 0.08488442748785019, 0.2873615026473999, 0.15530440211296082, -0.08407988399267197, -0.027595531195402145, 1.026023268699646, -0.07606763392686844, 0.014162063598632812, 1.4970703125, 1.385009765625, 0.0276336669921875, 1.493408203125
40644, 0.01135153230279684, -0.025373103097081184, -0.02967342920601368, 7.26723374100402e-05, -5.584278915193863e-05, 0.04428667947649956, 0.00058332848129794, -0.00043287358130328357, 0.1499837040901184, -0.7809415459632874, -0.988945484161377, 0.05599488317966461, -2.21292789417264, 0.7213701631777951, -175.41689098573346, 9362.0, 30146.0, 35388.0, 9362.0, 8.370248794555664, 0.08488442748785019, 0.2873615026473999, 0.15530440211296082, -0.0836847797036171, -0.026400651782751083, 1.0258009433746338, -0.07606763392686844, 0.014162063598632812, 1.4970703125, 1.385009765625, 0.0276336669921875, 1.493408203125
40654, 0.010928330942988396, -0.02652181126177311, -0.02973715402185917, 8.52100201882422e-05, -6.4887099142652e-05, 0.04733733832836151, 0.0006711806054227054, -0.00047196345985867083, 0.15509821474552155, -0.7809483408927917, -0.9889333844184875, 0.0558503121137619, -2.2043687267063703, 0.6892643309305413, -175.41018620991065, 9362.0, 30146.0, 35388.0, 9362.0, 8.370248794555664, 0.08488442748785019, 0.2873615026473999, 0.15530440211296082, -0.08464986085891724, -0.026631804183125496, 1.0233410596847534, -0.09287204593420029, 0.0052013397216796875, 1.496337890625, 1.385009765625, 0.0276336669921875, 1.493408203125
40664, 0.010984553024172783, -0.02782272920012474, -0.03141001611948013, 8.52100201882422e-05, -6.4887099142652e-05, 0.04733733832836151, 0.0006711806054227054, -0.00047196345985867083, 0.15509821474552155, -0.7809388637542725, -0.9889411330223083, 0.056026846170425415, -2.227285956833144, 0.7129566210998632, -175.4251330270201, 9362.0, 30146.0, 35388.0, 9362.0, 8.370248794555664, -0.016383901238441467, -0.1823166012763977, 0.029563048854470253, -0.08464986085891724, -0.026631804183125496, 1.0233410596847534, -0.09287204593420029, 0.0052013397216796875, 1.496337890625, 1.385009765625, 0.0276336669921875, 1.493408203125
40674, 0.011507787741720676, -0.027053100988268852, -0.031896091997623444, 8.52100201882422e-05, -6.4887099142652e-05, 0.04733733832836151, 0.0006711806054227054, -0.00047196345985867083, 0.15509821474552155, -0.7809306979179382, -0.9889313578605652, 0.05604598671197891, -2.2139972760160003, 0.7031662275114172, -175.4009528208224, 9362.0, 30146.0, 35388.0, 9362.0, 8.370248794555664, -0.1508793830871582, -0.05929035320878029, 0.057765062898397446, -0.08281537145376205, -0.024869050830602646, 1.0255365371704102, -0.09287204593420029, 0.0052013397216796875, 1.496337890625, 1.32861328125, 0.0214385986328125, 1.493408203125
40684, 0.01028518844395876, -0.02827407419681549, -0.030996493995189667, 8.52100201882422e-05, -6.4887099142652e-05, 0.04733733832836151, 0.0006711806054227054, -0.00047196345985867083, 0.15509821474552155, -0.7809535264968872, -0.9889398813247681, 0.05601804703474045, -2.2239841401850455, 0.7104074784249974, -175.42076836297872, 9362.0, 30146.0, 35388.0, 9362.0, 8.370248794555664, 0.2445424646139145, 0.36496293544769287, 0.01337399985641241, -0.08340106159448624, -0.025828182697296143, 1.0265504121780396, -0.09287204593420029, 0.0052013397216796875, 1.496337890625, 1.4619140625, 0.1246185302734375, 1.496337890625
40694, 0.011646161787211895, -0.03109307400882244, -0.030380945652723312, 8.52100201882422e-05, -6.4887099142652e-05, 0.04733733832836151, 0.0006711806054227054, -0.00047196345985867083, 0.15509821474552155, -0.7809540629386902, -0.9889099597930908, 0.05602011829614639, -2.2050354674497634, 0.6936772674592362, -175.39531846792178, 9362.0, 30146.0, 35388.0, 9362.0, 8.370248794555664, 0.2445424646139145, 0.36496293544769287, 0.01337399985641241, -0.08303728699684143, -0.024696921929717064, 1.0253422260284424, -0.09287204593420029, 0.0052013397216796875, 1.496337890625, 1.40625, 0.04620361328125, 1.496337890625
40704, 0.01167907752096653, -0.0291026309132576, -0.033108871430158615, 8.52100201882422e-05, -6.4887099142652e-05, 0.04733733832836151, 0.0006711806054227054, -0.00047196345985867083, 0.15509821474552155, -0.780948281288147, -0.9889291524887085, 0.055995672941207886, -2.213010549583283, 0.7222465002042782, -175.402134243341, 9362.0, 30146.0, 35388.0, 9362.0, 8.370248794555664, -0.013079202733933926, -0.33735689520835876, 0.17368730902671814, -0.08409310132265091, -0.022193364799022675, 1.026065707206726, -0.09287204593420029, 0.0052013397216796875, 1.496337890625, 1.40625, 0.04620361328125, 1.493408203125
40714, 0.011736796237528324, -0.025390297174453735, -0.03233781456947327, 8.52100201882422e-05, -6.4887099142652e-05, 0.04733733832836151, 0.0006711806054227054, -0.00047196345985867083, 0.15509821474552155, -0.7809632420539856, -0.9888611435890198, 0.055971331894397736, -2.2030313037014015, 0.7134730361048582, -175.35884555338066, 9362.0, 30146.0, 35388.0, 9362.0, 8.370248794555664, 0.20490363240242004, -0.009985669516026974, 0.07383004575967789, -0.08409310132265091, -0.022193364799022675, 1.026065707206726, -0.09287204593420029, 0.0052013397216796875, 1.496337890625, 1.40625, 0.04620361328125, 1.493408203125
40724, 0.011689312756061554, -0.02473602071404457, -0.03156823292374611, 8.52100201882422e-05, -6.4887099142652e-05, 0.04733733832836151, 0.0006711806054227054, -0.00047196345985867083, 0.15509821474552155, -0.7809503078460693, -0.9889383912086487, 0.055990301072597504, -2.2172392992115455, 0.7052157757199211, -175.41286201228138, 9362.0, 30146.0, 35388.0, 9362.0, 8.370248794555664, -0.2716084122657776, 0.241300567984581, 0.14704939723014832, -0.08211826533079147, -0.02621505782008171, 1.0239022970199585, -0.09287204593420029, 0.0052013397216796875, 1.496337890625, 1.40625, 0.04620361328125, 1.493408203125
40744, 0.010002341121435165, -0.024021005257964134, -0.02958037704229355, 8.52100201882422e-05, -6.4887099142652e-05, 0.04733733832836151, 0.0006711806054227054, -0.00047196345985867083, 0.15509821474552155, -0.7823106646537781, -0.988371729850769, 0.05581733584403992, -1.7317077586747618, -0.1450012260747826, -175.26477454227327, 9362.0, 30146.0, 35388.0, 9362.0, 8.370248794555664, -0.0840391293168068, -0.15406502783298492, -0.31008753180503845, -0.0833076611161232, -0.02438124641776085, 1.0263835191726685, -0.09287204593420029, 0.0052013397216796875, 1.496337890625, 1.40625, 0.04620361328125, 1.493408203125
40754, 0.010194738395512104, -0.022547706961631775, -0.03201080858707428, 8.52100201882422e-05, -6.4887099142652e-05, 0.04733733832836151, 0.0006711806054227054, -0.00047196345985867083, 0.15509821474552155, -0.7809746265411377, -0.9889476895332336, 0.0558193102478981, -2.2069349106422202, 0.7204360781735488, -175.41660995564803, 9362.0, 30146.0, 35388.0, 9362.0, 8.370248794555664, -0.0840391293168068, -0.15406502783298492, -0.31008753180503845, -0.08214538544416428, -0.023691238835453987, 1.02640962600708, -0.10530662536621094, -0.22775840759277344, 1.477294921875, 1.353515625, 0.0154571533203125, 1.493408203125
40774, 0.011436840519309044, -0.02282291278243065, -0.03264409303665161, 8.52100201882422e-05, -6.4887099142652e-05, 0.04733733832836151, 0.0006711806054227054, -0.00047196345985867083, 0.15509821474552155, -0.78094083070755, -0.9889563322067261, 0.05598008632659912, -2.2191592801561706, 0.7204914566450213, -175.41020087408828, 9362.0, 30146.0, 35388.0, 9362.0, 8.370248794555664, 0.10025404393672943, -0.06146518141031265, -0.29277437925338745, -0.08656776696443558, -0.02378022111952305, 1.0242385864257812, -0.10530662536621094, -0.22775840759277344, 1.477294921875, 1.37548828125, 0.021820068359375, 1.493408203125
40784, 0.012234167195856571, -0.022700127214193344, -0.03416227549314499, 8.52100201882422e-05, -6.4887099142652e-05, 0.04733733832836151, 0.0006711806054227054, -0.00047196345985867083, 0.15509821474552155, -0.7809374928474426, -0.9889221787452698, 0.05600807070732117, -2.2130306557546606, 0.6936530995011765, -175.39842609496, 9362.0, 30146.0, 35388.0, 9362.0, 8.370248794555664, 0.008505725301802158, 0.000878676597494632, -0.004967169836163521, -0.08612960577011108, -0.02405264601111412, 1.0250338315963745, -0.10530662536621094, -0.22775840759277344, 1.477294921875, 1.37548828125, 0.021820068359375, 1.49267578125
40794, 0.012216846458613873, -0.023224525153636932, -0.0349186547100544, 0.0002255703293485567, -0.00015004706801846623, 0.07146526128053665, 0.0013059290358796716, -0.0007454920560121536, 0.18986296653747559, -0.7809486389160156, -0.988910436630249, 0.05600106716156006, -2.208721899092883, 0.6951943484735352, -175.40343652807442, 9362.0, 30146.0, 35388.0, 9362.0, 8.370248794555664, 0.12034144252538681, -0.13282902538776398, 0.07949069887399673, -0.08377959579229355, -0.0236903578042984, 1.0249439477920532, -0.10530662536621094, -0.22775840759277344, 1.477294921875, 1.420166015625, 0.0621337890625, 1.49267578125
40804, 0.011898606084287167, -0.021865462884306908, -0.035007134079933167, 0.0002388332795817405, -0.00015760927635710686, 0.07337598502635956, 0.0013466037344187498, -0.0007669366896152496, 0.19228267669677734, -0.7809798121452332, -0.9889591336250305, 0.05580563098192215, -2.214112006461469, 0.7016485864929507, -175.41912244726714, 9362.0, 30146.0, 35388.0, 9362.0, 8.370248794555664, 0.1690862476825714, 0.40588536858558655, -0.014816969633102417, -0.0834355354309082, -0.026371488347649574, 1.027422308921814, -0.10530662536621094, -0.22775840759277344, 1.477294921875, 1.39013671875, 0.0314483642578125, 1.493408203125
40814, 0.012522836215794086, -0.02337854541838169, -0.03641093149781227, 0.00025249150348827243, -0.00016538337513338774, 0.07531207799911499, 0.0013851100811734796, -0.0007879132172092795, 0.1949356496334076, -0.7809306383132935, -0.9889354705810547, 0.05600178986787796, -2.2230295985281305, 0.7188156715573939, -175.4169719954215, 9362.0, 30146.0, 35388.0, 9362.0, 8.370248794555664, 0.1311972290277481, -0.12275387346744537, -0.39190414547920227, -0.08350720256567001, -0.026955578476190567, 1.025299310684204, -0.10530662536621094, -0.22775840759277344, 1.477294921875, 1.420166015625, 0.0621337890625, 1.493408203125
40824, 0.013611494563519955, -0.02316316030919552, -0.038809020072221756, 0.00026654789689928293, -0.00017337265308015049, 0.07727426290512085, 0.0014261604519560933, -0.0008099917322397232, 0.19750159978866577, -0.7809607982635498, -0.9889310002326965, 0.055830392986536026, -2.2038705813645074, 0.6923876038194976, -175.40634386705244, 9362.0, 30146.0, 35388.0, 9362.0, 8.370248794555664, -0.07963519543409348, 0.11116685718297958, -0.006135095376521349, -0.08346226811408997, -0.02469416707754135, 1.0262207984924316, -0.10530662536621094, -0.22775840759277344, 1.477294921875, 1.374755859375, 0.021392822265625, 1.493408203125
40834, 0.013817903585731983, -0.0244252011179924, -0.039342790842056274, 0.0002810127625707537, -0.0001815922005334869, 0.07926174253225327, 0.0014668656513094902, -0.0008339257910847664, 0.19999410212039948, -0.7809354662895203, -0.9889243841171265, 0.0559987835586071, -2.2052134184565335, 0.6976472769044904, -175.39998868039788, 9362.0, 30146.0, 35388.0, 9362.0, 8.370248794555664, -0.14376340806484222, 0.14741355180740356, 0.11999238282442093, -0.08159632235765457, -0.02402219921350479, 1.025321125984192, -0.10530662536621094, -0.22775840759277344, 1.477294921875, 1.4033203125, 0.043182373046875, 1.493408203125
40844, 0.013820063322782516, -0.024370461702346802, -0.03970591723918915, 0.0002958958502858877, -0.00019005296053364873, 0.0812743753194809, 0.0015097488649189472, -0.0008582264417782426, 0.20253321528434753, -0.7809842228889465, -0.9888933300971985, 0.05572693794965744, -2.2142525797956165, 0.7308153851007546, -175.38219662124575, 9362.0, 30146.0, 35388.0, 9362.0, 8.370248794555664, 0.19034649431705475, -0.053491830825805664, -0.061701491475105286, -0.08284564316272736, -0.024986300617456436, 1.025672197341919, -0.10530662536621094, -0.22775840759277344, 1.477294921875, 1.423095703125, 0.06591796875, 1.4970703125
40854, 0.01474297046661377, -0.023878587409853935, -0.04043768718838692, 0.00031120722997002304, -0.00019875670841429383, 0.08331224322319031, 0.0015525029739364982, -0.000882563937921077, 0.2050403207540512, -0.7809262275695801, -0.9889388680458069, 0.055979445576667786, -2.214963693902063, 0.7333730238042904, -175.41471417482015, 9362.0, 30146.0, 35388.0, 9362.0, 8.370248794555664, 0.16159598529338837, 0.3724117577075958, -0.1817130744457245, -0.0834381952881813, -0.024875842034816742, 1.0242300033569336, -0.0722576305270195, -0.030637741088867188, 1.493408203125, 1.3623046875, 0.0167999267578125, 1.4970703125
40864, 0.01574244350194931, -0.02723250724375248, -0.041713979095220566, 0.00031120722997002304, -0.00019875670841429383, 0.08331224322319031, 0.0015525029739364982, -0.000882563937921077, 0.2050403207540512, -0.7809316515922546, -0.988918125629425, 0.056008122861385345, -2.216319901865269, 0.6859721181478733, -175.39757520610365, 9362.0, 30146.0, 35388.0, 9362.0, 8.370248794555664, 0.06798338145017624, -0.06094266474246979, 0.12854720652103424, -0.08334492146968842, -0.025335151702165604, 1.0276978015899658, -0.0722576305270195, -0.030637741088867188, 1.493408203125, 1.3681640625, 0.0185394287109375, 1.4970703125
40874, 0.015393633395433426, -0.026554234325885773, -0.041744574904441833, 0.0003431261866353452, -0.00021693544113077223, 0.08746270090341568, 0.0016423380002379417, -0.0009361933916807175, 0.21007759869098663, -0.7809720039367676, -0.9889488220214844, 0.0558067187666893, -2.2008341924196695, 0.7003588294513179, -175.41895208587798, 9362.0, 30146.0, 35388.0, 9362.0, 8.370248794555664, 0.14884217083454132, -0.16619139909744263, -0.15154606103897095, -0.08366816490888596, -0.024041026830673218, 1.029522180557251, -0.0722576305270195, -0.030637741088867188, 1.493408203125, 1.376220703125, 0.0222930908203125, 1.4970703125
40884, 0.016949141398072243, -0.02651004120707512, -0.041397929191589355, 0.0003431261866353452, -0.00021693544113077223, 0.08746270090341568, 0.0016423380002379417, -0.0009361933916807175, 0.21007759869098663, -0.7809560298919678, -0.9888617396354675, 0.05596620589494705, -2.203395859072204, 0.7054128414227989, -175.3625167140105, 9362.0, 30146.0, 35388.0, 9362.0, 8.370248794555664, -0.18832384049892426, -0.1452431082725525, -0.11196676641702652, -0.08425544947385788, -0.02430783584713936, 1.026946783065796, -0.0722576305270195, -0.030637741088867188, 1.493408203125, 1.465576171875, 0.130889892578125, 1.491943359375
40904, 0.015855291858315468, -0.0271520484238863, -0.04118914529681206, 0.0003431261866353452, -0.00021693544113077223, 0.08746270090341568, 0.0016423380002379417, -0.0009361933916807175, 0.21007759869098663, -0.7809253334999084, -0.9889373779296875, 0.05596030503511429, -2.223575977046131, 0.7217186629951868, -175.41729444813632, 9362.0, 30146.0, 35388.0, 9362.0, 8.370248794555664, -0.18832384049892426, -0.1452431082725525, -0.11196676641702652, -0.08183151483535767, -0.026022961363196373, 1.0252110958099365, -0.0722576305270195, -0.030637741088867188, 1.493408203125, 1.351318359375, 0.0153350830078125, 1.491943359375
40914, 0.01581239514052868, -0.02755058743059635, -0.04063139483332634, 0.0003431261866353452, -0.00021693544113077223, 0.08746270090341568, 0.0016423380002379417, -0.0009361933916807175, 0.21007759869098663, -0.7809247374534607, -0.9889580607414246, 0.05600017309188843, -2.2272624233396616, 0.7349122018500793, -175.4228375809278, 9362.0, 30146.0, 35388.0, 9362.0, 8.370248794555664, 0.08301890641450882, 0.21305043995380402, 0.10355128347873688, -0.0835941880941391, -0.02502434328198433, 1.0257903337478638, -0.0722576305270195, -0.030637741088867188, 1.493408203125, 1.35498046875, 0.01556396484375, 1.491943359375
40924, 0.01617538370192051, -0.027771366760134697, -0.039985205978155136, 0.0003431261866353452, -0.00021693544113077223, 0.08746270090341568, 0.0016423380002379417, -0.0009361933916807175, 0.21007759869098663, -0.7809433937072754, -0.9889039397239685, 0.05596150457859039, -2.2022409773510527, 0.6947487534344248, -175.40170778061508, 9362.0, 30146.0, 35388.0, 9362.0, 8.370248794555664, -0.05746081471443176, -0.20228616893291473, -0.08744142204523087, -0.08346715569496155, -0.027123786509037018, 1.025976300239563, -0.0722576305270195, -0.030637741088867188, 1.493408203125, 1.32275390625, 0.0251312255859375, 1.491943359375
40934, 0.016317138448357582, -0.027781963348388672, -0.039699722081422806, 0.00045014769420959055, -0.00027822202537208796, 0.10054228454828262, 0.0019276522798463702, -0.0011064874706789851, 0.22552549839019775, -0.7809320688247681, -0.988943874835968, 0.0559704452753067, -2.2219883017759043, 0.7253724264811012, -175.43052946957752, 9362.0, 30146.0, 35388.0, 9362.0, 8.370248794555664, -0.1834692806005478, -0.27202025055885315, 0.12190234661102295, -0.08271399885416031, -0.027664748951792717, 1.0270705223083496, -0.0722576305270195, -0.030637741088867188, 1.493408203125, 1.3828125, 0.0261077880859375, 1.491943359375
40944, 0.015722407028079033, -0.026420194655656815, -0.038320764899253845, 0.00046966844820417464, -0.0002894305798690766, 0.10281092673540115, 0.001976434839889407, -0.001135192345827818, 0.228202685713768, -0.7809383273124695, -0.9889258146286011, 0.05600074306130409, -2.2115269995346507, 0.698366728316131, -175.40412864059468, 9362.0, 30146.0, 35388.0, 9362.0, 8.370248794555664, 0.0220483485609293, -0.02553623355925083, -0.06544514000415802, -0.08277890086174011, -0.028047267347574234, 1.025587558746338, -0.0722576305270195, -0.030637741088867188, 1.493408203125, 1.458251953125, 0.1184234619140625, 1.497802734375
40954, 0.01645016483962536, -0.026754891499876976, -0.03805520012974739, 0.0004896647296845913, -0.0003009207430295646, 0.1051056832075119, 0.0020228412467986345, -0.0011628733482211828, 0.23074866831302643, -0.780955970287323, -0.9889250993728638, 0.05594918876886368, -2.216050231647461, 0.7096947167490271, -175.42391633476748, 9362.0, 30146.0, 35388.0, 9362.0, 8.370248794555664, -0.04413342848420143, -0.017253391444683075, 0.05098345875740051, -0.08220759779214859, -0.02659871056675911, 1.023760437965393, -0.061411064118146896, 0.06792068481445312, 1.50146484375, 1.367431640625, 0.0183258056640625, 1.497802734375
40964, 0.016642112284898758, -0.027525998651981354, -0.036485712975263596, 0.0005101277492940426, -0.00031269394094124436, 0.10742533206939697, 0.0020698001608252525, -0.0011917754309251904, 0.233181893825531, -0.7809447646141052, -0.9889335632324219, 0.05598093569278717, -2.217082928023302, 0.7151768359451012, -175.41605207480364, 9362.0, 30146.0, 35388.0, 9362.0, 8.370248794555664, 0.10217789560556412, -0.09422959387302399, -0.08598735183477402, -0.0820666179060936, -0.025849858298897743, 1.0251193046569824, -0.061411064118146896, 0.06792068481445312, 1.50146484375, 1.351318359375, 0.0153350830078125, 1.491943359375
40984, 0.01784173958003521, -0.028430167585611343, -0.03629152476787567, 0.0005310670239850879, -0.0003247577988076955, 0.10976909101009369, 0.00211804430000484, -0.0012210188433527946, 0.2355710119009018, -0.7809426188468933, -0.9889079928398132, 0.05599036067724228, -2.216995697680298, 0.6997047443617816, -175.39694825168914, 9362.0, 30146.0, 35388.0, 9362.0, 8.370248794555664, 0.05835194140672684, -0.030955666676163673, -0.2697836756706238, -0.08349906653165817, -0.026688694953918457, 1.0270681381225586, -0.061411064118146896, 0.06792068481445312, 1.50146484375, 1.392333984375, 0.03314208984375, 1.491943359375
40994, 0.017595048993825912, -0.028339102864265442, -0.03780292719602585, 0.0005310670239850879, -0.0003247577988076955, 0.10976909101009369, 0.00211804430000484, -0.0012210188433527946, 0.2355710119009018, -0.7809267640113831, -0.9889312386512756, 0.055979758501052856, -2.2318401810147295, 0.7423750551098749, -175.42160204348346, 9362.0, 30146.0, 35388.0, 9362.0, 8.370248794555664, 0.05835194140672684, -0.030955666676163673, -0.2697836756706238, -0.0825047641992569, -0.027254914864897728, 1.027071237564087, -0.061411064118146896, 0.06792068481445312, 1.50146484375, 1.38427734375, 0.027099609375, 1.491943359375
41004, 0.01799056865274906, -0.028314560651779175, -0.03497013822197914, 0.0005310670239850879, -0.0003247577988076955, 0.10976909101009369, 0.00211804430000484, -0.0012210188433527946, 0.2355710119009018, -0.7809375524520874, -0.9889373183250427, 0.05595620721578598, -2.226625582740244, 0.7300902692606996, -175.4142684573645, 9362.0, 30146.0, 35388.0, 9362.0, 8.370248794555664, 0.12623831629753113, 0.08079257607460022, -0.030803784728050232, -0.08445177972316742, -0.027200894430279732, 1.0263707637786865, -0.061411064118146896, 0.06792068481445312, 1.50146484375, 1.38427734375, 0.027099609375, 1.497802734375
41034, 0.017508260905742645, -0.03226420655846596, -0.03312137722969055, 0.0005310670239850879, -0.0003247577988076955, 0.10976909101009369, 0.00211804430000484, -0.0012210188433527946, 0.2355710119009018, -0.7809337973594666, -0.9888983964920044, 0.05599326640367508, -2.2015656597354845, 0.7068855799089988, -175.40946937267972, 9362.0, 30146.0, 35388.0, 9362.0, 8.370248794555664, 0.14246852695941925, 0.0016653628554195166, 0.09463892132043839, -0.08268173038959503, -0.028341511264443398, 1.0255151987075806, -0.061411064118146896, 0.06792068481445312, 1.50146484375, 1.4033203125, 0.043182373046875, 1.497802734375
41064, 0.017404280602931976, -0.032770972698926926, -0.03387845680117607, 0.0005310670239850879, -0.0003247577988076955, 0.10976909101009369, 0.00211804430000484, -0.0012210188433527946, 0.2355710119009018, -0.7822766304016113, -0.9884176850318909, 0.05582788586616516, -1.774775287949471, -0.1033209842783549, -175.2947340465476, 9362.0, 30146.0, 35388.0, 9362.0, 8.370248794555664, 0.051777515560388565, -0.23229655623435974, -0.36303970217704773, -0.0815691128373146, -0.024643782526254654, 1.025542140007019, -0.061411064118146896, 0.06792068481445312, 1.50146484375, 1.4033203125, 0.043182373046875, 1.493408203125
41074, 0.01777874305844307, -0.03317318856716156, -0.03638239949941635, 0.0007686335011385381, -0.00046250649029389024, 0.1346098929643631, 0.002654412528499961, -0.0015345767606049776, 0.2612032890319824, -0.7809488773345947, -0.9889286756515503, 0.055959850549697876, -2.21978324364159, 0.7319513333931695, -175.42031525815594, 9362.0, 30146.0, 35388.0, 9362.0, 8.370248794555664, -0.13828516006469727, 0.07408414036035538, -0.06514184921979904, -0.08358899503946304, -0.025383401662111282, 1.0262451171875, -0.061411064118146896, 0.06792068481445312, 1.50146484375, 1.4033203125, 0.043182373046875, 1.493408203125
41084, 0.016422783955931664, -0.034104298800230026, -0.0374462753534317, 0.0007686335011385381, -0.00046250649029389024, 0.1346098929643631, 0.002654412528499961, -0.0015345767606049776, 0.2612032890319824, -0.7809292674064636, -0.9889093041419983, 0.05598140507936478, -2.1968587736730854, 0.7048201743504592, -175.40212898420222, 9362.0, 30146.0, 35388.0, 9362.0, 8.370248794555664, 0.039516326040029526, 0.4751906096935272, -0.20110291242599487, -0.08355847001075745, -0.025549914687871933, 1.0265849828720093, -0.061411064118146896, 0.06792068481445312, 1.50146484375, 1.447265625, 0.1004791259765625, 1.493408203125
41094, 0.017279120162129402, -0.03591611236333847, -0.03869389370083809, 0.000822895672172308, -0.0004938110359944403, 0.1398853361606598, 0.0027727195993065834, -0.0015947334468364716, 0.2663687467575073, -0.7809543609619141, -0.9888991713523865, 0.05597478523850441, -2.209587661934681, 0.6980656908185949, -175.40136744935526, 9362.0, 30146.0, 35388.0, 9362.0, 8.370248794555664, 0.01699189655482769, 0.09404224902391434, -0.1824481189250946, -0.08431018143892288, -0.02695581689476967, 1.0277683734893799, -0.061411064118146896, 0.06792068481445312, 1.50146484375, 1.45751953125, 0.117095947265625, 1.493408203125
41114, 0.018398890271782875, -0.03851640224456787, -0.04051603004336357, 0.000822895672172308, -0.0004938110359944403, 0.1398853361606598, 0.0027727195993065834, -0.0015947334468364716, 0.2663687467575073, -0.7809524536132812, -0.988940417766571, 0.05597082898020744, -2.229413472069163, 0.7187724517496292, -175.42341362196504, 9362.0, 30146.0, 35388.0, 9362.0, 8.370248794555664, 0.06896837800741196, -0.15747906267642975, -0.08649573475122452, -0.08398368954658508, -0.024702515453100204, 1.023729681968689, -0.061411064118146896, 0.06792068481445312, 1.50146484375, 1.3505859375, 0.0153045654296875, 1.493408203125
41134, 0.019376257434487343, -0.03991445526480675, -0.040695689618587494, 0.000822895672172308, -0.0004938110359944403, 0.1398853361606598, 0.0027727195993065834, -0.0015947334468364716, 0.2663687467575073, -0.7809273600578308, -0.9889500141143799, 0.05597487837076187, -2.2232287106026507, 0.7303701915986949, -175.4276527065286, 9362.0, 30146.0, 35388.0, 9362.0, 8.370248794555664, -0.0668908879160881, -0.13760383427143097, 0.04152776300907135, -0.0843346044421196, -0.025106539949774742, 1.0255752801895142, -0.061411064118146896, 0.06792068481445312, 1.50146484375, 1.3828125, 0.0261077880859375, 1.49560546875
41144, 0.019693760201334953, -0.03990780562162399, -0.0420863963663578, 0.000822895672172308, -0.0004938110359944403, 0.1398853361606598, 0.0027727195993065834, -0.0015947334468364716, 0.2663687467575073, -0.7809218764305115, -0.9889054894447327, 0.056003790348768234, -2.2152330213009286, 0.7123995169139903, -175.3968016117095, 9362.0, 30146.0, 35388.0, 9362.0, 8.370248794555664, 0.07434313744306564, 0.27004456520080566, -0.3601752817630768, -0.08291492611169815, -0.024780232459306717, 1.0258218050003052, -0.061411064118146896, 0.06792068481445312, 1.50146484375, 1.37255859375, 0.02044677734375, 1.49560546875
