timeTick, roll, pitch, yaw, stateX, stateY, stateZ, stateVX, stateVY, stateVZ, otX0, otY0, otZ0, otRoll0, otPitch0, otYaw0, left wing, pitch motor, yaw motor, right wing, voltage, roll rate, pitch rate, yaw rate, A_x, A_y, A_z, current, i_raw, v_raw, airflow_voltage, airflow_speed, pot_Pitch
49088, 8.026083946228027, 1.3957566022872925, 13.382577896118164, 0, 0, 0, 0, 0, 0, -0.8412673473358154, -0.9099263548851013, 0.05615188181400299, -2.8040281961437845, 1.1815438016234339, -175.75044541534777, 0, 0, 0, 0, 0, 0, 0, 0, 0, 0, 0, 0, 0, 0, 0, 0, 0
49098, 8.024641990661621, 1.3947752714157104, 13.385250091552734, -0.00011487787560326979, 0.0018391269259154797, -32.021175384521484, -0.01105554774403572, 0.17699404060840607, -1.3370360136032104, -0.8412764668464661, -0.9099389314651489, 0.05614408478140831, -2.799929036293303, 1.1795913283702362, -175.76536278555093, 9362.0, 30146.0, 35388.0, 9362.0, 0, 0.011347304098308086, -0.04069194570183754, 0.0889458954334259, -0.0862361416220665, -0.009909533895552158, 0.9954614043235779, 0, 0, 0, 0, 0, 0
49108, 8.025601387023926, 1.3956832885742188, 13.38487434387207, -0.00022110683494247496, 0.0035399459302425385, -32.03455352783203, -0.010189623571932316, 0.1631697714328766, -1.338364601135254, -0.8412743806838989, -0.9099306464195251, 0.05613517016172409, -2.805736601299341, 1.1729336287006618, -175.7551719220864, 9362.0, 30146.0, 35388.0, 9362.0, 0, -0.22628113627433777, 0.025202183052897453, -0.1848243772983551, -0.08724068105220795, -0.00968631450086832, 0.9964025020599365, 0, 0, 0, 1.336669921875, 0.0177764892578125, 0
49118, 8.024362564086914, 1.394412875175476, 13.384602546691895, -0.0003186739922966808, 0.0051026297733187675, -32.047943115234375, -0.009323880076408386, 0.14936703443527222, -1.3398246765136719, -0.8412758708000183, -0.9099195003509521, 0.05613643676042557, -2.8034598845759287, 1.1818396800062771, -175.75044576746757, 9362.0, 30146.0, 35388.0, 9362.0, 0, 0.17146018147468567, 0.3733164966106415, -0.14321908354759216, -0.08551416546106339, -0.01005408726632595, 0.9945977330207825, 0, 0, 0, 1.39013671875, 0.0314483642578125, 1.491943359375
49128, 8.025971412658691, 1.3924272060394287, 13.383138656616211, -0.0004075834876857698, 0.006527176592499018, -32.06134796142578, -0.008458111435174942, 0.1355423480272293, -1.3411448001861572, -0.8412694334983826, -0.9099181890487671, 0.056128811091184616, -2.804460333366913, 1.1832717882173824, -175.75893868123515, 9362.0, 30146.0, 35388.0, 9362.0, 0, -0.006737392861396074, 0.20294341444969177, -0.003651947481557727, -0.08617983758449554, -0.008083099499344826, 0.9961795806884766, 0, 0, 0, 1.388671875, 0.03033447265625, 1.491943359375
49138, 8.026756286621094, 1.39149808883667, 13.38284969329834, -0.0004878339823335409, 0.007813590578734875, -32.07476806640625, -0.007592380978167057, 0.12174038589000702, -1.342606544494629, -0.8412612080574036, -0.9099348187446594, 0.056122515350580215, -2.799209705648597, 1.184175521480796, -175.7552333910409, 9362.0, 30146.0, 35388.0, 9362.0, 0, 0.038233160972595215, -0.125572070479393, -0.3411518335342407, -0.0855650007724762, -0.011362504214048386, 0.9976569414138794, 0, 0, 0, 1.440673828125, 0.090423583984375, 1.491943359375
49148, 8.027742385864258, 1.3925796747207642, 13.379937171936035, -0.0005594085087068379, 0.008961960673332214, -32.088199615478516, -0.0067226216197013855, 0.1079336553812027, -1.344048261642456, -0.8412676453590393, -0.9099106192588806, 0.05613303557038307, -2.7989660895721604, 1.1839829500362384, -175.75291811486977, 9362.0, 30146.0, 35388.0, 9362.0, 0, -0.07319442182779312, 0.035273388028144836, 0.26601338386535645, -0.08754060417413712, -0.010174877010285854, 0.9939525723457336, 0, 0, 0, 1.430419921875, 0.0756378173828125, 1.491943359375
49158, 8.027471542358398, 1.3918312788009644, 13.381184577941895, -0.0006222668453119695, 0.009972103871405125, -32.101646423339844, -0.005849726963788271, 0.09409499913454056, -1.3452732563018799, -0.8412656188011169, -0.9099197387695312, 0.05611412227153778, -2.8009720532987865, 1.1809382202049505, -175.75752412305582, 9362.0, 30146.0, 35388.0, 9362.0, 0, -0.0118040069937706, 0.3357207179069519, 0.008439100347459316, -0.08939744532108307, -0.009022144600749016, 0.9946466684341431, 0, 0, 0, 1.4384765625, 0.0871429443359375, 1.490478515625
49168, 8.027216911315918, 1.3890761137008667, 13.383057594299316, -0.0006764170830138028, 0.010844015516340733, -32.11510467529297, -0.004980043973773718, 0.08028732240200043, -1.3467295169830322, -0.8412691354751587, -0.9099283814430237, 0.056125205010175705, -2.803969414278392, 1.179690122670479, -175.75134047617482, 9362.0, 30146.0, 35388.0, 9362.0, 0, -0.04390205815434456, -0.006702851038426161, -0.09514588862657547, -0.08938116580247879, -0.008369527757167816, 0.995440661907196, 0, 0, 0, 1.37841796875, 0.023406982421875, 1.490478515625
49178, 8.027514457702637, 1.3886336088180542, 13.38238525390625, -0.0007218653336167336, 0.011577884666621685, -32.128578186035156, -0.004109217785298824, 0.06648649275302887, -1.3482282161712646, -0.8412613868713379, -0.909919261932373, 0.05610683187842369, -2.805105075700829, 1.178412996976931, -175.74617445162673, 9362.0, 30146.0, 35388.0, 9362.0, 0, 0.0800933763384819, -0.12325688451528549, 0.04215375706553459, -0.08779250830411911, -0.009363564662635326, 0.9951529502868652, 0, 0, 0, 1.471435546875, 0.14129638671875, 1.48974609375
49188, 8.028044700622559, 1.3883105516433716, 13.382044792175293, -0.0007585806306451559, 0.012173747643828392, -32.142066955566406, -0.003234009025618434, 0.052686046808958054, -1.3497188091278076, -0.8412608504295349, -0.9099264740943909, 0.05611467361450195, -2.801650306708665, 1.1800520840640445, -175.75745559374306, 9362.0, 30146.0, 35388.0, 9362.0, 8.390083312988281, -0.06607255339622498, 0.0617881640791893, 0.005760069005191326, -0.08819606155157089, -0.010407679714262486, 0.996137261390686, 0, 0, 0, 1.426025390625, 0.069732666015625, 1.48974609375
49198, 8.028696060180664, 1.3896428346633911, 13.382091522216797, -0.0007865390507504344, 0.012631582096219063, -32.15557098388672, -0.0023577639367431402, 0.03888091817498207, -1.3511792421340942, -0.8413024544715881, -0.9099128246307373, 0.05605911463499069, -2.807049885168738, 1.1714199988657583, -175.76732625947258, 9362.0, 30146.0, 35388.0, 9362.0, 8.390083312988281, -0.10331621766090393, -0.42188969254493713, -0.2399027794599533, -0.0888298824429512, -0.00989585742354393, 0.9955174922943115, -0.11364438384771347, -0.01271820068359375, 1.494873046875, 1.396728515625, 0.0370025634765625, 1.491943359375
49208, 8.028678894042969, 1.3923404216766357, 13.38046646118164, -0.0008057301747612655, 0.012951338663697243, -32.169090270996094, -0.001480422797612846, 0.025070343166589737, -1.3526066541671753, -0.8412755131721497, -0.9098936319351196, 0.05604870617389679, -2.8206122909759763, 1.159298791524776, -175.7775254992431, 9362.0, 30146.0, 35388.0, 9362.0, 8.390083312988281, 0.16015666723251343, 0.15545566380023956, -0.07843869924545288, -0.08535085618495941, -0.009006715379655361, 0.9946863651275635, -0.11364438384771347, -0.01271820068359375, 1.494873046875, 1.4384765625, 0.0871429443359375, 1.491943359375
49218, 8.028891563415527, 1.3924390077590942, 13.37983512878418, -0.0008161567966453731, 0.013132969848811626, -32.18262481689453, -0.0006052264361642301, 0.011255868710577488, -1.3540183305740356, -0.8412746787071228, -0.9098910689353943, 0.05605291947722435, -2.8135244622834787, 1.1666044326871372, -175.7742607116789, 9362.0, 30146.0, 35388.0, 9362.0, 8.390083312988281, 0.0333411730825901, 0.03897920250892639, 0.11141091585159302, -0.08341530710458755, -0.009202810004353523, 0.9951700568199158, -0.11364438384771347, -0.01271820068359375, 1.494873046875, 1.4736328125, 0.1452178955078125, 1.4912109375
49228, 8.028947830200195, 1.3923743963241577, 13.380379676818848, -0.0008178589632734656, 0.013176504522562027, -32.196170806884766, 0.0002646453503984958, -0.0025489653926342726, -1.355505108833313, -0.8412821888923645, -0.9098949432373047, 0.0560421496629715, -2.8138336782204294, 1.1665287045834134, -175.77285146597686, 9362.0, 30146.0, 35388.0, 9362.0, 8.390083312988281, -0.0103770075365901, 0.34959062933921814, 0.0022558141499757767, -0.08607441931962967, -0.006190162152051926, 0.9962078332901001, -0.11364438384771347, -0.01271820068359375, 1.494873046875, 1.464111328125, 0.1283111572265625, 1.4912109375
49238, 8.029766082763672, 1.3907995223999023, 13.379454612731934, -0.0008108644396997988, 0.013082003220915794, -32.20973205566406, 0.0011343825608491898, -0.016351202502846718, -1.357012391090393, -0.841296911239624, -0.9099106788635254, 0.0560535229742527, -2.807545891349973, 1.1685545602615832, -175.78734770812935, 9362.0, 30146.0, 35388.0, 9362.0, 8.390083312988281, 0.12038078904151917, 0.25615161657333374, -0.12469200789928436, -0.0862351655960083, -0.00904457364231348, 0.9979288578033447, -0.11364438384771347, -0.01271820068359375, 1.494873046875, 1.35791015625, 0.015869140625, 1.49267578125
49248, 8.03122329711914, 1.3904204368591309, 13.37739086151123, -0.000795166939496994, 0.012849410995841026, -32.22330856323242, 0.0020048643928021193, -0.03016735054552555, -1.358422875404358, -0.8412857055664062, -0.9099090695381165, 0.056049466133117676, -2.814781591361155, 1.1614950991362605, -175.77284062009787, 9362.0, 30146.0, 35388.0, 9362.0, 8.390083312988281, 0.05567526817321777, -0.5817438364028931, -0.1639326959848404, -0.08827071636915207, -0.00789258535951376, 0.9965667724609375, -0.11364438384771347, -0.01271820068359375, 1.494873046875, 1.43701171875, 0.085052490234375, 1.49267578125
49258, 8.031644821166992, 1.394436001777649, 13.3745756149292, -0.0007707417826168239, 0.012478504329919815, -32.236900329589844, 0.002879661973565817, -0.04401395469903946, -1.359626054763794, -0.8412871956825256, -0.9099061489105225, 0.05605940520763397, -2.817397616878387, 1.1670587282734175, -175.775429006765, 9362.0, 30146.0, 35388.0, 9362.0, 8.390083312988281, 0.2574194073677063, 0.2374529391527176, 0.04784419760107994, -0.0876445397734642, -0.007497734855860472, 0.9960424900054932, -0.11364438384771347, -0.01271820068359375, 1.494873046875, 1.48388671875, 0.1642303466796875, 1.4912109375
49268, 8.032561302185059, 1.3926360607147217, 13.37556266784668, -0.0007375689456239343, 0.011969179846346378, -32.25050354003906, 0.003754324745386839, -0.05785100907087326, -1.3609123229980469, -0.8412860631942749, -0.9099037647247314, 0.056062329560518265, -2.818571650602917, 1.1691447724174395, -175.7748961603501, 9362.0, 30146.0, 35388.0, 9362.0, 8.390083312988281, 0.14988626539707184, 0.2103184014558792, -0.0916738212108612, -0.08771227300167084, -0.007821952924132347, 0.9972049593925476, -0.11364438384771347, -0.01271820068359375, 1.494873046875, 1.468505859375, 0.13604736328125, 1.4912109375
49278, 8.032155990600586, 1.3902831077575684, 13.375676155090332, -0.0006956880097277462, 0.011321520432829857, -32.26411819458008, 0.004622071515768766, -0.07168086618185043, -1.3622647523880005, -0.8412922620773315, -0.9099016189575195, 0.05606117472052574, -2.8160747142876392, 1.1594585428954929, -175.77528233381463, 9362.0, 30146.0, 35388.0, 9362.0, 8.390083312988281, 0.010651949793100357, -0.20294126868247986, 0.20608411729335785, -0.08652940392494202, -0.009511937387287617, 0.9956787824630737, -0.11364438384771347, -0.01271820068359375, 1.494873046875, 1.376220703125, 0.0222930908203125, 1.493408203125
49288, 8.032561302185059, 1.390724778175354, 13.37673568725586, -0.0006451087538152933, 0.010535511188209057, -32.277748107910156, 0.005493759177625179, -0.08552107959985733, -1.3635504245758057, -0.8412992358207703, -0.9099230170249939, 0.056052934378385544, -2.8073583711526484, 1.170562006454304, -175.7912955461612, 9362.0, 30146.0, 35388.0, 9362.0, 8.390083312988281, 0.18985213339328766, -0.2724139094352722, -0.7120885252952576, -0.08785353600978851, -0.010114794597029686, 0.994041383266449, -0.11364438384771347, -0.01271820068359375, 1.494873046875, 1.440673828125, 0.090423583984375, 1.493408203125
49298, 8.034340858459473, 1.3923826217651367, 13.371947288513184, -0.0005857981159351766, 0.009611173532903194, -32.29138946533203, 0.006368619855493307, -0.09934636950492859, -1.3649293184280396, -0.8412874341011047, -0.9099054932594299, 0.05605151131749153, -2.8193163817863347, 1.1587165210069088, -175.77950712194937, 9362.0, 30146.0, 35388.0, 9362.0, 8.390083312988281, -0.17883802950382233, 0.13741354644298553, 0.27584177255630493, -0.08823135495185852, -0.011317621916532516, 0.9970327615737915, -0.10843537747859955, -0.10231781005859375, 1.487548828125, 1.474365234375, 0.14654541015625, 1.49267578125
49308, 8.033677101135254, 1.3909101486206055, 13.373015403747559, -0.0005177451530471444, 0.008548654615879059, -32.30504608154297, 0.007240843493491411, -0.11315745115280151, -1.366413950920105, -0.8412802219390869, -0.9099028706550598, 0.056061748415231705, -2.817670758146541, 1.1644058915995856, -175.7812118159513, 9362.0, 30146.0, 35388.0, 9362.0, 8.390083312988281, 0.1025305837392807, 0.04501616209745407, 0.06945914775133133, -0.08569449186325073, -0.009837199933826923, 0.9973365664482117, -0.10843537747859955, -0.10231781005859375, 1.487548828125, 1.48974609375, 0.1755218505859375, 1.49267578125
49318, 8.034012794494629, 1.390875220298767, 13.373854637145996, -0.0004409825778566301, 0.00734795443713665, -32.31871795654297, 0.008111896924674511, -0.126982644200325, -1.3678253889083862, -0.8412892818450928, -0.9099132418632507, 0.056040432304143906, -2.8200087778591203, 1.1652276071461642, -175.77199221058893, 9362.0, 30146.0, 35388.0, 9362.0, 8.390083312988281, -0.04006734862923622, 0.07501579076051712, 0.07087480276823044, -0.0860741138458252, -0.010612456128001213, 0.9956782460212708, -0.10843537747859955, -0.10231781005859375, 1.487548828125, 1.4677734375, 0.1347198486328125, 1.491943359375
49328, 8.0335111618042, 1.389390468597412, 13.374959945678711, -0.00035548803862184286, 0.006008862517774105, -32.332401275634766, 0.008987218141555786, -0.14083582162857056, -1.369028925895691, -0.8412853479385376, -0.909885585308075, 0.056020431220531464, -2.812416363314725, 1.1563512534137885, -175.7907778180541, 9362.0, 30146.0, 35388.0, 9362.0, 8.390083312988281, -0.001707721734419465, 0.044631294906139374, 0.008383084088563919, -0.08790533244609833, -0.009111175313591957, 0.9945265054702759, -0.10843537747859955, -0.10231781005859375, 1.487548828125, 1.440673828125, 0.090423583984375, 1.491943359375
49338, 8.034067153930664, 1.3890255689620972, 13.373518943786621, -0.0002612454118207097, 0.004531349055469036, -32.346099853515625, 0.00986152607947588, -0.15466679632663727, -1.3703911304473877, -0.8412942886352539, -0.9099072813987732, 0.05605064332485199, -2.807871322124091, 1.1609698215144135, -175.80405815775606, 9362.0, 30146.0, 35388.0, 9362.0, 8.390083312988281, 0.005288688000291586, 0.03451361134648323, -0.019845731556415558, -0.08621715754270554, -0.010369094088673592, 0.9956981539726257, -0.10843537747859955, -0.10231781005859375, 1.487548828125, 1.393798828125, 0.0344085693359375, 1.490478515625
49348, 8.035054206848145, 1.38897705078125, 13.37358283996582, -0.00015825408627279103, 0.0029156403616070747, -32.35980987548828, 0.010736399330198765, -0.16847500205039978, -1.371903419494629, -0.8412936925888062, -0.9099036455154419, 0.056022681295871735, -2.808316245076386, 1.1545076713232163, -175.80096707391792, 9362.0, 30146.0, 35388.0, 9362.0, 8.390083312988281, -0.11394805461168289, 0.29455581307411194, 0.09914734959602356, -0.0870131254196167, -0.01011995505541563, 0.9943442940711975, -0.10843537747859955, -0.10231781005859375, 1.487548828125, 1.4091796875, 0.04937744140625, 1.490478515625
49358, 8.034387588500977, 1.3878141641616821, 13.373085975646973, -4.6507513616234064e-05, 0.0011617805575951934, -32.37353515625, 0.011612927541136742, -0.18229694664478302, -1.373324990272522, -0.8412808179855347, -0.9098902344703674, 0.05604645609855652, -2.813420485228128, 1.1538638465087843, -175.78733089895832, 9362.0, 30146.0, 35388.0, 9362.0, 8.390083312988281, 0.019117966294288635, -0.18114325404167175, -0.06406109780073166, -0.08644626289606094, -0.009291552007198334, 0.9949373006820679, -0.10843537747859955, -0.10231781005859375, 1.487548828125, 1.37548828125, 0.021820068359375, 1.49267578125
49368, 8.034579277038574, 1.3879730701446533, 13.37322998046875, 7.400379399769008e-05, -0.0007302588783204556, -32.38727569580078, 0.012489181011915207, -0.19611099362373352, -1.374813199043274, -0.8412879109382629, -0.9098848104476929, 0.05602484196424484, -2.816545880671267, 1.1580814400540191, -175.78224141628792, 9362.0, 30146.0, 35388.0, 9362.0, 8.390083312988281, 0.10965447872877121, -0.22392624616622925, -0.20930761098861694, -0.08492328226566315, -0.008449716493487358, 0.9960342049598694, -0.10843537747859955, -0.10231781005859375, 1.487548828125, 1.47802734375, 0.1532745361328125, 1.49267578125
49378, 8.034805297851562, 1.3891570568084717, 13.371807098388672, 0.0002032840420724824, -0.002760411938652396, -32.401031494140625, 0.01336690504103899, -0.20991964638233185, -1.3763281106948853, -0.8412973284721375, -0.909903347492218, 0.0560302734375, -2.808200514430345, 1.1566592936222548, -175.80357396720225, 9362.0, 30146.0, 35388.0, 9362.0, 8.390083312988281, -0.11072986572980881, -0.09942115843296051, 0.10889595746994019, -0.08538873493671417, -0.009400912560522556, 0.9952599406242371, -0.10843537747859955, -0.10231781005859375, 1.487548828125, 1.45458984375, 0.11224365234375, 1.49267578125
49388, 8.03473949432373, 1.3874198198318481, 13.373173713684082, 0.0003413463127799332, -0.004928740207105875, -32.41480255126953, 0.014245228841900826, -0.22374603152275085, -1.3777213096618652, -0.8412915468215942, -0.9098882675170898, 0.0560370571911335, -2.8109088133204465, 1.1563395752485235, -175.78878735028937, 9362.0, 30146.0, 35388.0, 9362.0, 8.390083312988281, 0.1739659160375595, 0.07196689397096634, -0.2874563932418823, -0.08734682202339172, -0.011127760633826256, 0.9958325028419495, -0.10843537747859955, -0.10231781005859375, 1.487548828125, 1.458251953125, 0.1184234619140625, 1.49267578125
49398, 8.03617000579834, 1.38705313205719, 13.371953010559082, 0.0004881797358393669, -0.007235319819301367, -32.428585052490234, 0.01512174028903246, -0.23756982386112213, -1.3791390657424927, -0.8412961959838867, -0.9098946452140808, 0.056019168347120285, -2.8204565123443697, 1.151378240344883, -175.78061390882937, 9362.0, 30146.0, 35388.0, 9362.0, 8.390083312988281, -0.07922352105379105, -0.363360196352005, 0.014668464660644531, -0.08477113395929337, -0.010089871473610401, 0.9968498945236206, -0.07569628953933716, 0.08584022521972656, 1.5029296875, 1.475830078125, 0.1492767333984375, 1.48974609375
49408, 8.035721778869629, 1.3885619640350342, 13.372237205505371, 0.0006437942502088845, -0.009680137038230896, -32.4423828125, 0.01600087806582451, -0.25139370560646057, -1.380550503730774, -0.8413094282150269, -0.9099054336547852, 0.05603669211268425, -2.8100460841915043, 1.154709091475894, -175.7973297012052, 9362.0, 30146.0, 35388.0, 9362.0, 8.390083312988281, 0.1754537969827652, 0.09243984520435333, -0.10670191794633865, -0.0861576646566391, -0.009765281341969967, 0.9966018795967102, -0.07569628953933716, 0.08584022521972656, 1.5029296875, 1.37109375, 0.0197906494140625, 1.48974609375
49418, 8.037403106689453, 1.386242151260376, 13.371700286865234, 0.0008082069689407945, -0.012263243086636066, -32.45619583129883, 0.016881756484508514, -0.26522746682167053, -1.3819084167480469, -0.8412948250770569, -0.9098921418190002, 0.05602424219250679, -2.8121028063736864, 1.153596610302543, -175.7791933083588, 9362.0, 30146.0, 35388.0, 9362.0, 8.390083312988281, 0.20892544090747833, 0.07484103739261627, -0.032978400588035583, -0.08577834814786911, -0.010374214500188828, 0.9973663687705994, -0.07569628953933716, 0.08584022521972656, 1.5029296875, 1.398193359375, 0.03826904296875, 1.49560546875
49428, 8.038141250610352, 1.386120319366455, 13.370665550231934, 0.000981419812887907, -0.014984751120209694, -32.47002029418945, 0.017760638147592545, -0.2790742516517639, -1.383173942565918, -0.8413017988204956, -0.9099044799804688, 0.056020550429821014, -2.806405619365256, 1.1539599078872698, -175.79830497962288, 9362.0, 30146.0, 35388.0, 9362.0, 8.390083312988281, -0.08725232630968094, 0.4080372750759125, -0.09904517233371735, -0.08542317152023315, -0.012029049918055534, 0.9947352409362793, -0.07569628953933716, 0.08584022521972656, 1.5029296875, 1.431884765625, 0.07769775390625, 1.49560546875
49438, 8.038858413696289, 1.3833818435668945, 13.370499610900879, 0.0011634423863142729, -0.017844725400209427, -32.48386001586914, 0.018643606454133987, -0.29292038083076477, -1.3844587802886963, -0.8412969708442688, -0.9099023342132568, 0.05604466795921326, -2.8089750711373958, 1.1568541390389555, -175.79967860417142, 9362.0, 30146.0, 35388.0, 9362.0, 8.390083312988281, -0.10882150381803513, 0.11677288264036179, -0.03939223289489746, -0.08669690787792206, -0.01309276558458805, 0.9937252998352051, -0.07569628953933716, 0.08584022521972656, 1.5029296875, 1.392333984375, 0.03314208984375, 1.493408203125
49448, 8.037700653076172, 1.3841876983642578, 13.371456146240234, 0.001354290870949626, -0.020843088626861572, -32.497711181640625, 0.01952601969242096, -0.30675238370895386, -1.385849952697754, -0.841291606426239, -0.9099079966545105, 0.05603298544883728, -2.807149714608749, 1.1554388733316614, -175.80134059417674, 9362.0, 30146.0, 35388.0, 9362.0, 8.390083312988281, -0.17560750246047974, 0.4085109829902649, -0.033219851553440094, -0.08672595769166946, -0.009609048254787922, 0.9939164519309998, -0.07569628953933716, 0.08584022521972656, 1.5029296875, 1.452392578125, 0.10870361328125, 1.493408203125
49458, 8.035818099975586, 1.3816444873809814, 13.372461318969727, 0.001553979585878551, -0.023979654535651207, -32.51157760620117, 0.02041197195649147, -0.3205607235431671, -1.3874067068099976, -0.8412898778915405, -0.9098994731903076, 0.05602305755019188, -2.8039171581035713, 1.1579657570452184, -175.80436864458736, 9362.0, 30146.0, 35388.0, 9362.0, 8.390083312988281, -0.006389603018760681, -0.07760302722454071, 0.027532557025551796, -0.08811642974615097, -0.010118382051587105, 0.9977250099182129, -0.07569628953933716, 0.08584022521972656, 1.5029296875, 1.428955078125, 0.073577880859375, 1.490478515625
49468, 8.036757469177246, 1.3804491758346558, 13.370952606201172, 0.001762517960742116, -0.027254261076450348, -32.52545928955078, 0.021295875310897827, -0.33436059951782227, -1.3890113830566406, -0.8412843346595764, -0.9098837971687317, 0.05602977052330971, -2.8149446453888767, 1.1587382684314207, -175.79001762006683, 9362.0, 30146.0, 35388.0, 9362.0, 8.390083312988281, 0.16550058126449585, 0.18019352853298187, -0.31020814180374146, -0.08792708814144135, -0.009633232839405537, 0.99708491563797, -0.07569628953933716, 0.08584022521972656, 1.5029296875, 1.459716796875, 0.120849609375, 1.490478515625
49478, 8.036684036254883, 1.3789085149765015, 13.369867324829102, 0.0019799259025603533, -0.030667036771774292, -32.53935623168945, 0.022185351699590683, -0.34819474816322327, -1.390347957611084, -0.8412911295890808, -0.909888505935669, 0.05603193864226341, -2.8136161137314457, 1.157251982944274, -175.78480429782485, 9362.0, 30146.0, 35388.0, 9362.0, 8.390083312988281, 0.06895312666893005, 0.03160322457551956, -0.057604946196079254, -0.08900075405836105, -0.007251320406794548, 0.994968593120575, -0.07569628953933716, 0.08584022521972656, 1.5029296875, 1.421630859375, 0.0640716552734375, 1.489013671875
49488, 8.037968635559082, 1.3773415088653564, 13.369810104370117, 0.002206243807449937, -0.03421824425458908, -32.55326461791992, 0.023077966645359993, -0.36204662919044495, -1.3915679454803467, -0.8412947654724121, -0.9099028706550598, 0.05603751540184021, -2.8102876272380812, 1.1626785016585472, -175.79812238866933, 9362.0, 30146.0, 35388.0, 9362.0, 8.390083312988281, 0.12891413271427155, 0.2740606367588043, -0.1899741291999817, -0.08679617196321487, -0.009031210094690323, 0.99430251121521, -0.07569628953933716, 0.08584022521972656, 1.5029296875, 1.405517578125, 0.0454254150390625, 1.489013671875
49498, 8.03841781616211, 1.3768658638000488, 13.36787223815918, 0.0024414914660155773, -0.03790784627199173, -32.56718826293945, 0.02397152967751026, -0.37587398290634155, -1.3929554224014282, -0.8412861824035645, -0.9098891019821167, 0.05601229518651962, -2.8140655394409624, 1.1612542803517272, -175.7827818543076, 9362.0, 30146.0, 35388.0, 9362.0, 8.390083312988281, -0.06471720337867737, 0.11139114946126938, 0.075229711830616, -0.08641617745161057, -0.010661525651812553, 0.9941859841346741, -0.10145247727632523, -0.04855918884277344, 1.491943359375, 1.49853515625, 0.1927032470703125, 1.491943359375
49508, 8.038206100463867, 1.3754940032958984, 13.368515014648438, 0.0026856837794184685, -0.041735634207725525, -32.58112716674805, 0.02486644685268402, -0.38968324661254883, -1.3944792747497559, -0.841291069984436, -0.9099015593528748, 0.056047819554805756, -2.811495176876783, 1.1563982072671308, -175.80797467648594, 9362.0, 30146.0, 35388.0, 9362.0, 8.390083312988281, 0.0025129406712949276, 0.2672879099845886, 0.12410025298595428, -0.08789248764514923, -0.011771785095334053, 0.9961696267127991, -0.10145247727632523, -0.04855918884277344, 1.491943359375, 1.44873046875, 0.102813720703125, 1.491943359375
49518, 8.03945255279541, 1.3732951879501343, 13.368788719177246, 0.0029388254042714834, -0.04570148140192032, -32.5950813293457, 0.02576199360191822, -0.4034856855869293, -1.3960545063018799, -0.8412842154502869, -0.9098869562149048, 0.056009139865636826, -2.8144107970292445, 1.161695506261566, -175.78595601983506, 9362.0, 30146.0, 35388.0, 9362.0, 8.390083312988281, 0.018989022821187973, 0.10497420281171799, -0.10213245451450348, -0.08717921376228333, -0.01004741806536913, 0.9949932098388672, -0.10145247727632523, -0.04855918884277344, 1.491943359375, 1.379150390625, 0.0238189697265625, 1.491943359375
49528, 8.040384292602539, 1.3736001253128052, 13.36784839630127, 0.0032009435817599297, -0.04980549216270447, -32.609046936035156, 0.02666163258254528, -0.4173164963722229, -1.3974262475967407, -0.8413019180297852, -0.9099019765853882, 0.05602487921714783, -2.8099953462933698, 1.1646811784350177, -175.8026694388288, 9362.0, 30146.0, 35388.0, 9362.0, 8.390083312988281, 0.04277593642473221, -0.07811102271080017, 0.18038837611675262, -0.08912798762321472, -0.006346269976347685, 0.9965435862541199, -0.10145247727632523, -0.04855918884277344, 1.491943359375, 1.4296875, 0.07464599609375, 1.491943359375
49538, 8.04085636138916, 1.374714970588684, 13.369123458862305, 0.0034720769617706537, -0.05404778569936752, -32.62302780151367, 0.027564801275730133, -0.43114203214645386, -1.3988423347473145, -0.8412832617759705, -0.9098820090293884, 0.05603032559156418, -2.8093197901289524, 1.1593430834274443, -175.78348693299483, 9362.0, 30146.0, 35388.0, 9362.0, 8.390083312988281, -0.017415886744856834, -0.18224558234214783, -0.43826940655708313, -0.08752807974815369, -0.00800737552344799, 0.9962979555130005, -0.10145247727632523, -0.04855918884277344, 1.491943359375, 1.4384765625, 0.0871429443359375, 1.494873046875
49548, 8.040653228759766, 1.3741480112075806, 13.367818832397461, 0.003752242075279355, -0.05842837318778038, -32.63702392578125, 0.028468569740653038, -0.4449753165245056, -1.4002164602279663, -0.8412912487983704, -0.9098911881446838, 0.05601310357451439, -2.8181249344743735, 1.155607287749831, -175.7876178881631, 9362.0, 30146.0, 35388.0, 9362.0, 8.390083312988281, -0.13212063908576965, -0.11273723840713501, -0.3530859351158142, -0.08935313671827316, -0.008511126972734928, 0.9951410889625549, -0.10145247727632523, -0.04855918884277344, 1.491943359375, 1.4384765625, 0.0871429443359375, 1.494873046875
49558, 8.040513038635254, 1.3742725849151611, 13.36667251586914, 0.003752242075279355, -0.05842837318778038, -32.63702392578125, 0.028468569740653038, -0.4449753165245056, -1.4002164602279663, -0.8412885069847107, -0.9098870754241943, 0.056044455617666245, -2.814018607870758, 1.1591281717464597, -175.78725460722927, 9362.0, 30146.0, 35388.0, 9362.0, 8.390083312988281, -0.21796169877052307, 0.24379119277000427, 0.1397959291934967, -0.08704639971256256, -0.008909243158996105, 0.9954975247383118, -0.10145247727632523, -0.04855918884277344, 1.491943359375, 1.41650390625, 0.0577545166015625, 1.494873046875
49568, 8.039706230163574, 1.3735249042510986, 13.366145133972168, 0.003752242075279355, -0.05842837318778038, -32.63702392578125, 0.028468569740653038, -0.4449753165245056, -1.4002164602279663, -0.8412874937057495, -0.909895658493042, 0.056032273918390274, -2.8126410696953954, 1.1624890932278333, -175.79136745890497, 9362.0, 30146.0, 35388.0, 9362.0, 8.390083312988281, 0.17932188510894775, -0.13491441309452057, -0.4677395820617676, -0.0863749086856842, -0.0110237468034029, 0.9978328347206116, -0.10145247727632523, -0.04855918884277344, 1.491943359375, 1.41650390625, 0.0577545166015625, 1.494873046875
49578, 8.03984546661377, 1.3754246234893799, 13.364005088806152, 0.003752242075279355, -0.05842837318778038, -32.63702392578125, 0.028468569740653038, -0.4449753165245056, -1.4002164602279663, -0.8412975072860718, -0.9099090099334717, 0.05601288378238678, -2.8103456529972823, 1.1612288909673794, -175.80095755523453, 9362.0, 30146.0, 35388.0, 9362.0, 8.390083312988281, 0.13072435557842255, 0.08124306052923203, -0.22604630887508392, -0.08673939853906631, -0.011001835577189922, 0.996212363243103, -0.10145247727632523, -0.04855918884277344, 1.491943359375, 1.41650390625, 0.0577545166015625, 1.493408203125
49598, 8.04221248626709, 1.3773481845855713, 13.36294174194336, 0.003752242075279355, -0.05842837318778038, -32.63702392578125, 0.028468569740653038, -0.4449753165245056, -1.4002164602279663, -0.8412966132164001, -0.9098958373069763, 0.05604218691587448, -2.813828112790617, 1.1564053451778022, -175.7867747488028, 9362.0, 30146.0, 35388.0, 9362.0, 8.390083312988281, 0.08811929821968079, 0.14509697258472443, 0.10258829593658447, -0.08716859668493271, -0.010550553910434246, 0.993567943572998, -0.10145247727632523, -0.04855918884277344, 1.491943359375, 1.41650390625, 0.0577545166015625, 1.493408203125
49608, 8.042440414428711, 1.3773319721221924, 13.36308479309082, 0.0056226663291454315, -0.08761686086654663, -32.721282958984375, 0.03387390822172165, -0.5279689431190491, -1.4085310697555542, -0.8413089513778687, -0.9099075198173523, 0.05605371668934822, -2.8087537363753277, 1.1603186857012986, -175.79876362045556, 9362.0, 30146.0, 35388.0, 9362.0, 8.390083312988281, -0.0726233571767807, 0.15987029671669006, -0.028461506590247154, -0.08747478574514389, -0.010553085245192051, 0.9970829486846924, -0.10145247727632523, -0.04855918884277344, 1.491943359375, 1.41650390625, 0.0577545166015625, 1.493408203125
49618, 8.042157173156738, 1.3784284591674805, 13.362517356872559, 0.00596587872132659, -0.09296557307243347, -32.735374450683594, 0.03476859629154205, -0.5417739748954773, -1.4101353883743286, -0.8413059115409851, -0.9099067449569702, 0.056024521589279175, -2.8061588717102524, 1.1591958867475682, -175.79731042854544, 9362.0, 30146.0, 35388.0, 9362.0, 8.390083312988281, 0.10053912550210953, -0.0574105866253376, -0.14414800703525543, -0.08747478574514389, -0.010553085245192051, 0.9970829486846924, -0.10145247727632523, -0.04855918884277344, 1.491943359375, 1.41650390625, 0.0577545166015625, 1.4912109375
49628, 8.042869567871094, 1.37758207321167, 13.362051010131836, 0.00596587872132659, -0.09296557307243347, -32.735374450683594, 0.03476859629154205, -0.5417739748954773, -1.4101353883743286, -0.8413086533546448, -0.9099152684211731, 0.056028254330158234, -2.80685431525832, 1.1572926771919185, -175.79159975399958, 9362.0, 30146.0, 35388.0, 9362.0, 8.390083312988281, -0.04890631511807442, 0.5031880140304565, -0.12398917973041534, -0.08720028400421143, -0.010544425807893276, 0.9982421398162842, -0.10145247727632523, -0.04855918884277344, 1.491943359375, 1.41650390625, 0.0577545166015625, 1.4912109375
49658, 8.043991088867188, 1.3733868598937988, 13.361613273620605, 0.007049285341054201, -0.10984184592962265, -32.77773666381836, 0.03745954483747482, -0.583335816860199, -1.4139339923858643, -0.8412871360778809, -0.9098881483078003, 0.056025415658950806, -2.814950151847569, 1.1592275876467966, -175.78618471252088, 9362.0, 30146.0, 35388.0, 9362.0, 8.390083312988281, 0.07997898012399673, 0.05034281313419342, -0.08682893216609955, -0.08615148067474365, -0.008613253943622112, 0.996540367603302, -0.10145247727632523, -0.04855918884277344, 1.491943359375, 1.41650390625, 0.0577545166015625, 1.491943359375
49668, 8.044246673583984, 1.3724894523620605, 13.3599214553833, 0.007049285341054201, -0.10984184592962265, -32.77773666381836, 0.03745954483747482, -0.583335816860199, -1.4139339923858643, -0.8413056135177612, -0.909911572933197, 0.05602942407131195, -2.8041679297224587, 1.154414694717076, -175.7992204934782, 9362.0, 30146.0, 35388.0, 9362.0, 8.390083312988281, -0.12531724572181702, -0.2490222156047821, -0.3734109401702881, -0.08824474364519119, -0.009347735904157162, 0.9949445724487305, -0.10145247727632523, -0.04855918884277344, 1.491943359375, 1.41650390625, 0.0577545166015625, 1.491943359375
49678, 8.0439453125, 1.3722748756408691, 13.358317375183105, 0.007049285341054201, -0.10984184592962265, -32.77773666381836, 0.03745954483747482, -0.583335816860199, -1.4139339923858643, -0.8412966728210449, -0.9098943471908569, 0.056047286838293076, -2.8147764114713407, 1.1600367707769124, -175.7842581914397, 9362.0, 30146.0, 35388.0, 9362.0, 8.390083312988281, 0.18040119111537933, -0.07028836756944656, -0.2527093291282654, -0.08824474364519119, -0.009347735904157162, 0.9949445724487305, -0.10145247727632523, -0.04855918884277344, 1.491943359375, 1.41650390625, 0.0577545166015625, 1.491943359375
49688, 8.044090270996094, 1.3718435764312744, 13.356922149658203, 0.007049285341054201, -0.10984184592962265, -32.77773666381836, 0.03745954483747482, -0.583335816860199, -1.4139339923858643, -0.8412882089614868, -0.9098919630050659, 0.056050755083560944, -2.814736325563433, 1.1548570297960339, -175.78838207928936, 9362.0, 30146.0, 35388.0, 9362.0, 8.390083312988281, 0.18040119111537933, -0.07028836756944656, -0.2527093291282654, -0.08824474364519119, -0.009347735904157162, 0.9949445724487305, -0.10145247727632523, -0.04855918884277344, 1.491943359375, 1.41650390625, 0.0577545166015625, 1.491943359375
49698, 8.04436206817627, 1.3728739023208618, 13.353243827819824, 0.007049285341054201, -0.10984184592962265, -32.77773666381836, 0.03745954483747482, -0.583335816860199, -1.4139339923858643, -0.8412991166114807, -0.9099056720733643, 0.05603015795350075, -2.81077574744144, 1.1557127110715157, -175.79788316686842, 9362.0, 30146.0, 35388.0, 9362.0, 8.390083312988281, 0.128622367978096, -0.07745922356843948, -0.1969377100467682, -0.08602730929851532, -0.007785603404045105, 0.9956111311912537, -0.10145247727632523, -0.04855918884277344, 1.491943359375, 1.41650390625, 0.0577545166015625, 1.491943359375
49708, 8.045231819152832, 1.372946858406067, 13.351760864257812, 0.007049285341054201, -0.10984184592962265, -32.77773666381836, 0.03745954483747482, -0.583335816860199, -1.4139339923858643, -0.8412961959838867, -0.9099136590957642, 0.05604015663266182, -2.807931796257689, 1.1551663343408336, -175.79817098709304, 9362.0, 30146.0, 35388.0, 9362.0, 8.390083312988281, -0.2211175560951233, 0.00044981183600611985, 0.44240882992744446, -0.08717584609985352, -0.009833204559981823, 0.9978604316711426, -0.10145247727632523, -0.04855918884277344, 1.491943359375, 1.41650390625, 0.0577545166015625, 1.491943359375
49728, 8.045174598693848, 1.375137448310852, 13.352960586547852, 0.01033481489866972, -0.16093580424785614, -32.891300201416016, 0.04467937722802162, -0.6939892768859863, -1.42534339427948, -0.8413102626800537, -0.9099120497703552, 0.05605649948120117, -2.810394282778065, 1.156481473539884, -175.79650393961612, 9362.0, 30146.0, 35388.0, 9362.0, 8.390083312988281, -0.009774995967745781, 0.0718485563993454, 0.047294385731220245, -0.0872030034661293, -0.008617125451564789, 0.9932067394256592, -0.10145247727632523, -0.04855918884277344, 1.491943359375, 1.41650390625, 0.0577545166015625, 1.491943359375
49748, 8.043285369873047, 1.375407099723816, 13.35523796081543, 0.01033481489866972, -0.16093580424785614, -32.891300201416016, 0.04467937722802162, -0.6939892768859863, -1.42534339427948, -0.8413124084472656, -0.9099145531654358, 0.05604848638176918, -2.8085900282400473, 1.162030042792594, -175.80103345386888, 9362.0, 30146.0, 35388.0, 9362.0, 8.390083312988281, -0.3015539348125458, 0.01600753888487816, -0.04106061905622482, -0.08803308755159378, -0.010358033701777458, 0.9972842335700989, -0.10145247727632523, -0.04855918884277344, 1.491943359375, 1.41650390625, 0.0577545166015625, 1.49267578125
49758, 8.04172134399414, 1.372720718383789, 13.356423377990723, 0.01033481489866972, -0.16093580424785614, -32.891300201416016, 0.04467937722802162, -0.6939892768859863, -1.42534339427948, -0.8412877321243286, -0.9098900556564331, 0.05603238195180893, -2.812816125911987, 1.1601173623508316, -175.7858462807901, 9362.0, 30146.0, 35388.0, 9362.0, 8.390083312988281, 0.1822475790977478, 0.058521293103694916, 0.1898689866065979, -0.0881328284740448, -0.008914072066545486, 0.9997817277908325, -0.10145247727632523, -0.04855918884277344, 1.491943359375, 1.41650390625, 0.0577545166015625, 1.49267578125
49778, 8.042183876037598, 1.3745501041412354, 13.356766700744629, 0.012681234627962112, -0.19736504554748535, -32.96274185180664, 0.04918079078197479, -0.763190507888794, -1.4321969747543335, -0.841303288936615, -0.9099056124687195, 0.05603838711977005, -2.8073941839593983, 1.1596900248269435, -175.79864224233728, 9362.0, 30146.0, 35388.0, 9362.0, 8.390083312988281, 0.07006541639566422, 0.855940580368042, 0.3075523376464844, -0.08866425603628159, -0.0078496178612113, 0.9952424764633179, -0.10145247727632523, -0.04855918884277344, 1.491943359375, 1.41650390625, 0.0577545166015625, 1.4970703125
49798, 8.043266296386719, 1.366408348083496, 13.361559867858887, 0.013177577406167984, -0.20506633818149567, -32.97706985473633, 0.05008772388100624, -0.7770681977272034, -1.4332891702651978, -0.8412918448448181, -0.9098936319351196, 0.05604647099971771, -2.818890854339561, 1.1577012483826934, -175.7934069720284, 9362.0, 30146.0, 35388.0, 9362.0, 8.390083312988281, -0.3119596242904663, -0.11341045796871185, 0.2963760495185852, -0.08731801062822342, -0.009262538515031338, 0.9987161755561829, -0.09097070246934891, -0.09335899353027344, 1.48828125, 1.41650390625, 0.0577545166015625, 1.4970703125
49808, 8.043018341064453, 1.3673361539840698, 13.362592697143555, 0.014197391457855701, -0.22088444232940674, -33.00576400756836, 0.05189967155456543, -0.8047391772270203, -1.4360458850860596, -0.8413132429122925, -0.9099143147468567, 0.05605367571115494, -2.808309104855308, 1.1578158556337996, -175.79703397433542, 9362.0, 30146.0, 35388.0, 9362.0, 8.390083312988281, -0.08824405819177628, -0.08132532984018326, -0.11421406269073486, -0.08867426216602325, -0.011349810287356377, 0.9986816644668579, -0.09097070246934891, -0.09335899353027344, 1.48828125, 1.41650390625, 0.0577545166015625, 1.4970703125
49818, 8.042604446411133, 1.3688222169876099, 13.3622465133667, 0.014197391457855701, -0.22088444232940674, -33.00576400756836, 0.05189967155456543, -0.8047391772270203, -1.4360458850860596, -0.841302752494812, -0.9098897576332092, 0.05603078007698059, -2.817618961237221, 1.1578177347862209, -175.78000960483374, 9362.0, 30146.0, 35388.0, 9362.0, 8.390083312988281, 0.059699662029743195, 0.015236981213092804, -0.1183711439371109, -0.08867426216602325, -0.011349810287356377, 0.9986816644668579, -0.09097070246934891, -0.09335899353027344, 1.48828125, 1.41650390625, 0.0577545166015625, 1.490478515625
49828, 8.043044090270996, 1.3676425218582153, 13.362356185913086, 0.014197391457855701, -0.22088444232940674, -33.00576400756836, 0.05189967155456543, -0.8047391772270203, -1.4360458850860596, -0.8413060307502747, -0.9099141359329224, 0.056054066866636276, -2.809848701752567, 1.1605424714499009, -175.7983242062693, 9362.0, 30146.0, 35388.0, 9362.0, 8.390083312988281, -0.15060751140117645, -0.2788492441177368, -0.16261419653892517, -0.08867910504341125, -0.010051662102341652, 0.996086061000824, -0.09097070246934891, -0.09335899353027344, 1.48828125, 1.41650390625, 0.0577545166015625, 1.490478515625
49848, 8.044718742370605, 1.3687411546707153, 13.362825393676758, 0.014197391457855701, -0.22088444232940674, -33.00576400756836, 0.05189967155456543, -0.8047391772270203, -1.4360458850860596, -0.8413052558898926, -0.9098932147026062, 0.056032683700323105, -2.819171786018685, 1.1529750474672937, -175.7810087281641, 9362.0, 30146.0, 35388.0, 9362.0, 8.390083312988281, -0.18106959760189056, -0.11306386440992355, -0.09677417576313019, -0.08710625767707825, -0.010268683545291424, 0.9969631433486938, -0.09097070246934891, -0.09335899353027344, 1.48828125, 1.450927734375, 0.1063690185546875, 1.490478515625
49868, 8.04425048828125, 1.3734492063522339, 13.360356330871582, 0.01747601479291916, -0.27166298031806946, -33.09214782714844, 0.05738222226500511, -0.8878393173217773, -1.4436966180801392, -0.841293454170227, -0.909902811050415, 0.0560409277677536, -2.8177386196509526, 1.1516683185821535, -175.78598825008322, 9362.0, 30146.0, 35388.0, 9362.0, 8.390083312988281, -0.23425869643688202, 0.18248334527015686, -0.069133460521698, -0.08718204498291016, -0.011551947332918644, 0.9968762397766113, -0.09097070246934891, -0.09335899353027344, 1.48828125, 1.450927734375, 0.1063690185546875, 1.4912109375
49878, 8.043644905090332, 1.3722255229949951, 13.360078811645508, 0.01747601479291916, -0.27166298031806946, -33.09214782714844, 0.05738222226500511, -0.8878393173217773, -1.4436966180801392, -0.8412991762161255, -0.9099050760269165, 0.056038592010736465, -2.812003822312681, 1.1596146569422388, -175.8036622944229, 9362.0, 30146.0, 35388.0, 9362.0, 8.390083312988281, -0.1823405921459198, 0.03480856493115425, -0.11108337342739105, -0.08825520426034927, -0.009677932597696781, 0.9989656805992126, -0.09097070246934891, -0.09335899353027344, 1.48828125, 1.450927734375, 0.1063690185546875, 1.4912109375
49908, 8.044934272766113, 1.3691613674163818, 13.359420776367188, 0.01747601479291916, -0.27166298031806946, -33.09214782714844, 0.05738222226500511, -0.8878393173217773, -1.4436966180801392, -0.8413040041923523, -0.909915566444397, 0.05603336915373802, -2.8117052324565446, 1.16855370304026, -175.79958872882705, 9362.0, 30146.0, 35388.0, 9362.0, 8.390083312988281, 0.14811991155147552, 0.030800845474004745, 0.022020719945430756, -0.0893167108297348, -0.010235908441245556, 0.9976562261581421, -0.06783824414014816, 0.03208160400390625, 1.49853515625, 1.450927734375, 0.1063690185546875, 1.4912109375
49918, 8.045758247375488, 1.3694177865982056, 13.359659194946289, 0.020458370447158813, -0.31778645515441895, -33.16448974609375, 0.061913639307022095, -0.957118570804596, -1.4499561786651611, -0.8412840366363525, -0.9098799824714661, 0.056023772805929184, -2.8133551015512466, 1.1596878030716198, -175.78627245652532, 9362.0, 30146.0, 35388.0, 9362.0, 8.390083312988281, 0.061495836824178696, 0.05669183284044266, -0.019541552290320396, -0.08614861965179443, -0.007377541158348322, 0.9956957101821899, -0.06783824414014816, 0.03208160400390625, 1.49853515625, 1.450927734375, 0.1063690185546875, 1.4912109375
49928, 8.045470237731934, 1.3669697046279907, 13.360122680664062, 0.020458370447158813, -0.31778645515441895, -33.16448974609375, 0.061913639307022095, -0.957118570804596, -1.4499561786651611, -0.8412851691246033, -0.909887969493866, 0.05603176727890968, -2.8192675877326616, 1.158518335817348, -175.7846614336024, 9362.0, 30146.0, 35388.0, 9362.0, 8.390083312988281, -0.01276919525116682, 0.23887662589550018, -0.017238471657037735, -0.08653600513935089, -0.006910401396453381, 0.9946001768112183, -0.06783824414014816, 0.03208160400390625, 1.49853515625, 1.450927734375, 0.1063690185546875, 1.4912109375
49948, 8.046024322509766, 1.3656833171844482, 13.357749938964844, 0.02235681377351284, -0.3471234142780304, -33.20804977416992, 0.06465067714452744, -0.9986588954925537, -1.4539316892623901, -0.8413071036338806, -0.9099128246307373, 0.056047387421131134, -2.8066345114225117, 1.1630912948428147, -175.79824549194888, 9362.0, 30146.0, 35388.0, 9362.0, 8.390083312988281, 0.06263934075832367, 0.32835936546325684, -0.08506250381469727, -0.08794496208429337, -0.009151165373623371, 0.9954543113708496, -0.06783824414014816, 0.03208160400390625, 1.49853515625, 1.46630859375, 0.132171630859375, 1.4912109375
49958, 8.046492576599121, 1.3634406328201294, 13.356142044067383, 0.023007910698652267, -0.3571791648864746, -33.22259521484375, 0.06556786596775055, -1.0124891996383667, -1.4553648233413696, -0.8412929773330688, -0.9098900556564331, 0.05600755661725998, -2.814425626354503, 1.16588412778745, -175.78347366462154, 9362.0, 30146.0, 35388.0, 9362.0, 8.390083312988281, -0.06798652559518814, -0.23417675495147705, -0.17721398174762726, -0.08617351204156876, -0.007800279650837183, 0.9956827759742737, -0.06783824414014816, 0.03208160400390625, 1.49853515625, 1.46630859375, 0.132171630859375, 1.4912109375
50008, 8.050338745117188, 1.353630781173706, 13.352550506591797, 0.02501623146235943, -0.38817647099494934, -33.266319274902344, 0.06832202523946762, -1.0539922714233398, -1.459606647491455, -0.8413038849830627, -0.9099094867706299, 0.0560377761721611, -2.80452399325183, 1.1655799556718591, -175.80402056326335, 9362.0, 30146.0, 35388.0, 9362.0, 8.390083312988281, -0.04277399182319641, 0.025754159316420555, 0.014942427165806293, -0.0883607268333435, -0.010100007988512516, 0.998116672039032, -0.06783824414014816, 0.03208160400390625, 1.49853515625, 1.46630859375, 0.132171630859375, 1.4970703125
50028, 8.05190658569336, 1.3519173860549927, 13.353384971618652, 0.02782348357141018, -0.43144354224205017, -33.32481002807617, 0.07205155491828918, -1.109404444694519, -1.4647854566574097, -0.8413064479827881, -0.9099180102348328, 0.056003388017416, -2.8094230986746247, 1.1598466114491544, -175.80326227675783, 9362.0, 30146.0, 35388.0, 9362.0, 8.390083312988281, -0.07527662813663483, 0.19737589359283447, 0.3343646824359894, -0.08488099277019501, -0.011273006908595562, 0.995982825756073, -0.06783824414014816, 0.03208160400390625, 1.49853515625, 1.46630859375, 0.132171630859375, 1.4970703125
50038, 8.051513671875, 1.3511838912963867, 13.355965614318848, 0.028548693284392357, -0.4426068067550659, -33.3394660949707, 0.07299063354730606, -1.12325119972229, -1.4661281108856201, -0.8412864804267883, -0.90989089012146, 0.056021444499492645, -2.8155162971611363, 1.160717138828602, -175.7847790595658, 9362.0, 30146.0, 35388.0, 9362.0, 8.390083312988281, 0.06877248734235764, -0.05244186148047447, -0.03656651824712753, -0.08488099277019501, -0.011273006908595562, 0.995982825756073, -0.06783824414014816, 0.03208160400390625, 1.49853515625, 1.46630859375, 0.132171630859375, 1.4970703125
50048, 8.052331924438477, 1.3507078886032104, 13.356855392456055, 0.029283298179507256, -0.4539085030555725, -33.35413360595703, 0.07393107563257217, -1.1370911598205566, -1.4675328731536865, -0.8412990570068359, -0.9099084734916687, 0.05603523552417755, -2.8088206289440203, 1.1617910051851084, -175.80072576006847, 9362.0, 30146.0, 35388.0, 9362.0, 8.390083312988281, -0.013314973562955856, 0.20840074121952057, 0.06490005552768707, -0.08613253384828568, -0.009640410542488098, 0.9928172826766968, -0.06783824414014816, 0.03208160400390625, 1.49853515625, 1.46630859375, 0.132171630859375, 1.4970703125
50068, 8.052447319030762, 1.3520623445510864, 13.359811782836914, 0.029283298179507256, -0.4539085030555725, -33.35413360595703, 0.07393107563257217, -1.1370911598205566, -1.4675328731536865, -0.8413072824478149, -0.9099140763282776, 0.056025248020887375, -2.8058626422420994, 1.161409867606693, -175.79693945056664, 9362.0, 30146.0, 35388.0, 9362.0, 8.390083312988281, 0.011416403576731682, 0.11731790751218796, -0.14107221364974976, -0.08872399479150772, -0.009632998146116734, 0.9947158694267273, -0.06783824414014816, 0.03208160400390625, 1.49853515625, 1.46630859375, 0.132171630859375, 1.4912109375
50088, 8.053365707397461, 1.3534473180770874, 13.360054969787598, 0.03231584280729294, -0.5004979372024536, -33.41295623779297, 0.0776953175663948, -1.1923688650131226, -1.4737316370010376, -0.8412963151931763, -0.9098865389823914, 0.056019771844148636, -2.8123444734345857, 1.1562118872232077, -175.7817347791198, 9362.0, 30146.0, 35388.0, 9362.0, 8.390083312988281, -0.0647037997841835, -0.07575572282075882, -0.04158826544880867, -0.08880564570426941, -0.008499577641487122, 0.9967688918113708, -0.06783824414014816, 0.03208160400390625, 1.49853515625, 1.46630859375, 0.132171630859375, 1.489013671875
50098, 8.053316116333008, 1.352136492729187, 13.360330581665039, 0.03231584280729294, -0.5004979372024536, -33.41295623779297, 0.0776953175663948, -1.1923688650131226, -1.4737316370010376, -0.8413060307502747, -0.9099053740501404, 0.056009817868471146, -2.8029289145890437, 1.1652960627717164, -175.80220275964257, 9362.0, 30146.0, 35388.0, 9362.0, 8.390083312988281, 0.026387780904769897, -0.16372130811214447, 0.20906230807304382, -0.08584784716367722, -0.009883453138172626, 0.9959568381309509, -0.06783824414014816, 0.03208160400390625, 1.49853515625, 1.46630859375, 0.132171630859375, 1.489013671875
50108, 8.05312728881836, 1.3541295528411865, 13.361746788024902, 0.03231584280729294, -0.5004979372024536, -33.41295623779297, 0.0776953175663948, -1.1923688650131226, -1.4737316370010376, -0.8412970900535583, -0.9098924994468689, 0.05602177232503891, -2.808479941452013, 1.1584789570568432, -175.78505033008162, 9362.0, 30146.0, 35388.0, 9362.0, 8.390083312988281, -0.13685265183448792, 0.56334388256073, 0.31542345881462097, -0.08689457178115845, -0.009276855736970901, 0.9966753125190735, -0.06783824414014816, 0.03208160400390625, 1.49853515625, 1.46630859375, 0.132171630859375, 1.489013671875
50128, 8.05269718170166, 1.3480908870697021, 13.36558723449707, 0.03549902141094208, -0.5493010878562927, -33.47201156616211, 0.08146197348833084, -1.2477879524230957, -1.4789948463439941, -0.841292142868042, -0.9098926782608032, 0.05603243038058281, -2.8117622535001887, 1.1636579595360956, -175.78715304978928, 9362.0, 30146.0, 35388.0, 9362.0, 8.390083312988281, 0.05566012114286423, 0.40301090478897095, 0.020721454173326492, -0.08557573705911636, -0.009341942146420479, 0.9946097731590271, -0.06783824414014816, 0.03208160400390625, 1.49853515625, 1.46630859375, 0.132171630859375, 1.486083984375
50148, 8.053447723388672, 1.344611406326294, 13.36526870727539, 0.037147168070077896, -0.5745335817337036, -33.50162124633789, 0.08335509896278381, -1.2754528522491455, -1.4819056987762451, -0.8412961363792419, -0.9098898768424988, 0.05601640045642853, -2.8127202400995706, 1.1601726510851904, -175.7851268434404, 9362.0, 30146.0, 35388.0, 9362.0, 8.390083312988281, -0.0021854201331734657, 0.47489461302757263, 0.3050333559513092, -0.08685525506734848, -0.006863468326628208, 0.9954861402511597, -0.06783824414014816, 0.03208160400390625, 1.49853515625, 1.46630859375, 0.132171630859375, 1.486083984375
50168, 8.05370044708252, 1.3438243865966797, 13.36737060546875, 0.037147168070077896, -0.5745335817337036, -33.50162124633789, 0.08335509896278381, -1.2754528522491455, -1.4819056987762451, -0.8413095474243164, -0.9099074602127075, 0.0560140497982502, -2.8049663665202993, 1.1675949615594448, -175.7920903705964, 9362.0, 30146.0, 35388.0, 9362.0, 8.390083312988281, -0.09607762843370438, 0.19420164823532104, -0.18970578908920288, -0.08732926845550537, -0.010247406549751759, 0.9950173497200012, -0.06783824414014816, 0.03208160400390625, 1.49853515625, 1.385009765625, 0.0276336669921875, 1.49267578125
50178, 8.05444049835205, 1.3429311513900757, 13.363858222961426, 0.037147168070077896, -0.5745335817337036, -33.50162124633789, 0.08335509896278381, -1.2754528522491455, -1.4819056987762451, -0.8412951231002808, -0.9098847508430481, 0.05601149797439575, -2.8102672391732053, 1.1664794471037112, -175.7854377274135, 9362.0, 30146.0, 35388.0, 9362.0, 8.390083312988281, -0.12723273038864136, -0.15641634166240692, -0.03673410788178444, -0.08534543961286545, -0.010623686946928501, 0.9953014254570007, -0.06783824414014816, 0.03208160400390625, 1.49853515625, 1.385009765625, 0.0276336669921875, 1.49267578125
50208, 8.056485176086426, 1.3404042720794678, 13.362208366394043, 0.04232051223516464, -0.6535509824752808, -33.59079360961914, 0.08909586071968079, -1.3584703207015991, -1.4904760122299194, -0.8413075804710388, -0.9099137783050537, 0.056039921939373016, -2.8049301850602077, 1.1618545106115619, -175.80013414197293, 9362.0, 30146.0, 35388.0, 9362.0, 8.390083312988281, 0.17400723695755005, 0.03213069587945938, -0.00500851683318615, -0.08797678351402283, -0.008329279720783234, 0.9957264065742493, -0.08709482848644257, 0.11272048950195312, 1.505126953125, 1.385009765625, 0.0276336669921875, 1.49560546875
50228, 8.057876586914062, 1.3395609855651855, 13.359807014465332, 0.04412159323692322, -0.6809971332550049, -33.62063217163086, 0.09101499617099762, -1.3861488103866577, -1.493336796760559, -0.8412957787513733, -0.9098902344703674, 0.05603865534067154, -2.81656012725902, 1.1619838732182757, -175.78669571209647, 9362.0, 30146.0, 35388.0, 9362.0, 8.390083312988281, 0.20201772451400757, 0.32848185300827026, -0.40833038091659546, -0.0887889564037323, -0.011095553636550903, 0.9973253607749939, -0.08709482848644257, 0.11272048950195312, 1.505126953125, 1.385009765625, 0.0276336669921875, 1.49560546875
50238, 8.058951377868652, 1.3390159606933594, 13.356462478637695, 0.04412159323692322, -0.6809971332550049, -33.62063217163086, 0.09101499617099762, -1.3861488103866577, -1.493336796760559, -0.8413060903549194, -0.9099185466766357, 0.056042179465293884, -2.80950184109111, 1.1627434552697196, -175.79477037194755, 9362.0, 30146.0, 35388.0, 9362.0, 8.390083312988281, 0.31540992856025696, 0.06509020924568176, -0.23314712941646576, -0.0887889564037323, -0.011095553636550903, 0.9973253607749939, -0.08709482848644257, 0.11272048950195312, 1.505126953125, 1.385009765625, 0.0276336669921875, 1.494140625
50248, 8.060580253601074, 1.3373849391937256, 13.355212211608887, 0.04412159323692322, -0.6809971332550049, -33.62063217163086, 0.09101499617099762, -1.3861488103866577, -1.493336796760559, -0.8412984013557434, -0.9098901748657227, 0.056032177060842514, -2.815998285056903, 1.1570915366690144, -175.78837883136947, 9362.0, 30146.0, 35388.0, 9362.0, 8.390083312988281, -0.03612525761127472, 0.015287523157894611, -0.07636557519435883, -0.08771421760320663, -0.008507570251822472, 0.9942800402641296, -0.08709482848644257, 0.11272048950195312, 1.505126953125, 1.385009765625, 0.0276336669921875, 1.494140625
50258, 8.060042381286621, 1.3361234664916992, 13.355053901672363, 0.04412159323692322, -0.6809971332550049, -33.62063217163086, 0.09101499617099762, -1.3861488103866577, -1.493336796760559, -0.841296911239624, -0.9098966121673584, 0.0560327023267746, -2.8155609988118586, 1.1582061518820126, -175.78654353944893, 9362.0, 30146.0, 35388.0, 9362.0, 8.390083312988281, 0.04492654651403427, 0.26469507813453674, -0.15355455875396729, -0.08618009835481644, -0.00902540609240532, 0.9943209886550903, -0.08709482848644257, 0.11272048950195312, 1.505126953125, 1.385009765625, 0.0276336669921875, 1.494140625
50268, 8.061177253723145, 1.336072564125061, 13.353645324707031, 0.04412159323692322, -0.6809971332550049, -33.62063217163086, 0.09101499617099762, -1.3861488103866577, -1.493336796760559, -0.8412973880767822, -0.9099022150039673, 0.05604035034775734, -2.808691796836085, 1.1661481231252537, -175.80494292360288, 9362.0, 30146.0, 35388.0, 9362.0, 8.390083312988281, 0.16805769503116608, 0.01857181452214718, -0.16441549360752106, -0.0851094052195549, -0.009677395224571228, 0.994491696357727, -0.08709482848644257, 0.11272048950195312, 1.505126953125, 1.385009765625, 0.0276336669921875, 1.494140625
50278, 8.062867164611816, 1.336804986000061, 13.351847648620605, 0.04412159323692322, -0.6809971332550049, -33.62063217163086, 0.09101499617099762, -1.3861488103866577, -1.493336796760559, -0.8412935733795166, -0.909883439540863, 0.056048523634672165, -2.8187420579490494, 1.159541467066191, -175.78641871405162, 9362.0, 30146.0, 35388.0, 9362.0, 8.390083312988281, 0.21891726553440094, -0.21955189108848572, -0.1913745254278183, -0.08687585592269897, -0.009588034823536873, 0.9954288005828857, -0.08709482848644257, 0.11272048950195312, 1.505126953125, 1.385009765625, 0.0276336669921875, 1.494140625
50318, 8.066365242004395, 1.3381763696670532, 13.347232818603516, 0.05270440876483917, -0.8113613128662109, -33.755577087402344, 0.09971825778484344, -1.5108174085617065, -1.5058152675628662, -0.8412973880767822, -0.9098813533782959, 0.05606105551123619, -2.816101424746929, 1.1602902044481311, -175.78856495501645, 9362.0, 30146.0, 35388.0, 9362.0, 8.390083312988281, -0.10933168232440948, 0.19370520114898682, -0.1651034951210022, -0.08617058396339417, -0.008657129481434822, 0.9962111115455627, -0.10830606520175934, -0.31735801696777344, 1.469970703125, 1.385009765625, 0.0276336669921875, 1.494140625
50328, 8.066505432128906, 1.3360135555267334, 13.346685409545898, 0.05270440876483917, -0.8113613128662109, -33.755577087402344, 0.09971825778484344, -1.5108174085617065, -1.5058152675628662, -0.8413076400756836, -0.9099094271659851, 0.05604274198412895, -2.8046257804097396, 1.1628837602785325, -175.79394006055637, 9362.0, 30146.0, 35388.0, 9362.0, 8.390083312988281, -0.05591448396444321, -0.09703239798545837, -0.09045058488845825, -0.0840245708823204, -0.0081775588914752, 0.9970869421958923, -0.10830606520175934, -0.31735801696777344, 1.469970703125, 1.385009765625, 0.0276336669921875, 1.494140625
50338, 8.066798210144043, 1.3374614715576172, 13.345234870910645, 0.05270440876483917, -0.8113613128662109, -33.755577087402344, 0.09971825778484344, -1.5108174085617065, -1.5058152675628662, -0.8413149118423462, -0.9099059700965881, 0.05606052279472351, -2.809611328058866, 1.1653631444800965, -175.80037266920266, 9362.0, 30146.0, 35388.0, 9362.0, 8.390083312988281, 0.17114047706127167, 0.06266770511865616, 0.12554797530174255, -0.08571168780326843, -0.009662887081503868, 0.9948803186416626, -0.10830606520175934, -0.31735801696777344, 1.469970703125, 1.385009765625, 0.0276336669921875, 1.494140625
50348, 8.06741714477539, 1.3364977836608887, 13.346476554870605, 0.05270440876483917, -0.8113613128662109, -33.755577087402344, 0.09971825778484344, -1.5108174085617065, -1.5058152675628662, -0.8413124084472656, -0.909925639629364, 0.056054770946502686, -2.810975357328584, 1.1555421256085765, -175.80156707285275, 9362.0, 30146.0, 35388.0, 9362.0, 8.390083312988281, -0.02818351611495018, 0.2160215526819229, 0.13012686371803284, -0.08659163862466812, -0.009237742982804775, 0.9950315952301025, -0.10830606520175934, -0.31735801696777344, 1.469970703125, 1.385009765625, 0.0276336669921875, 1.494140625
50358, 8.066225051879883, 1.335754632949829, 13.347310066223145, 0.05677052587270737, -0.872903048992157, -33.81591796875, 0.10358991473913193, -1.5662740468978882, -1.5112658739089966, -0.8413180112838745, -0.9099079370498657, 0.05604014918208122, -2.8071353536186194, 1.1603484334390828, -175.79655151005812, 9362.0, 30146.0, 35388.0, 9362.0, 8.390083312988281, -0.1789797842502594, 0.14773911237716675, -0.12156274914741516, -0.08789637684822083, -0.010460101068019867, 0.9959311485290527, -0.10830606520175934, -0.31735801696777344, 1.469970703125, 1.385009765625, 0.0276336669921875, 1.494140625
