timeTick, roll, pitch, yaw, stateX, stateY, stateZ, stateVX, stateVY, stateVZ, otX0, otY0, otZ0, otRoll0, otPitch0, otYaw0, left wing, pitch motor, yaw motor, right wing, voltage, roll rate, pitch rate, yaw rate, A_x, A_y, A_z, current, i_raw, v_raw, airflow_voltage, airflow_speed, pot_Pitch
62502, 0.0009398618713021278, 0.0010758283315226436, 0.0019478383474051952, 0, 0, 0, 0, 0, 0, -0.8021125793457031, -0.8805124759674072, 0.054754745215177536, -1.457546259957797, 3.0298390960303436, -177.1778236029798, 0, 0, 0, 0, 0, 0, 0, 0, 0, 0, 0, 0, 0, 0, 0, 0, 0
62512, -0.0006752115441486239, 0.0006203640950843692, 0.0027093905955553055, 0.0, 0.0, -4.519708454608917e-06, 1.6972553140703894e-08, 1.482849754097515e-08, -0.0009039384312927723, -0.8020848035812378, -0.8805153965950012, 0.054826002568006516, -1.4505327180064036, 3.0466176303001475, -177.1878122345895, 9362.0, 30146.0, 35388.0, 9362.0, 0, -0.09972207993268967, 0.04737008735537529, -0.010914230719208717, 0, 0, 0, 0, 0, 0, 0, 0, 0
62522, -0.0009067127830348909, -0.00100162613671273, 0.002857401268556714, -8.951360541686881e-09, -7.820580627537765e-09, -1.828063977882266e-05, -1.814725692383945e-06, -1.6055766991485143e-06, -0.001847877399995923, -0.8020786643028259, -0.8805114030838013, 0.0548161081969738, -1.4571456294860756, 3.0405601121737504, -177.1920966419591, 9362.0, 30146.0, 35388.0, 9362.0, 0, -0.04051610082387924, 0.272503137588501, 0.0870605856180191, -0.1313488930463791, -0.034066565334796906, 0.9903720021247864, 0, 0, 0, 1.5966796875, 0.409210205078125, 0
62532, -0.0010638857493177056, -0.0041190143674612045, 0.004555542021989822, -3.23584785633102e-08, -1.815200079136048e-08, -4.14931564591825e-05, -2.8934903184563154e-06, -4.645352476018161e-07, -0.0027942268643528223, -0.8020896315574646, -0.8805119395256042, 0.054833631962537766, -1.4564177933485019, 3.047589594560634, -177.1877887998829, 9362.0, 30146.0, 35388.0, 9362.0, 0, 0.09304050356149673, 0.2460567057132721, -0.04379888251423836, -0.1300155371427536, -0.0343492329120636, 0.9907687902450562, 0, 0, 0, 1.610595703125, 0.442352294921875, 1.4912109375
62542, -0.0003801652055699378, -0.006040938198566437, 0.004822062328457832, -5.279771997379612e-08, -1.5105976913787345e-08, -7.393909618258476e-05, -1.243385781890538e-06, 1.0713190476963064e-06, -0.0036945620086044073, -0.8020887970924377, -0.8805031180381775, 0.05480605736374855, -1.4556475514191234, 3.0413731124623666, -177.1814729102823, 9362.0, 30146.0, 35388.0, 9362.0, 0, -0.21953432261943817, -0.28326135873794556, -0.33533135056495667, -0.13029856979846954, -0.03352516144514084, 0.9901908040046692, 0, 0, 0, 1.598876953125, 0.414520263671875, 1.4912109375
62552, -0.0010849201353266835, -0.004993942100554705, 0.0028223309200257063, -3.031494344440944e-08, 4.628649463711554e-09, -0.00011568295303732157, 5.7077568271779455e-06, 2.8870820187876234e-06, -0.004653815180063248, -0.8020931482315063, -0.880508303642273, 0.054824501276016235, -1.4553652569003752, 3.040510584563293, -177.1815372761629, 9362.0, 30146.0, 35388.0, 9362.0, 0, 0.08756108582019806, 0.09973100572824478, -0.1524563878774643, -0.12831838428974152, -0.033412594348192215, 0.9905900955200195, 0, 0, 0, 1.352783203125, 0.015350341796875, 1.49267578125
62562, -0.00029151528724469244, -0.00581552367657423, 0.0021818610839545727, 7.799925327844903e-08, 3.672819204325606e-08, -0.0001667616015765816, 1.5971689208527096e-05, 3.5213072351325536e-06, -0.005561513360589743, -0.8020738959312439, -0.8805151581764221, 0.054811954498291016, -1.4523777438703422, 3.0476795384447257, -177.18759932128853, 9362.0, 30146.0, 35388.0, 9362.0, 0, 0.04849691316485405, 0.18484480679035187, 0.1327742338180542, -0.1295870840549469, -0.03504250943660736, 0.9917881488800049, 0, 0, 0, 1.578369140625, 0.3665008544921875, 1.49267578125
62572, 0.0003018926363438368, -0.005872270092368126, 0.002649185713380575, 2.8010975938741467e-07, 8.115332406077869e-08, -0.00022648830781690776, 2.4438646505586803e-05, 5.375003638619091e-06, -0.006383428815752268, -0.8020901083946228, -0.8804967403411865, 0.05481923744082451, -1.451150437342791, 3.0444827086135433, -177.18844499768434, 9362.0, 30146.0, 35388.0, 9362.0, 0, 0.021422134712338448, -0.0963800922036171, -0.15454669296741486, -0.1282050460577011, -0.03352862596511841, 0.9921923279762268, 0, 0, 0, 1.571044921875, 0.349578857421875, 1.494873046875
62582, 0.0002883941924665123, -0.006855797953903675, 0.001025050412863493, 5.738785944231495e-07, 1.3738062420998176e-07, -0.0002942969149444252, 3.4314332879148424e-05, 5.878765932720853e-06, -0.0071778972633183, -0.8021101355552673, -0.8804979920387268, 0.05476005747914314, -1.4506406513999108, 3.0198743474173284, -177.1725960500468, 9362.0, 30146.0, 35388.0, 9362.0, 0, -0.22754324972629547, 0.0074193538166582584, 0.31150004267692566, -0.1287398785352707, -0.03322872519493103, 0.9907780885696411, 0, 0, 0, 1.5556640625, 0.3145904541015625, 1.494873046875
62592, -0.000498271721880883, -0.009494854137301445, 0.004100142978131771, 9.668399343354395e-07, 1.9360946623692143e-07, -0.0003705036942847073, 4.426272425916977e-05, 5.366508503357181e-06, -0.008063061162829399, -0.8020970225334167, -0.8805100321769714, 0.05480249971151352, -1.4535674574971225, 3.0407552461898035, -177.18536708084966, 9362.0, 30146.0, 35388.0, 9362.0, 0, 0.08086088299751282, 0.38504934310913086, -0.15617957711219788, -0.12781228125095367, -0.0332968607544899, 0.9895207285881042, 0, 0, 0, 1.5791015625, 0.368133544921875, 1.49267578125
62602, 0.00038372716517187655, -0.012772439047694206, 0.00393237778916955, 1.4675520105811302e-06, 2.4483222205162747e-07, -0.00045620481250807643, 5.583303573075682e-05, 4.864756192546338e-06, -0.009076772257685661, -0.8020871877670288, -0.8804988265037537, 0.054824359714984894, -1.4531329175981824, 3.045607565588284, -177.18537845608918, 9362.0, 30146.0, 35388.0, 9362.0, 8.390083312988281, 0.11525367200374603, 0.01633169688284397, -0.0889405831694603, -0.1277547925710678, -0.032466258853673935, 0.9892333149909973, 0, 0, 0, 1.4794921875, 0.155975341796875, 1.49267578125
62612, 0.0009194199228659272, -0.012788290157914162, 0.003651332575827837, 2.1063096937723458e-06, 2.9770623655167583e-07, -0.0005521401762962341, 7.185943832155317e-05, 5.725892606278649e-06, -0.01010990422219038, -0.8020890951156616, -0.8805092573165894, 0.05481569096446037, -1.455306992711229, 3.0387472119999757, -177.18137067515605, 9362.0, 30146.0, 35388.0, 9362.0, 8.390083312988281, 0.22677963972091675, 0.1359371691942215, -0.1231076642870903, -0.13034681975841522, -0.03180050477385521, 0.9897510409355164, -0.06812047958374023, 0.0052013397216796875, 1.496337890625, 1.5732421875, 0.354736328125, 1.4912109375
62622, 0.002270249417051673, -0.014321963302791119, 0.003037816844880581, 2.933154064521659e-06, 3.517204163472343e-07, -0.0006581426132470369, 9.350919572170824e-05, 5.085997599962866e-06, -0.011090199463069439, -0.8020937442779541, -0.8805023431777954, 0.05481186509132385, -1.4492531947361451, 3.0381934991977744, -177.18550108670874, 9362.0, 30146.0, 35388.0, 9362.0, 8.390083312988281, 0.027484530583024025, -0.3288841247558594, -0.2706281840801239, -0.1312524825334549, -0.035148393362760544, 0.9923558235168457, -0.06812047958374023, 0.0052013397216796875, 1.496337890625, 1.5205078125, 0.237762451171875, 1.4912109375
62632, 0.0027802237309515476, -0.013691346161067486, 0.001140426378697157, 3.976865627919324e-06, 3.9477811242250027e-07, -0.0007728954078629613, 0.00011521252599777654, 3.5434461551631102e-06, -0.011859974823892117, -0.8020816445350647, -0.8805078864097595, 0.05482101067900658, -1.4544747781052447, 3.038438328665478, -177.18737969685571, 9362.0, 30146.0, 35388.0, 9362.0, 8.390083312988281, 0.07287710905075073, -0.23677398264408112, -0.43395811319351196, -0.13094551861286163, -0.03389817848801613, 0.9891452789306641, -0.06812047958374023, 0.0052013397216796875, 1.496337890625, 1.45166015625, 0.107452392578125, 1.49267578125
62642, 0.0032492508180439472, -0.01207926869392395, -0.001965948613360524, 5.250319190963637e-06, 4.1098678593698423e-07, -0.0008966192835941911, 0.00013948936248198152, -2.933949190264684e-07, -0.012884406372904778, -0.8020887970924377, -0.8804987072944641, 0.05480978637933731, -1.4519137411910226, 3.043587813489637, -177.1863388835558, 9362.0, 30146.0, 35388.0, 9362.0, 8.390083312988281, -0.03392312675714493, -0.007555123418569565, 0.3480224013328552, -0.13006280362606049, -0.03474554792046547, 0.990383505821228, -0.06812047958374023, 0.0052013397216796875, 1.496337890625, 1.54248046875, 0.28521728515625, 1.49267578125
62652, 0.002596469596028328, -0.011982814408838749, -0.0006173673900775611, 6.7612600105348974e-06, 3.844902778382675e-07, -0.0010303306626155972, 0.00016272588982246816, -4.999193606636254e-06, -0.013857468962669373, -0.8020939230918884, -0.8805038332939148, 0.05482250824570656, -1.4564835954426658, 3.0460961405797775, -177.1861400029078, 9362.0, 30146.0, 35388.0, 9362.0, 8.390083312988281, -0.06326880306005478, 0.07148078829050064, -0.11290713399648666, -0.1275119185447693, -0.035006191581487656, 0.9918560981750488, -0.06812047958374023, 0.0052013397216796875, 1.496337890625, 1.62158203125, 0.46893310546875, 1.4912109375
62662, 0.0023471794556826353, -0.012762857601046562, -0.0006890681688673794, 8.49102798383683e-06, 3.069203557970468e-07, -0.0011731702834367752, 0.00018322921823710203, -1.0524015124246944e-05, -0.014710057526826859, -0.8020855188369751, -0.8805124163627625, 0.05481201410293579, -1.4504304145290703, 3.038396846703421, -177.18888464122531, 9362.0, 30146.0, 35388.0, 9362.0, 8.390083312988281, -0.06453229486942291, -0.23395970463752747, -0.1597738265991211, -0.12742096185684204, -0.03316495195031166, 0.9920778870582581, -0.06812047958374023, 0.0052013397216796875, 1.496337890625, 1.552734375, 0.3080596923828125, 1.4912109375
62672, 0.0012486909981817007, -0.011638208292424679, -0.0011612834641709924, 1.0425087566545699e-05, 1.7962790366254922e-07, -0.0013241712003946304, 0.00020357203902676702, -1.4937893865862861e-05, -0.01548974122852087, -0.8020755052566528, -0.8805106282234192, 0.054821908473968506, -1.4547083129583611, 3.0472037722897767, -177.18544250667944, 9362.0, 30146.0, 35388.0, 9362.0, 8.390083312988281, 0.06948994100093842, 0.02735985815525055, -0.18036478757858276, -0.12816646695137024, -0.03351881355047226, 0.9908846616744995, -0.06812047958374023, 0.0052013397216796875, 1.496337890625, 1.557861328125, 0.3195037841796875, 1.4912109375
62682, 7.515673496527597e-05, -0.012577998451888561, -0.0016065757954493165, 1.2569127648021095e-05, 1.0326942856409005e-08, -0.0014832939486950636, 0.0002252524864161387, -1.8938666471512988e-05, -0.0163344107568264, -0.8020926117897034, -0.880497932434082, 0.05483550950884819, -1.4589832003125727, 3.0584795627551387, -177.18870281882917, 9362.0, 30146.0, 35388.0, 9362.0, 8.390083312988281, -0.04190320149064064, -0.01261885929852724, -0.1392684131860733, -0.12721671164035797, -0.03336052596569061, 0.9915026426315308, -0.06812047958374023, 0.0052013397216796875, 1.496337890625, 1.562255859375, 0.329437255859375, 1.4912109375
62692, -0.0018117970321327448, -0.013613301329314709, -0.0016434165881946683, 1.4920404282747768e-05, -1.8965702963669173e-07, -0.0016509749693796039, 0.0002449886524118483, -2.107603540935088e-05, -0.01720140501856804, -0.8020895719528198, -0.8805025219917297, 0.054802168160676956, -1.4541092829701399, 3.046720014961693, -177.18211246190296, 9362.0, 30146.0, 35388.0, 9362.0, 8.390083312988281, 0.006446585990488529, 0.18122749030590057, -0.10394816845655441, -0.12753832340240479, -0.034563854336738586, 0.9908289909362793, -0.06812047958374023, 0.0052013397216796875, 1.496337890625, 1.401123046875, 0.041015625, 1.494873046875
62702, -0.002202441217377782, -0.015337817370891571, -0.002140037715435028, 1.747699388943147e-05, -4.010579459645669e-07, -0.001827431726269424, 0.00026631326181814075, -2.1233398001641035e-05, -0.018089549615979195, -0.8020928502082825, -0.8805050253868103, 0.05480053648352623, -1.4503479907721333, 3.0369445432601196, -177.1880481357983, 9362.0, 30146.0, 35388.0, 9362.0, 8.390083312988281, 0.18620824813842773, 0.02786996401846409, -0.19234831631183624, -0.12882958352565765, -0.03250747546553612, 0.9910190105438232, -0.06812047958374023, 0.0052013397216796875, 1.496337890625, 1.58642578125, 0.3851776123046875, 1.494873046875
62712, -0.0009087399812415242, -0.01759546995162964, -0.004082524683326483, 2.025560570473317e-05, -5.980260766591527e-07, -0.002012797398492694, 0.0002893823548220098, -1.8166521840612404e-05, -0.018983185291290283, -0.8020853996276855, -0.8805086612701416, 0.054819583892822266, -1.4509005014653378, 3.052291700251658, -177.19152538897396, 9362.0, 30146.0, 35388.0, 9362.0, 8.390083312988281, 0.019121553748846054, -0.30686384439468384, -0.060364264994859695, -0.12972788512706757, -0.03278634324669838, 0.9906114339828491, -0.08553662151098251, -0.2904777526855469, 1.47216796875, 1.560791015625, 0.3262176513671875, 1.49560546875
62722, -0.0001815099094528705, -0.01666364073753357, -0.004135617520660162, 2.3279468223336153e-05, -7.610233296873048e-07, -0.0022073625586926937, 0.000315352895995602, -1.4412469681701623e-05, -0.019929489120841026, -0.8020864129066467, -0.8805009722709656, 0.0547899529337883, -1.4462654348481434, 3.0451714198174784, -177.1902521629622, 9362.0, 30146.0, 35388.0, 9362.0, 8.390083312988281, 0.019598806276917458, -0.19632534682750702, -0.20506848394870758, -0.12910093367099762, -0.03333243355154991, 0.991222083568573, -0.08553662151098251, -0.2904777526855469, 1.47216796875, 1.505126953125, 0.205902099609375, 1.49560546875
62732, 0.0005442736437544227, -0.01534831803292036, -0.005565299652516842, 2.6582272766972892e-05, -8.974491265689721e-07, -0.0024110754020512104, 0.00034522247733548284, -1.2861520190199371e-05, -0.02081271819770336, -0.8020986318588257, -0.8805067539215088, 0.05479345843195915, -1.4495633136775095, 3.0435081206730104, -177.18806937017465, 9362.0, 30146.0, 35388.0, 9362.0, 8.390083312988281, 0.07102110981941223, 0.1558779627084732, 0.07401572167873383, -0.1292123794555664, -0.03224407881498337, 0.99042147397995, -0.08553662151098251, -0.2904777526855469, 1.47216796875, 1.541015625, 0.2819976806640625, 1.494140625
62742, 0.0005889102467335761, -0.016688145697116852, -0.004735693335533142, 3.0175828214851208e-05, -1.0245350949844578e-06, -0.0026237580459564924, 0.0003735094505827874, -1.2544843229989056e-05, -0.02172342874109745, -0.8020872473716736, -0.8804932832717896, 0.05479789897799492, -1.4549980215707776, 3.0455827040707106, -177.18765528483317, 9362.0, 30146.0, 35388.0, 9362.0, 8.390083312988281, -0.040510330349206924, 0.17852771282196045, -0.1808176338672638, -0.12960682809352875, -0.030704358592629433, 0.9897502064704895, -0.08553662151098251, -0.2904777526855469, 1.47216796875, 1.604736328125, 0.428436279296875, 1.494140625
62752, -0.00019661728583741933, -0.019669538363814354, -0.0055481973104178905, 3.404096787562594e-05, -1.154607730313728e-06, -0.002846033312380314, 0.00039949468919076025, -1.3468512406689115e-05, -0.02273125946521759, -0.8020872473716736, -0.8804987072944641, 0.05479470640420914, -1.4480615745376413, 3.0384385991001466, -177.18789549370143, 9362.0, 30146.0, 35388.0, 9362.0, 8.390083312988281, -0.1704290807247162, 0.24705475568771362, 0.04519256204366684, -0.13156619668006897, -0.03227259963750839, 0.9899161458015442, -0.08553662151098251, -0.2904777526855469, 1.47216796875, 1.53662109375, 0.27239990234375, 1.48828125
62762, -0.0015475926920771599, -0.02175716683268547, -0.004594160243868828, 3.817735705524683e-05, -1.2942959983774927e-06, -0.0030782255344092846, 0.00042773259337991476, -1.4482904589385726e-05, -0.02370680496096611, -0.8020938634872437, -0.8804991245269775, 0.0548136942088604, -1.4501291852155933, 3.0452963118863465, -177.18706259571408, 9362.0, 30146.0, 35388.0, 9362.0, 8.390083312988281, 0.04097013548016548, 0.05242417752742767, -0.11235412955284119, -0.12978720664978027, -0.03235194832086563, 0.9888947606086731, -0.08553662151098251, -0.2904777526855469, 1.47216796875, 1.559326171875, 0.32293701171875, 1.48828125
62772, -0.002083491999655962, -0.022425062954425812, -0.005711738485842943, 4.262121001374908e-05, -1.4374766124092275e-06, -0.003320714458823204, 0.0004609985335264355, -1.4178184756019618e-05, -0.024790596216917038, -0.8020926713943481, -0.8804938793182373, 0.05479423329234123, -1.4518935091035325, 3.042141881216992, -177.18882037078532, 9362.0, 30146.0, 35388.0, 9362.0, 8.390083312988281, -0.032501574605703354, -0.10606271028518677, 0.18331243097782135, -0.13003379106521606, -0.03317893669009209, 0.990281879901886, -0.08553662151098251, -0.2904777526855469, 1.47216796875, 1.579833984375, 0.369873046875, 1.494873046875
62782, -0.0015243702800944448, -0.022259695455431938, -0.006075911223888397, 4.741567317978479e-05, -1.5661513543818728e-06, -0.0035733161494135857, 0.0004978832439519465, -1.1566266039153561e-05, -0.025729350745677948, -0.8020921945571899, -0.8805016875267029, 0.05478501692414284, -1.451024354517388, 3.041060614372128, -177.1882800934545, 9362.0, 30146.0, 35388.0, 9362.0, 8.390083312988281, 0.04932094365358353, 0.09339456260204315, -0.1424461007118225, -0.13063691556453705, -0.03478701785206795, 0.9920312166213989, -0.08553662151098251, -0.2904777526855469, 1.47216796875, 1.487548828125, 0.1712188720703125, 1.494873046875
62792, -0.0016318293055519462, -0.02324187383055687, -0.007542972918599844, 5.258486635284498e-05, -1.6641470210743137e-06, -0.0038347472436726093, 0.0005359576316550374, -8.025042006920557e-06, -0.026556488126516342, -0.8020943999290466, -0.8805000185966492, 0.054797057062387466, -1.454144157680472, 3.0437915397876054, -177.19043573287556, 9362.0, 30146.0, 35388.0, 9362.0, 8.390083312988281, 0.017643215134739876, 0.11625687777996063, 0.2077845185995102, -0.12998677790164948, -0.036034975200891495, 0.9922628402709961, -0.08553662151098251, -0.2904777526855469, 1.47216796875, 1.405517578125, 0.0454254150390625, 1.49267578125
62802, -0.0017308644019067287, -0.025470193475484848, -0.007022586185485125, 5.813356619910337e-05, -1.73146611359698e-06, -0.004104016814380884, 0.0005737699684686959, -5.441146186058177e-06, -0.02729700691998005, -0.8020913004875183, -0.8805024027824402, 0.05478307604789734, -1.452895630214, 3.0420144018179087, -177.18964438513441, 9362.0, 30146.0, 35388.0, 9362.0, 8.390083312988281, 0.13613161444664001, -0.15772400796413422, -0.026336384937167168, -0.12940600514411926, -0.036208584904670715, 0.9928750991821289, -0.08553662151098251, -0.2904777526855469, 1.47216796875, 1.437744140625, 0.086029052734375, 1.49267578125
62812, -0.0013651794288307428, -0.025829467922449112, -0.008216655813157558, 6.406880129361525e-05, -1.7720344658300746e-06, -0.004380522295832634, 0.000613250071182847, -2.6733728191175032e-06, -0.02800370566546917, -0.802100658416748, -0.8805005550384521, 0.054775748401880264, -1.4469666292152823, 3.0460259358117128, -177.18463470738212, 9362.0, 30146.0, 35388.0, 9362.0, 8.390083312988281, -0.030130600556731224, 0.30257174372673035, -0.07399190217256546, -0.12978960573673248, -0.03289446979761124, 0.9928135275840759, -0.08024150878190994, -0.04855918884277344, 1.491943359375, 1.48974609375, 0.1755218505859375, 1.491943359375
62822, -0.001924995332956314, -0.028854209929704666, -0.008705738000571728, 7.041780190775171e-05, -1.7840823147707852e-06, -0.004664044827222824, 0.000656545627862215, 2.67330563019641e-07, -0.028700439259409904, -0.8020886182785034, -0.8805111646652222, 0.05480460822582245, -1.4519831171706334, 3.042887350056702, -177.18309966433574, 9362.0, 30146.0, 35388.0, 9362.0, 8.390083312988281, 0.01585257425904274, 0.10195399820804596, -0.1362958401441574, -0.12981310486793518, -0.03565111756324768, 0.9923007488250732, -0.08024150878190994, -0.04855918884277344, 1.491943359375, 1.420166015625, 0.0621337890625, 1.491943359375
62832, -0.0019812847021967173, -0.030082950368523598, -0.009323719888925552, 7.720271969446912e-05, -1.769841333043587e-06, -0.0049547418020665646, 0.0007003986393101513, 2.5732772428455064e-06, -0.029438549652695656, -0.8020856380462646, -0.8805049657821655, 0.05480179190635681, -1.4561007242083674, 3.051031983164819, -177.19123176450216, 9362.0, 30146.0, 35388.0, 9362.0, 8.390083312988281, -0.0192062146961689, -0.34073105454444885, -0.26085275411605835, -0.1305847316980362, -0.03299159184098244, 0.991679310798645, -0.08024150878190994, -0.04855918884277344, 1.491943359375, 1.556396484375, 0.316192626953125, 1.48974609375
62842, -0.0009044883190654218, -0.028850587084889412, -0.010970736853778362, 8.445173443760723e-05, -1.7277990309594315e-06, -0.005253079812973738, 0.0007493874873034656, 5.833885097672464e-06, -0.030228639021515846, -0.8020931482315063, -0.8804940581321716, 0.054775893688201904, -1.4562403131606156, 3.0439699247632177, -177.18757946731165, 9362.0, 30146.0, 35388.0, 9362.0, 8.390083312988281, 0.09957800060510635, -0.27954426407814026, -0.12781761586666107, -0.12857669591903687, -0.033008329570293427, 0.9925051331520081, -0.08024150878190994, -0.04855918884277344, 1.491943359375, 1.412841796875, 0.0534515380859375, 1.48974609375
62852, -0.00019909658294636756, -0.027755729854106903, -0.011793896555900574, 9.220113861374557e-05, -1.652672608543071e-06, -0.005559191107749939, 0.0008005100535228848, 9.204301932186354e-06, -0.030993230640888214, -0.8020986914634705, -0.8805047869682312, 0.05477044731378555, -1.4562068286115106, 3.0425946269981807, -177.18716317561643, 9362.0, 30146.0, 35388.0, 9362.0, 8.390083312988281, -0.05003996193408966, 0.08733149617910385, -0.15702605247497559, -0.12816940248012543, -0.03375066816806793, 0.9906525611877441, -0.08024150878190994, -0.04855918884277344, 1.491943359375, 1.54541015625, 0.291656494140625, 1.491943359375
62862, 0.00013839840539731085, -0.027972863987088203, -0.012660317122936249, 0.00010045100498246029, -1.553003016852017e-06, -0.005873539950698614, 0.0008494796347804368, 1.0739778190327343e-05, -0.03187616541981697, -0.802097499370575, -0.8805050849914551, 0.05477018654346466, -1.450814496021415, 3.038390913693945, -177.17720195591227, 9362.0, 30146.0, 35388.0, 9362.0, 8.390083312988281, 0.10931581258773804, -0.30631834268569946, -0.08211895078420639, -0.12910474836826324, -0.035112638026475906, 0.991157591342926, -0.08024150878190994, -0.04855918884277344, 1.491943359375, 1.44140625, 0.0914459228515625, 1.491943359375
62872, 0.0010495560709387064, -0.026339340955018997, -0.014247751794755459, 0.00010918130283243954, -1.4439644928643247e-06, -0.006196665111929178, 0.0008965761517174542, 1.1072359484387562e-05, -0.03274849057197571, -0.8020980954170227, -0.880501925945282, 0.05479823052883148, -1.4562225600850405, 3.0494852554340923, -177.19302653728047, 9362.0, 30146.0, 35388.0, 9362.0, 8.390083312988281, -0.05000409111380577, -0.20405825972557068, -0.13639108836650848, -0.13048075139522552, -0.033363621681928635, 0.9905575513839722, -0.08024150878190994, -0.04855918884277344, 1.491943359375, 1.5380859375, 0.2755889892578125, 1.491943359375
62882, 0.0011354663874953985, -0.025621972978115082, -0.015821412205696106, 0.00011838426871690899, -1.3344669014259125e-06, -0.00652878824621439, 0.0009440439753234386, 1.0840580216608942e-05, -0.03367570787668228, -0.8020920753479004, -0.8804948925971985, 0.054782260209321976, -1.4496157681726394, 3.036631116714517, -177.1840510737668, 9362.0, 30146.0, 35388.0, 9362.0, 8.390083312988281, -0.12016522884368896, 0.2741614878177643, -0.12250164896249771, -0.1277579814195633, -0.0332379974424839, 0.9923471212387085, -0.08024150878190994, -0.04855918884277344, 1.491943359375, 1.531494140625, 0.26129150390625, 1.491943359375
62892, 0.0010247176978737116, -0.028737375512719154, -0.015995102003216743, 0.0001280484430026263, -1.2350318456810783e-06, -0.006869366392493248, 0.0009887991473078728, 9.046354534802958e-06, -0.03443952649831772, -0.8020939826965332, -0.8804975748062134, 0.05477634817361832, -1.4514191319576444, 3.040695888846898, -177.1928654158789, 9362.0, 30146.0, 35388.0, 9362.0, 8.390083312988281, 0.16304601728916168, -0.08348705619573593, -0.1860733926296234, -0.1288645714521408, -0.034567441791296005, 0.9896607398986816, -0.08024150878190994, -0.04855918884277344, 1.491943359375, 1.487548828125, 0.1712188720703125, 1.49560546875
62902, 0.0017722503980621696, -0.02933237887918949, -0.017428124323487282, 0.0001381536276312545, -1.1542535958142253e-06, -0.00721856439486146, 0.0010321862064301968, 7.1073113758757245e-06, -0.0353996641933918, -0.8020877242088318, -0.8805006146430969, 0.05478973686695099, -1.4510883918140682, 3.05017044861836, -177.18995073082257, 9362.0, 30146.0, 35388.0, 9362.0, 8.390083312988281, -0.051753006875514984, 0.22371314465999603, 0.12959927320480347, -0.1286362111568451, -0.03388192504644394, 0.9884805679321289, -0.08024150878190994, -0.04855918884277344, 1.491943359375, 1.5849609375, 0.381805419921875, 1.49560546875
62912, 0.0015825984301045537, -0.031834058463573456, -0.01679920218884945, 0.00014871869643684477, -1.0919205806203536e-06, -0.007578167598694563, 0.0010808150982484221, 5.372692612581886e-06, -0.036520566791296005, -0.8020877838134766, -0.8804937601089478, 0.05478183925151825, -1.45136946124087, 3.0481170192717286, -177.18329729496767, 9362.0, 30146.0, 35388.0, 9362.0, 8.390083312988281, 0.18498662114143372, 0.5095920562744141, -0.07751718908548355, -0.12784576416015625, -0.03255392238497734, 0.9895398616790771, -0.0980336144566536, -0.04855918884277344, 1.491943359375, 1.5703125, 0.34783935546875, 1.49560546875
62922, 0.0032832513097673655, -0.0355735681951046, -0.017975157126784325, 0.00015977532893884927, -1.0532822898312588e-06, -0.007948510348796844, 0.001130465418100357, 2.3521383809566032e-06, -0.03754769638180733, -0.8020921945571899, -0.8805007934570312, 0.05476267635822296, -1.4519391665827737, 3.0508286570767496, -177.18983115263399, 9362.0, 30146.0, 35388.0, 9362.0, 8.390083312988281, 0.02453736960887909, -0.012928904965519905, -0.13881325721740723, -0.1290142983198166, -0.031114831566810608, 0.9914352297782898, -0.0980336144566536, -0.04855918884277344, 1.491943359375, 1.576171875, 0.361328125, 1.49560546875
62932, 0.002955862320959568, -0.035504817962646484, -0.019200287759304047, 0.00017135008238255978, -1.0432678436700371e-06, -0.00832835491746664, 0.0011844276450574398, -3.2447857734041463e-07, -0.03842078521847725, -0.8020861148834229, -0.8805001378059387, 0.05476749315857887, -1.4506927452795861, 3.0455526395690242, -177.19165871768604, 9362.0, 30146.0, 35388.0, 9362.0, 8.390083312988281, 0.18708255887031555, -0.17145870625972748, -0.07808895409107208, -0.12855909764766693, -0.03353980556130409, 0.9902823567390442, -0.0980336144566536, -0.04855918884277344, 1.491943359375, 1.517578125, 0.231689453125, 1.491943359375
62942, 0.0032797770109027624, -0.034224241971969604, -0.02052362821996212, 0.00018349602760281414, -1.0744505516413483e-06, -0.008717172779142857, 0.001244762446731329, -5.91860316490056e-06, -0.03934236988425255, -0.8020926117897034, -0.8805071711540222, 0.05476439744234085, -1.4517088567430696, 3.0496472705954147, -177.19384038248793, 9362.0, 30146.0, 35388.0, 9362.0, 8.390083312988281, -0.0031009558588266373, -0.24150419235229492, 0.021863091737031937, -0.1302890032529831, -0.03446895256638527, 0.989310085773468, -0.0980336144566536, -0.04855918884277344, 1.491943359375, 1.494140625, 0.183990478515625, 1.491943359375
62952, 0.002482153009623289, -0.032405346632003784, -0.02052035555243492, 0.00019624446576926857, -1.1587817425606772e-06, -0.009115641936659813, 0.0013049482367932796, -1.0943329471047036e-05, -0.04035107046365738, -0.8020908236503601, -0.8805055618286133, 0.054795850068330765, -1.4467352086709873, 3.0483414513666105, -177.19475141062028, 9362.0, 30146.0, 35388.0, 9362.0, 8.390083312988281, -0.08006080240011215, -0.44634681940078735, -0.007455721963196993, -0.1312326043844223, -0.03508741781115532, 0.9904014468193054, -0.0980336144566536, -0.04855918884277344, 1.491943359375, 1.588623046875, 0.390350341796875, 1.490478515625
62962, 0.0019564128015190363, -0.029427651315927505, -0.020762911066412926, 0.0002095840754918754, -1.29612340060703e-06, -0.009523926302790642, 0.001363003859296441, -1.653827348491177e-05, -0.041305411607027054, -0.8020968437194824, -0.8805056810379028, 0.05476975813508034, -1.456321874569826, 3.051160472401051, -177.181636828966, 9362.0, 30146.0, 35388.0, 9362.0, 8.390083312988281, -0.055403999984264374, -0.5789833664894104, 0.04865748807787895, -0.13024552166461945, -0.034566961228847504, 0.9902265071868896, -0.0980336144566536, -0.04855918884277344, 1.491943359375, 1.588623046875, 0.390350341796875, 1.490478515625
62972, 0.0020733224228024483, -0.02538328617811203, -0.020361697301268578, 0.0002095840754918754, -1.29612340060703e-06, -0.009523926302790642, 0.001363003859296441, -1.653827348491177e-05, -0.041305411607027054, -0.8021019101142883, -0.8805046081542969, 0.054798293858766556, -1.4489791960029228, 3.0471660535897342, -177.1943249122574, 9362.0, 30146.0, 35388.0, 9362.0, 8.390083312988281, -0.23770248889923096, -0.09789887815713882, -0.23576220870018005, -0.1303386688232422, -0.031638871878385544, 0.9917218089103699, -0.0980336144566536, -0.04855918884277344, 1.491943359375, 1.588623046875, 0.390350341796875, 1.490478515625
62982, 0.0008141810540109873, -0.023964952677488327, -0.022446196526288986, 0.0002095840754918754, -1.29612340060703e-06, -0.009523926302790642, 0.001363003859296441, -1.653827348491177e-05, -0.041305411607027054, -0.802104115486145, -0.8805118203163147, 0.05479366332292557, -1.4519834795268431, 3.0421589242339167, -177.19234965799274, 9362.0, 30146.0, 35388.0, 9362.0, 8.390083312988281, 0.2185227870941162, -0.11334909498691559, 0.05371342971920967, -0.12978023290634155, -0.033386021852493286, 0.9921042323112488, -0.0980336144566536, -0.04855918884277344, 1.491943359375, 1.588623046875, 0.390350341796875, 1.490478515625
62992, 0.0019705332815647125, -0.024458670988678932, -0.022235220298171043, 0.00025281449779868126, -1.965929641301045e-06, -0.010802828706800938, 0.0015111514367163181, -2.7668978873407468e-05, -0.04385716840624809, -0.8021032810211182, -0.8804948925971985, 0.05478991940617561, -1.454250461532159, 3.0392323367160827, -177.1884884925284, 9362.0, 30146.0, 35388.0, 9362.0, 8.390083312988281, 0.10914389044046402, -0.27881354093551636, -0.10135535895824432, -0.12978023290634155, -0.033386021852493286, 0.9921042323112488, -0.0980336144566536, -0.04855918884277344, 1.491943359375, 1.588623046875, 0.390350341796875, 1.49267578125
63002, 0.0023244728799909353, -0.023029526695609093, -0.022517167031764984, 0.00026812951546162367, -2.24961308958882e-06, -0.011245345696806908, 0.0015518461586907506, -2.905167821154464e-05, -0.044645849615335464, -0.8020951151847839, -0.8805049657821655, 0.05478786304593086, -1.4509485056226072, 3.0456617001266295, -177.190747018939, 9362.0, 30146.0, 35388.0, 9362.0, 8.390083312988281, -0.11091328412294388, -0.25335580110549927, -0.240567147731781, -0.12978023290634155, -0.033386021852493286, 0.9921042323112488, -0.0980336144566536, -0.04855918884277344, 1.491943359375, 1.588623046875, 0.390350341796875, 1.49267578125
63012, 0.0018408953910693526, -0.022508999332785606, -0.023113058879971504, 0.00028385547921061516, -2.556928620833787e-06, -0.011696199886500835, 0.001593368942849338, -3.2406220270786434e-05, -0.04552459716796875, -0.8021047115325928, -0.8805005550384521, 0.05480080842971802, -1.4496452087802973, 3.0340961508118767, -177.19078137354066, 9362.0, 30146.0, 35388.0, 9362.0, 8.390083312988281, -0.009862764738500118, 0.22870028018951416, 0.005311307962983847, -0.12978023290634155, -0.033386021852493286, 0.9921042323112488, -0.0980336144566536, -0.04855918884277344, 1.491943359375, 1.588623046875, 0.390350341796875, 1.49267578125
63022, 0.0022218110971152782, -0.025020258501172066, -0.023764746263623238, 0.00029998456011526287, -2.900789468185394e-06, -0.012155825272202492, 0.0016324537573382258, -3.63737199222669e-05, -0.04640010744333267, -0.8021050095558167, -0.8805094957351685, 0.054800380021333694, -1.4533015913257528, 3.0341076029305327, -177.190644969249, 9362.0, 30146.0, 35388.0, 9362.0, 8.390083312988281, -0.04551047086715698, 0.16047629714012146, -0.19297054409980774, -0.12978023290634155, -0.033386021852493286, 0.9921042323112488, -0.0980336144566536, -0.04855918884277344, 1.491943359375, 1.588623046875, 0.390350341796875, 1.49267578125
63032, 0.0023620990104973316, -0.025856228545308113, -0.026238951832056046, 0.0003165000816807151, -3.2802245186758228e-06, -0.012624147348105907, 0.0016706143505871296, -3.9507984183728695e-05, -0.04726386070251465, -0.8021147847175598, -0.8805021047592163, 0.05479257181286812, -1.4503055391776345, 3.0354148296990218, -177.18862389029826, 9362.0, 30146.0, 35388.0, 9362.0, 8.390083312988281, 0.06552276015281677, 0.12071473896503448, -0.09929445385932922, -0.12906663119792938, -0.0329759418964386, 0.9909621477127075, -0.0980336144566536, -0.04855918884277344, 1.491943359375, 1.588623046875, 0.390350341796875, 1.49267578125
63042, 0.0032918942160904408, -0.024757711216807365, -0.027171622961759567, 0.0003334184584673494, -3.6942401493433863e-06, -0.013101240620017052, 0.0017130495980381966, -4.3294821807648987e-05, -0.048154398798942566, -0.8020994067192078, -0.8805072903633118, 0.05479748547077179, -1.4516956774202685, 3.0432238230600603, -177.19011686673028, 9362.0, 30146.0, 35388.0, 9362.0, 8.390083312988281, 0.03401239216327667, -0.2575523555278778, -0.05852953717112541, -0.12906663119792938, -0.0329759418964386, 0.9909621477127075, -0.0980336144566536, -0.04855918884277344, 1.491943359375, 1.588623046875, 0.390350341796875, 1.49267578125
63052, 0.00339608290232718, -0.022107448428869247, -0.027427006512880325, 0.0003334184584673494, -3.6942401493433863e-06, -0.013101240620017052, 0.0017130495980381966, -4.3294821807648987e-05, -0.048154398798942566, -0.8021059632301331, -0.8805006146430969, 0.05479099974036217, -1.4526890643144907, 3.0382522994957526, -177.18693338245444, 9362.0, 30146.0, 35388.0, 9362.0, 8.390083312988281, -0.2662240266799927, -0.14650051295757294, -0.22043520212173462, -0.1288996934890747, -0.03404799848794937, 0.9871269464492798, -0.0980336144566536, -0.04855918884277344, 1.491943359375, 1.588623046875, 0.390350341796875, 1.49267578125
63062, 0.00235506403259933, -0.021039262413978577, -0.02901945449411869, 0.000368546781828627, -4.648328740586294e-06, -0.014084093272686005, 0.0017988414037972689, -5.28918499185238e-05, -0.05028126388788223, -0.8021089434623718, -0.8805142045021057, 0.05477432534098625, -1.4557829383019216, 3.041094067576182, -177.18893378784966, 9362.0, 30146.0, 35388.0, 9362.0, 8.390083312988281, 0.07669517397880554, 0.10012874007225037, 0.2608850300312042, -0.1288996934890747, -0.03404799848794937, 0.9871269464492798, -0.0980336144566536, -0.04855918884277344, 1.491943359375, 1.584228515625, 0.3801727294921875, 1.49267578125
63072, 0.0028727080207318068, -0.021691014990210533, -0.027398893609642982, 0.000368546781828627, -4.648328740586294e-06, -0.014084093272686005, 0.0017988414037972689, -5.28918499185238e-05, -0.05028126388788223, -0.802110493183136, -0.8805132508277893, 0.05479123443365097, -1.4534988720410749, 3.0423104199454087, -177.19438563130979, 9362.0, 30146.0, 35388.0, 9362.0, 8.390083312988281, -0.022739628329873085, -0.24471789598464966, 0.11811933666467667, -0.12750060856342316, -0.030340829864144325, 0.9908855557441711, -0.0980336144566536, -0.04855918884277344, 1.491943359375, 1.584228515625, 0.3801727294921875, 1.494873046875
63082, 0.0030195540748536587, -0.02019546553492546, -0.026028230786323547, 0.00040526437805965543, -5.813049938296899e-06, -0.015108662657439709, 0.0018720196094363928, -6.269048026297241e-05, -0.052136342972517014, -0.8021044135093689, -0.8804984092712402, 0.054801005870103836, -1.4580365198369147, 3.039552738669613, -177.18891221209267, 9362.0, 30146.0, 35388.0, 9362.0, 8.390083312988281, 0.04159124940633774, 0.014477195218205452, -0.049418237060308456, -0.12783318758010864, -0.030957143753767014, 0.991165041923523, -0.0980336144566536, -0.04855918884277344, 1.491943359375, 1.584228515625, 0.3801727294921875, 1.494873046875
63092, 0.003173503093421459, -0.02112346887588501, -0.02653229422867298, 0.00042416853830218315, -6.464410034823231e-06, -0.01563452184200287, 0.0019088389817625284, -6.757838855264708e-05, -0.05303526669740677, -0.8021020889282227, -0.880511999130249, 0.05479747802019119, -1.45426270064322, 3.0413890064981786, -177.19234405597763, 9362.0, 30146.0, 35388.0, 9362.0, 8.390083312988281, -0.016709499061107635, 0.06559603661298752, 0.1667988896369934, -0.12858283519744873, -0.03126757964491844, 0.9896092414855957, -0.0980336144566536, -0.04855918884277344, 1.491943359375, 1.584228515625, 0.3801727294921875, 1.494873046875
63112, 0.00256525375880301, -0.022870143875479698, -0.02682558260858059, 0.0004434281145222485, -7.165868282754673e-06, -0.016169682145118713, 0.0019430600805208087, -7.271097274497151e-05, -0.053996458649635315, -0.8021048307418823, -0.8805027604103088, 0.054782405495643616, -1.449407711079856, 3.0376408127264938, -177.19242623207805, 9362.0, 30146.0, 35388.0, 9362.0, 8.390083312988281, -0.1322140395641327, 0.35278353095054626, -0.1493472307920456, -0.13101716339588165, -0.03311575576663017, 0.9900308847427368, -0.08782856911420822, -0.04855918884277344, 1.491943359375, 1.584228515625, 0.3801727294921875, 1.494873046875
63122, 0.0010129770962521434, -0.025257842615246773, -0.028013648465275764, 0.00048301127390004694, -8.724873623577878e-06, -0.017268572002649307, 0.0020158353727310896, -8.28740157885477e-05, -0.0558449923992157, -0.8021020293235779, -0.8804997205734253, 0.05479669198393822, -1.4522080409091573, 3.042620337746399, -177.1854679599952, 9362.0, 30146.0, 35388.0, 9362.0, 8.390083312988281, 0.017749838531017303, -0.3371464014053345, -0.020778505131602287, -0.13101716339588165, -0.03311575576663017, 0.9900308847427368, -0.08782856911420822, -0.04855918884277344, 1.491943359375, 1.584228515625, 0.3801727294921875, 1.494873046875
63132, 0.0010488228872418404, -0.022502724081277847, -0.028444912284612656, 0.0005033634370192885, -9.575444892107043e-06, -0.017831951379776, 0.00205455650575459, -8.726764644961804e-05, -0.05683044716715813, -0.8020910024642944, -0.8804987668991089, 0.05479065328836441, -1.452177891202964, 3.0449204713025892, -177.19175764391147, 9362.0, 30146.0, 35388.0, 9362.0, 8.390083312988281, 0.014052395708858967, 0.22624586522579193, -0.12772631645202637, -0.1303762048482895, -0.03433562442660332, 0.990598738193512, -0.08782856911420822, -0.04855918884277344, 1.491943359375, 1.584228515625, 0.3801727294921875, 1.491943359375
63142, 0.0011589361820369959, -0.02423916757106781, -0.030511541292071342, 0.0005241231992840767, -1.0456817108206451e-05, -0.018404852598905563, 0.0020974401850253344, -8.900649118004367e-05, -0.057749196887016296, -0.8021138310432434, -0.8804947733879089, 0.05481120944023132, -1.4571305058891633, 3.0458636614870898, -177.17894201396683, 9362.0, 30146.0, 35388.0, 9362.0, 8.390083312988281, -0.249624565243721, 0.2587217390537262, 0.2403959333896637, -0.1303762048482895, -0.03433562442660332, 0.990598738193512, -0.08782856911420822, -0.04855918884277344, 1.491943359375, 1.584228515625, 0.3801727294921875, 1.491943359375
63152, -0.0008571725920774043, -0.02658187225461006, -0.03015897609293461, 0.0005452884361147881, -1.1355871720297728e-05, -0.018986912444233894, 0.0021355811040848494, -9.080411837203428e-05, -0.05866250395774841, -0.8020994663238525, -0.8805040717124939, 0.05480019748210907, -1.4532435907720793, 3.0454345018155493, -177.18510830912234, 9362.0, 30146.0, 35388.0, 9362.0, 8.390083312988281, 0.2165205180644989, -0.39759111404418945, -0.3065580725669861, -0.12919917702674866, -0.03247681260108948, 0.9913867712020874, -0.08782856911420822, -0.04855918884277344, 1.491943359375, 1.584228515625, 0.3801727294921875, 1.496337890625
63172, -0.00020755777950398624, -0.023984218016266823, -0.031999893486499786, 0.0005888419691473246, -1.3194940947869327e-05, -0.020178157836198807, 0.002221776405349374, -9.138501627603546e-05, -0.060533832758665085, -0.8020942807197571, -0.8804712295532227, 0.05477762594819069, -1.4588102240321577, 3.0315704614261563, -177.2053906877457, 9362.0, 30146.0, 35388.0, 9362.0, 8.390083312988281, -0.002071602735668421, -0.14539115130901337, -0.2265857309103012, -0.12919917702674866, -0.03247681260108948, 0.9913867712020874, -0.08782856911420822, -0.04855918884277344, 1.491943359375, 1.584228515625, 0.3801727294921875, 1.496337890625
63182, -5.630877785733901e-05, -0.024117831140756607, -0.0326782688498497, 0.0006112607661634684, -1.4107135029917117e-05, -0.020789258182048798, 0.0022619804367423058, -9.10529270186089e-05, -0.06168600916862488, -0.8021016120910645, -0.8804596662521362, 0.05476844683289528, -1.4588779803721064, 3.0242240721677547, -177.1996227476639, 9362.0, 30146.0, 35388.0, 9362.0, 8.390083312988281, -0.08175137639045715, -0.003895956091582775, -0.02879732847213745, -0.12919917702674866, -0.03247681260108948, 0.9913867712020874, -0.08782856911420822, -0.04855918884277344, 1.491943359375, 1.584228515625, 0.3801727294921875, 1.496337890625
63192, 0.0005179545842111111, -0.024595288559794426, -0.03295237571001053, 0.0006340837571769953, -1.5016019460745156e-05, -0.021411210298538208, 0.002302616834640503, -9.072173270396888e-05, -0.0627041757106781, -0.8021111488342285, -0.8804731369018555, 0.05476488545536995, -1.4607504693456284, 3.032614996535699, -177.19599085191044, 9362.0, 30146.0, 35388.0, 9362.0, 8.390083312988281, 0.09195874631404877, 0.4044981896877289, 0.0073730130679905415, -0.12919917702674866, -0.03247681260108948, 0.9913867712020874, -0.08782856911420822, -0.04855918884277344, 1.491943359375, 1.584228515625, 0.3801727294921875, 1.496337890625
63202, 0.0009327413863502443, -0.027326233685016632, -0.03281079977750778, 0.0006573147838935256, -1.592287480889354e-05, -0.02204214036464691, 0.0023435773327946663, -9.06418717931956e-05, -0.06348146498203278, -0.8021013140678406, -0.8804633617401123, 0.054760631173849106, -1.457507492054051, 3.023691247466104, -177.2008546509353, 9362.0, 30146.0, 35388.0, 9362.0, 8.390083312988281, 0.009930483065545559, -0.23577825725078583, -0.10757417976856232, -0.12919917702674866, -0.03247681260108948, 0.9913867712020874, -0.08782856911420822, -0.04855918884277344, 1.491943359375, 1.584228515625, 0.3801727294921875, 1.496337890625
63212, 0.0013391295215114951, -0.027161048725247383, -0.03199915960431099, 0.0006573147838935256, -1.592287480889354e-05, -0.02204214036464691, 0.0023435773327946663, -9.06418717931956e-05, -0.06348146498203278, -0.8021022081375122, -0.8804762363433838, 0.05477207899093628, -1.4559415885174978, 3.026257715135813, -177.19793651420287, 9362.0, 30146.0, 35388.0, 9362.0, 8.390083312988281, -0.053587887436151505, 0.14594951272010803, -0.20317643880844116, -0.12919917702674866, -0.03247681260108948, 0.9913867712020874, -0.08782856911420822, -0.04855918884277344, 1.491943359375, 1.584228515625, 0.3801727294921875, 1.496337890625
63222, 0.002187951933592558, -0.02886226400732994, -0.032723572105169296, 0.0006573147838935256, -1.592287480889354e-05, -0.02204214036464691, 0.0023435773327946663, -9.06418717931956e-05, -0.06348146498203278, -0.8021154403686523, -0.8804778456687927, 0.054765887558460236, -1.4552544634663638, 3.0251716619488604, -177.19767443095807, 9362.0, 30146.0, 35388.0, 9362.0, 8.390083312988281, 0.042027078568935394, 0.47586965560913086, 0.010160463862121105, -0.1314413696527481, -0.03440408408641815, 0.991897702217102, -0.08782856911420822, -0.04855918884277344, 1.491943359375, 1.584228515625, 0.3801727294921875, 1.496337890625
63232, 0.002993944101035595, -0.030559338629245758, -0.03383181616663933, 0.0007295935647562146, -1.870024425443262e-05, -0.023979632183909416, 0.002477871021255851, -9.543450141791254e-05, -0.06576012074947357, -0.8021178841590881, -0.8804836273193359, 0.05477694049477577, -1.4571856651793667, 3.028656061044302, -177.19541699309028, 9362.0, 30146.0, 35388.0, 9362.0, 8.390083312988281, 0.046279117465019226, 0.0727476105093956, -0.04808088019490242, -0.1314413696527481, -0.03440408408641815, 0.991897702217102, -0.08782856911420822, -0.04855918884277344, 1.491943359375, 1.584228515625, 0.3801727294921875, 1.496337890625
63242, 0.0036612467374652624, -0.030118737369775772, -0.034680407494306564, 0.0007546170963905752, -1.9673287170007825e-05, -0.024641742929816246, 0.0025268052704632282, -9.916246199281886e-05, -0.06666145473718643, -0.8021228909492493, -0.8804872035980225, 0.054779015481472015, -1.4532103194642132, 3.025655444924837, -177.19405508702232, 9362.0, 30146.0, 35388.0, 9362.0, 8.390083312988281, -0.09150843322277069, 0.2550234794616699, 0.24111337959766388, -0.12909333407878876, -0.03519533947110176, 0.9889391660690308, -0.08782856911420822, -0.04855918884277344, 1.491943359375, 1.584228515625, 0.3801727294921875, 1.496337890625
63252, 0.0032522128894925117, -0.03243689611554146, -0.03324132785201073, 0.0007801438914611936, -2.069041511276737e-05, -0.025313712656497955, 0.002578561892732978, -0.00010425151413073763, -0.06773197650909424, -0.8021201491355896, -0.8804627656936646, 0.054771311581134796, -1.4549539717916122, 3.023574608912128, -177.19881360773937, 9362.0, 30146.0, 35388.0, 9362.0, 8.390083312988281, 0.13879235088825226, -0.0353497751057148, 0.18299706280231476, -0.12957333028316498, -0.03429511561989784, 0.9899501204490662, -0.08782856911420822, -0.04855918884277344, 1.491943359375, 1.584228515625, 0.3801727294921875, 1.496337890625
63262, 0.0031797068659216166, -0.032548923045396805, -0.0318797342479229, 0.0008061847183853388, -2.176410998799838e-05, -0.025996007025241852, 0.002629563445225358, -0.0001104932525777258, -0.06872660666704178, -0.802131175994873, -0.8804863691329956, 0.05476218834519386, -1.4510688170772206, 3.030743076865093, -177.2018032949475, 9362.0, 30146.0, 35388.0, 9362.0, 8.390083312988281, 0.11203481256961823, 0.1336199939250946, -0.11855357140302658, -0.12957333028316498, -0.03429511561989784, 0.9899501204490662, -0.08782856911420822, -0.04855918884277344, 1.491943359375, 1.584228515625, 0.3801727294921875, 1.496337890625
63272, 0.00358726573176682, -0.034091223031282425, -0.032746460288763046, 0.0008061847183853388, -2.176410998799838e-05, -0.025996007025241852, 0.002629563445225358, -0.0001104932525777258, -0.06872660666704178, -0.8021219968795776, -0.8804791569709778, 0.05477828532457352, -1.456254805197028, 3.017084191170568, -177.1947759513241, 9362.0, 30146.0, 35388.0, 9362.0, 8.390083312988281, 0.16882070899009705, 0.41332682967185974, 0.1061227098107338, -0.13196739554405212, -0.034485068172216415, 0.9916324019432068, -0.08782856911420822, -0.04855918884277344, 1.491943359375, 1.584228515625, 0.3801727294921875, 1.496337890625
63282, 0.004363836254924536, -0.03654507175087929, -0.03259564936161041, 0.0008061847183853388, -2.176410998799838e-05, -0.025996007025241852, 0.002629563445225358, -0.0001104932525777258, -0.06872660666704178, -0.8021212816238403, -0.8804882764816284, 0.05477887764573097, -1.4533909536886047, 3.0182348962192407, -177.2046314771273, 9362.0, 30146.0, 35388.0, 9362.0, 8.390083312988281, 0.11827488988637924, -0.001508918940089643, 0.0834660604596138, -0.13196739554405212, -0.034485068172216415, 0.9916324019432068, -0.08782856911420822, -0.04855918884277344, 1.491943359375, 1.584228515625, 0.3801727294921875, 1.496337890625
63292, 0.005351069383323193, -0.03592664748430252, -0.03298488259315491, 0.0008061847183853388, -2.176410998799838e-05, -0.025996007025241852, 0.002629563445225358, -0.0001104932525777258, -0.06872660666704178, -0.8021142482757568, -0.8804715871810913, 0.054776452481746674, -1.454893850555955, 3.021370188338608, -177.19432157676906, 9362.0, 30146.0, 35388.0, 9362.0, 8.390083312988281, 0.12216785550117493, 0.05854198709130287, -0.32595309615135193, -0.13196739554405212, -0.034485068172216415, 0.9916324019432068, -0.08782856911420822, -0.04855918884277344, 1.491943359375, 1.584228515625, 0.3801727294921875, 1.496337890625
63312, 0.0057124001905322075, -0.03335828706622124, -0.033766888082027435, 0.0008061847183853388, -2.176410998799838e-05, -0.025996007025241852, 0.002629563445225358, -0.0001104932525777258, -0.06872660666704178, -0.8021163940429688, -0.8804904222488403, 0.05477343499660492, -1.457041314177489, 3.0285610517771033, -177.1953889127201, 9362.0, 30146.0, 35388.0, 9362.0, 8.390083312988281, 0.027939971536397934, -0.49367815256118774, -0.1764938086271286, -0.13196739554405212, -0.034485068172216415, 0.9916324019432068, -0.09156423062086105, 0.03208160400390625, 1.49853515625, 1.584228515625, 0.3801727294921875, 1.496337890625
63322, 0.005752969533205032, -0.030773181468248367, -0.03415794298052788, 0.0009742466500028968, -2.9530034225899726e-05, -0.03029949776828289, 0.0029805470257997513, -0.0001545557170175016, -0.07475138455629349, -0.802117645740509, -0.880490243434906, 0.05476648360490799, -1.4536114756387875, 3.0229979436074643, -177.19706429586992, 9362.0, 30146.0, 35388.0, 9362.0, 8.390083312988281, 0.14598417282104492, -0.03274540975689888, -0.029332688078284264, -0.13196739554405212, -0.034485068172216415, 0.9916324019432068, -0.09156423062086105, 0.03208160400390625, 1.49853515625, 1.584228515625, 0.3801727294921875, 1.496337890625
63332, 0.006857920903712511, -0.030077973380684853, -0.03417418152093887, 0.0010043345391750336, -3.112412741756998e-05, -0.031052378937602043, 0.0030370797030627728, -0.00016426223737653345, -0.07582452893257141, -0.8021275401115417, -0.8804755210876465, 0.05477637052536011, -1.458243850530959, 3.0163294458333496, -177.1985722669258, 9362.0, 30146.0, 35388.0, 9362.0, 8.390083312988281, -0.029499297961592674, -0.051047421991825104, -0.12145842611789703, -0.12695148587226868, -0.03375686705112457, 0.9906787276268005, -0.09156423062086105, 0.03208160400390625, 1.49853515625, 1.584228515625, 0.3801727294921875, 1.496337890625
63342, 0.006929867435246706, -0.0297930296510458, -0.03324718773365021, 0.001034966204315424, -3.2815689337439835e-05, -0.031815268099308014, 0.00308927521109581, -0.00017403224774170667, -0.07675327360630035, -0.8021236658096313, -0.8804807662963867, 0.05476481467485428, -1.45139493601753, 3.020643885473959, -177.1980171102001, 9362.0, 30146.0, 35388.0, 9362.0, 8.390083312988281, 0.04445776343345642, 0.10280182212591171, -0.07275334745645523, -0.12695148587226868, -0.03375686705112457, 0.9906787276268005, -0.09156423062086105, 0.03208160400390625, 1.49853515625, 1.584228515625, 0.3801727294921875, 1.496337890625
63352, 0.006802879273891449, -0.030320078134536743, -0.03314526379108429, 0.001066114054992795, -3.461434971541166e-05, -0.03258718550205231, 0.0031403107568621635, -0.00018569774692878127, -0.0776297077536583, -0.8021178841590881, -0.8804845809936523, 0.054762013256549835, -1.4547795781110187, 3.0200172423572837, -177.19989269259466, 9362.0, 30146.0, 35388.0, 9362.0, 8.390083312988281, -0.09293017536401749, 0.2869952619075775, 0.13868536055088043, -0.12695148587226868, -0.03375686705112457, 0.9906787276268005, -0.09156423062086105, 0.03208160400390625, 1.49853515625, 1.584228515625, 0.3801727294921875, 1.496337890625
63362, 0.007050032261759043, -0.03325105085968971, -0.03182240575551987, 0.001097769709303975, -3.653022940852679e-05, -0.03336818888783455, 0.0031908168457448483, -0.00019748031627386808, -0.07857044786214828, -0.8021182417869568, -0.8804872035980225, 0.0547591932117939, -1.4548277699102434, 3.0240750563605445, -177.19998939156397, 9362.0, 30146.0, 35388.0, 9362.0, 8.390083312988281, 0.08446036279201508, -0.0034087079111486673, -0.17601124942302704, -0.12695148587226868, -0.03375686705112457, 0.9906787276268005, -0.09156423062086105, 0.03208160400390625, 1.49853515625, 1.584228515625, 0.3801727294921875, 1.496337890625
63372, 0.007361828815191984, -0.034017715603113174, -0.03212732821702957, 0.001097769709303975, -3.653022940852679e-05, -0.03336818888783455, 0.0031908168457448483, -0.00019748031627386808, -0.07857044786214828, -0.8021324872970581, -0.8804916739463806, 0.05476714298129082, -1.4548940415725404, 3.0176421464122996, -177.191325819859, 9362.0, 30146.0, 35388.0, 9362.0, 8.390083312988281, -0.005347434431314468, -0.07334752380847931, 0.20128604769706726, -0.12836085259914398, -0.03474138677120209, 0.9895302057266235, -0.09156423062086105, 0.03208160400390625, 1.49853515625, 1.584228515625, 0.3801727294921875, 1.4912109375
63382, 0.007724403869360685, -0.034950461238622665, -0.030316319316625595, 0.001097769709303975, -3.653022940852679e-05, -0.03336818888783455, 0.0031908168457448483, -0.00019748031627386808, -0.07857044786214828, -0.8021151423454285, -0.8804880380630493, 0.054770831018686295, -1.4585730427643924, 3.030076722166882, -177.1982738559334, 9362.0, 30146.0, 35388.0, 9362.0, 8.390083312988281, 0.03186515346169472, -0.15258407592773438, -0.27810704708099365, -0.12836085259914398, -0.03474138677120209, 0.9895302057266235, -0.09156423062086105, 0.03208160400390625, 1.49853515625, 1.584228515625, 0.3801727294921875, 1.4912109375
63392, 0.00779795041307807, -0.034418974071741104, -0.03179720416665077, 0.0011959100374951959, -4.2985462641809136e-05, -0.035771965980529785, 0.0033560588490217924, -0.00023349857656285167, -0.08164285123348236, -0.8021172881126404, -0.8804827332496643, 0.05475812405347824, -1.4588733969294163, 3.028921384841709, -177.19060244415576, 9362.0, 30146.0, 35388.0, 9362.0, 8.390083312988281, 0.05662371963262558, 0.2543432116508484, -0.10509593039751053, -0.12836085259914398, -0.03474138677120209, 0.9895302057266235, -0.09156423062086105, 0.03208160400390625, 1.49853515625, 1.584228515625, 0.3801727294921875, 1.4912109375
63422, 0.007858440279960632, -0.04035511612892151, -0.0301474928855896, 0.001299259252846241, -5.058846727479249e-05, -0.03826403245329857, 0.0035358471795916557, -0.00027411163318902254, -0.08438825607299805, -0.802125871181488, -0.8804917335510254, 0.05476061999797821, -1.4555807259090792, 3.0287397694355036, -177.19764436297265, 9362.0, 30146.0, 35388.0, 9362.0, 8.390083312988281, 0.27139371633529663, -0.39942842721939087, 0.0038150118198245764, -0.12836085259914398, -0.03474138677120209, 0.9895302057266235, -0.1067567691206932, -0.18295860290527344, 1.48095703125, 1.584228515625, 0.3801727294921875, 1.4912109375
63432, 0.010107547976076603, -0.038884010165929794, -0.030854813754558563, 0.001299259252846241, -5.058846727479249e-05, -0.03826403245329857, 0.0035358471795916557, -0.00027411163318902254, -0.08438825607299805, -0.8021116852760315, -0.8804834485054016, 0.05476337671279907, -1.4529660015830308, 3.028217759948916, -177.19391939287726, 9362.0, 30146.0, 35388.0, 9362.0, 8.390083312988281, -0.11643879115581512, -0.11603877693414688, 0.16141179203987122, -0.1285947561264038, -0.03392801806330681, 0.988350510597229, -0.1067567691206932, -0.18295860290527344, 1.48095703125, 1.584228515625, 0.3801727294921875, 1.4912109375
63442, 0.009624907746911049, -0.038648102432489395, -0.030197151005268097, 0.0013713141670450568, -5.633773980662227e-05, -0.039974506944417953, 0.003670591162517667, -0.0003007595078088343, -0.08666659891605377, -0.8021381497383118, -0.8804450035095215, 0.0547112338244915, -1.4308034647950636, 2.970829487998685, -177.21399727800858, 9362.0, 30146.0, 35388.0, 9362.0, 8.390083312988281, 0.041090406477451324, 0.3418886065483093, -0.03210330754518509, -0.13127483427524567, -0.030312085524201393, 0.9912483096122742, -0.1067567691206932, -0.18295860290527344, 1.48095703125, 1.584228515625, 0.3801727294921875, 1.4912109375
63452, 0.009796146303415298, -0.04247238487005234, -0.03009282797574997, 0.0013713141670450568, -5.633773980662227e-05, -0.039974506944417953, 0.003670591162517667, -0.0003007595078088343, -0.08666659891605377, -0.8021387457847595, -0.8804507255554199, 0.054643988609313965, -1.4228379198488768, 2.9467824541178516, -177.23705611418853, 9362.0, 30146.0, 35388.0, 9362.0, 8.390083312988281, 0.0500321239233017, 0.037301577627658844, -0.01773839443922043, -0.12811671197414398, -0.03189673647284508, 0.9944412708282471, -0.1067567691206932, -0.18295860290527344, 1.48095703125, 1.584228515625, 0.3801727294921875, 1.491943359375
63462, 0.010432601906359196, -0.04460655152797699, -0.030681924894452095, 0.0013713141670450568, -5.633773980662227e-05, -0.039974506944417953, 0.003670591162517667, -0.0003007595078088343, -0.08666659891605377, -0.8021517395973206, -0.8804449439048767, 0.05462577939033508, -1.4235815895490216, 2.94826983285796, -177.237030235507, 9362.0, 30146.0, 35388.0, 9362.0, 8.390083312988281, -0.18360210955142975, -0.043531112372875214, -0.019739145413041115, -0.12811671197414398, -0.03189673647284508, 0.9944412708282471, -0.1067567691206932, -0.18295860290527344, 1.48095703125, 1.584228515625, 0.3801727294921875, 1.491943359375
63472, 0.010078707709908485, -0.045734718441963196, -0.030813151970505714, 0.0013713141670450568, -5.633773980662227e-05, -0.039974506944417953, 0.003670591162517667, -0.0003007595078088343, -0.08666659891605377, -0.802109956741333, -0.8804402351379395, 0.05471266433596611, -1.4333726695987306, 2.972047040158941, -177.24529726862448, 9362.0, 30146.0, 35388.0, 9362.0, 8.390083312988281, 0.013671506196260452, -0.009131321683526039, 0.17842437326908112, -0.13291963934898376, -0.03492472320795059, 0.9922329187393188, -0.1067567691206932, -0.18295860290527344, 1.48095703125, 1.584228515625, 0.3801727294921875, 1.48974609375
63482, 0.010266587138175964, -0.04544122517108917, -0.02919176034629345, 0.0015235507162287831, -6.97190553182736e-05, -0.043502312153577805, 0.003950126934796572, -0.000368798355339095, -0.08970697969198227, -0.8021019697189331, -0.8804442882537842, 0.054717741906642914, -1.4275504583722813, 2.9735682323834567, -177.24936853927696, 9362.0, 30146.0, 35388.0, 9362.0, 8.390083312988281, 0.20619425177574158, 0.3275468051433563, 0.11067938804626465, -0.1311340034008026, -0.03583037108182907, 0.9906004071235657, -0.1067567691206932, -0.18295860290527344, 1.48095703125, 1.584228515625, 0.3801727294921875, 1.48974609375
63492, 0.010578252375125885, -0.04666170850396156, -0.028694413602352142, 0.0015634398441761732, -7.349271618295461e-05, -0.044403985142707825, 0.004027693532407284, -0.0003859293647110462, -0.09062730520963669, -0.8021210432052612, -0.8804371953010559, 0.05472251772880554, -1.427275292515766, 2.969271621357109, -177.244750456528, 9362.0, 30146.0, 35388.0, 9362.0, 8.390083312988281, 0.11496476083993912, 0.005619292613118887, -0.24266688525676727, -0.1270093023777008, -0.03648975491523743, 0.9901449084281921, -0.1067567691206932, -0.18295860290527344, 1.48095703125, 1.584228515625, 0.3801727294921875, 1.48974609375
63512, 0.010751333087682724, -0.04619429260492325, -0.029948150739073753, 0.0016041018534451723, -7.743922469671816e-05, -0.04531512036919594, 0.004104696214199066, -0.0004033665172755718, -0.0915992334485054, -0.8021259307861328, -0.8804382085800171, 0.05469702184200287, -1.4304951415325862, 2.967514357685218, -177.23630534057722, 9362.0, 30146.0, 35388.0, 9362.0, 8.390083312988281, -0.13023659586906433, -0.17093127965927124, -0.11475466191768646, -0.1270093023777008, -0.03648975491523743, 0.9901449084281921, -0.08511389791965485, -0.07543754577636719, 1.48974609375, 1.584228515625, 0.3801727294921875, 1.48974609375
