timeTick, roll, pitch, yaw, stateX, stateY, stateZ, stateVX, stateVY, stateVZ, otX0, otY0, otZ0, otRoll0, otPitch0, otYaw0, left wing, pitch motor, yaw motor, right wing, voltage, roll rate, pitch rate, yaw rate, A_x, A_y, A_z, current, i_raw, v_raw, airflow_voltage, airflow_speed, pot_Pitch
49304, 4.9513325691223145, -0.9453052878379822, -9.697680473327637, 0, 0, 0, 0, 0, 0, -0.788986325263977, -1.0264546871185303, 0.0542229525744915, -2.1659171865748412, 1.0300367277433793, -171.73882849594727, 0, 0, 0, 0, 0, 0, 0, 0, 0, 0, 0, 0, 0, 0, 0, 0, 0
49314, 4.951064586639404, -0.9468039870262146, -9.695269584655762, -3.788797766901553e-05, 0.0020547332242131233, -56.9271125793457, -0.0037094270810484886, 0.201187402009964, -2.3795735836029053, -0.7889500856399536, -1.0264904499053955, 0.05424613878130913, -2.173784188647849, 1.0156945598444906, -171.70753355512613, 9362.0, 30146.0, 35388.0, 9362.0, 0, -0.19389109313488007, 0.26449131965637207, 0.20159558951854706, -0.09224949777126312, -0.0298237893730402, 0.9943023324012756, 0, 0, 0, 0, 0, 0
49324, 4.950947284698486, -0.948225736618042, -9.693777084350586, -7.41702679079026e-05, 0.004023709334433079, -56.95091247558594, -0.0035466875415295362, 0.1926078051328659, -2.380383253097534, -0.7889737486839294, -1.0264471769332886, 0.05420736223459244, -2.16620478500811, 1.0274057475451457, -171.73674668177887, 9362.0, 30146.0, 35388.0, 9362.0, 0, -0.09883163869380951, -0.2631712257862091, -0.06688645482063293, -0.09381246566772461, -0.02996489591896534, 0.9939819574356079, 0, 0, 0, 1.6259765625, 0.4795989990234375, 0
49334, 4.951129913330078, -0.9487359523773193, -9.694221496582031, -0.00010881153866648674, 0.005906946957111359, -56.9747200012207, -0.0033813612535595894, 0.18403969705104828, -2.3813228607177734, -0.7889907360076904, -1.0264424085617065, 0.05421493574976921, -2.1649987950532044, 1.01589477935201, -171.7286311285019, 9362.0, 30146.0, 35388.0, 9362.0, 0, 0.18894027173519135, 0.2610660493373871, -0.05592766031622887, -0.09319767355918884, -0.031301748007535934, 0.9965737462043762, 0, 0, 0, 1.66845703125, 0.5852813720703125, 1.49267578125
49344, 4.951947212219238, -0.9503587484359741, -9.693854331970215, -0.00014178614947013557, 0.007704490330070257, -56.998538970947266, -0.0032136349473148584, 0.17546896636486053, -2.382235527038574, -0.7889761924743652, -1.02644944190979, 0.054234594106674194, -2.165878587041855, 1.026618760218355, -171.7449395396215, 9362.0, 30146.0, 35388.0, 9362.0, 0, 0.015199911780655384, -0.13857734203338623, -0.09760106354951859, -0.09289566427469254, -0.031623341143131256, 0.9962046146392822, 0, 0, 0, 1.491943359375, 0.179656982421875, 1.49267578125
49354, 4.952192306518555, -0.9503254890441895, -9.692965507507324, -0.0001730777876218781, 0.009416220709681511, -57.02236557006836, -0.0030446562450379133, 0.16687721014022827, -2.3829147815704346, -0.7889835834503174, -1.0264461040496826, 0.05420391261577606, -2.1738261226572924, 1.0252916117427446, -171.73253409255213, 9362.0, 30146.0, 35388.0, 9362.0, 0, 0.01990436390042305, 0.13780492544174194, 0.15434712171554565, -0.0923125147819519, -0.030700206756591797, 0.9962403178215027, 0, 0, 0, 1.64501953125, 0.5263671875, 1.49267578125
49364, 4.952151298522949, -0.9524502158164978, -9.692270278930664, -0.0002026679430855438, 0.011042074300348759, -57.046199798583984, -0.002873238641768694, 0.15829356014728546, -2.383706569671631, -0.7889586091041565, -1.0264537334442139, 0.05420216545462608, -2.15717811720338, 1.021261193365632, -171.70105278465383, 9362.0, 30146.0, 35388.0, 9362.0, 0, 0.06770139187574387, 0.018083535134792328, 0.1526445895433426, -0.09218400716781616, -0.02822968363761902, 0.9969216585159302, 0, 0, 0, 1.57470703125, 0.3579864501953125, 1.49267578125
49374, 4.9515485763549805, -0.9524217844009399, -9.693541526794434, -0.00023054312623571604, 0.012582052499055862, -57.07004165649414, -0.002701721154153347, 0.14970198273658752, -2.384413480758667, -0.7889496684074402, -1.026465892791748, 0.05425793677568436, -2.154791641228665, 1.010238534701699, -171.70339409272384, 9362.0, 30146.0, 35388.0, 9362.0, 0, 0.12717539072036743, 0.4203028082847595, 0.2226259708404541, -0.09377941489219666, -0.029431656002998352, 0.9964157342910767, 0, 0, 0, 1.657470703125, 0.5576019287109375, 1.4912109375
49384, 4.95223331451416, -0.9519428610801697, -9.692744255065918, -0.00025668484158813953, 0.014036116190254688, -57.09389114379883, -0.0025268152821809053, 0.14111079275608063, -2.3851306438446045, -0.7889450192451477, -1.0264710187911987, 0.05423586070537567, -2.1591448644945386, 1.0279451221648799, -171.71073000115732, 9362.0, 30146.0, 35388.0, 9362.0, 0, 0.056258801370859146, -0.28143107891082764, -0.10063596069812775, -0.09404867887496948, -0.029629403725266457, 0.9962089657783508, 0, 0, 0, 1.6904296875, 0.642578125, 1.4912109375
49394, 4.95231294631958, -0.9516792297363281, -9.691715240478516, -0.0002810778678394854, 0.015404275618493557, -57.11774444580078, -0.0023516714572906494, 0.1325211375951767, -2.3858537673950195, -0.7889499664306641, -1.0264710187911987, 0.05419391393661499, -2.1536644599176613, 1.0312046610339678, -171.707542740313, 9362.0, 30146.0, 35388.0, 9362.0, 0, -0.12103242427110672, -0.12191905826330185, -0.14963530004024506, -0.09366451948881149, -0.028881317004561424, 0.9942297339439392, 0, 0, 0, 1.1806640625, 0.5037689208984375, 1.494873046875
49404, 4.952488422393799, -0.9502530097961426, -9.69296932220459, -0.0003037246351595968, 0.01668657176196575, -57.141605377197266, -0.0021775267086923122, 0.1239379420876503, -2.3866617679595947, -0.789005696773529, -1.026423454284668, 0.054231345653533936, -2.1898463398425196, 1.0261899524950877, -171.70587731362372, 9362.0, 30146.0, 35388.0, 9362.0, 8.350414276123047, 0.1959690898656845, 0.22800181806087494, 0.05180385708808899, -0.09329782426357269, -0.027355458587408066, 0.995825469493866, -0.08742305636405945, -0.05751800537109375, 1.4912109375, 1.147705078125, 0.7606201171875, 1.494873046875
49414, 4.9529643058776855, -0.9506726264953613, -9.693476676940918, -0.00032463279785588384, 0.017883097752928734, -57.16547775268555, -0.0020042695105075836, 0.11536738276481628, -2.387613296508789, -0.788953959941864, -1.0264891386032104, 0.054245129227638245, -2.1758794152624126, 1.0112664121493253, -171.70490001616704, 9362.0, 30146.0, 35388.0, 9362.0, 8.350414276123047, 0.02204521931707859, -0.018837561830878258, 0.058465950191020966, -0.09103256464004517, -0.03018154576420784, 0.9979506731033325, -0.08742305636405945, -0.05751800537109375, 1.4912109375, 1.264892578125, 0.119354248046875, 1.491943359375
49424, 4.953333377838135, -0.9498608112335205, -9.69368839263916, -0.0003438190324231982, 0.018993796780705452, -57.18935775756836, -0.0018330594757571816, 0.10677225142717361, -2.3882851600646973, -0.7889708280563354, -1.0264506340026855, 0.054232072085142136, -2.168332794491293, 1.027295034020483, -171.742672504344, 9362.0, 30146.0, 35388.0, 9362.0, 8.350414276123047, -0.012073610909283161, 0.1639849692583084, -0.21008425951004028, -0.08976658433675766, -0.02764800377190113, 0.9956977367401123, -0.08742305636405945, -0.05751800537109375, 1.4912109375, 1.5, 0.19561767578125, 1.491943359375
49434, 4.952453136444092, -0.9519211649894714, -9.693487167358398, -0.0003612905857153237, 0.020018532872200012, -57.2132453918457, -0.0016612737672403455, 0.09817482531070709, -2.388941526412964, -0.7889869809150696, -1.0264499187469482, 0.05421922355890274, -2.181859442747416, 1.0245481211699143, -171.73379990179748, 9362.0, 30146.0, 35388.0, 9362.0, 8.350414276123047, -0.2356031835079193, 0.12845441699028015, -0.04955558851361275, -0.09142129123210907, -0.028129344806075096, 0.9956767559051514, -0.08742305636405945, -0.05751800537109375, 1.4912109375, 1.305908203125, 0.0413360595703125, 1.491943359375
49444, 4.951659202575684, -0.9530132412910461, -9.692924499511719, -0.00037705316208302975, 0.02095736190676689, -57.23714065551758, -0.0014912366168573499, 0.08959090709686279, -2.3897554874420166, -0.788974404335022, -1.0264407396316528, 0.054260313510894775, -2.180708143897401, 1.0230036434566046, -171.67577261744353, 9362.0, 30146.0, 35388.0, 9362.0, 8.350414276123047, 0.08926306664943695, 0.14040471613407135, 0.17362350225448608, -0.09425221383571625, -0.028342610225081444, 0.994446873664856, -0.08742305636405945, -0.05751800537109375, 1.4912109375, 1.63330078125, 0.49737548828125, 1.491943359375
49454, 4.952127933502197, -0.9541208148002625, -9.692005157470703, -0.0003910967498086393, 0.02181035839021206, -57.261043548583984, -0.0013174102641642094, 0.08100844919681549, -2.390575885772705, -0.7889792323112488, -1.0264569520950317, 0.05420099198818207, -2.1714013478251677, 1.0182249857142267, -171.7318910933252, 9362.0, 30146.0, 35388.0, 9362.0, 8.350414276123047, 0.0778852328658104, -0.22635376453399658, -0.039213839918375015, -0.09300887584686279, -0.02966444194316864, 0.9956510663032532, -0.08742305636405945, -0.05751800537109375, 1.4912109375, 1.026123046875, 2.4365234375, 1.48828125
49464, 4.95286750793457, -0.9529385566711426, -9.69070816040039, -0.0004033920413348824, 0.022577568888664246, -57.28495407104492, -0.001141526154242456, 0.07243356108665466, -2.391469955444336, -0.7889811992645264, -1.026461124420166, 0.05423619598150253, -2.1700244495219843, 1.0154247661926092, -171.73429131740974, 9362.0, 30146.0, 35388.0, 9362.0, 8.350414276123047, 0.0615844763815403, -0.11624397337436676, 0.012891953811049461, -0.09148246794939041, -0.03177838772535324, 0.9939968585968018, -0.08742305636405945, -0.05751800537109375, 1.4912109375, 1.698486328125, 0.6639404296875, 1.48828125
49474, 4.95451021194458, -0.9555500149726868, -9.69121265411377, -0.000413918518461287, 0.023258991539478302, -57.30887222290039, -0.0009635567548684776, 0.06385084241628647, -2.3922884464263916, -0.7889799475669861, -1.0264382362365723, 0.05422517657279968, -2.1739108610517905, 1.0216175707331558, -171.7352057498634, 9362.0, 30146.0, 35388.0, 9362.0, 8.350414276123047, 0.22882984578609467, 0.1751510500907898, -0.10136211663484573, -0.09438590705394745, -0.028562508523464203, 0.9959665536880493, -0.08742305636405945, -0.05751800537109375, 1.4912109375, 1.434814453125, 0.081787109375, 1.4912109375
49484, 4.956538200378418, -0.9570107460021973, -9.692237854003906, -0.00042267650132998824, 0.023854639381170273, -57.33279800415039, -0.0007881529745645821, 0.05527893826365471, -2.3932387828826904, -0.7889803647994995, -1.0264661312103271, 0.05420807749032974, -2.1707920816229183, 1.0178137855952798, -171.7354895053981, 9362.0, 30146.0, 35388.0, 9362.0, 8.350414276123047, 0.01476317923516035, 0.1391046643257141, -0.08255071192979813, -0.09409961849451065, -0.0275978222489357, 0.9998570084571838, -0.08742305636405945, -0.05751800537109375, 1.4912109375, 1.6552734375, 0.5520477294921875, 1.4912109375
49494, 4.956537246704102, -0.9599586129188538, -9.692447662353516, -0.00042965856846421957, 0.024364419281482697, -57.35673522949219, -0.000608435133472085, 0.04667695239186287, -2.3938894271850586, -0.7889625430107117, -1.0264415740966797, 0.05425829812884331, -2.1739060341739944, 1.0175770986490704, -171.74234398666434, 9362.0, 30146.0, 35388.0, 9362.0, 8.350414276123047, 0.2254461646080017, 0.4539099931716919, 0.1925012767314911, -0.09434337168931961, -0.028791502118110657, 0.9977514147758484, -0.08742305636405945, -0.05751800537109375, 1.4912109375, 1.61572265625, 0.45465087890625, 1.487548828125
49504, 4.958035945892334, -0.9613329768180847, -9.69183349609375, -0.0004348326474428177, 0.02478805184364319, -57.38067626953125, -0.0004264293529558927, 0.038049742579460144, -2.3942978382110596, -0.7889755368232727, -1.0265002250671387, 0.054360244423151016, -2.204322676515181, 1.0457937697973705, -171.7404337295606, 9362.0, 30146.0, 35388.0, 9362.0, 8.350414276123047, -0.2240566462278366, 0.23201875388622284, 0.09973153471946716, -0.09376546740531921, -0.028879767283797264, 0.9941658973693848, -0.08089907467365265, -0.07543754577636719, 1.48974609375, 1.1220703125, 1.01129150390625, 1.487548828125
49514, 4.957849025726318, -0.9622229933738708, -9.692827224731445, -0.0004381646867841482, 0.02512552961707115, -57.40462112426758, -0.00023990121553651989, 0.029445966705679893, -2.3949806690216064, -0.7889561057090759, -1.0264712572097778, 0.05421362817287445, -2.164530312209086, 1.0237069464545243, -171.7056252759003, 9362.0, 30146.0, 35388.0, 9362.0, 8.350414276123047, 0.16583310067653656, -0.009709622710943222, -0.04729090631008148, -0.09320434927940369, -0.03110545128583908, 0.9940611124038696, -0.08089907467365265, -0.07543754577636719, 1.48974609375, 1.752685546875, 0.817962646484375, 1.494140625
49524, 4.959143161773682, -0.9639943838119507, -9.693293571472168, -0.0004396246513351798, 0.025377092882990837, -57.4285774230957, -5.224905544309877e-05, 0.020866703242063522, -2.3959739208221436, -0.7889493107795715, -1.0264703035354614, 0.05422574281692505, -2.167911413396842, 1.024514764089588, -171.7028454240116, 9362.0, 30146.0, 35388.0, 9362.0, 8.350414276123047, -0.07490526139736176, 0.30404847860336304, 0.35746899247169495, -0.09486113488674164, -0.02927311137318611, 0.9969291687011719, -0.08089907467365265, -0.07543754577636719, 1.48974609375, 1.55859375, 0.3211212158203125, 1.494140625
49534, 4.958633899688721, -0.9660139679908752, -9.691019058227539, -0.0004391996772028506, 0.02554279938340187, -57.45254135131836, 0.00013714635861106217, 0.012274508364498615, -2.3968210220336914, -0.7889463305473328, -1.0264761447906494, 0.05425157770514488, -2.1655966827021733, 1.0162457423565456, -171.70289210594837, 9362.0, 30146.0, 35388.0, 9362.0, 8.350414276123047, 0.1281430870294571, 0.24130761623382568, -0.2294064611196518, -0.09195712208747864, -0.03017067164182663, 0.997361958026886, -0.08089907467365265, -0.07543754577636719, 1.48974609375, 1.7431640625, 0.7893218994140625, 1.491943359375
49544, 4.958394527435303, -0.9673973917961121, -9.69161319732666, -0.00043686627759598196, 0.02562248520553112, -57.47651290893555, 0.00032985443249344826, 0.0036628793459385633, -2.397477626800537, -0.7890074849128723, -1.0264270305633545, 0.054215993732213974, -2.183600102792657, 1.01888762291901, -171.71422796134485, 9362.0, 30146.0, 35388.0, 9362.0, 8.350414276123047, -0.16846218705177307, -0.02152511104941368, 0.07026518881320953, -0.09279780089855194, -0.030665187165141106, 0.9975536465644836, -0.08089907467365265, -0.07543754577636719, 1.48974609375, 1.01953125, 2.5674285888671875, 1.491943359375
49554, 4.957399368286133, -0.9673123359680176, -9.691582679748535, -0.0004325860645622015, 0.02561604045331478, -57.500492095947266, 0.000526079791598022, -0.004951708018779755, -2.3980984687805176, -0.7889776825904846, -1.0264434814453125, 0.054229483008384705, -2.1614941404528345, 1.0180388897760508, -171.72903857556886, 9362.0, 30146.0, 35388.0, 9362.0, 8.350414276123047, -0.1595473736524582, 0.280254989862442, -0.03324490785598755, -0.0918317511677742, -0.027679475024342537, 0.9966135025024414, -0.08089907467365265, -0.07543754577636719, 1.48974609375, 1.698486328125, 0.6639404296875, 1.48974609375
49564, 4.955855846405029, -0.9686068892478943, -9.69124698638916, -0.00042633197153918445, 0.02552344650030136, -57.52447509765625, 0.0007247408502735198, -0.013566994108259678, -2.3987109661102295, -0.7889804244041443, -1.0264582633972168, 0.05422068014740944, -2.1767174440990407, 1.0289154361673525, -171.73593672889746, 9362.0, 30146.0, 35388.0, 9362.0, 8.350414276123047, 0.10822425037622452, -0.06002239137887955, -0.05785888433456421, -0.09251304715871811, -0.02971705049276352, 0.995230495929718, -0.08089907467365265, -0.07543754577636719, 1.48974609375, 1.383544921875, 0.026611328125, 1.48974609375
49574, 4.956806182861328, -0.9690880179405212, -9.692068099975586, -0.000418091774918139, 0.025344761088490486, -57.548465728759766, 0.0009233328746631742, -0.02217000164091587, -2.3994433879852295, -0.7889470458030701, -1.0264782905578613, 0.054199062287807465, -2.1580555655640477, 1.0297472568227306, -171.71121522591298, 9362.0, 30146.0, 35388.0, 9362.0, 8.350414276123047, 0.15323354303836823, 0.09871070832014084, -0.22152523696422577, -0.09402071684598923, -0.03199264034628868, 0.9937697052955627, -0.08089907467365265, -0.07543754577636719, 1.48974609375, 1.675048828125, 0.6022186279296875, 1.490478515625
49584, 4.959141731262207, -0.9709110260009766, -9.692221641540527, -0.0004078539495822042, 0.025080125778913498, -57.57246398925781, 0.0011241008760407567, -0.03075706772506237, -2.4003307819366455, -0.788987398147583, -1.0264619588851929, 0.05424221232533455, -2.179857629868763, 1.0145168212264366, -171.73324287302057, 9362.0, 30146.0, 35388.0, 9362.0, 8.350414276123047, -0.10248275846242905, 0.4052011966705322, 0.3301742672920227, -0.09388012439012527, -0.03018943779170513, 0.9938464760780334, -0.08089907467365265, -0.07543754577636719, 1.48974609375, 1.118408203125, 1.0510711669921875, 1.490478515625
49594, 4.9590020179748535, -0.9716840982437134, -9.69165325164795, -0.00039560740697197616, 0.02472965605556965, -57.596473693847656, 0.0013251517666503787, -0.039336901158094406, -2.401319980621338, -0.7889782190322876, -1.0264450311660767, 0.05420128256082535, -2.167516301309436, 1.0281146680370625, -171.72182653561447, 9362.0, 30146.0, 35388.0, 9362.0, 8.350414276123047, -0.03986175358295441, -0.21001838147640228, -0.07793373614549637, -0.09313105791807175, -0.029689718037843704, 0.9959346055984497, -0.08089907467365265, -0.07543754577636719, 1.48974609375, 1.3798828125, 0.0243377685546875, 1.493408203125
49604, 4.958984375, -0.9729018807411194, -9.691476821899414, -0.00038133791531436145, 0.024293333292007446, -57.62049102783203, 0.0015288233989849687, -0.047927550971508026, -2.4022364616394043, -0.7889798283576965, -1.0264530181884766, 0.05423426255583763, -2.1650114161268856, 1.0114926483747695, -171.73006647136305, 9362.0, 30146.0, 35388.0, 9362.0, 8.350414276123047, 0.25791260600090027, -0.01031485479325056, -0.017435094341635704, -0.09199124574661255, -0.029420876875519753, 0.9973681569099426, -0.10840650647878647, -0.1739978790283203, 1.481689453125, 1.716796875, 0.7138519287109375, 1.493408203125
49614, 4.959978103637695, -0.9748862981796265, -9.68917465209961, -0.0003650228027254343, 0.023771028965711594, -57.64451599121094, 0.0017342177452519536, -0.05653337016701698, -2.4029812812805176, -0.7889701724052429, -1.0264689922332764, 0.05424422025680542, -2.176832216791071, 1.0162908336488385, -171.74387982875638, 9362.0, 30146.0, 35388.0, 9362.0, 8.350414276123047, 0.12778420746326447, 0.32615718245506287, 0.2679424583911896, -0.09248579293489456, -0.028300249949097633, 0.9982814192771912, -0.10840650647878647, -0.1739978790283203, 1.481689453125, 1.267822265625, 0.111724853515625, 1.493408203125
49624, 4.960603713989258, -0.9755155444145203, -9.687984466552734, -0.0003466419002506882, 0.0231626033782959, -57.668548583984375, 0.0019422865007072687, -0.06515168398618698, -2.4035890102386475, -0.7889745235443115, -1.0264359712600708, 0.054210398346185684, -2.1687456394839026, 1.0322917016342217, -171.73247100050537, 9362.0, 30146.0, 35388.0, 9362.0, 8.350414276123047, 0.03459525480866432, -0.19205670058727264, 0.41565823554992676, -0.09274476021528244, -0.030601179227232933, 0.9950066208839417, -0.10840650647878647, -0.1739978790283203, 1.481689453125, 1.440673828125, 0.090423583984375, 1.493408203125
49634, 4.9609785079956055, -0.9747682809829712, -9.687018394470215, -0.00032616371754556894, 0.022467998787760735, -57.692588806152344, 0.0021535148844122887, -0.07376915961503983, -2.404231309890747, -0.788974940776825, -1.0264545679092407, 0.05422501266002655, -2.1653523992418138, 1.027164548469102, -171.74326857007742, 9362.0, 30146.0, 35388.0, 9362.0, 8.350414276123047, -0.1715696007013321, -0.13663844764232635, -0.11925285309553146, -0.09424284845590591, -0.030545907095074654, 0.9937053322792053, -0.10840650647878647, -0.1739978790283203, 1.481689453125, 1.585693359375, 0.383544921875, 1.49267578125
49644, 4.959854602813721, -0.9744545221328735, -9.687707901000977, -0.00030357117066159844, 0.02168734185397625, -57.716636657714844, 0.0023651469964534044, -0.08236204832792282, -2.405165433883667, -0.7889763116836548, -1.0264546871185303, 0.054195206612348557, -2.173187396997588, 1.025747343381397, -171.7361498522928, 9362.0, 30146.0, 35388.0, 9362.0, 8.350414276123047, 0.043145593255758286, 0.2654282748699188, -0.0721130520105362, -0.09135209023952484, -0.03063320554792881, 0.9952852725982666, -0.10840650647878647, -0.1739978790283203, 1.481689453125, 1.289794921875, 0.065032958984375, 1.49267578125
49654, 4.960236549377441, -0.9755698442459106, -9.688138008117676, -0.0002788687706924975, 0.020820770412683487, -57.740692138671875, 0.002575238235294819, -0.0909523144364357, -2.406134843826294, -0.788966953754425, -1.0264564752578735, 0.05421020835638046, -2.15971184086504, 1.0289756041974272, -171.7445890344975, 9362.0, 30146.0, 35388.0, 9362.0, 8.350414276123047, 0.06301560252904892, -0.2079218626022339, -0.11276949197053909, -0.09298249334096909, -0.02868521958589554, 0.9968065619468689, -0.10840650647878647, -0.1739978790283203, 1.481689453125, 1.34619140625, 0.015594482421875, 1.491943359375
49664, 4.960592746734619, -0.9750832915306091, -9.689046859741211, -0.000252064986852929, 0.01986822485923767, -57.7647590637207, 0.002785442164167762, -0.09955690801143646, -2.406919002532959, -0.7889679670333862, -1.0264313220977783, 0.054218318313360214, -2.16025012358267, 1.0250005673507019, -171.7321206567084, 9362.0, 30146.0, 35388.0, 9362.0, 8.350414276123047, -0.09233903139829636, -0.0672040581703186, -0.05703737214207649, -0.09214380383491516, -0.027954647317528725, 0.9972293972969055, -0.10840650647878647, -0.1739978790283203, 1.481689453125, 1.502197265625, 0.20001220703125, 1.491943359375
49674, 4.959827899932861, -0.9735218286514282, -9.690014839172363, -0.00022314967645797879, 0.0188295878469944, -57.78883361816406, 0.0029974819626659155, -0.10817049443721771, -2.4076130390167236, -0.7889506220817566, -1.0264720916748047, 0.05422065407037735, -2.1633948339667946, 1.0176762653559024, -171.69181380352873, 9362.0, 30146.0, 35388.0, 9362.0, 8.350414276123047, 0.06489486247301102, 0.24292151629924774, 0.2577438950538635, -0.093030646443367, -0.031563229858875275, 0.9967457056045532, -0.10840650647878647, -0.1739978790283203, 1.481689453125, 1.726318359375, 0.7405853271484375, 1.4912109375
49684, 4.9602203369140625, -0.9740932583808899, -9.688912391662598, -0.00019211837206967175, 0.01770477555692196, -57.81291198730469, 0.0032086519058793783, -0.11679177731275558, -2.408224105834961, -0.7889676690101624, -1.0264652967453003, 0.05420709773898125, -2.174240269204595, 1.022964936020827, -171.7398047054373, 9362.0, 30146.0, 35388.0, 9362.0, 8.350414276123047, -0.09861992299556732, -0.529985785484314, -0.19514262676239014, -0.09401006996631622, -0.02873903140425682, 0.9960852861404419, -0.10840650647878647, -0.1739978790283203, 1.481689453125, 1.40625, 0.04620361328125, 1.4912109375
49694, 4.960274696350098, -0.9741690158843994, -9.690875053405762, -0.00015898921992629766, 0.01649380661547184, -57.836997985839844, 0.0034173293970525265, -0.12540192902088165, -2.408942461013794, -0.7889857888221741, -1.0264521837234497, 0.05420348048210144, -2.1708082871514467, 1.0241640781729018, -171.7316038188475, 9362.0, 30146.0, 35388.0, 9362.0, 8.350414276123047, 0.1326208859682083, 0.2599049210548401, 0.013604865409433842, -0.0941658690571785, -0.029146844521164894, 0.9953264594078064, -0.10840650647878647, -0.1739978790283203, 1.481689453125, 1.60546875, 0.43011474609375, 1.4912109375
49704, 4.960933685302734, -0.9748579263687134, -9.691368103027344, -0.00012376860831864178, 0.01519674714654684, -57.86109161376953, 0.003626503748819232, -0.13400991261005402, -2.409694194793701, -0.7889808416366577, -1.0264555215835571, 0.054225388914346695, -2.1711185581715586, 1.0148484782978926, -171.73185956306085, 9362.0, 30146.0, 35388.0, 9362.0, 8.350414276123047, 0.008304690010845661, -0.14695705473423004, 0.0658174678683281, -0.093452587723732, -0.03058469295501709, 0.9931332468986511, -0.09616339206695557, -0.15607833862304688, 1.483154296875, 1.693359375, 0.650238037109375, 1.4912109375
49714, 4.959874153137207, -0.975379228591919, -9.69014835357666, -8.645898196846247e-05, 0.013813680037856102, -57.88519287109375, 0.003835342125967145, -0.14260344207286835, -2.410611391067505, -0.7889834046363831, -1.02644944190979, 0.0541851669549942, -2.1729133700399084, 1.032908518917111, -171.72016225954704, 9362.0, 30146.0, 35388.0, 9362.0, 8.350414276123047, 0.10116761177778244, -0.2426179200410843, -0.17581351101398468, -0.09341876208782196, -0.028429873287677765, 0.9968592524528503, -0.09616339206695557, -0.15607833862304688, 1.483154296875, 1.44873046875, 0.102813720703125, 1.48828125
49724, 4.961117267608643, -0.9746095538139343, -9.691954612731934, -4.705682658823207e-05, 0.012344686314463615, -57.909305572509766, 0.004045257810503244, -0.15119536221027374, -2.4115607738494873, -0.7889686226844788, -1.0264545679092407, 0.054226554930210114, -2.170900270645742, 1.0133091892892025, -171.73330487481485, 9362.0, 30146.0, 35388.0, 9362.0, 8.350414276123047, 0.16511890292167664, 0.1045069620013237, -0.03705340996384621, -0.09339850395917892, -0.030000222846865654, 0.9964126348495483, -0.09616339206695557, -0.15607833862304688, 1.483154296875, 1.7548828125, 0.824676513671875, 1.48828125
49734, 4.96190071105957, -0.9765532612800598, -9.691069602966309, -5.546076863538474e-06, 0.010789670050144196, -57.93342590332031, 0.004256648477166891, -0.15980777144432068, -2.4122602939605713, -0.7889532446861267, -1.026463270187378, 0.05422806739807129, -2.158145871644777, 1.028986716443029, -171.7013495474648, 9362.0, 30146.0, 35388.0, 9362.0, 8.350414276123047, 0.1456642895936966, 0.09529976546764374, 0.26069021224975586, -0.09137620776891708, -0.02994123287498951, 0.9960715770721436, -0.09616339206695557, -0.15607833862304688, 1.483154296875, 1.5087890625, 0.21337890625, 1.486083984375
49744, 4.961635589599609, -0.9767659902572632, -9.689889907836914, 3.8068559661041945e-05, 0.009148540906608105, -57.95755386352539, 0.004466378130018711, -0.16841799020767212, -2.4130055904388428, -0.7889822125434875, -1.026455044746399, 0.054209936410188675, -2.1641759674357246, 1.0284582397674171, -171.73475118821366, 9362.0, 30146.0, 35388.0, 9362.0, 8.350414276123047, -0.11156240105628967, 0.2290193736553192, 0.02410183660686016, -0.09311109781265259, -0.02886628359556198, 0.9960412383079529, -0.09616339206695557, -0.15607833862304688, 1.483154296875, 1.6376953125, 0.5082244873046875, 1.486083984375
49754, 4.961185455322266, -0.9776287078857422, -9.689623832702637, 8.37959159980528e-05, 0.007421312853693962, -57.981689453125, 0.004679276142269373, -0.17702770233154297, -2.4137778282165527, -0.7889722585678101, -1.0264531373977661, 0.054242439568042755, -2.1710243065228942, 1.0137519939938784, -171.73655153024964, 9362.0, 30146.0, 35388.0, 9362.0, 8.350414276123047, -0.0038583960849791765, 0.08569454401731491, -0.2101927399635315, -0.09349305927753448, -0.027964510023593903, 0.9952170848846436, -0.09616339206695557, -0.15607833862304688, 1.483154296875, 1.58203125, 0.37493896484375, 1.4912109375
49764, 4.9615020751953125, -0.9789170622825623, -9.689805030822754, 0.00013165496056899428, 0.00560800451785326, -58.00583267211914, 0.004892565310001373, -0.18563398718833923, -2.4145851135253906, -0.7889361381530762, -1.0264679193496704, 0.05422733724117279, -2.1545865247424314, 1.0094589015050417, -171.70021931727194, 9362.0, 30146.0, 35388.0, 9362.0, 8.350414276123047, 0.017716623842716217, 0.07427258044481277, 0.06681370735168457, -0.09296713024377823, -0.028357479721307755, 0.9947936534881592, -0.09616339206695557, -0.15607833862304688, 1.483154296875, 1.5732421875, 0.354736328125, 1.4912109375
49774, 4.962213039398193, -0.9787144064903259, -9.689949989318848, 0.00018165475921705365, 0.0037086457014083862, -58.02998352050781, 0.005107348319143057, -0.19423776865005493, -2.415414333343506, -0.7889794111251831, -1.026450753211975, 0.054225899279117584, -2.1602753129693184, 1.0103783521900311, -171.7334876769031, 9362.0, 30146.0, 35388.0, 9362.0, 8.350414276123047, 0.21909596025943756, 0.3339090943336487, -0.01192915067076683, -0.09276600182056427, -0.03041110932826996, 0.9951918125152588, -0.09616339206695557, -0.15607833862304688, 1.483154296875, 1.65966796875, 0.5630340576171875, 1.490478515625
49784, 4.963038444519043, -0.9827189445495605, -9.687685012817383, 0.00023381189384963363, 0.001723272493109107, -58.054141998291016, 0.005324041936546564, -0.20283691585063934, -2.416306257247925, -0.7889578342437744, -1.0264883041381836, 0.054246846586465836, -2.1667678144601217, 1.013640917443837, -171.70516133632168, 9362.0, 30146.0, 35388.0, 9362.0, 8.350414276123047, -0.12014225125312805, -0.09848285466432571, -0.13558830320835114, -0.09412688761949539, -0.03054112195968628, 0.9988067746162415, -0.09616339206695557, -0.15607833862304688, 1.483154296875, 1.499267578125, 0.1941070556640625, 1.490478515625
49794, 4.962282657623291, -0.9832105040550232, -9.68854808807373, 0.00028813464450649917, -0.0003481574822217226, -58.07830810546875, 0.005540791898965836, -0.2114490568637848, -2.4170641899108887, -0.7889814972877502, -1.0264331102371216, 0.05421524867415428, -2.1578982369349267, 1.0151951517676139, -171.73501532829474, 9362.0, 30146.0, 35388.0, 9362.0, 8.350414276123047, 0.1202223002910614, -0.09151436388492584, 0.21042831242084503, -0.09597769379615784, -0.025898955762386322, 0.9971914887428284, -0.09616339206695557, -0.15607833862304688, 1.483154296875, 1.23486328125, 0.2174835205078125, 1.48388671875
49804, 4.9616923332214355, -0.9836139678955078, -9.686782836914062, 0.00034466147189959884, -0.002505820244550705, -58.102481842041016, 0.005764455068856478, -0.22008360922336578, -2.417598009109497, -0.7889701724052429, -1.026443600654602, 0.05422227084636688, -2.16599534341618, 1.022155432894209, -171.7330252320038, 9362.0, 30146.0, 35388.0, 9362.0, 8.350414276123047, -0.08427456766366959, -0.05009974166750908, -0.0698959156870842, -0.09316672384738922, -0.026032468304038048, 0.9959626793861389, -0.10199962556362152, 0.07688140869140625, 1.502197265625, 1.198974609375, 0.38958740234375, 1.48388671875
49814, 4.9614481925964355, -0.9805402159690857, -9.686534881591797, 0.0004034277517348528, -0.004749758169054985, -58.12665939331055, 0.005989061202853918, -0.22870390117168427, -2.4182796478271484, -0.7889941334724426, -1.0264570713043213, 0.054240401834249496, -2.1772426061329293, 1.0135273987118296, -171.7373008909561, 9362.0, 30146.0, 35388.0, 9362.0, 8.350414276123047, 0.022542579099535942, 0.3586982786655426, 0.3243277072906494, -0.09099487215280533, -0.030951185151934624, 0.9949994087219238, -0.10199962556362152, 0.07688140869140625, 1.502197265625, 1.084716796875, 1.4674530029296875, 1.490478515625
49824, 4.961631774902344, -0.9837498664855957, -9.685468673706055, 0.00046444431063719094, -0.0070798443630337715, -58.15084457397461, 0.006214336026459932, -0.2373131364583969, -2.4190757274627686, -0.78897625207901, -1.0264581441879272, 0.05424363166093826, -2.1641813917686927, 1.0031006083111436, -171.73676540083702, 9362.0, 30146.0, 35388.0, 9362.0, 8.350414276123047, -0.0785251259803772, 0.1575862020254135, -0.010156899690628052, -0.09268747270107269, -0.03238984942436218, 0.9963676929473877, -0.10199962556362152, 0.07688140869140625, 1.502197265625, 1.2861328125, 0.0716094970703125, 1.490478515625
49834, 4.9617085456848145, -0.9846514463424683, -9.686699867248535, 0.0005276879528537393, -0.009495995007455349, -58.17504119873047, 0.0064345113933086395, -0.24591688811779022, -2.419919490814209, -0.7889842987060547, -1.0264469385147095, 0.05426408350467682, -2.18493365538577, 1.0143101569531439, -171.67173993792952, 9362.0, 30146.0, 35388.0, 9362.0, 8.350414276123047, -0.21736471354961395, -0.1382550597190857, -0.19255071878433228, -0.09211298078298569, -0.030448364093899727, 0.9982777833938599, -0.10199962556362152, 0.07688140869140625, 1.502197265625, 1.568115234375, 0.3428955078125, 1.4912109375
49844, 4.961406707763672, -0.9835875034332275, -9.68699836730957, 0.0005931624909862876, -0.011998256668448448, -58.19924545288086, 0.006660211365669966, -0.2545354664325714, -2.4206104278564453, -0.7889809608459473, -1.0264536142349243, 0.0542144738137722, -2.169588039897753, 1.0251474501269797, -171.7379977838645, 9362.0, 30146.0, 35388.0, 9362.0, 8.350414276123047, 0.07237908989191055, -0.34882044792175293, -0.1914975345134735, -0.09408663213253021, -0.028357308357954025, 0.9952929019927979, -0.10199962556362152, 0.07688140869140625, 1.502197265625, 1.6083984375, 0.437225341796875, 1.4912109375
49854, 4.96128511428833, -0.9835711121559143, -9.687211990356445, 0.0006609016563743353, -0.014586747623980045, -58.223453521728516, 0.006887589115649462, -0.26316288113594055, -2.421205520629883, -0.7889766693115234, -1.0264438390731812, 0.05423687398433685, -2.1628232852705214, 1.0146784843938974, -171.7422595323183, 9362.0, 30146.0, 35388.0, 9362.0, 8.350414276123047, 0.20134717226028442, -0.13004766404628754, 0.15989957749843597, -0.09350588917732239, -0.02829340472817421, 0.9959025979042053, -0.10199962556362152, 0.07688140869140625, 1.502197265625, 1.68603515625, 0.6308135986328125, 1.494873046875
49864, 4.961732387542725, -0.9816365242004395, -9.686701774597168, 0.000730903004296124, -0.017261400818824768, -58.2476692199707, 0.007112666964530945, -0.2717680037021637, -2.4220430850982666, -0.7889845371246338, -1.0264493227005005, 0.05424471199512482, -2.1592922029615216, 1.0200766393171818, -171.74287613211314, 9362.0, 30146.0, 35388.0, 9362.0, 8.350414276123047, -0.1034882664680481, 0.16656439006328583, -0.06675614416599274, -0.09429864585399628, -0.030562186613678932, 0.9945850372314453, -0.10199962556362152, 0.07688140869140625, 1.502197265625, 1.119873046875, 1.0350341796875, 1.494873046875
49874, 4.960926532745361, -0.9838997721672058, -9.687651634216309, 0.000803155533503741, -0.02002212218940258, -58.27189254760742, 0.007337938994169235, -0.28037628531455994, -2.422842502593994, -0.7889590263366699, -1.026502251625061, 0.054407812654972076, -2.2047983384222, 1.0414716926160565, -171.73610202692453, 9362.0, 30146.0, 35388.0, 9362.0, 8.350414276123047, 0.08664055168628693, -0.22002451121807098, 0.09790630638599396, -0.0935068130493164, -0.029881751164793968, 0.9951332211494446, -0.10199962556362152, 0.07688140869140625, 1.502197265625, 1.6669921875, 0.5816650390625, 1.48974609375
49884, 4.961523056030273, -0.9828274846076965, -9.686638832092285, 0.0008776430040597916, -0.022868875414133072, -58.29612731933594, 0.007559375837445259, -0.28897467255592346, -2.4237563610076904, -0.7889888882637024, -1.0264571905136108, 0.05437402054667473, -2.2161702124937412, 1.0582740293233144, -171.70872660010065, 9362.0, 30146.0, 35388.0, 9362.0, 8.350414276123047, -0.12258989363908768, 0.00728958984836936, 0.133990079164505, -0.09288167208433151, -0.0311716441065073, 0.9967703819274902, -0.10199962556362152, 0.07688140869140625, 1.502197265625, 1.71240234375, 0.70159912109375, 1.48974609375
49894, 4.960729598999023, -0.9824130535125732, -9.687491416931152, 0.0009543657652102411, -0.02580166608095169, -58.320369720458984, 0.007785335183143616, -0.29758358001708984, -2.4245431423187256, -0.7889401912689209, -1.0264617204666138, 0.05421510338783264, -2.1538583689262882, 1.0141398323951876, -171.70386269811385, 9362.0, 30146.0, 35388.0, 9362.0, 8.350414276123047, -0.05601080507040024, 0.1454305797815323, 0.13245363533496857, -0.09408272057771683, -0.029593050479888916, 0.9963957667350769, -0.10199962556362152, 0.07688140869140625, 1.502197265625, 1.667724609375, 0.583526611328125, 1.49560546875
49904, 4.961459159851074, -0.9836322665214539, -9.686423301696777, 0.0010333398822695017, -0.02882058545947075, -58.34461975097656, 0.008009365759789944, -0.30620014667510986, -2.4252512454986572, -0.7889764308929443, -1.0264475345611572, 0.054251279681921005, -2.163046119804505, 1.0167493505013567, -171.74234014230043, 9362.0, 30146.0, 35388.0, 9362.0, 8.350414276123047, 0.024982161819934845, -0.09522585570812225, -0.022385353222489357, -0.0924961045384407, -0.029554458335042, 0.9956379532814026, -0.10348138213157654, -0.2546367645263672, 1.47509765625, 1.732177734375, 0.75738525390625, 1.49560546875
49914, 4.961796760559082, -0.9850992560386658, -9.68504524230957, 0.0011145506286993623, -0.031925637274980545, -58.36887741088867, 0.00823292974382639, -0.3148098587989807, -2.426020622253418, -0.7889739274978638, -1.0264493227005005, 0.05424611642956734, -2.1741167132290644, 1.0224457636759041, -171.73121414491115, 9362.0, 30146.0, 35388.0, 9362.0, 8.350414276123047, 0.09443804621696472, 0.18143850564956665, 0.15499134361743927, -0.0908173993229866, -0.02845909260213375, 0.9948050379753113, -0.10348138213157654, -0.2546367645263672, 1.47509765625, 1.642822265625, 0.5209503173828125, 1.490478515625
49924, 4.9625678062438965, -0.988336443901062, -9.68198013305664, 0.0011980063281953335, -0.0351167656481266, -58.39314270019531, 0.008458392694592476, -0.32341596484184265, -2.4268484115600586, -0.7889834046363831, -1.0264390707015991, 0.054238222539424896, -2.1664786337399513, 1.016011785729944, -171.72668451922138, 9362.0, 30146.0, 35388.0, 9362.0, 8.350414276123047, -0.04965445026755333, 0.2079479694366455, 0.3179006278514862, -0.09346219897270203, -0.02898193709552288, 0.9944804310798645, -0.10348138213157654, -0.2546367645263672, 1.47509765625, 1.08984375, 1.3979949951171875, 1.490478515625
49934, 4.962853908538818, -0.9879608750343323, -9.681384086608887, 0.001283728634007275, -0.03839392960071564, -58.417415618896484, 0.00868647638708353, -0.3320164978504181, -2.4277491569519043, -0.7889657616615295, -1.0264312028884888, 0.05425553023815155, -2.1636527511559267, 1.0168505473477296, -171.73544464351102, 9362.0, 30146.0, 35388.0, 9362.0, 8.350414276123047, -0.010575846768915653, 0.0019515120657160878, 0.046711839735507965, -0.09501457214355469, -0.029446929693222046, 0.9934394359588623, -0.10348138213157654, -0.2546367645263672, 1.47509765625, 1.573974609375, 0.35626220703125, 1.48974609375
49944, 4.963037014007568, -0.9870406985282898, -9.682435035705566, 0.001371759339235723, -0.04175708442926407, -58.44169616699219, 0.00891975499689579, -0.34061431884765625, -2.4287073612213135, -0.7889866232872009, -1.026423692703247, 0.05423268675804138, -2.1639346445145318, 1.03134826365374, -171.72913016728432, 9362.0, 30146.0, 35388.0, 9362.0, 8.350414276123047, -0.056022681295871735, 0.04786251112818718, -0.07570350915193558, -0.09202764928340912, -0.029587453231215477, 0.9961190223693848, -0.10348138213157654, -0.2546367645263672, 1.47509765625, 1.573974609375, 0.35626220703125, 1.48974609375
49954, 4.964349746704102, -0.9901400208473206, -9.682140350341797, 0.001371759339235723, -0.04175708442926407, -58.44169616699219, 0.00891975499689579, -0.34061431884765625, -2.4287073612213135, -0.7889854907989502, -1.026437520980835, 0.05426747351884842, -2.165056600938337, 1.0165313566281213, -171.73484652204414, 9362.0, 30146.0, 35388.0, 9362.0, 8.350414276123047, 0.2084665298461914, -0.16323025524616241, 0.25830671191215515, -0.09328701347112656, -0.030438033863902092, 0.9963802099227905, -0.10348138213157654, -0.2546367645263672, 1.47509765625, 1.573974609375, 0.35626220703125, 1.48974609375
49964, 4.9632954597473145, -0.9889106750488281, -9.68066692352295, 0.0015547992661595345, -0.04874146357178688, -58.49028778076172, 0.009383609518408775, -0.3578331470489502, -2.4303693771362305, -0.7889289259910583, -1.026509404182434, 0.054395511746406555, -2.1968137650429505, 1.0394122005383224, -171.70333493416348, 9362.0, 30146.0, 35388.0, 9362.0, 8.350414276123047, -0.08430088311433792, 0.17690470814704895, 0.09097570180892944, -0.0939781665802002, -0.029179660603404045, 0.9969436526298523, -0.10348138213157654, -0.2546367645263672, 1.47509765625, 1.573974609375, 0.35626220703125, 1.48974609375
49974, 4.96392822265625, -0.9901841878890991, -9.679758071899414, 0.0016498162876814604, -0.052362892776727676, -58.51459503173828, 0.009620020166039467, -0.36645254492759705, -2.431122303009033, -0.7889910936355591, -1.0264389514923096, 0.054253026843070984, -2.16837954715642, 1.0201250496115222, -171.7241865454314, 9362.0, 30146.0, 35388.0, 9362.0, 8.350414276123047, -0.0852472186088562, 0.2163984179496765, 0.16093425452709198, -0.09364746510982513, -0.031018085777759552, 0.9958971738815308, -0.10348138213157654, -0.2546367645263672, 1.47509765625, 1.162353515625, 0.637847900390625, 1.48974609375
49984, 4.963616371154785, -0.9917367696762085, -9.68030834197998, 0.0017471903702244163, -0.056070536375045776, -58.538909912109375, 0.009854934178292751, -0.3750757873058319, -2.431809186935425, -0.788987398147583, -1.0264499187469482, 0.05425852909684181, -2.16807483295872, 1.0168666791076078, -171.731578781665, 9362.0, 30146.0, 35388.0, 9362.0, 8.350414276123047, -0.214185431599617, -0.07620667666196823, -0.15649034082889557, -0.09503260254859924, -0.031249161809682846, 0.9947071075439453, -0.10348138213157654, -0.2546367645263672, 1.47509765625, 1.5673828125, 0.3411102294921875, 1.48974609375
49994, 4.961357593536377, -0.9905322194099426, -9.680604934692383, 0.0018469227943569422, -0.05986436828970909, -58.563232421875, 0.010091467760503292, -0.38369104266166687, -2.4326024055480957, -0.788970410823822, -1.026443600654602, 0.05425925925374031, -2.1730936838517447, 1.0215629196231077, -171.7346917202492, 9362.0, 30146.0, 35388.0, 9362.0, 8.350414276123047, 0.13978098332881927, 0.09418165683746338, -0.03410378471016884, -0.0933881402015686, -0.02993234246969223, 0.9966654777526855, -0.10348138213157654, -0.2546367645263672, 1.47509765625, 1.307373046875, 0.039581298828125, 1.48974609375
50004, 4.962686061859131, -0.9926528930664062, -9.681967735290527, 0.0019490326521918178, -0.06374431401491165, -58.587562561035156, 0.010330460034310818, -0.39229875802993774, -2.4334781169891357, -0.7889732718467712, -1.026443600654602, 0.054252296686172485, -2.1641680988389456, 1.0292445815370286, -171.73101977997055, 9362.0, 30146.0, 35388.0, 9362.0, 8.350414276123047, -0.09917096793651581, 0.15713715553283691, -0.024330010637640953, -0.09437296539545059, -0.031043624505400658, 0.9953703880310059, -0.0875549390912056, 0.014162063598632812, 1.4970703125, 1.53515625, 0.2692413330078125, 1.48974609375
50014, 4.9628987312316895, -0.99275141954422, -9.682082176208496, 0.002053526695817709, -0.06771036982536316, -58.611900329589844, 0.010568121448159218, -0.40091216564178467, -2.43424391746521, -0.788978636264801, -1.0264439582824707, 0.054256461560726166, -2.1654044726877735, 1.0257456415208708, -171.72855444402518, 9362.0, 30146.0, 35388.0, 9362.0, 8.350414276123047, 0.07643840461969376, 0.015051879920065403, 0.24847620725631714, -0.09222619980573654, -0.0292796790599823, 0.9963226318359375, -0.0875549390912056, 0.014162063598632812, 1.4970703125, 1.53515625, 0.2692413330078125, 1.48974609375
50024, 4.963644504547119, -0.9940394163131714, -9.681575775146484, 0.0021604113280773163, -0.07176254689693451, -58.63624572753906, 0.010808796621859074, -0.4095238447189331, -2.4350616931915283, -0.7889885306358337, -1.0264192819595337, 0.054221201688051224, -2.1601218767446158, 1.0290116161657465, -171.7312465713905, 9362.0, 30146.0, 35388.0, 9362.0, 8.350414276123047, -0.07931387424468994, -0.10175314545631409, -0.0074466923251748085, -0.09330692142248154, -0.027287593111395836, 0.9948969483375549, -0.0875549390912056, 0.014162063598632812, 1.4970703125, 1.48974609375, 0.1755218505859375, 1.48974609375
50034, 4.96279239654541, -0.9945979118347168, -9.68183708190918, 0.0022697041276842356, -0.07590087503194809, -58.66059875488281, 0.011049839667975903, -0.4181418716907501, -2.4358110427856445, -0.7889630794525146, -1.0264896154403687, 0.05435345321893692, -2.1958216946270266, 1.041826500483154, -171.73505511630418, 9362.0, 30146.0, 35388.0, 9362.0, 8.350414276123047, 0.10684013366699219, 0.09507789462804794, 0.44168901443481445, -0.09335712343454361, -0.028575727716088295, 0.993453323841095, -0.0875549390912056, 0.014162063598632812, 1.4970703125, 1.534423828125, 0.267578125, 1.490478515625
50044, 4.963374614715576, -0.99522465467453, -9.679643630981445, 0.0023814148735255003, -0.08012530207633972, -58.68496322631836, 0.011292265728116035, -0.4267435371875763, -2.43676495552063, -0.788978099822998, -1.0264415740966797, 0.05424425005912781, -2.1610759212987407, 1.0199541293006007, -171.7389056183805, 9362.0, 30146.0, 35388.0, 9362.0, 8.350414276123047, 0.2124701738357544, 0.5179600715637207, 0.34102338552474976, -0.09322197735309601, -0.030475258827209473, 0.996867835521698, -0.0875549390912056, 0.014162063598632812, 1.4970703125, 1.622314453125, 0.470672607421875, 1.490478515625
50084, 4.966578960418701, -0.9971425533294678, -9.678528785705566, 0.0024955556727945805, -0.08443574607372284, -58.70933532714844, 0.011536219157278538, -0.43534472584724426, -2.437709093093872, -0.7889942526817322, -1.0264699459075928, 0.05438993498682976, -2.2225633962092366, 1.051861421882336, -171.7009621165203, 9362.0, 30146.0, 35388.0, 9362.0, 8.350414276123047, 0.031023969873785973, 0.41692420840263367, -0.1979101598262787, -0.09148354083299637, -0.029801759868860245, 0.9953698515892029, -0.0875549390912056, 0.014162063598632812, 1.4970703125, 1.622314453125, 0.470672607421875, 1.49267578125
50094, 4.967635631561279, -0.9962235689163208, -9.679224014282227, 0.0029768897220492363, -0.10254023969173431, -58.80689239501953, 0.01253229659050703, -0.4698830544948578, -2.440178871154785, -0.7889768481254578, -1.0264309644699097, 0.05424122139811516, -2.1742365363093485, 1.0139969107733862, -171.67382467289792, 9362.0, 30146.0, 35388.0, 9362.0, 8.350414276123047, -0.09457998722791672, -0.24921074509620667, 0.15743599832057953, -0.09150815010070801, -0.028947362676262856, 0.9964669346809387, -0.0875549390912056, 0.014162063598632812, 1.4970703125, 1.44140625, 0.0914459228515625, 1.48974609375
50104, 4.966942310333252, -0.9964845180511475, -9.67922306060791, 0.003103450872004032, -0.10728216916322708, -58.831298828125, 0.012779852375388145, -0.47850316762924194, -2.440988779067993, -0.7889657020568848, -1.0264619588851929, 0.05423515662550926, -2.1584293531126835, 1.0199802771663542, -171.69671780110292, 9362.0, 30146.0, 35388.0, 9362.0, 8.350414276123047, -0.12888528406620026, 0.16083990037441254, 0.37470149993896484, -0.09250177443027496, -0.029445767402648926, 0.9964093565940857, -0.0882367268204689, -0.04855918884277344, 1.491943359375, 1.44140625, 0.0914459228515625, 1.48974609375
50114, 4.966535568237305, -0.9997922778129578, -9.676100730895996, 0.0032324790954589844, -0.11211035400629044, -58.855712890625, 0.013025805354118347, -0.4871337413787842, -2.4416983127593994, -0.7889955043792725, -1.0264464616775513, 0.05421590059995651, -2.166402388080721, 1.0120255825017637, -171.73594618989256, 9362.0, 30146.0, 35388.0, 9362.0, 8.350414276123047, 0.060986537486314774, 0.37549108266830444, 0.2246984988451004, -0.09440942853689194, -0.028278443962335587, 0.9953792691230774, -0.0882367268204689, -0.04855918884277344, 1.491943359375, 1.44140625, 0.0914459228515625, 1.48974609375
50124, 4.965765476226807, -1.000134825706482, -9.673236846923828, 0.00336396973580122, -0.11702482402324677, -58.88013458251953, 0.013272769749164581, -0.49576061964035034, -2.4424376487731934, -0.7889765501022339, -1.026452660560608, 0.05424024909734726, -2.1566007930097912, 1.0242938959850676, -171.74421362824864, 9362.0, 30146.0, 35388.0, 9362.0, 8.350414276123047, 0.02088603563606739, 0.2243209183216095, -0.00925194937735796, -0.09400510787963867, -0.02998238243162632, 0.9955109357833862, -0.0882367268204689, -0.04855918884277344, 1.491943359375, 1.477294921875, 0.1519775390625, 1.48974609375
50134, 4.965521335601807, -1.0029656887054443, -9.67324447631836, 0.0034979593474417925, -0.1220255196094513, -58.904563903808594, 0.013525561429560184, -0.504378616809845, -2.443279504776001, -0.7889466285705566, -1.0264700651168823, 0.05425766855478287, -2.167604729144582, 1.0207960177895643, -171.70537482586437, 9362.0, 30146.0, 35388.0, 9362.0, 8.350414276123047, 0.22306372225284576, -0.05580209195613861, -0.1441722810268402, -0.09700474143028259, -0.028805773705244064, 0.9954349994659424, -0.0882367268204689, -0.04855918884277344, 1.491943359375, 1.54248046875, 0.28521728515625, 1.48974609375
50144, 4.966156959533691, -1.0019516944885254, -9.673785209655762, 0.0036344830878078938, -0.12711238861083984, -58.92900085449219, 0.01377912424504757, -0.5129954218864441, -2.444121837615967, -0.788994312286377, -1.0264452695846558, 0.0542323961853981, -2.1694759303216076, 1.0214573990541282, -171.73755774745968, 9362.0, 30146.0, 35388.0, 9362.0, 8.350414276123047, -0.05103974789381027, -0.11202582716941833, 0.009632187895476818, -0.09543275088071823, -0.02815786376595497, 0.9981977343559265, -0.0882367268204689, -0.04855918884277344, 1.491943359375, 1.5146484375, 0.225494384765625, 1.48974609375
50154, 4.966948509216309, -1.004361867904663, -9.67321491241455, 0.0037735672667622566, -0.1322854608297348, -58.95344543457031, 0.014037653803825378, -0.5216185450553894, -2.444896697998047, -0.7889927625656128, -1.0264519453048706, 0.054228246212005615, -2.1735907277206605, 1.0095053119508748, -171.7325991484356, 9362.0, 30146.0, 35388.0, 9362.0, 8.350414276123047, -0.11009447276592255, 0.12444320321083069, 0.1555948257446289, -0.08959949016571045, -0.02807018905878067, 0.9956234097480774, -0.0882367268204689, -0.04855918884277344, 1.491943359375, 1.724853515625, 0.736419677734375, 1.493408203125
50164, 4.967212200164795, -1.0042515993118286, -9.67386245727539, 0.003915228880941868, -0.13754482567310333, -58.97789764404297, 0.014294695109128952, -0.5302549004554749, -2.445530891418457, -0.7889914512634277, -1.0264493227005005, 0.054214250296354294, -2.1587095956601585, 1.0256436761471548, -171.73657570093656, 9362.0, 30146.0, 35388.0, 9362.0, 8.350414276123047, -0.14535118639469147, -0.25749722123146057, -0.27598562836647034, -0.09288415312767029, -0.02835001051425934, 0.9962887167930603, -0.0882367268204689, -0.04855918884277344, 1.491943359375, 1.234130859375, 0.2203521728515625, 1.493408203125
50174, 4.9673542976379395, -1.0047729015350342, -9.674732208251953, 0.004059477709233761, -0.14289048314094543, -59.002357482910156, 0.01455504260957241, -0.5388771891593933, -2.4463469982147217, -0.7889913320541382, -1.0264478921890259, 0.05423973873257637, -2.163772764973912, 1.0219480484493886, -171.73040065395583, 9362.0, 30146.0, 35388.0, 9362.0, 8.350414276123047, 0.2785692811012268, 0.3127354681491852, -0.15758663415908813, -0.09351073205471039, -0.02787627838551998, 0.9954386949539185, -0.0882367268204689, -0.04855918884277344, 1.491943359375, 1.07666015625, 1.58135986328125, 1.489013671875
50184, 4.966646671295166, -1.004693865776062, -9.676637649536133, 0.004206329118460417, -0.14832240343093872, -59.026824951171875, 0.014815117232501507, -0.5475054979324341, -2.4470996856689453, -0.7889890074729919, -1.0264382362365723, 0.05425344407558441, -2.1716709270614176, 1.021816433641959, -171.73745376535103, 9362.0, 30146.0, 35388.0, 9362.0, 8.350414276123047, -0.01776839606463909, 0.04521413519978523, -0.08526088297367096, -0.09546706825494766, -0.02978644333779812, 0.995134711265564, -0.0882367268204689, -0.04855918884277344, 1.491943359375, 1.547607421875, 0.296478271484375, 1.489013671875
50194, 4.967196941375732, -1.0044368505477905, -9.677040100097656, 0.004355783574283123, -0.1538405418395996, -59.051300048828125, 0.01507542748004198, -0.5561234354972839, -2.44797420501709, -0.7889928221702576, -1.026450514793396, 0.05422883480787277, -2.1609209412953407, 1.0209535531982397, -171.74191638848168, 9362.0, 30146.0, 35388.0, 9362.0, 8.350414276123047, -0.029147833585739136, 0.24665787816047668, -0.253817617893219, -0.09156348556280136, -0.028652669861912727, 0.9970952868461609, -0.0882367268204689, -0.04855918884277344, 1.491943359375, 1.53515625, 0.2692413330078125, 1.494873046875
50204, 4.966785430908203, -1.0051370859146118, -9.677565574645996, 0.0045078410767018795, -0.1594449132680893, -59.075782775878906, 0.015336055308580399, -0.5647496581077576, -2.4487431049346924, -0.7890177369117737, -1.026416540145874, 0.054277025163173676, -2.1845199325402658, 1.0341810116287888, -171.69978312652862, 9362.0, 30146.0, 35388.0, 9362.0, 8.350414276123047, -0.2762081027030945, -0.052192505449056625, 0.11340852826833725, -0.09028450399637222, -0.0300886370241642, 0.9939740896224976, -0.0999034121632576, -0.021678924560546875, 1.494140625, 1.1630859375, 0.6321258544921875, 1.494873046875
50214, 4.9648756980896, -1.0038009881973267, -9.676756858825684, 0.004662501625716686, -0.16513553261756897, -59.10027313232422, 0.015595963224768639, -0.5733757019042969, -2.449522018432617, -0.7889729738235474, -1.026491641998291, 0.05438264459371567, -2.1885744883782756, 1.0485518612392184, -171.72742128756462, 9362.0, 30146.0, 35388.0, 9362.0, 8.350414276123047, 0.1189352422952652, 0.2195473164319992, 0.16760477423667908, -0.0906597450375557, -0.02902383729815483, 0.9935723543167114, -0.0999034121632576, -0.021678924560546875, 1.494140625, 1.529296875, 0.2564849853515625, 1.494873046875
50224, 4.9663190841674805, -1.004407525062561, -9.67632007598877, 0.004819764290004969, -0.17091231048107147, -59.12477493286133, 0.01585671491920948, -0.5819812417030334, -2.450526714324951, -0.7889910340309143, -1.0264475345611572, 0.05423768609762192, -2.163948958983624, 1.0151816188366354, -171.73307613289052, 9362.0, 30146.0, 35388.0, 9362.0, 8.350414276123047, 0.002978611271828413, -0.43487584590911865, -0.17464974522590637, -0.09480548650026321, -0.028945179656147957, 0.9953666925430298, -0.0999034121632576, -0.021678924560546875, 1.494140625, 1.47216796875, 0.142547607421875, 1.494873046875
50234, 4.967154502868652, -1.0046541690826416, -9.677708625793457, 0.00497962674126029, -0.17677514255046844, -59.14928436279297, 0.016115879639983177, -0.5905851125717163, -2.4515089988708496, -0.788982093334198, -1.0264493227005005, 0.05420953035354614, -2.1624931381453716, 1.024185244344153, -171.73792563343292, 9362.0, 30146.0, 35388.0, 9362.0, 8.350414276123047, -0.018917445093393326, 0.006663141306489706, -0.10982213169336319, -0.09176036715507507, -0.0281638503074646, 0.9950727224349976, -0.0999034121632576, -0.021678924560546875, 1.494140625, 1.377685546875, 0.023040771484375, 1.491943359375
50244, 4.966624736785889, -1.006505012512207, -9.679460525512695, 0.005142086651176214, -0.18272410333156586, -59.173805236816406, 0.0163758285343647, -0.5992057919502258, -2.4523324966430664, -0.7889577150344849, -1.0264734029769897, 0.054224975407123566, -2.1558909911536612, 1.0358460213609817, -171.70206641010063, 9362.0, 30146.0, 35388.0, 9362.0, 8.350414276123047, 0.02953444980084896, 0.17226441204547882, -0.09053521603345871, -0.0931072011590004, -0.029749944806098938, 0.9953649044036865, -0.0999034121632576, -0.021678924560546875, 1.494140625, 1.7080078125, 0.6897125244140625, 1.491943359375
50254, 4.966100692749023, -1.0057833194732666, -9.68011474609375, 0.005307145416736603, -0.18875926733016968, -59.198333740234375, 0.016635635867714882, -0.6078254580497742, -2.4531822204589844, -0.7889871597290039, -1.026457667350769, 0.05424214154481888, -2.169252481420112, 1.0112152872626723, -171.74254713535063, 9362.0, 30146.0, 35388.0, 9362.0, 8.350414276123047, -0.038956087082624435, -0.2040676325559616, -0.13213717937469482, -0.09319978207349777, -0.03173733502626419, 0.9935601949691772, -0.0999034121632576, -0.021678924560546875, 1.494140625, 1.619384765625, 0.4635009765625, 1.494873046875
50264, 4.9663848876953125, -1.0068426132202148, -9.681859016418457, 0.005474816542118788, -0.19488060474395752, -59.222869873046875, 0.01689852960407734, -0.6164421439170837, -2.45406436920166, -0.7889857888221741, -1.026469111442566, 0.054410792887210846, -2.2236807552950815, 1.0609354674735698, -171.70323989281738, 9362.0, 30146.0, 35388.0, 9362.0, 8.350414276123047, 0.11932162940502167, -0.3711463212966919, -0.15508095920085907, -0.09230291098356247, -0.031228650361299515, 0.9934748411178589, -0.0999034121632576, -0.021678924560546875, 1.494140625, 1.188720703125, 0.4511871337890625, 1.494873046875
50284, 4.966668128967285, -1.0038683414459229, -9.681685447692871, 0.0058180196210742, -0.2073815017938614, -59.27197265625, 0.017422711476683617, -0.6336515545845032, -2.456080198287964, -0.7890008687973022, -1.0264525413513184, 0.05419840291142464, -2.1634205304120866, 1.0297070538778712, -171.72750696547186, 9362.0, 30146.0, 35388.0, 9362.0, 8.350414276123047, -0.1439584642648697, -0.1936919391155243, 0.14114877581596375, -0.09321282058954239, -0.029777957126498222, 0.9947071075439453, -0.0999034121632576, -0.021678924560546875, 1.494140625, 1.188720703125, 0.4511871337890625, 1.4912109375
50294, 4.966738224029541, -1.0040969848632812, -9.682674407958984, 0.005993549712002277, -0.2137611210346222, -59.296539306640625, 0.0176832415163517, -0.6422740817070007, -2.45689058303833, -0.7889755368232727, -1.0264487266540527, 0.054202236235141754, -2.1514238338875784, 1.0292136097516789, -171.7351675337149, 9362.0, 30146.0, 35388.0, 9362.0, 8.350414276123047, 0.15178890526294708, -0.31787964701652527, -0.3303622305393219, -0.09350966662168503, -0.030971962958574295, 0.9946351051330566, -0.0999034121632576, -0.021678924560546875, 1.494140625, 1.188720703125, 0.4511871337890625, 1.4912109375
50304, 4.968448162078857, -1.003725290298462, -9.68505859375, 0.005993549712002277, -0.2137611210346222, -59.296539306640625, 0.0176832415163517, -0.6422740817070007, -2.45689058303833, -0.7889565229415894, -1.0265008211135864, 0.05438607558608055, -2.2011238600670295, 1.0412329165596645, -171.73968643504054, 9362.0, 30146.0, 35388.0, 9362.0, 8.350414276123047, 0.14638151228427887, 0.19553203880786896, -0.24227945506572723, -0.09154308587312698, -0.030822839587926865, 0.9949344992637634, -0.0999034121632576, -0.021678924560546875, 1.494140625, 1.188720703125, 0.4511871337890625, 1.4912109375
50314, 4.969059467315674, -1.0043145418167114, -9.686345100402832, 0.005993549712002277, -0.2137611210346222, -59.296539306640625, 0.0176832415163517, -0.6422740817070007, -2.45689058303833, -0.7889825701713562, -1.0264476537704468, 0.05427950248122215, -2.179671423613036, 1.0196097229569432, -171.6691562380283, 9362.0, 30146.0, 35388.0, 9362.0, 8.350414276123047, 0.0846213698387146, 0.19447261095046997, -0.24130292236804962, -0.09060847759246826, -0.02914031222462654, 0.9954386353492737, -0.0999034121632576, -0.021678924560546875, 1.494140625, 1.188720703125, 0.4511871337890625, 1.49560546875
50324, 4.969299793243408, -1.0059921741485596, -9.687341690063477, 0.006535665597766638, -0.2334173619747162, -59.37028503417969, 0.018456578254699707, -0.6681393980979919, -2.4593732357025146, -0.788999080657959, -1.0264445543289185, 0.05419159308075905, -2.158510948780489, 1.0249567640976807, -171.7351854792993, 9362.0, 30146.0, 35388.0, 9362.0, 8.350414276123047, 0.2129814326763153, 0.2884451746940613, 0.021404040977358818, -0.09112808108329773, -0.031602103263139725, 0.9941968321800232, -0.0999034121632576, -0.021678924560546875, 1.494140625, 1.1982421875, 0.3938140869140625, 1.49560546875
