timeTick, roll, pitch, yaw, stateX, stateY, stateZ, stateVX, stateVY, stateVZ, otX0, otY0, otZ0, otRoll0, otPitch0, otYaw0, left wing, pitch motor, yaw motor, right wing, voltage, roll rate, pitch rate, yaw rate, A_x, A_y, A_z, current, i_raw, v_raw, airflow_voltage, airflow_speed, pot_Pitch
45671, -5.5960187911987305, -1.2220481634140015, -5.262588977813721, 0, 0, 0, 0, 0, 0, -0.8584848046302795, -0.9198636412620544, 0.05620405822992325, -2.2385538221087136, 0.4622913910502007, -175.06029115432804, 0, 0, 0, 0, 0, 0, 0, 0, 0, 0, 0, 0, 0, 0, 0, 0, 0
45681, -5.5954203605651855, -1.22133469581604, -5.262400150299072, -0.0009918983560055494, -0.003143259324133396, -67.31470489501953, -0.08856376260519028, -0.2806544005870819, -3.042307138442993, -0.856873095035553, -0.9193063974380493, 0.05589546263217926, -1.9937753966567664, 1.4852966966430472, -175.02249791343476, 9362.0, 30146.0, 35388.0, 9362.0, 0, 0.061312850564718246, 0.1076652780175209, 0.029669081792235374, -0.10875865072011948, -0.030422404408454895, 0.9945619702339172, 0, 0, 0, 0, 0, 0
45691, -5.594237327575684, -1.2254003286361694, -5.261885166168213, -0.0018628761172294617, -0.005903428420424461, -67.34513092041016, -0.08563181757926941, -0.27137935161590576, -3.043421506881714, -0.8568461537361145, -0.9193012714385986, 0.05588454753160477, -1.9885984412346167, 1.5044464455280888, -175.01937893653738, 9362.0, 30146.0, 35388.0, 9362.0, 0, 0.1732126921415329, 0.597632110118866, 0.12983936071395874, -0.10890982300043106, -0.029333118349313736, 0.9942967891693115, 0, 0, 0, 1.426025390625, 0.069732666015625, 0
45701, -5.593845367431641, -1.2279307842254639, -5.2624311447143555, -0.0027045311871916056, -0.008570820093154907, -67.37557220458984, -0.08269934356212616, -0.26209893822669983, -3.0444703102111816, -0.856860339641571, -0.9192903637886047, 0.05585860833525658, -1.9856841388068072, 1.5052209792141582, -175.01676133403484, 9362.0, 30146.0, 35388.0, 9362.0, 0, 0.0656554326415062, -0.18923123180866241, -0.2355513870716095, -0.10700245201587677, -0.029020706191658974, 0.9929884076118469, 0, 0, 0, 1.43115234375, 0.0766143798828125, 1.48974609375
45711, -5.59346342086792, -1.2278774976730347, -5.263123035430908, -0.0035168358590453863, -0.011145442724227905, -67.40602111816406, -0.07976153492927551, -0.25282570719718933, -3.0455660820007324, -0.8568598031997681, -0.919295072555542, 0.05589369684457779, -1.979474679006642, 1.4947324251488396, -175.02405611911996, 9362.0, 30146.0, 35388.0, 9362.0, 0, -0.060771774500608444, 0.0653352215886116, 0.023845482617616653, -0.10988017171621323, -0.028388427570462227, 0.9924284815788269, 0, 0, 0, 1.46630859375, 0.132171630859375, 1.48974609375
45721, -5.593380928039551, -1.2291157245635986, -5.262055397033691, -0.004299762658774853, -0.01362740807235241, -67.43648529052734, -0.07682372629642487, -0.2435673475265503, -3.046806812286377, -0.8568747639656067, -0.9193116426467896, 0.05590147525072098, -1.9838772398342972, 1.497928424336152, -175.02678683749366, 9362.0, 30146.0, 35388.0, 9362.0, 0, 0.022604521363973618, 0.47540947794914246, 0.48546284437179565, -0.11384826898574829, -0.027744444087147713, 0.9935635924339294, 0, 0, 0, 1.494140625, 0.183990478515625, 1.486083984375
45731, -5.593043327331543, -1.229108214378357, -5.261232852935791, -0.005053302273154259, -0.01601676270365715, -67.46695709228516, -0.07388439029455185, -0.23430368304252625, -3.047985315322876, -0.8568633794784546, -0.9192953705787659, 0.055855147540569305, -1.9905820862995462, 1.4895519534167079, -175.0179834101833, 9362.0, 30146.0, 35388.0, 9362.0, 0, -0.07112468779087067, -0.4930229187011719, -0.1810983419418335, -0.1109544038772583, -0.030132511630654335, 0.9943029880523682, 0, 0, 0, 1.475830078125, 0.1492767333984375, 1.486083984375
45741, -5.593832015991211, -1.2301146984100342, -5.2630157470703125, -0.0057774255983531475, -0.018313441425561905, -67.49744415283203, -0.07094040513038635, -0.2250318080186844, -3.0490753650665283, -0.8568490743637085, -0.9192975759506226, 0.05590920150279999, -1.9840475007445582, 1.5142866003844233, -175.02787440216693, 9362.0, 30146.0, 35388.0, 9362.0, 0, 0.15889503061771393, 0.035197172313928604, -0.12358136475086212, -0.10902128368616104, -0.03093220852315426, 0.9919408559799194, 0, 0, 0, 1.421630859375, 0.0640716552734375, 1.4853515625
45751, -5.593184471130371, -1.2282911539077759, -5.264899730682373, -0.006472121458500624, -0.020517438650131226, -67.52793884277344, -0.0679984763264656, -0.2157677412033081, -3.0502398014068604, -0.8568680286407471, -0.9193019866943359, 0.055890269577503204, -1.984516037806192, 1.4936125672379603, -175.01896090828924, 9362.0, 30146.0, 35388.0, 9362.0, 0, 0.18120580911636353, -0.1504950225353241, -0.2884393334388733, -0.10902252793312073, -0.029082613065838814, 0.9913009405136108, 0, 0, 0, 1.3740234375, 0.0210723876953125, 1.4853515625
45761, -5.591447830200195, -1.230140209197998, -5.26569128036499, -0.007137408014386892, -0.02262885496020317, -67.5584487915039, -0.06505851447582245, -0.2065155953168869, -3.0515410900115967, -0.8568575978279114, -0.9193141460418701, 0.055879198014736176, -1.9989587495329715, 1.488082556160748, -175.02968638908945, 9362.0, 30146.0, 35388.0, 9362.0, 0, -0.02693406119942665, 0.32171741127967834, -0.13591095805168152, -0.10856841504573822, -0.031362384557724, 0.992981493473053, 0, 0, 0, 1.453125, 0.1099090576171875, 1.4912109375
45771, -5.591807842254639, -1.2301114797592163, -5.266910076141357, -0.007773306220769882, -0.024647744372487068, -67.58897399902344, -0.06212101876735687, -0.19726231694221497, -3.052820920944214, -0.8568684458732605, -0.9193013906478882, 0.05587855726480484, -1.9783526417833288, 1.4858774047210659, -175.02379013908666, 9362.0, 30146.0, 35388.0, 9362.0, 8.05289363861084, 0.2261267602443695, 0.2419518679380417, 0.042587775737047195, -0.11044615507125854, -0.029831036925315857, 0.9945657849311829, -0.08566732704639435, -0.04855918884277344, 1.491943359375, 1.450927734375, 0.1063690185546875, 1.4912109375
45781, -5.590792179107666, -1.230918288230896, -5.266808986663818, -0.008379786275327206, -0.02657402865588665, -67.6195068359375, -0.05917484685778618, -0.18799465894699097, -3.0539162158966064, -0.8568680286407471, -0.9193030595779419, 0.055874645709991455, -1.9862302865146084, 1.4870545648793438, -175.0176448495104, 9362.0, 30146.0, 35388.0, 9362.0, 8.05289363861084, 0.12424720078706741, -0.13795912265777588, 0.06738068908452988, -0.1085650771856308, -0.02961423434317112, 0.9939209818840027, -0.08566732704639435, -0.04855918884277344, 1.491943359375, 1.489013671875, 0.174041748046875, 1.48974609375
45791, -5.590378284454346, -1.2309041023254395, -5.265110492706299, -0.008956793695688248, -0.02840760350227356, -67.65005493164062, -0.05622677505016327, -0.1787203848361969, -3.054948091506958, -0.8568617701530457, -0.9193122386932373, 0.055873848497867584, -1.9887327116277935, 1.4869173518225125, -175.01899495992822, 9362.0, 30146.0, 35388.0, 9362.0, 8.05289363861084, -0.05393434315919876, 0.03863237053155899, 0.2200278788805008, -0.1097111776471138, -0.027875686064362526, 0.993193507194519, -0.08566732704639435, -0.04855918884277344, 1.491943359375, 1.48388671875, 0.1642303466796875, 1.48974609375
45801, -5.590383529663086, -1.2314823865890503, -5.266200542449951, -0.009504329413175583, -0.030148491263389587, -67.68061065673828, -0.05328064784407616, -0.16945692896842957, -3.056074857711792, -0.856862485408783, -0.9193013906478882, 0.05591626465320587, -1.991393887580735, 1.4845914773881361, -175.0159971757801, 9362.0, 30146.0, 35388.0, 9362.0, 8.05289363861084, 0.024280212819576263, 0.027011960744857788, 0.0054961927235126495, -0.10654635727405548, -0.030972450971603394, 0.9924822449684143, -0.08566732704639435, -0.04855918884277344, 1.491943359375, 1.38427734375, 0.027099609375, 1.48974609375
45811, -5.589807987213135, -1.233744740486145, -5.266987323760986, -0.010022413916885853, -0.03179677203297615, -67.71117401123047, -0.050336144864559174, -0.1601995974779129, -3.057257890701294, -0.8568754196166992, -0.9193031191825867, 0.05589664354920387, -1.9833771405775136, 1.4934563990885863, -175.01543461419308, 9362.0, 30146.0, 35388.0, 9362.0, 8.05289363861084, -0.02935286983847618, 0.014169283211231232, -0.33021774888038635, -0.1094762459397316, -0.03058193437755108, 0.9922876358032227, -0.08566732704639435, -0.04855918884277344, 1.491943359375, 1.43115234375, 0.0766143798828125, 1.48974609375
45821, -5.5897603034973145, -1.2336963415145874, -5.268091201782227, -0.010511057451367378, -0.03335250914096832, -67.74175262451172, -0.04739239066839218, -0.15094812214374542, -3.0585005283355713, -0.8568525314331055, -0.9193093776702881, 0.05587064474821091, -1.9872888602112129, 1.4955106241277463, -175.01218019335738, 9362.0, 30146.0, 35388.0, 9362.0, 8.05289363861084, 0.05339505150914192, 0.2982162833213806, 0.32406771183013916, -0.10975541174411774, -0.03072362206876278, 0.9939378499984741, -0.08566732704639435, -0.04855918884277344, 1.491943359375, 1.3974609375, 0.03759765625, 1.489013671875
45831, -5.589599132537842, -1.2359637022018433, -5.266788482666016, -0.01097023580223322, -0.034815713763237, -67.77234649658203, -0.04444316029548645, -0.1416931450366974, -3.059692621231079, -0.8568640947341919, -0.9193018674850464, 0.05590534582734108, -1.9778151382766613, 1.4965347525135257, -175.01589685287854, 9362.0, 30146.0, 35388.0, 9362.0, 8.05289363861084, 0.24415014684200287, -0.003529231296852231, -0.06019692122936249, -0.10903187096118927, -0.03157458081841469, 0.9935402870178223, -0.08566732704639435, -0.04855918884277344, 1.491943359375, 1.503662109375, 0.2029876708984375, 1.489013671875
45841, -5.589565277099609, -1.233559250831604, -5.265844345092773, -0.011399909853935242, -0.036186333745718, -67.80294799804688, -0.04149185121059418, -0.13243059813976288, -3.0608060359954834, -0.8568587303161621, -0.9193028807640076, 0.05589481070637703, -1.9801601103131223, 1.5113683835732274, -175.0140136195565, 9362.0, 30146.0, 35388.0, 9362.0, 8.05289363861084, 0.3198995590209961, -0.48573562502861023, -0.13247181475162506, -0.10878455638885498, -0.029175249859690666, 0.9956449270248413, -0.08566732704639435, -0.04855918884277344, 1.491943359375, 1.450927734375, 0.1063690185546875, 1.493408203125
45851, -5.587952136993408, -1.2306137084960938, -5.267505168914795, -0.011800047010183334, -0.037464313209056854, -67.83356475830078, -0.03853575140237808, -0.12316536158323288, -3.0618844032287598, -0.8568395972251892, -0.9192816019058228, 0.05578950420022011, -2.0039925274531716, 1.5891156814393526, -175.02172033533284, 9362.0, 30146.0, 35388.0, 9362.0, 8.05289363861084, -0.008808483369648457, 0.06975478678941727, -0.2672352194786072, -0.11051604896783829, -0.03074452094733715, 0.992644727230072, -0.08566732704639435, -0.04855918884277344, 1.491943359375, 1.472900390625, 0.1439361572265625, 1.493408203125
45861, -5.588493347167969, -1.2291682958602905, -5.26831579208374, -0.012170628644526005, -0.03864958882331848, -67.86418914794922, -0.035580310970544815, -0.11389000713825226, -3.062859296798706, -0.8568468689918518, -0.9193077683448792, 0.0559210442006588, -1.991437938785291, 1.4913333818028605, -175.01422127199615, 9362.0, 30146.0, 35388.0, 9362.0, 8.05289363861084, -0.11337325721979141, 0.1931341290473938, 0.33487698435783386, -0.11006008088588715, -0.03037887252867222, 0.9916131496429443, -0.08566732704639435, -0.04855918884277344, 1.491943359375, 1.505859375, 0.2073974609375, 1.491943359375
45871, -5.589054107666016, -1.2308560609817505, -5.2676920890808105, -0.012511725537478924, -0.03974226489663124, -67.89482116699219, -0.032638948410749435, -0.1046452447772026, -3.0641303062438965, -0.8568715453147888, -0.9193235635757446, 0.0559159517288208, -1.9987446542135818, 1.4843901694432304, -175.01705837563543, 9362.0, 30146.0, 35388.0, 9362.0, 8.05289363861084, -0.06562930345535278, 0.10053515434265137, -0.03607155755162239, -0.108734130859375, -0.028279945254325867, 0.9933678507804871, -0.08371419459581375, -0.09335899353027344, 1.48828125, 1.500732421875, 0.1970977783203125, 1.491943359375
45881, -5.58875036239624, -1.2306551933288574, -5.269079685211182, -0.012823417782783508, -0.040742479264736176, -67.92546844482422, -0.029699673876166344, -0.09539791196584702, -3.0653860569000244, -0.8568655848503113, -0.9193136692047119, 0.05590984970331192, -1.9847964882962137, 1.499209246833999, -175.01583599458402, 9362.0, 30146.0, 35388.0, 9362.0, 8.05289363861084, 0.029497642070055008, -0.0008043493726290762, -0.044657785445451736, -0.10867378115653992, -0.028995636850595474, 0.993340790271759, -0.08371419459581375, -0.09335899353027344, 1.48828125, 1.48974609375, 0.1755218505859375, 1.4912109375
45891, -5.588216304779053, -1.2308101654052734, -5.271285533905029, -0.013105676509439945, -0.041650135070085526, -67.95613098144531, -0.026751846075057983, -0.08613310754299164, -3.0664660930633545, -0.8568503856658936, -0.9192983508110046, 0.05590153858065605, -1.9835793851269508, 1.4918081138495154, -175.01912528022413, 9362.0, 30146.0, 35388.0, 9362.0, 8.05289363861084, 0.10561493039131165, -0.00393790565431118, -0.3632385730743408, -0.10564102977514267, -0.03026343137025833, 0.9926353693008423, -0.08371419459581375, -0.09335899353027344, 1.48828125, 1.44580078125, 0.098236083984375, 1.4912109375
45901, -5.587646484375, -1.2299771308898926, -5.271388530731201, -0.01335847470909357, -0.042465198785066605, -67.98680114746094, -0.02380741946399212, -0.07687947899103165, -3.0676565170288086, -0.8568737506866455, -0.9193145632743835, 0.055912673473358154, -1.9939205799034818, 1.487671040350989, -175.0188718579636, 9362.0, 30146.0, 35388.0, 9362.0, 8.05289363861084, -0.02672639675438404, -0.017062179744243622, -0.317655086517334, -0.10967957973480225, -0.031023308634757996, 0.9963047504425049, -0.08371419459581375, -0.09335899353027344, 1.48828125, 1.506591796875, 0.2088775634765625, 1.48681640625
45911, -5.5875725746154785, -1.229568362236023, -5.271711349487305, -0.01358179934322834, -0.04318764805793762, -68.01748657226562, -0.020857468247413635, -0.06761008501052856, -3.068671941757202, -0.8568549156188965, -0.9193060994148254, 0.05590362846851349, -1.9898980503992425, 1.4961300359953214, -175.01785953313464, 9362.0, 30146.0, 35388.0, 9362.0, 8.05289363861084, -0.10835135728120804, -0.2728806734085083, 0.15037766098976135, -0.10877485573291779, -0.03037419728934765, 0.9939496517181396, -0.08371419459581375, -0.09335899353027344, 1.48828125, 1.41796875, 0.05950927734375, 1.48681640625
45921, -5.5882158279418945, -1.2319250106811523, -5.269744873046875, -0.013775620609521866, -0.043817371129989624, -68.04817962646484, -0.01790676824748516, -0.05833465978503227, -3.069615364074707, -0.8568667769432068, -0.9192960858345032, 0.05589435249567032, -1.9827681957260928, 1.496219640944247, -175.02299415015153, 9362.0, 30146.0, 35388.0, 9362.0, 8.05289363861084, 0.11601237952709198, 0.13400280475616455, 0.06918682157993317, -0.1084640696644783, -0.029226034879684448, 0.9953920245170593, -0.08371419459581375, -0.09335899353027344, 1.48828125, 1.411376953125, 0.05181884765625, 1.4912109375
45931, -5.5872650146484375, -1.2292364835739136, -5.27017879486084, -0.013939950615167618, -0.044354379177093506, -68.0788803100586, -0.014959567226469517, -0.04906684160232544, -3.070638656616211, -0.8568544983863831, -0.9192933440208435, 0.055908478796482086, -1.9779295436209963, 1.503479754353208, -175.0163459964061, 9362.0, 30146.0, 35388.0, 9362.0, 8.05289363861084, -0.016115695238113403, -0.44950127601623535, -0.038908589631319046, -0.10717874765396118, -0.02901316061615944, 0.9938076734542847, -0.08371419459581375, -0.09335899353027344, 1.48828125, 1.50732421875, 0.2104644775390625, 1.4912109375
45941, -5.588313579559326, -1.2293808460235596, -5.270708084106445, -0.014074782840907574, -0.04479868337512016, -68.10958862304688, -0.012006702832877636, -0.03979382663965225, -3.071615219116211, -0.8568448424339294, -0.9193078279495239, 0.05589913949370384, -1.984271887330722, 1.497918648959768, -175.0147987252558, 9362.0, 30146.0, 35388.0, 9362.0, 8.05289363861084, -0.24325479567050934, 0.3692686855792999, 0.2587488889694214, -0.10615411400794983, -0.028492359444499016, 0.9926639795303345, -0.08371419459581375, -0.09335899353027344, 1.48828125, 1.406982421875, 0.046966552734375, 1.494873046875
45951, -5.587442398071289, -1.2311129570007324, -5.272036075592041, -0.014180133119225502, -0.045150335878133774, -68.14031219482422, -0.00906321220099926, -0.030536919832229614, -3.072747230529785, -0.8568633794784546, -0.9192997813224792, 0.05590049922466278, -1.991396298114633, 1.4880656463977004, -175.01296054794548, 9362.0, 30146.0, 35388.0, 9362.0, 8.05289363861084, 0.11958601325750351, 0.08003202080726624, -0.1534079611301422, -0.10784992575645447, -0.028732694685459137, 0.9924498796463013, -0.08371419459581375, -0.09335899353027344, 1.48828125, 1.40771484375, 0.0478363037109375, 1.494873046875
45961, -5.5869140625, -1.2307019233703613, -5.271265983581543, -0.01425606943666935, -0.04540948569774628, -68.1710433959961, -0.006123822648078203, -0.02129301056265831, -3.0740339756011963, -0.8568509221076965, -0.9193164110183716, 0.05590622127056122, -1.9936342081128187, 1.4967636567814964, -175.01863080828582, 9362.0, 30146.0, 35388.0, 9362.0, 8.05289363861084, 0.0515480600297451, 0.13372960686683655, 0.1210351511836052, -0.10852506011724472, -0.030186394229531288, 0.9931219816207886, -0.08371419459581375, -0.09335899353027344, 1.48828125, 1.44580078125, 0.098236083984375, 1.494873046875
45971, -5.585752487182617, -1.2342033386230469, -5.268932342529297, -0.014302577823400497, -0.045576147735118866, -68.20178985595703, -0.0031780176796019077, -0.012039142660796642, -3.075197696685791, -0.8568549156188965, -0.9192990660667419, 0.055909112095832825, -1.9876997774256502, 1.4945462947465558, -175.0227874945065, 9362.0, 30146.0, 35388.0, 9362.0, 8.05289363861084, -0.10799029469490051, 0.13537727296352386, 0.25069740414619446, -0.10915249586105347, -0.03028295934200287, 0.9924591183662415, -0.07404689490795135, -0.09335899353027344, 1.48828125, 1.424560546875, 0.0678253173828125, 1.494873046875
45981, -5.585809707641602, -1.236046314239502, -5.267341613769531, -0.014319637790322304, -0.045650288462638855, -68.23255157470703, -0.0002343946398468688, -0.0027890128549188375, -3.0763936042785645, -0.8568620681762695, -0.9192988872528076, 0.05591379106044769, -1.9846730844890732, 1.4754824750704927, -175.0189340280783, 9362.0, 30146.0, 35388.0, 9362.0, 8.05289363861084, 0.014383490197360516, -0.23628564178943634, 0.025241995230317116, -0.11000639200210571, -0.030261816456913948, 0.9932511448860168, -0.07404689490795135, -0.09335899353027344, 1.48828125, 1.487548828125, 0.1712188720703125, 1.4912109375
45991, -5.586291790008545, -1.235999345779419, -5.266912460327148, -0.014307230710983276, -0.045631930232048035, -68.26332092285156, 0.0027154674753546715, 0.006461074110120535, -3.0775647163391113, -0.8568665981292725, -0.9193092584609985, 0.055878713726997375, -1.9810508903851844, 1.4857675360262306, -175.02089358647902, 9362.0, 30146.0, 35388.0, 9362.0, 8.05289363861084, -0.08359335362911224, 0.16025671362876892, -0.07816097140312195, -0.10982035100460052, -0.030327405780553818, 0.9940186142921448, -0.07404689490795135, -0.09335899353027344, 1.48828125, 1.435546875, 0.0829315185546875, 1.4912109375
46001, -5.587120056152344, -1.2352197170257568, -5.2669901847839355, -0.014259487390518188, -0.04550487548112869, -68.29718017578125, 0.005964985117316246, 0.01663997210562229, -3.078810930252075, -0.8568556904792786, -0.9193007946014404, 0.055912215262651443, -1.9876131060358568, 1.487475408187663, -175.01833868018778, 9362.0, 30146.0, 35388.0, 9362.0, 8.05289363861084, -0.07321664690971375, -0.18803660571575165, 0.180314302444458, -0.11066189408302307, -0.032258812338113785, 0.9930323362350464, -0.07404689490795135, -0.09335899353027344, 1.48828125, 1.470703125, 0.1399383544921875, 1.4912109375
46011, -5.5863261222839355, -1.236493468284607, -5.265410900115967, -0.014175991527736187, -0.04526581987738609, -68.3310546875, 0.009216084145009518, 0.026824628934264183, -3.0800058841705322, -0.8568539619445801, -0.9192946553230286, 0.055891089141368866, -1.9785920861581707, 1.5010340409110938, -175.01697091919348, 9362.0, 30146.0, 35388.0, 9362.0, 8.05289363861084, 0.15933172404766083, 0.16840022802352905, 0.23719210922718048, -0.10844297707080841, -0.02962031587958336, 0.9923660159111023, -0.07404689490795135, -0.09335899353027344, 1.48828125, 1.512451171875, 0.2209625244140625, 1.4912109375
46021, -5.5859785079956055, -1.2370644807815552, -5.265070915222168, -0.014069080352783203, -0.044951338320970535, -68.36186218261719, 0.012165944091975689, 0.03607187792658806, -3.081230640411377, -0.8568391799926758, -0.9193040728569031, 0.055891744792461395, -1.9906909045006826, 1.5051881298715557, -175.01565571983153, 9362.0, 30146.0, 35388.0, 9362.0, 8.05289363861084, 0.12429434806108475, 0.04268045723438263, 0.07439001649618149, -0.10703211277723312, -0.028923852369189262, 0.9908322691917419, -0.07404689490795135, -0.09335899353027344, 1.48828125, 1.406982421875, 0.046966552734375, 1.48681640625
46031, -5.586265563964844, -1.2359033823013306, -5.265500545501709, -0.013932667672634125, -0.04454440996050835, -68.3926773071289, 0.015116551890969276, 0.045313723385334015, -3.0824954509735107, -0.8568437695503235, -0.9193040132522583, 0.05590418726205826, -1.9804064723060844, 1.501310163835143, -175.0200832516058, 9362.0, 30146.0, 35388.0, 9362.0, 8.05289363861084, -0.1288735568523407, 0.16114798188209534, 0.28398311138153076, -0.10902632027864456, -0.027357308194041252, 0.9921025633811951, -0.07404689490795135, -0.09335899353027344, 1.48828125, 1.464111328125, 0.1283111572265625, 1.48681640625
46041, -5.585574626922607, -1.2362327575683594, -5.263810157775879, -0.013766756281256676, -0.0440451018512249, -68.42350769042969, 0.018065890297293663, 0.05454773083329201, -3.083834648132324, -0.8568460941314697, -0.9193175435066223, 0.055871352553367615, -1.9818528591824964, 1.4982648603223367, -175.019371391835, 9362.0, 30146.0, 35388.0, 9362.0, 8.05289363861084, 0.19629797339439392, 0.1650041937828064, 0.24741128087043762, -0.10771026462316513, -0.029327286407351494, 0.9942488074302673, -0.07404689490795135, -0.09335899353027344, 1.48828125, 1.34326171875, 0.01605224609375, 1.48974609375
46051, -5.585400581359863, -1.2367722988128662, -5.261830806732178, -0.013571332208812237, -0.043453361839056015, -68.45435333251953, 0.02101868763566017, 0.06380025297403336, -3.0849883556365967, -0.8568506240844727, -0.9193069934844971, 0.05588755011558533, -1.9861182700412336, 1.5082129295359152, -175.01334271070033, 9362.0, 30146.0, 35388.0, 9362.0, 8.05289363861084, -0.06452655792236328, 0.0052558667957782745, 0.2711711525917053, -0.10615643113851547, -0.03149638697504997, 0.9941888451576233, -0.07404689490795135, -0.09335899353027344, 1.48828125, 1.46484375, 0.1295928955078125, 1.48974609375
46061, -5.585690975189209, -1.23591148853302, -5.261472225189209, -0.013346358202397823, -0.04276903718709946, -68.4852066040039, 0.023975834250450134, 0.07306481897830963, -3.0860040187835693, -0.8568479418754578, -0.9193039536476135, 0.05587413161993027, -1.9794161781376989, 1.5023004017960204, -175.01851006293427, 9362.0, 30146.0, 35388.0, 9362.0, 8.05289363861084, 0.19248689711093903, 0.13189804553985596, 0.05979255959391594, -0.10768982768058777, -0.03178371861577034, 0.9937316179275513, -0.07404689490795135, -0.09335899353027344, 1.48828125, 1.41650390625, 0.0577545166015625, 1.4912109375
46071, -5.585044860839844, -1.2370374202728271, -5.259379863739014, -0.013091815635561943, -0.04199208319187164, -68.51607513427734, 0.026932738721370697, 0.08232571929693222, -3.0870542526245117, -0.85685795545578, -0.9192923903465271, 0.05589808523654938, -1.9875304028078524, 1.4941985282846701, -175.0137591465649, 9362.0, 30146.0, 35388.0, 9362.0, 8.05289363861084, -0.21937520802021027, -0.11979221552610397, 0.002846991643309593, -0.10899722576141357, -0.028157023712992668, 0.9928714632987976, -0.08314386755228043, -0.05751800537109375, 1.4912109375, 1.436279296875, 0.0838775634765625, 1.4912109375
46081, -5.585583686828613, -1.2390013933181763, -5.257162570953369, -0.012807730585336685, -0.04112258180975914, -68.54695129394531, 0.029883909970521927, 0.09157492965459824, -3.0882344245910645, -0.8568558096885681, -0.9193085432052612, 0.05586179718375206, -1.9833327506198937, 1.5051214451230237, -175.013360227619, 9362.0, 30146.0, 35388.0, 9362.0, 8.05289363861084, -0.07593316584825516, 0.46920841932296753, 0.07674778997898102, -0.11030509322881699, -0.030174726620316505, 0.992152214050293, -0.08314386755228043, -0.05751800537109375, 1.4912109375, 1.4794921875, 0.155975341796875, 1.494873046875
46091, -5.585157871246338, -1.2426280975341797, -5.25663423538208, -0.012494126334786415, -0.04016059264540672, -68.57784271240234, 0.03283644840121269, 0.10082276165485382, -3.0894172191619873, -0.8568552136421204, -0.9193076491355896, 0.055891864001750946, -1.9834705232191139, 1.4986808090942816, -175.01914470112513, 9362.0, 30146.0, 35388.0, 9362.0, 8.05289363861084, -0.27345362305641174, 0.322036474943161, 0.056701939553022385, -0.10755616426467896, -0.029428597539663315, 0.9917175769805908, -0.08314386755228043, -0.05751800537109375, 1.4912109375, 1.421630859375, 0.0640716552734375, 1.494873046875
46101, -5.585165977478027, -1.2441400289535522, -5.2557268142700195, -0.012151001952588558, -0.03910618647933006, -68.6087417602539, 0.035788267850875854, 0.11005885154008865, -3.0907301902770996, -0.8568394780158997, -0.9192942380905151, 0.055817216634750366, -2.0144542514206996, 1.5796489767212165, -175.02751579059534, 9362.0, 30146.0, 35388.0, 9362.0, 8.05289363861084, 0.04217324033379555, 0.18043002486228943, 0.15426959097385406, -0.10752778500318527, -0.03141406923532486, 0.9933702349662781, -0.08314386755228043, -0.05751800537109375, 1.4912109375, 1.3740234375, 0.0210723876953125, 1.48974609375
46111, -5.5856099128723145, -1.240983486175537, -5.25576639175415, -0.011778305284678936, -0.037959348410367966, -68.63965606689453, 0.038750920444726944, 0.11930892616510391, -3.0918831825256348, -0.8568463921546936, -0.9193047285079956, 0.0558813214302063, -1.983202850074383, 1.493430355243703, -175.01373180318427, 9362.0, 30146.0, 35388.0, 9362.0, 8.05289363861084, -0.09396728128194809, -0.16335166990756989, 0.09522122144699097, -0.10840241611003876, -0.030649058520793915, 0.9922972917556763, -0.08314386755228043, -0.05751800537109375, 1.4912109375, 1.4765625, 0.1505584716796875, 1.48974609375
46121, -5.585385799407959, -1.2423195838928223, -5.255228042602539, -0.011375980451703072, -0.03672004118561745, -68.67057800292969, 0.0417141430079937, 0.12855230271816254, -3.0931036472320557, -0.8568464517593384, -0.9192931056022644, 0.05589297413825989, -1.9830151571834158, 1.5030387386550217, -175.01676599784804, 9362.0, 30146.0, 35388.0, 9362.0, 8.05289363861084, -0.006212713662534952, -0.11760895699262619, 0.02565152570605278, -0.11046013981103897, -0.03079482726752758, 0.9918152093887329, -0.08314386755228043, -0.05751800537109375, 1.4912109375, 1.40478515625, 0.0446624755859375, 1.491943359375
46131, -5.5858235359191895, -1.2458359003067017, -5.254612922668457, -0.010944046080112457, -0.0353882871568203, -68.7015151977539, 0.04467254504561424, 0.1377987414598465, -3.0943057537078857, -0.8568447828292847, -0.9193009734153748, 0.05589144304394722, -1.9889446450285366, 1.4969555814445528, -175.01826444566922, 9362.0, 30146.0, 35388.0, 9362.0, 8.05289363861084, -0.17485471069812775, 0.328323096036911, 0.11298617720603943, -0.11166838556528091, -0.02969111129641533, 0.9915046095848083, -0.08314386755228043, -0.05751800537109375, 1.4912109375, 1.455322265625, 0.1134796142578125, 1.491943359375
46141, -5.585042476654053, -1.2429522275924683, -5.254415988922119, -0.010482526384294033, -0.03396409749984741, -68.73246765136719, 0.047631192952394485, 0.14703907072544098, -3.0955660343170166, -0.8568504452705383, -0.9193000793457031, 0.055913954973220825, -1.9818580477681547, 1.493474568122707, -175.01542527596126, 9362.0, 30146.0, 35388.0, 9362.0, 8.05289363861084, 0.06076366826891899, -0.23853962123394012, 0.2725566625595093, -0.10858739167451859, -0.03131215646862984, 0.9937806725502014, -0.08314386755228043, -0.05751800537109375, 1.4912109375, 1.4267578125, 0.070709228515625, 1.493408203125
46151, -5.584921360015869, -1.2432489395141602, -5.254140853881836, -0.009991390630602837, -0.03244750201702118, -68.763427734375, 0.05059601366519928, 0.15627986192703247, -3.096823215484619, -0.8568511605262756, -0.9192986488342285, 0.0559099018573761, -1.985292298643503, 1.5092704691301435, -175.01558211376036, 9362.0, 30146.0, 35388.0, 9362.0, 8.05289363861084, 0.24964849650859833, 0.22689566016197205, 0.13930824398994446, -0.10682504624128342, -0.02959536388516426, 0.9954614639282227, -0.08314386755228043, -0.05751800537109375, 1.4912109375, 1.4267578125, 0.070709228515625, 1.493408203125
46171, -5.585237979888916, -1.240666389465332, -5.253550052642822, -0.009991390630602837, -0.03244750201702118, -68.763427734375, 0.05059601366519928, 0.15627986192703247, -3.096823215484619, -0.8568606972694397, -0.9192955493927002, 0.05588648468255997, -1.9645611644406826, 1.4976573705989438, -175.01838231512625, 9362.0, 30146.0, 35388.0, 9362.0, 8.05289363861084, -0.19224663078784943, 0.30815112590789795, -0.09898886829614639, -0.10725905001163483, -0.028525514528155327, 0.9916559457778931, -0.08314386755228043, -0.05751800537109375, 1.4912109375, 1.46630859375, 0.132171630859375, 1.493408203125
46181, -5.587346076965332, -1.240613579750061, -5.253796577453613, -0.009991390630602837, -0.03244750201702118, -68.763427734375, 0.05059601366519928, 0.15627986192703247, -3.096823215484619, -0.8568652272224426, -0.9193077087402344, 0.055926255881786346, -1.9866998376662295, 1.475921010127479, -175.01729602232948, 9362.0, 30146.0, 35388.0, 9362.0, 8.05289363861084, -0.11114954948425293, -0.18286992609500885, -0.12449526786804199, -0.10725905001163483, -0.028525514528155327, 0.9916559457778931, -0.08314386755228043, -0.05751800537109375, 1.4912109375, 1.46630859375, 0.132171630859375, 1.493408203125
46191, -5.587182998657227, -1.2394700050354004, -5.25554084777832, -0.009991390630602837, -0.03244750201702118, -68.763427734375, 0.05059601366519928, 0.15627986192703247, -3.096823215484619, -0.8568604588508606, -0.9193105697631836, 0.05589556694030762, -1.9860107692012186, 1.5010905338598661, -175.00824821571098, 9362.0, 30146.0, 35388.0, 9362.0, 8.05289363861084, -0.038542576134204865, 0.2408151924610138, 0.021639281883835793, -0.10725905001163483, -0.028525514528155327, 0.9916559457778931, -0.08314386755228043, -0.05751800537109375, 1.4912109375, 1.46630859375, 0.132171630859375, 1.493408203125
46201, -5.587521076202393, -1.2389426231384277, -5.254979610443115, -0.00709110964089632, -0.02347642183303833, -68.91841125488281, 0.0654069259762764, 0.2025546133518219, -3.1023755073547363, -0.8568547368049622, -0.9192986488342285, 0.055899396538734436, -1.9826684345983923, 1.4937479550764863, -175.0131977914911, 9362.0, 30146.0, 35388.0, 9362.0, 8.05289363861084, 0.16998063027858734, -0.04635242372751236, -0.10813008248806, -0.10864924639463425, -0.028562748804688454, 0.9936105608940125, -0.08314386755228043, -0.05751800537109375, 1.4912109375, 1.46630859375, 0.132171630859375, 1.493408203125
46211, -5.587278366088867, -1.2385393381118774, -5.254928112030029, -0.006422237027436495, -0.021404556930065155, -68.9494400024414, 0.06836752593517303, 0.211818128824234, -3.103428840637207, -0.8568585515022278, -0.9193117022514343, 0.05592581629753113, -1.9898172029289294, 1.4931308956410874, -175.01582453892743, 9362.0, 30146.0, 35388.0, 9362.0, 8.05289363861084, 0.0396728590130806, 0.08792843669652939, 0.12938335537910461, -0.1090347096323967, -0.029972491785883904, 0.9950569272041321, -0.08314386755228043, -0.05751800537109375, 1.4912109375, 1.494140625, 0.183990478515625, 1.493408203125
46221, -5.587850093841553, -1.2393019199371338, -5.255502223968506, -0.006422237027436495, -0.021404556930065155, -68.9494400024414, 0.06836752593517303, 0.211818128824234, -3.103428840637207, -0.8568593859672546, -0.9193029403686523, 0.05592021346092224, -1.9824294228146848, 1.490692659243706, -175.0134112321095, 9362.0, 30146.0, 35388.0, 9362.0, 8.05289363861084, 0.04959041252732277, 0.10068143159151077, -0.10356563329696655, -0.10979682952165604, -0.029925065115094185, 0.9921302795410156, -0.08314386755228043, -0.05751800537109375, 1.4912109375, 1.434814453125, 0.081787109375, 1.493408203125
46231, -5.587193012237549, -1.237941026687622, -5.257705211639404, -0.006422237027436495, -0.021404556930065155, -68.9494400024414, 0.06836752593517303, 0.211818128824234, -3.103428840637207, -0.8568435311317444, -0.9193078279495239, 0.055898815393447876, -1.98572385128333, 1.5019524578654284, -175.01306980505177, 9362.0, 30146.0, 35388.0, 9362.0, 8.05289363861084, -0.14854680001735687, 0.17645850777626038, -0.15161021053791046, -0.108673594892025, -0.029669970273971558, 0.9925347566604614, -0.08314386755228043, -0.05751800537109375, 1.4912109375, 1.434814453125, 0.081787109375, 1.493408203125
46241, -5.588601112365723, -1.236316204071045, -5.257272720336914, -0.004238083492964506, -0.014633296057581902, -69.04258728027344, 0.07724007964134216, 0.23958824574947357, -3.106825590133667, -0.8568487763404846, -0.9193045496940613, 0.05591673403978348, -1.9862300817029357, 1.4933095833343373, -175.0190924138775, 9362.0, 30146.0, 35388.0, 9362.0, 8.05289363861084, -0.30351316928863525, -0.0312705859541893, 0.1439526528120041, -0.1091747060418129, -0.029892833903431892, 0.9930555820465088, -0.08314386755228043, -0.05751800537109375, 1.4912109375, 1.434814453125, 0.081787109375, 1.4912109375
46251, -5.590133190155029, -1.2376405000686646, -5.258087635040283, -0.0034509135875850916, -0.012191167101264, -69.07366180419922, 0.08019385486841202, 0.2488374561071396, -3.1080305576324463, -0.8568496108055115, -0.9193129539489746, 0.05590679869055748, -1.9806716018057062, 1.4932695161747347, -175.01219386819056, 9362.0, 30146.0, 35388.0, 9362.0, 8.05289363861084, -0.16608677804470062, 0.003650715807452798, 0.19329135119915009, -0.10788285732269287, -0.026882527396082878, 0.9932928681373596, -0.08314386755228043, -0.05751800537109375, 1.4912109375, 1.434814453125, 0.081787109375, 1.4912109375
46261, -5.591030120849609, -1.235109806060791, -5.259932518005371, -0.002634210279211402, -0.009656506590545177, -69.10475158691406, 0.08314687758684158, 0.25809454917907715, -3.109180450439453, -0.8568407297134399, -0.9193054437637329, 0.055912792682647705, -1.971444472757727, 1.5021757175243806, -175.0173174691364, 9362.0, 30146.0, 35388.0, 9362.0, 8.05289363861084, -0.0015890446957200766, -0.14623355865478516, -0.1791718602180481, -0.10881537944078445, -0.028909362852573395, 0.9920506477355957, -0.08314386755228043, -0.05751800537109375, 1.4912109375, 1.406982421875, 0.046966552734375, 1.4970703125
46271, -5.590002059936523, -1.23590886592865, -5.2617573738098145, -0.0017879795050248504, -0.007029312662780285, -69.13584899902344, 0.08609961718320847, 0.2673441171646118, -3.1104331016540527, -0.8568485975265503, -0.9192836284637451, 0.05584646761417389, -2.0110271749906703, 1.57624757804777, -175.01805542622859, 9362.0, 30146.0, 35388.0, 9362.0, 8.05289363861084, 0.03282099589705467, 0.06884293258190155, -0.18892793357372284, -0.10917913168668747, -0.028862765058875084, 0.9953910112380981, -0.08191563189029694, -0.030637741088867188, 1.493408203125, 1.415771484375, 0.0568695068359375, 1.4970703125
46281, -5.591546535491943, -1.2371312379837036, -5.262587070465088, -0.0017879795050248504, -0.007029312662780285, -69.13584899902344, 0.08609961718320847, 0.2673441171646118, -3.1104331016540527, -0.8568755388259888, -0.9193161129951477, 0.05591816455125809, -1.9842042903310022, 1.4811130776908783, -175.01664315889084, 9362.0, 30146.0, 35388.0, 9362.0, 8.05289363861084, -0.1673513799905777, 0.11163092404603958, -0.19389870762825012, -0.10955439507961273, -0.03232691064476967, 0.9934840798377991, -0.08191563189029694, -0.030637741088867188, 1.493408203125, 1.37548828125, 0.021820068359375, 1.491943359375
46291, -5.5906524658203125, -1.238010287284851, -5.2615065574646, -6.883812602609396e-06, -0.001497030258178711, -69.19808197021484, 0.092011459171772, 0.28588518500328064, -3.1125171184539795, -0.8568614721298218, -0.9193148016929626, 0.055938512086868286, -1.987816448883129, 1.493494753530058, -175.0255584652535, 9362.0, 30146.0, 35388.0, 9362.0, 8.05289363861084, -0.05201766639947891, 0.14850668609142303, 0.23044151067733765, -0.1073242798447609, -0.03233618289232254, 0.991107165813446, -0.08191563189029694, -0.030637741088867188, 1.493408203125, 1.461181640625, 0.1233062744140625, 1.491943359375
46301, -5.591676235198975, -1.2380372285842896, -5.261354923248291, 0.0009279887890443206, 0.0014080670662224293, -69.22920989990234, 0.09496288001537323, 0.29513439536094666, -3.113797903060913, -0.8568627238273621, -0.9192957878112793, 0.05593324452638626, -1.9822322188030237, 1.4897794475285195, -175.02031790101069, 9362.0, 30146.0, 35388.0, 9362.0, 8.05289363861084, -0.0312662348151207, 0.05867166444659233, 0.07894761860370636, -0.10861214995384216, -0.029608104377985, 0.9908562898635864, -0.08191563189029694, -0.030637741088867188, 1.493408203125, 1.46044921875, 0.12200927734375, 1.486083984375
46311, -5.591259002685547, -1.2367433309555054, -5.262171268463135, 0.0018923712195828557, 0.004405616782605648, -69.2603530883789, 0.09791358560323715, 0.3043754994869232, -3.1151468753814697, -0.8568581938743591, -0.9193115830421448, 0.05593046173453331, -1.9918715063630585, 1.4893698355415097, -175.01965495412696, 9362.0, 30146.0, 35388.0, 9362.0, 8.05289363861084, 0.004617899190634489, 0.031065838411450386, 0.005239896010607481, -0.10981445759534836, -0.03177257254719734, 0.9929182529449463, -0.08191563189029694, -0.030637741088867188, 1.493408203125, 1.481689453125, 0.1600799560546875, 1.486083984375
46321, -5.5920491218566895, -1.2375260591506958, -5.2638397216796875, 0.002886272268369794, 0.007495620287954807, -69.29151153564453, 0.10086680203676224, 0.31362515687942505, -3.1164255142211914, -0.8568506836891174, -0.9193202257156372, 0.05591822415590286, -1.9856526536122556, 1.4840451626969013, -175.02216574748354, 9362.0, 30146.0, 35388.0, 9362.0, 8.05289363861084, -0.030322615057229996, 0.2393309473991394, -0.13286378979682922, -0.10757195949554443, -0.029702886939048767, 0.9917225241661072, -0.08191563189029694, -0.030637741088867188, 1.493408203125, 1.423828125, 0.066802978515625, 1.48974609375
46331, -5.589913845062256, -1.2385004758834839, -5.263167858123779, 0.003909702878445387, 0.010678142309188843, -69.32268524169922, 0.1038195788860321, 0.3228790760040283, -3.1176514625549316, -0.8568553924560547, -0.9193064570426941, 0.055924154818058014, -1.9853558445535688, 1.4864761840453582, -175.01670969970422, 9362.0, 30146.0, 35388.0, 9362.0, 8.05289363861084, 0.2678273320198059, 0.20639286935329437, 0.22841612994670868, -0.10764134675264359, -0.03257569670677185, 0.9916558861732483, -0.08191563189029694, -0.030637741088867188, 1.493408203125, 1.44580078125, 0.098236083984375, 1.48974609375
46341, -5.58935022354126, -1.2407807111740112, -5.26314640045166, 0.004962650127708912, 0.013953147456049919, -69.35386657714844, 0.10676974803209305, 0.33212193846702576, -3.119006395339966, -0.8568471074104309, -0.9193184971809387, 0.05594643950462341, -1.9938197069877397, 1.479175908815165, -175.02076698973917, 9362.0, 30146.0, 35388.0, 9362.0, 8.05289363861084, -0.05016230046749115, 0.30221131443977356, -0.04556587338447571, -0.11000597476959229, -0.029041847214102745, 0.993983805179596, -0.08191563189029694, -0.030637741088867188, 1.493408203125, 1.4912109375, 0.178253173828125, 1.493408203125
46351, -5.590348243713379, -1.2436048984527588, -5.262331962585449, 0.004962650127708912, 0.013953147456049919, -69.35386657714844, 0.10676974803209305, 0.33212193846702576, -3.119006395339966, -0.8568657040596008, -0.9192969799041748, 0.05593942850828171, -1.9736363571198277, 1.4938718967528075, -175.01820403490547, 9362.0, 30146.0, 35388.0, 9362.0, 8.05289363861084, -0.09538312256336212, 0.39543166756629944, 0.2269728183746338, -0.1095530167222023, -0.029426030814647675, 0.9938310384750366, -0.08191563189029694, -0.030637741088867188, 1.493408203125, 1.4912109375, 0.178253173828125, 1.493408203125
46361, -5.590070724487305, -1.2450793981552124, -5.260901927947998, 0.004962650127708912, 0.013953147456049919, -69.35386657714844, 0.10676974803209305, 0.33212193846702576, -3.119006395339966, -0.8568505048751831, -0.9193023443222046, 0.055932361632585526, -1.985555510653889, 1.5030593237603114, -175.01097342111876, 9362.0, 30146.0, 35388.0, 9362.0, 8.05289363861084, -0.13189686834812164, -0.12901489436626434, 0.032618217170238495, -0.1095530167222023, -0.029426030814647675, 0.9938310384750366, -0.08191563189029694, -0.030637741088867188, 1.493408203125, 1.4912109375, 0.178253173828125, 1.491943359375
46371, -5.590191841125488, -1.2450400590896606, -5.261289119720459, 0.00829894095659256, 0.024333439767360687, -69.4474868774414, 0.11565406620502472, 0.3598945736885071, -3.1224818229675293, -0.8568417429924011, -0.919302761554718, 0.05594132840633392, -1.9792133300347357, 1.4984484426503286, -175.01368560692063, 9362.0, 30146.0, 35388.0, 9362.0, 8.05289363861084, 0.01596461422741413, -0.045369844883680344, -0.13023507595062256, -0.1095530167222023, -0.029426030814647675, 0.9938310384750366, -0.08191563189029694, -0.030637741088867188, 1.493408203125, 1.4912109375, 0.178253173828125, 1.491943359375
46381, -5.590863227844238, -1.244097352027893, -5.261219501495361, 0.00829894095659256, 0.024333439767360687, -69.4474868774414, 0.11565406620502472, 0.3598945736885071, -3.1224818229675293, -0.856853723526001, -0.919316291809082, 0.0559307262301445, -1.9909868801032917, 1.4923418121137217, -175.01509939358863, 9362.0, 30146.0, 35388.0, 9362.0, 8.05289363861084, -0.04306342825293541, -0.04886522516608238, -0.06558480858802795, -0.10932095348834991, -0.028830643743276596, 0.9937655329704285, -0.08191563189029694, -0.030637741088867188, 1.493408203125, 1.4912109375, 0.178253173828125, 1.491943359375
46391, -5.591555595397949, -1.2425955533981323, -5.262650966644287, 0.00829894095659256, 0.024333439767360687, -69.4474868774414, 0.11565406620502472, 0.3598945736885071, -3.1224818229675293, -0.8568458557128906, -0.9192968010902405, 0.055931881070137024, -1.9865944905865722, 1.5047529324248785, -175.00840826997967, 9362.0, 30146.0, 35388.0, 9362.0, 8.05289363861084, -0.12285220623016357, -0.49916067719459534, -0.16291768848896027, -0.11009828001260757, -0.02956424653530121, 0.989864706993103, -0.08191563189029694, -0.030637741088867188, 1.493408203125, 1.4912109375, 0.178253173828125, 1.491943359375
46411, -5.592336177825928, -1.2439775466918945, -5.262850284576416, 0.013162380084395409, 0.03946937993168831, -69.5724868774414, 0.12750732898712158, 0.3968823254108429, -3.1275951862335205, -0.8568576574325562, -0.919308602809906, 0.055951979011297226, -1.9954232060821095, 1.4986476534081703, -175.01263515332076, 9362.0, 30146.0, 35388.0, 9362.0, 8.05289363861084, -0.024700891226530075, 0.0668347030878067, -0.26590222120285034, -0.10832703113555908, -0.0274041797965765, 0.9910435676574707, -0.08191563189029694, -0.030637741088867188, 1.493408203125, 1.4912109375, 0.178253173828125, 1.48974609375
46421, -5.593708038330078, -1.243535041809082, -5.262453079223633, 0.013162380084395409, 0.03946937993168831, -69.5724868774414, 0.12750732898712158, 0.3968823254108429, -3.1275951862335205, -0.8568564057350159, -0.9193078875541687, 0.05593567341566086, -1.9830775920549526, 1.490255516782753, -175.01335208020848, 9362.0, 30146.0, 35388.0, 9362.0, 8.05289363861084, -0.28520870208740234, -0.15813618898391724, 0.025597423315048218, -0.10917464643716812, -0.02923724055290222, 0.9940344095230103, -0.08191563189029694, -0.030637741088867188, 1.493408203125, 1.382080078125, 0.0256195068359375, 1.48974609375
46431, -5.593554496765137, -1.2455006837844849, -5.262282371520996, 0.013162380084395409, 0.03946937993168831, -69.5724868774414, 0.12750732898712158, 0.3968823254108429, -3.1275951862335205, -0.8568594455718994, -0.9193109273910522, 0.05594107136130333, -1.9798016136778183, 1.4814597527492595, -175.007142664855, 9362.0, 30146.0, 35388.0, 9362.0, 8.05289363861084, 0.15576747059822083, 0.2125275433063507, -0.057067278772592545, -0.10587141662836075, -0.030410345643758774, 0.9932557344436646, -0.08191563189029694, -0.030637741088867188, 1.493408203125, 1.382080078125, 0.0256195068359375, 1.48974609375
46441, -5.593757152557373, -1.2457187175750732, -5.26432466506958, 0.017120931297540665, 0.051792122423648834, -69.66636657714844, 0.13640174269676208, 0.4246523380279541, -3.131237506866455, -0.8568471074104309, -0.9193148612976074, 0.05595732480287552, -1.984044977797012, 1.482772986646978, -175.0202626189096, 9362.0, 30146.0, 35388.0, 9362.0, 8.05289363861084, 0.15698304772377014, 0.12232702970504761, -0.1403377503156662, -0.10985607653856277, -0.031830672174692154, 0.9920637607574463, -0.08191563189029694, -0.030637741088867188, 1.493408203125, 1.47509765625, 0.147857666015625, 1.490478515625
46451, -5.593348979949951, -1.2471054792404175, -5.264750957489014, 0.018499786034226418, 0.056084923446178436, -69.69768524169922, 0.1393694281578064, 0.4339078366756439, -3.132473945617676, -0.856846272945404, -0.9193106889724731, 0.05596166104078293, -1.9903968269930912, 1.5062519639057825, -175.01548204652028, 9362.0, 30146.0, 35388.0, 9362.0, 8.05289363861084, 0.02816302515566349, 0.06160976365208626, -0.02640172280371189, -0.10805272310972214, -0.02984638512134552, 0.9914935827255249, -0.08191563189029694, -0.030637741088867188, 1.493408203125, 1.4677734375, 0.1347198486328125, 1.490478515625
46461, -5.5933122634887695, -1.247820258140564, -5.264206886291504, 0.018499786034226418, 0.056084923446178436, -69.69768524169922, 0.1393694281578064, 0.4339078366756439, -3.132473945617676, -0.8568495512008667, -0.9193115234375, 0.05593697726726532, -1.9846593897405844, 1.4861627705437854, -175.01187092579033, 9362.0, 30146.0, 35388.0, 9362.0, 8.05289363861084, -0.02630065754055977, 0.06271881610155106, 0.1521332710981369, -0.1087983101606369, -0.029587915167212486, 0.9927647709846497, -0.08191563189029694, -0.030637741088867188, 1.493408203125, 1.46337890625, 0.1270751953125, 1.490478515625
46471, -5.592611312866211, -1.2494559288024902, -5.26434326171875, 0.02134650945663452, 0.06494807451963425, -69.76036071777344, 0.1453048586845398, 0.45240920782089233, -3.135044574737549, -0.856859564781189, -0.9193044900894165, 0.05593298375606537, -1.9804779604333547, 1.5026356480904894, -175.01077197197787, 9362.0, 30146.0, 35388.0, 9362.0, 8.05289363861084, 0.13354617357254028, 0.20938338339328766, -0.06993581354618073, -0.1082616001367569, -0.03105326183140278, 0.9947088360786438, -0.09093078225851059, 0.12168121337890625, 1.505859375, 1.41796875, 0.05950927734375, 1.490478515625
46481, -5.59409761428833, -1.250127911567688, -5.261999130249023, 0.02134650945663452, 0.06494807451963425, -69.76036071777344, 0.1453048586845398, 0.45240920782089233, -3.135044574737549, -0.8568584322929382, -0.9193205833435059, 0.05595697462558746, -1.9859679551169183, 1.4810578585925214, -175.0170244407448, 9362.0, 30146.0, 35388.0, 9362.0, 8.05289363861084, -0.22775346040725708, 0.240229994058609, 0.49400368332862854, -0.1090712919831276, -0.02965770661830902, 0.9944303035736084, -0.09093078225851059, 0.12168121337890625, 1.505859375, 1.400390625, 0.04034423828125, 1.4912109375
46491, -5.595284461975098, -1.251006841659546, -5.259896755218506, 0.02431214600801468, 0.07418163865804672, -69.82308197021484, 0.15126127004623413, 0.47095197439193726, -3.1371560096740723, -0.8568587899208069, -0.919316291809082, 0.055959951132535934, -1.9828398997027337, 1.4915890601391766, -175.00850847339103, 9362.0, 30146.0, 35388.0, 9362.0, 8.05289363861084, -0.15702618658542633, -0.2694040536880493, 0.10401495546102524, -0.10860025882720947, -0.02924385294318199, 0.9940457940101624, -0.09093078225851059, 0.12168121337890625, 1.505859375, 1.40771484375, 0.0478363037109375, 1.4912109375
46501, -5.595083713531494, -1.2529106140136719, -5.260033130645752, 0.025839664041996002, 0.07893753051757812, -69.85446166992188, 0.15424203872680664, 0.4802265167236328, -3.1381986141204834, -0.856849730014801, -0.9193034768104553, 0.055950090289115906, -1.9784082064813504, 1.5047055386690715, -175.0201200928504, 9362.0, 30146.0, 35388.0, 9362.0, 8.05289363861084, 0.07421043515205383, 0.4189762771129608, 0.1690940111875534, -0.10852625221014023, -0.030729210004210472, 0.9909298419952393, -0.09093078225851059, 0.12168121337890625, 1.505859375, 1.449462890625, 0.103973388671875, 1.491943359375
46511, -5.594972610473633, -1.253950834274292, -5.260149002075195, 0.027396975085139275, 0.08378610759973526, -69.88584899902344, 0.15722014009952545, 0.48948928713798523, -3.139382839202881, -0.8568603992462158, -0.919303834438324, 0.055943138897418976, -1.9819308482128017, 1.4823531629463957, -175.00513125339342, 9362.0, 30146.0, 35388.0, 9362.0, 8.05289363861084, 0.12740637362003326, 0.2144676297903061, -0.21042048931121826, -0.1077517569065094, -0.02975166216492653, 0.9927515387535095, -0.09093078225851059, 0.12168121337890625, 1.505859375, 1.449462890625, 0.103973388671875, 1.491943359375
46521, -5.595578670501709, -1.2534470558166504, -5.260647296905518, 0.028984054923057556, 0.08872722834348679, -69.91725158691406, 0.16019591689109802, 0.49873435497283936, -3.140747308731079, -0.8568591475486755, -0.9193089604377747, 0.05596066266298294, -1.9827987281865045, 1.4813977982148288, -175.0087152215836, 9362.0, 30146.0, 35388.0, 9362.0, 8.05289363861084, -0.08189133554697037, -0.29657578468322754, 0.25245240330696106, -0.11038824170827866, -0.02741735614836216, 0.9943215250968933, -0.09093078225851059, 0.12168121337890625, 1.505859375, 1.430419921875, 0.0756378173828125, 1.48974609375
46531, -5.595384120941162, -1.2537254095077515, -5.259344100952148, 0.030600951984524727, 0.09376095235347748, -69.94866180419922, 0.16318358480930328, 0.5080102682113647, -3.1417834758758545, -0.8568586111068726, -0.9193137288093567, 0.05595958232879639, -1.9852004526930254, 1.491177207498282, -175.01512267354107, 9362.0, 30146.0, 35388.0, 9362.0, 8.05289363861084, 0.05814777687191963, 0.05759667605161667, 0.007490588817745447, -0.11057794839143753, -0.02801409550011158, 0.9931014776229858, -0.09093078225851059, 0.12168121337890625, 1.505859375, 1.430419921875, 0.0756378173828125, 1.48974609375
46541, -5.595889568328857, -1.2530614137649536, -5.260775089263916, 0.03224771469831467, 0.09888741374015808, -69.98008728027344, 0.16616839170455933, 0.5172815918922424, -3.1428818702697754, -0.8568617701530457, -0.9193100333213806, 0.05594796687364578, -1.9866825307744442, 1.485793850828685, -175.00739885745668, 9362.0, 30146.0, 35388.0, 9362.0, 8.05289363861084, -0.26883256435394287, -0.042077772319316864, -0.13755972683429718, -0.10868166387081146, -0.0270684864372015, 0.9918166399002075, -0.09093078225851059, 0.12168121337890625, 1.505859375, 1.46044921875, 0.12200927734375, 1.491943359375
46551, -5.594836235046387, -1.2552452087402344, -5.262044906616211, 0.033924300223588943, 0.10410650819540024, -70.01152038574219, 0.1691489964723587, 0.5265369415283203, -3.144139528274536, -0.856839656829834, -0.9192947745323181, 0.055938173085451126, -1.9798011371131696, 1.5092927046219415, -175.00815118399262, 9362.0, 30146.0, 35388.0, 9362.0, 8.05289363861084, 0.2646975517272949, 0.04564689099788666, 0.013186361640691757, -0.10767240077257156, -0.02765379101037979, 0.9930582642555237, -0.09093078225851059, 0.12168121337890625, 1.505859375, 1.44873046875, 0.102813720703125, 1.491943359375
46561, -5.594350337982178, -1.2562212944030762, -5.261969566345215, 0.03563069924712181, 0.10941819846630096, -70.04296875, 0.17213095724582672, 0.535800576210022, -3.1453232765197754, -0.8568698167800903, -0.9193176627159119, 0.055975258350372314, -1.996141466735356, 1.4829847122626347, -175.01415401564057, 9362.0, 30146.0, 35388.0, 9362.0, 8.05289363861084, -0.0791993960738182, 0.32795968651771545, -0.18589571118354797, -0.10682979226112366, -0.030119333416223526, 0.9938341379165649, -0.09093078225851059, 0.12168121337890625, 1.505859375, 1.486083984375, 0.16845703125, 1.4912109375
46571, -5.594318866729736, -1.2584376335144043, -5.260798931121826, 0.03736694157123566, 0.11482252180576324, -70.07442474365234, 0.17511722445487976, 0.5450641512870789, -3.1464831829071045, -0.8568598031997681, -0.9193068146705627, 0.05594274401664734, -1.9909724379213551, 1.5011708429900636, -175.00393121783677, 9362.0, 30146.0, 35388.0, 9362.0, 8.05289363861084, 0.05688510835170746, -0.04962942749261856, 0.1839098036289215, -0.10858938097953796, -0.030880948528647423, 0.9940585494041443, -0.08091627806425095, -0.22775840759277344, 1.477294921875, 1.48095703125, 0.1587677001953125, 1.4912109375
46581, -5.594789028167725, -1.2582792043685913, -5.262589454650879, 0.03736694157123566, 0.11482252180576324, -70.07442474365234, 0.17511722445487976, 0.5450641512870789, -3.1464831829071045, -0.856860876083374, -0.9193015694618225, 0.05595093220472336, -1.982213365495381, 1.5069899385187853, -175.01887240720225, 9362.0, 30146.0, 35388.0, 9362.0, 8.05289363861084, -0.07240111380815506, -0.018786773085594177, -0.43227046728134155, -0.10860247910022736, -0.02852124162018299, 0.9940252900123596, -0.08091627806425095, -0.22775840759277344, 1.477294921875, 1.439208984375, 0.0882415771484375, 1.49267578125
46591, -5.594832420349121, -1.2557814121246338, -5.2630109786987305, 0.04092911630868912, 0.1259092390537262, -70.13737487792969, 0.18110181391239166, 0.5636057257652283, -3.1486306190490723, -0.8568568825721741, -0.9193115830421448, 0.055949848145246506, -1.9858938703439906, 1.4964547346752965, -175.013193862115, 9362.0, 30146.0, 35388.0, 9362.0, 8.05289363861084, -0.11823072284460068, -0.4107822775840759, -0.2390473484992981, -0.10828456282615662, -0.030643053352832794, 0.9930315017700195, -0.08091627806425095, -0.22775840759277344, 1.477294921875, 1.4443359375, 0.0959930419921875, 1.49267578125
46601, -5.595613956451416, -1.2550872564315796, -5.2608771324157715, 0.042755093425512314, 0.13159161806106567, -70.16886901855469, 0.18409407138824463, 0.5728709101676941, -3.149768114089966, -0.8568610548973083, -0.9193024039268494, 0.055970072746276855, -1.9769064355414794, 1.4964433817198142, -175.01280214142054, 9362.0, 30146.0, 35388.0, 9362.0, 8.05289363861084, -0.11748074740171432, -0.08887235820293427, 0.2721860110759735, -0.10857899487018585, -0.029670389369130135, 0.9920014142990112, -0.08091627806425095, -0.22775840759277344, 1.477294921875, 1.4443359375, 0.0959930419921875, 1.489013671875
46611, -5.59487771987915, -1.256037950515747, -5.260690212249756, 0.04461095854640007, 0.13736660778522491, -70.20037078857422, 0.18707843124866486, 0.582126259803772, -3.151014566421509, -0.8568527698516846, -0.9193063378334045, 0.055936381220817566, -1.9815078946055074, 1.5043156861080433, -175.0133161286417, 9362.0, 30146.0, 35388.0, 9362.0, 8.05289363861084, 0.15503239631652832, 0.019465159624814987, 0.15463432669639587, -0.10972485691308975, -0.031237373128533363, 0.9915145635604858, -0.08091627806425095, -0.22775840759277344, 1.477294921875, 1.40625, 0.04620361328125, 1.489013671875
46621, -5.5953521728515625, -1.2583974599838257, -5.257649898529053, 0.04649665206670761, 0.14323413372039795, -70.23188781738281, 0.1900605708360672, 0.591379702091217, -3.1522960662841797, -0.8568614721298218, -0.9193011522293091, 0.05593911558389664, -1.9826158336803976, 1.510944159392409, -175.01736723690937, 9362.0, 30146.0, 35388.0, 9362.0, 8.05289363861084, -0.10085511207580566, 0.24046015739440918, 0.2934190630912781, -0.10845993459224701, -0.029808707535266876, 0.9930225014686584, -0.08091627806425095, -0.22775840759277344, 1.477294921875, 1.431884765625, 0.07769775390625, 1.4970703125
46631, -5.595645427703857, -1.2568888664245605, -5.2579474449157715, 0.04841218143701553, 0.14919419586658478, -70.26342010498047, 0.19304446876049042, 0.6006343364715576, -3.153552770614624, -0.8568663597106934, -0.9193201065063477, 0.05593074485659599, -1.981659960151471, 1.5034324804358903, -175.01501176773652, 9362.0, 30146.0, 35388.0, 9362.0, 8.05289363861084, -0.06634117662906647, -0.22275424003601074, -0.04367873817682266, -0.10874941200017929, -0.03015752322971821, 0.9937611818313599, -0.08091627806425095, -0.22775840759277344, 1.477294921875, 1.35498046875, 0.01556396484375, 1.4970703125
46641, -5.594503402709961, -1.2566226720809937, -5.258021354675293, 0.05035758763551712, 0.15524688363075256, -70.29496002197266, 0.19603703916072845, 0.6099032759666443, -3.1546638011932373, -0.8568534851074219, -0.919317364692688, 0.055940188467502594, -1.9863490830535062, 1.492710340251449, -175.0126145024859, 9362.0, 30146.0, 35388.0, 9362.0, 8.05289363861084, 0.18642200529575348, -0.3448871672153473, -0.07915768772363663, -0.10789094865322113, -0.028077462688088417, 0.993096113204956, -0.08091627806425095, -0.22775840759277344, 1.477294921875, 1.4326171875, 0.0786895751953125, 1.4912109375
46651, -5.595463752746582, -1.2548918724060059, -5.257315158843994, 0.05233289673924446, 0.1613922268152237, -70.3265151977539, 0.199024960398674, 0.6191665530204773, -3.1558423042297363, -0.8568446636199951, -0.9193064570426941, 0.05593506991863251, -1.9751110518638513, 1.505235864620289, -175.01454611277615, 9362.0, 30146.0, 35388.0, 9362.0, 8.05289363861084, -0.14477963745594025, 0.23490765690803528, 0.32762834429740906, -0.1072634682059288, -0.025987233966588974, 0.9923811554908752, -0.08091627806425095, -0.22775840759277344, 1.477294921875, 1.47216796875, 0.142547607421875, 1.4912109375
46661, -5.595381259918213, -1.254557490348816, -5.2556915283203125, 0.05233289673924446, 0.1613922268152237, -70.3265151977539, 0.199024960398674, 0.6191665530204773, -3.1558423042297363, -0.8568404316902161, -0.9192993640899658, 0.055931828916072845, -1.9708665217857808, 1.5151056366426303, -175.01843403823366, 9362.0, 30146.0, 35388.0, 9362.0, 8.05289363861084, 0.04478413611650467, -0.03586622327566147, -0.03330681100487709, -0.10899803042411804, -0.02731824666261673, 0.992561936378479, -0.08091627806425095, -0.22775840759277344, 1.477294921875, 1.4150390625, 0.05596923828125, 1.48974609375
46671, -5.59529972076416, -1.2554755210876465, -5.257035732269287, 0.05233289673924446, 0.1613922268152237, -70.3265151977539, 0.199024960398674, 0.6191665530204773, -3.1558423042297363, -0.8568555116653442, -0.9193131327629089, 0.055924367159605026, -1.996535207595195, 1.5027062846408512, -175.01529535628825, 9362.0, 30146.0, 35388.0, 9362.0, 8.05289363861084, 0.044733721762895584, 0.1578563153743744, -0.2486741542816162, -0.10884612053632736, -0.027436167001724243, 0.9929535388946533, -0.10273245722055435, -0.2187976837158203, 1.47802734375, 1.469970703125, 0.1386566162109375, 1.48974609375
46681, -5.595392227172852, -1.256613850593567, -5.25630521774292, 0.05233289673924446, 0.1613922268152237, -70.3265151977539, 0.199024960398674, 0.6191665530204773, -3.1558423042297363, -0.8568442463874817, -0.9193163514137268, 0.055923208594322205, -1.9805062060927305, 1.5072264289901227, -175.0158948973703, 9362.0, 30146.0, 35388.0, 9362.0, 8.05289363861084, -0.031176842749118805, 0.1440865695476532, 0.18467290699481964, -0.10909149795770645, -0.028339939191937447, 0.9949122071266174, -0.10273245722055435, -0.2187976837158203, 1.47802734375, 1.469970703125, 0.1386566162109375, 1.494140625
