timeTick, roll, pitch, yaw, stateX, stateY, stateZ, stateVX, stateVY, stateVZ, otX0, otY0, otZ0, otRoll0, otPitch0, otYaw0, left wing, pitch motor, yaw motor, right wing, voltage, roll rate, pitch rate, yaw rate, A_x, A_y, A_z, current, i_raw, v_raw, airflow_voltage, airflow_speed, pot_Pitch
46370, 2.439044952392578, -1.5578309297561646, -3.8149847984313965, 0, 0, 0, 0, 0, 0, -0.7655926942825317, -1.020453929901123, 0.05417075753211975, -1.7251377474650769, 1.7062869808805203, 179.64763301624262, 0, 0, 0, 0, 0, 0, 0, 0, 0, 0, 0, 0, 0, 0, 0, 0, 0
46380, 2.43902850151062, -1.557255506515503, -3.814418315887451, -0.0012641885550692677, 0.0023103239946067333, -60.60683822631836, -0.060838695615530014, 0.11118891835212708, -2.705770492553711, -0.7655701041221619, -1.020456075668335, 0.05415558069944382, -1.7230048168917267, 1.7312807353110884, 179.6503738508125, 9362.0, 30146.0, 35388.0, 9362.0, 0, -0.02118096314370632, 0.007165334187448025, 0.17544449865818024, -0.10203076899051666, -0.0325988344848156, 0.993972897529602, 0, 0, 0, 0, 0, 0
46390, 2.4392004013061523, -1.5582480430603027, -3.8144218921661377, -0.0018607373349368572, 0.0034006196074187756, -60.6338996887207, -0.05847103148698807, 0.10687027126550674, -2.706439733505249, -0.7655952572822571, -1.0204594135284424, 0.054152268916368484, -1.7272453427748848, 1.709970252641682, 179.65210425284386, 9362.0, 30146.0, 35388.0, 9362.0, 0, 0.06978865712881088, -0.2526032328605652, -0.08543046563863754, -0.10165859758853912, -0.032915521413087845, 0.9956057071685791, 0, 0, 0, 1.529296875, 0.2564849853515625, 0
46400, 2.4389145374298096, -1.5565547943115234, -3.8153886795043945, -0.0024336054921150208, 0.004447713494300842, -60.66096878051758, -0.05610261112451553, 0.1025485023856163, -2.7070369720458984, -0.7655909061431885, -1.0204532146453857, 0.0541774220764637, -1.7329542469654409, 1.7153048200892158, 179.64681753487253, 9362.0, 30146.0, 35388.0, 9362.0, 0, -0.05934417247772217, -0.010153928771615028, 0.24951772391796112, -0.10209988057613373, -0.03150125965476036, 0.9946995377540588, 0, 0, 0, 1.32275390625, 0.0251312255859375, 1.493408203125
46410, 2.4393742084503174, -1.5571715831756592, -3.8149149417877197, -0.0029827880207449198, 0.005451600532978773, -60.68804168701172, -0.05373396351933479, 0.09822884947061539, -2.7076919078826904, -0.7655956745147705, -1.0204503536224365, 0.054165069013834, -1.7267333888062515, 1.7034669347844442, 179.6414864489368, 9362.0, 30146.0, 35388.0, 9362.0, 0, 0.19105026125907898, 0.7745053768157959, -0.27670156955718994, -0.10286672413349152, -0.03233828395605087, 0.9954890608787537, 0, 0, 0, 1.3798828125, 0.0243377685546875, 1.493408203125
46420, 2.4405298233032227, -1.562138557434082, -3.816471815109253, -0.003508293768391013, 0.006412285380065441, -60.71512222290039, -0.05136716365814209, 0.09390810877084732, -2.708306312561035, -0.7655946612358093, -1.0204561948776245, 0.054170310497283936, -1.7244541274978615, 1.7091152397405551, 179.64685299008843, 9362.0, 30146.0, 35388.0, 9362.0, 0, -0.20515815913677216, 0.09267266094684601, 0.1976907104253769, -0.10303018987178802, -0.03436984121799469, 0.9930822849273682, 0, 0, 0, 1.404052734375, 0.04400634765625, 1.48974609375
46430, 2.4385645389556885, -1.561326503753662, -3.8155815601348877, -0.004010125994682312, 0.007329757325351238, -60.74220657348633, -0.04899940639734268, 0.08958623558282852, -2.708916425704956, -0.7655853629112244, -1.0204561948776245, 0.054169975221157074, -1.7302413597168091, 1.7104535104791978, 179.653106021837, 9362.0, 30146.0, 35388.0, 9362.0, 0, 0.06966831535100937, 0.13968972861766815, -0.021857984364032745, -0.10147873312234879, -0.03099524788558483, 0.9915933012962341, 0, 0, 0, 1.5322265625, 0.2628021240234375, 1.48974609375
46440, 2.4393093585968018, -1.5643366575241089, -3.8155813217163086, -0.004488272126764059, 0.00820405688136816, -60.7692985534668, -0.04662971571087837, 0.08527365326881409, -2.709792137145996, -0.765592634677887, -1.020456314086914, 0.05419059097766876, -1.7287358716674648, 1.7017249247245445, 179.649483923133, 9362.0, 30146.0, 35388.0, 9362.0, 0, 0.13007397949695587, 0.044843290001153946, -0.1174093559384346, -0.10275641828775406, -0.03121050074696541, 0.992928683757782, 0, 0, 0, 1.562255859375, 0.329437255859375, 1.49267578125
46450, 2.440021276473999, -1.5663564205169678, -3.8153469562530518, -0.004942730069160461, 0.009035253897309303, -60.79640197753906, -0.044261883944272995, 0.08096570521593094, -2.7106950283050537, -0.7655894160270691, -1.0204517841339111, 0.05415193736553192, -1.723328858239467, 1.7125761280232155, 179.6436545900279, 9362.0, 30146.0, 35388.0, 9362.0, 0, 0.05490972101688385, 0.09265069663524628, 0.16505809128284454, -0.1008770540356636, -0.0320766381919384, 0.9906216263771057, 0, 0, 0, 1.212158203125, 0.3188018798828125, 1.49267578125
46460, 2.440659284591675, -1.5674254894256592, -3.8161020278930664, -0.005373482126742601, 0.009823358617722988, -60.82351303100586, -0.04188854619860649, 0.07665535062551498, -2.7115795612335205, -0.7655889391899109, -1.0204499959945679, 0.05415407568216324, -1.7241665583930157, 1.7052410265331446, 179.6497603835043, 9362.0, 30146.0, 35388.0, 9362.0, 0, -0.008701923303306103, 0.5080540776252747, 0.15056072175502777, -0.10256624966859818, -0.03540286794304848, 0.9946234226226807, 0, 0, 0, 1.60546875, 0.43011474609375, 1.491943359375
46470, 2.440368413925171, -1.5705640316009521, -3.815988063812256, -0.005780491512268782, 0.010568366385996342, -60.85063171386719, -0.03951343148946762, 0.07234625518321991, -2.7125258445739746, -0.765597403049469, -1.020455002784729, 0.05416283756494522, -1.7254847098139763, 1.7014246155781052, 179.65389337206972, 9362.0, 30146.0, 35388.0, 9362.0, 8.152067184448242, -0.06630624830722809, 0.16513468325138092, -0.10493994504213333, -0.10271722078323364, -0.03597038984298706, 0.9939392805099487, 0, 0, 0, 1.50146484375, 0.1985626220703125, 1.491943359375
46480, 2.43988299369812, -1.5706266164779663, -3.818732500076294, -0.006163700483739376, 0.011270202696323395, -60.87776184082031, -0.03712833672761917, 0.0680210068821907, -2.713135004043579, -0.7655971646308899, -1.0204501152038574, 0.0541834831237793, -1.7192291172936467, 1.6959203455139686, 179.64729024563854, 9362.0, 30146.0, 35388.0, 9362.0, 8.152067184448242, -0.15990950167179108, 0.003077339380979538, 0.29697108268737793, -0.10120226442813873, -0.034047964960336685, 0.9939422607421875, -0.09434880316257477, -0.07543754577636719, 1.48974609375, 1.549072265625, 0.2998809814453125, 1.494140625
46490, 2.4399824142456055, -1.5739446878433228, -3.813410997390747, -0.006523047108203173, 0.011928815394639969, -60.9048957824707, -0.03474121913313866, 0.06370149552822113, -2.7138733863830566, -0.7655920386314392, -1.0204342603683472, 0.05417346954345703, -1.7299673757139848, 1.7092135302154645, 179.66102492291716, 9362.0, 30146.0, 35388.0, 9362.0, 8.152067184448242, -0.07931002974510193, 0.08045390993356705, 0.13238388299942017, -0.1026700958609581, -0.03218386322259903, 0.9945324063301086, -0.09434880316257477, -0.07543754577636719, 1.48974609375, 1.603271484375, 0.4249420166015625, 1.494140625
46500, 2.4390709400177, -1.5739885568618774, -3.812967300415039, -0.006858518347144127, 0.012544228695333004, -60.932037353515625, -0.03235267847776413, 0.05938141793012619, -2.7145752906799316, -0.7655906677246094, -1.020456075668335, 0.054183922708034515, -1.723873813434081, 1.6987295947561165, 179.64496461317074, 9362.0, 30146.0, 35388.0, 9362.0, 8.152067184448242, -0.009051389992237091, 0.008630010299384594, 0.14715398848056793, -0.10312186181545258, -0.03252320736646652, 0.9963884949684143, -0.09434880316257477, -0.07543754577636719, 1.48974609375, 1.53369140625, 0.265960693359375, 1.490478515625
46510, 2.440002202987671, -1.5752536058425903, -3.8120951652526855, -0.007170061580836773, 0.013116416521370411, -60.95918655395508, -0.029955925419926643, 0.05505624786019325, -2.7151739597320557, -0.7655816674232483, -1.0204464197158813, 0.05416788160800934, -1.7296265754149043, 1.6916481267276993, 179.65788433334274, 9362.0, 30146.0, 35388.0, 9362.0, 8.152067184448242, -0.05532798171043396, 0.429737389087677, -0.11188360303640366, -0.10171948373317719, -0.03278408944606781, 0.9964663982391357, -0.09434880316257477, -0.07543754577636719, 1.48974609375, 1.57763671875, 0.3647918701171875, 1.490478515625
46520, 2.44032883644104, -1.5781015157699585, -3.8149075508117676, -0.007457622326910496, 0.013645336031913757, -60.9863395690918, -0.0275561586022377, 0.05072767287492752, -2.715660333633423, -0.765605628490448, -1.0204544067382812, 0.054163143038749695, -1.7297067797829557, 1.7124837174148695, 179.64471661379986, 9362.0, 30146.0, 35388.0, 9362.0, 8.152067184448242, -0.13745103776454926, 0.11168774217367172, 0.05100022628903389, -0.10207817703485489, -0.033995386213064194, 0.9946954250335693, -0.09434880316257477, -0.07543754577636719, 1.48974609375, 1.5966796875, 0.409210205078125, 1.491943359375
46530, 2.4402987957000732, -1.5780434608459473, -3.8138587474823, -0.0077211796306073666, 0.014130969531834126, -61.01350021362305, -0.025155555456876755, 0.046398986130952835, -2.7161865234375, -0.7656037211418152, -1.0204524993896484, 0.054178521037101746, -1.7204271297279283, 1.7086060323019865, 179.64576122085978, 9362.0, 30146.0, 35388.0, 9362.0, 8.152067184448242, 0.15945108234882355, 0.09716440737247467, -0.05435190722346306, -0.1002560704946518, -0.03186269477009773, 0.9953984022140503, -0.09434880316257477, -0.07543754577636719, 1.48974609375, 1.598876953125, 0.414520263671875, 1.491943359375
46540, 2.4392218589782715, -1.5785144567489624, -3.8131654262542725, -0.007960718125104904, 0.014573329128324986, -61.04066467285156, -0.022752052173018456, 0.04207306727766991, -2.716794013977051, -0.7656088471412659, -1.0204490423202515, 0.05416375771164894, -1.7323991117721618, 1.702068072329638, 179.65387676568264, 9362.0, 30146.0, 35388.0, 9362.0, 8.152067184448242, -0.13729093968868256, -0.32628777623176575, 0.06663405150175095, -0.10037584602832794, -0.03147650510072708, 0.9939567446708679, -0.09434880316257477, -0.07543754577636719, 1.48974609375, 1.45458984375, 0.11224365234375, 1.4912109375
46550, 2.4397339820861816, -1.5793051719665527, -3.812922954559326, -0.008176223374903202, 0.01497243344783783, -61.06783676147461, -0.020348936319351196, 0.0377478301525116, -2.717414617538452, -0.7655823826789856, -1.0204472541809082, 0.05415109172463417, -1.732735466806757, 1.69657751651269, 179.65758290526446, 9362.0, 30146.0, 35388.0, 9362.0, 8.152067184448242, 0.07535307109355927, 0.4189448952674866, -0.014002802781760693, -0.10176967829465866, -0.03256583213806152, 0.9954065680503845, -0.09434880316257477, -0.07543754577636719, 1.48974609375, 1.24072265625, 0.1952667236328125, 1.4912109375
46560, 2.440572500228882, -1.5787280797958374, -3.8133866786956787, -0.00836770236492157, 0.01532831322401762, -61.09501266479492, -0.01794690266251564, 0.03342806175351143, -2.7181174755096436, -0.7655818462371826, -1.0204410552978516, 0.0541965551674366, -1.7333811170317939, 1.6993748116329073, 179.65271248912714, 9362.0, 30146.0, 35388.0, 9362.0, 8.152067184448242, -0.23468203842639923, 0.010834533721208572, -0.2005501538515091, -0.10088919848203659, -0.03221086040139198, 0.9946064949035645, -0.09434880316257477, -0.07543754577636719, 1.48974609375, 1.590087890625, 0.3937835693359375, 1.49267578125
46570, 2.439929485321045, -1.579840898513794, -3.8148419857025146, -0.008535146713256836, 0.015640975907444954, -61.122196197509766, -0.015541951172053814, 0.029104329645633698, -2.7187538146972656, -0.7656016945838928, -1.0204521417617798, 0.05418767035007477, -1.7290816249396148, 1.694508688758674, 179.6497693900119, 9362.0, 30146.0, 35388.0, 9362.0, 8.152067184448242, 0.0199008509516716, 0.03766815364360809, -0.1239660307765007, -0.10373726487159729, -0.03107631206512451, 0.9959930181503296, -0.09434880316257477, -0.07543754577636719, 1.48974609375, 1.578369140625, 0.3665008544921875, 1.49267578125
46580, 2.4408702850341797, -1.5802490711212158, -3.8139073848724365, -0.008678543381392956, 0.01591038703918457, -61.14938735961914, -0.013137527741491795, 0.024777941405773163, -2.719362258911133, -0.7655945420265198, -1.0204517841339111, 0.05414121225476265, -1.7264351463430652, 1.703927298221629, 179.65520541486435, 9362.0, 30146.0, 35388.0, 9362.0, 8.152067184448242, 0.11324084550142288, -0.0024468470364809036, -0.13561458885669708, -0.10189595073461533, -0.03171858564019203, 0.9984359741210938, -0.09774190932512283, -0.03959846496582031, 1.49267578125, 1.465576171875, 0.130889892578125, 1.493408203125
46590, 2.441232204437256, -1.580042839050293, -3.814279556274414, -0.008797860704362392, 0.016136493533849716, -61.17658233642578, -0.010725889354944229, 0.020443253219127655, -2.719761610031128, -0.7655928730964661, -1.0204448699951172, 0.05420076847076416, -1.7309960229837311, 1.7043713322123608, 179.65943289234517, 9362.0, 30146.0, 35388.0, 9362.0, 8.152067184448242, 0.2809116244316101, 0.0682518258690834, -0.10785093903541565, -0.10335928201675415, -0.03238337114453316, 0.9936521053314209, -0.09774190932512283, -0.03959846496582031, 1.49267578125, 1.61279296875, 0.4476470947265625, 1.493408203125
46600, 2.441798686981201, -1.5799669027328491, -3.8133225440979004, -0.008893070742487907, 0.016319265589118004, -61.20378112792969, -0.008316113613545895, 0.016111299395561218, -2.720258951187134, -0.7655900120735168, -1.0204434394836426, 0.05418049916625023, -1.728168931269755, 1.6923700777790316, 179.65408793082887, 9362.0, 30146.0, 35388.0, 9362.0, 8.152067184448242, -0.056535545736551285, 0.34230828285217285, 0.3323623836040497, -0.10316164791584015, -0.03371664509177208, 0.9946775436401367, -0.09774190932512283, -0.03959846496582031, 1.49267578125, 1.588623046875, 0.390350341796875, 1.48974609375
46610, 2.4410009384155273, -1.5803534984588623, -3.8123040199279785, -0.008964212611317635, 0.016458766534924507, -61.230987548828125, -0.00591222383081913, 0.011788786388933659, -2.720982074737549, -0.7655900120735168, -1.0204330682754517, 0.054167233407497406, -1.7311504574929841, 1.7003426454431292, 179.65798408074906, 9362.0, 30146.0, 35388.0, 9362.0, 8.152067184448242, -0.21278563141822815, 0.4078432321548462, -0.017813783138990402, -0.10150105506181717, -0.03419427201151848, 0.9936110973358154, -0.09774190932512283, -0.03959846496582031, 1.49267578125, 1.282470703125, 0.0786590576171875, 1.48974609375
46620, 2.441101312637329, -1.5852762460708618, -3.8105058670043945, -0.009011310525238514, 0.016555026173591614, -61.258201599121094, -0.003507200861349702, 0.007463079411536455, -2.721653461456299, -0.7655996680259705, -1.020455241203308, 0.05416542664170265, -1.7314529497602196, 1.6916385870393356, 179.6575754116587, 9362.0, 30146.0, 35388.0, 9362.0, 8.152067184448242, 0.0664023756980896, 0.35246741771698, 0.20225279033184052, -0.10273674130439758, -0.031225934624671936, 0.9945496320724487, -0.09774190932512283, -0.03959846496582031, 1.49267578125, 1.505126953125, 0.205902099609375, 1.49560546875
46630, 2.441555976867676, -1.587668776512146, -3.808986186981201, -0.00903436541557312, 0.01660805568099022, -61.285423278808594, -0.0011036185314878821, 0.003142863279208541, -2.7224183082580566, -0.7656040787696838, -1.0204432010650635, 0.05417359992861748, -1.7291587004942206, 1.717381565647969, 179.6500445919046, 9362.0, 30146.0, 35388.0, 9362.0, 8.152067184448242, 0.09619342535734177, -0.08712944388389587, 0.3413960337638855, -0.10289577394723892, -0.032346684485673904, 0.9943389892578125, -0.09774190932512283, -0.03959846496582031, 1.49267578125, 1.5439453125, 0.2884979248046875, 1.49560546875
46640, 2.441901445388794, -1.5865026712417603, -3.807987689971924, -0.00903332605957985, 0.016617851331830025, -61.31264877319336, 0.0013115213951095939, -0.001183483749628067, -2.7230584621429443, -0.7655889987945557, -1.0204434394836426, 0.054193731397390366, -1.7285931086915203, 1.6941149229621715, 179.6499585123026, 9362.0, 30146.0, 35388.0, 9362.0, 8.152067184448242, 0.2558165192604065, -0.06779467314481735, -0.26879817247390747, -0.1026003360748291, -0.03372359648346901, 0.996809184551239, -0.09774190932512283, -0.03959846496582031, 1.49267578125, 1.559326171875, 0.32293701171875, 1.494140625
46650, 2.441983222961426, -1.5839177370071411, -3.8099758625030518, -0.009008108638226986, 0.01658436842262745, -61.339881896972656, 0.0037320712581276894, -0.0055131916888058186, -2.723647117614746, -0.7655871510505676, -1.0204468965530396, 0.054174263030290604, -1.7252723613842595, 1.705762430285489, 179.65545882856028, 9362.0, 30146.0, 35388.0, 9362.0, 8.152067184448242, -0.0037088152021169662, -0.05843840911984444, -0.21085019409656525, -0.10186567902565002, -0.03465520963072777, 0.9958277344703674, -0.09774190932512283, -0.03959846496582031, 1.49267578125, 1.55419921875, 0.311279296875, 1.494140625
46660, 2.4421370029449463, -1.5816742181777954, -3.809941291809082, -0.008958684280514717, 0.01650756597518921, -61.367122650146484, 0.006152710877358913, -0.009847471490502357, -2.724144220352173, -0.7655776739120483, -1.0204341411590576, 0.05416873097419739, -1.7288947849861338, 1.7135173419156615, 179.66541651426098, 9362.0, 30146.0, 35388.0, 9362.0, 8.152067184448242, -0.1350034773349762, -0.21081414818763733, -0.10993494838476181, -0.10302238166332245, -0.03556220233440399, 0.9931431412696838, -0.09774190932512283, -0.03959846496582031, 1.49267578125, 1.59521484375, 0.4058380126953125, 1.494873046875
46670, 2.4421582221984863, -1.5816866159439087, -3.810166120529175, -0.008885095827281475, 0.01638745702803135, -61.39436721801758, 0.008564998395740986, -0.01417450699955225, -2.7248010635375977, -0.7655739784240723, -1.020449161529541, 0.05420965701341629, -1.7354333826964965, 1.7061442856097813, 179.6519149604323, 9362.0, 30146.0, 35388.0, 9362.0, 8.152067184448242, 0.08508512377738953, 0.2367960512638092, 0.37964338064193726, -0.1023876741528511, -0.035146720707416534, 0.9952343106269836, -0.09774190932512283, -0.03959846496582031, 1.49267578125, 1.610595703125, 0.442352294921875, 1.494873046875
46680, 2.441828966140747, -1.5815858840942383, -3.810406446456909, -0.008787407539784908, 0.016224084421992302, -61.4216194152832, 0.010972627438604832, -0.018500128760933876, -2.7254903316497803, -0.7655943036079407, -1.0204453468322754, 0.05417013168334961, -1.7262033987129715, 1.6992914962742418, 179.6562886275799, 9362.0, 30146.0, 35388.0, 9362.0, 8.152067184448242, -0.18809664249420166, 0.13318292796611786, -0.10113629698753357, -0.10237187147140503, -0.03451644256711006, 0.9943544864654541, -0.08258666098117828, -0.15607833862304688, 1.483154296875, 1.5029296875, 0.201446533203125, 1.49267578125
46690, 2.440876007080078, -1.5813744068145752, -3.809711456298828, -0.008665635250508785, 0.01601744070649147, -61.44887924194336, 0.013381868600845337, -0.022828668355941772, -2.726114511489868, -0.7655973434448242, -1.020446538925171, 0.054171450436115265, -1.7273935096195019, 1.7025831722528437, 179.64958066833435, 9362.0, 30146.0, 35388.0, 9362.0, 8.152067184448242, -0.1955885887145996, -0.1880972683429718, 0.038569606840610504, -0.10266456753015518, -0.03344051539897919, 0.9927354454994202, -0.08258666098117828, -0.15607833862304688, 1.483154296875, 1.59521484375, 0.4058380126953125, 1.49267578125
46700, 2.4406802654266357, -1.5790588855743408, -3.8102822303771973, -0.008519785478711128, 0.015767540782690048, -61.47614288330078, 0.015788061544299126, -0.027151303365826607, -2.726857900619507, -0.7655816078186035, -1.0204522609710693, 0.05418824031949043, -1.729642718029617, 1.7006900317179827, 179.65424294839187, 9362.0, 30146.0, 35388.0, 9362.0, 8.152067184448242, 0.14295320212841034, -0.027445565909147263, 0.26222217082977295, -0.102751724421978, -0.030670298263430595, 0.9923264384269714, -0.08258666098117828, -0.15607833862304688, 1.483154296875, 1.3681640625, 0.0185394287109375, 1.48828125
46710, 2.4415271282196045, -1.5797581672668457, -3.810143232345581, -0.00834988709539175, 0.015474444255232811, -61.503414154052734, 0.018191637471318245, -0.031468071043491364, -2.7276973724365234, -0.7655990719795227, -1.0204530954360962, 0.05420193448662758, -1.7265502427181925, 1.699291027396356, 179.6434462128949, 9362.0, 30146.0, 35388.0, 9362.0, 8.152067184448242, 0.30184751749038696, 0.04246748611330986, -0.14755724370479584, -0.10449446737766266, -0.03156459331512451, 0.9932571649551392, -0.08258666098117828, -0.15607833862304688, 1.483154296875, 1.58935546875, 0.3920440673828125, 1.48828125
46720, 2.442225217819214, -1.5767971277236938, -3.8103885650634766, -0.008155975490808487, 0.015138187445700169, -61.530696868896484, 0.02059071883559227, -0.035783227533102036, -2.728559732437134, -0.7655860781669617, -1.020444631576538, 0.054168861359357834, -1.7199243170998373, 1.7079716024014715, 179.64991586488455, 9362.0, 30146.0, 35388.0, 9362.0, 8.152067184448242, 0.30326297879219055, -0.08870268613100052, -0.25455281138420105, -0.10285655409097672, -0.031108513474464417, 0.9949502348899841, -0.08258666098117828, -0.15607833862304688, 1.483154296875, 1.59521484375, 0.4058380126953125, 1.493408203125
46730, 2.4428319931030273, -1.5766335725784302, -3.8106746673583984, -0.007938049733638763, 0.014758739620447159, -61.557987213134766, 0.02299449034035206, -0.04010631889104843, -2.729276180267334, -0.7655839920043945, -1.020452857017517, 0.05416911095380783, -1.7288114770449472, 1.701584081573543, 179.65719375511492, 9362.0, 30146.0, 35388.0, 9362.0, 8.152067184448242, 0.017461400479078293, -0.15362751483917236, -0.0625692680478096, -0.10302867740392685, -0.031160801649093628, 0.9947938323020935, -0.08258666098117828, -0.15607833862304688, 1.483154296875, 1.57470703125, 0.3579864501953125, 1.493408203125
46740, 2.4438815116882324, -1.5772478580474854, -3.809645891189575, -0.007696102373301983, 0.014336040243506432, -61.58528137207031, 0.025394916534423828, -0.04443357139825821, -2.72991943359375, -0.7655779123306274, -1.020447015762329, 0.05419700965285301, -1.7249955664333347, 1.710786005948222, 179.66145233193348, 9362.0, 30146.0, 35388.0, 9362.0, 8.152067184448242, 0.02107790857553482, -0.019211025908589363, 0.11409664899110794, -0.10312508791685104, -0.03273319453001022, 0.9934161305427551, -0.08258666098117828, -0.15607833862304688, 1.483154296875, 1.455322265625, 0.1134796142578125, 1.493408203125
46750, 2.443166494369507, -1.578774333000183, -3.8111257553100586, -0.0074301594868302345, 0.013870075345039368, -61.61258316040039, 0.027793748304247856, -0.048759449273347855, -2.730616331100464, -0.7655969262123108, -1.020437240600586, 0.05419524759054184, -1.7355329891636289, 1.6964825625468336, 179.65727105279828, 9362.0, 30146.0, 35388.0, 9362.0, 8.152067184448242, -0.15786321461200714, 0.2645152509212494, 0.015762189403176308, -0.10206727683544159, -0.03198752924799919, 0.9929969310760498, -0.08258666098117828, -0.15607833862304688, 1.483154296875, 1.6376953125, 0.5082244873046875, 1.493408203125
46760, 2.4421043395996094, -1.5809322595596313, -3.8097453117370605, -0.007140232250094414, 0.013360857963562012, -61.639892578125, 0.03019159659743309, -0.05308397114276886, -2.731386184692383, -0.7655821442604065, -1.0204535722732544, 0.054188210517168045, -1.7328008454609878, 1.6980424695542524, 179.65904334647527, 9362.0, 30146.0, 35388.0, 9362.0, 8.152067184448242, 0.25105029344558716, 0.4973319172859192, 0.09337674081325531, -0.09864659607410431, -0.033376265317201614, 0.9939494729042053, -0.08258666098117828, -0.15607833862304688, 1.483154296875, 1.5673828125, 0.3411102294921875, 1.48828125
46770, 2.442099094390869, -1.5830098390579224, -3.8101282119750977, -0.006826318800449371, 0.012808410450816154, -61.66720962524414, 0.03259114921092987, -0.0574055016040802, -2.7321982383728027, -0.7656063437461853, -1.0204365253448486, 0.05420217663049698, -1.731194330558645, 1.7026399640745922, 179.66323238591895, 9362.0, 30146.0, 35388.0, 9362.0, 8.152067184448242, 0.025594796985387802, -0.33443403244018555, -0.2734891474246979, -0.10039260238409042, -0.033658672124147415, 0.9947205185890198, -0.08258666098117828, -0.15607833862304688, 1.483154296875, 1.58935546875, 0.3920440673828125, 1.48828125
46780, 2.4417452812194824, -1.5838836431503296, -3.812234401702881, -0.006488374900072813, 0.012212727218866348, -61.69453430175781, 0.03499760851264, -0.061731163412332535, -2.7328834533691406, -0.765587329864502, -1.0204384326934814, 0.05417846515774727, -1.7228368124798987, 1.7088857198738197, 179.66076015730172, 9362.0, 30146.0, 35388.0, 9362.0, 8.152067184448242, 0.002489454112946987, 0.041305769234895706, -0.16652807593345642, -0.10343511402606964, -0.0316176600754261, 0.9951597452163696, -0.08541151136159897, -0.08439826965332031, 1.489013671875, 1.552734375, 0.3080596923828125, 1.4853515625
46790, 2.442699909210205, -1.5867332220077515, -3.8118720054626465, -0.006126334425061941, 0.011573759838938713, -61.721866607666016, 0.03741033002734184, -0.0660623088479042, -2.7334518432617188, -0.7655969858169556, -1.0204442739486694, 0.054193101823329926, -1.7324285515604494, 1.7038647091841312, 179.65690521817908, 9362.0, 30146.0, 35388.0, 9362.0, 8.152067184448242, -0.1950988620519638, 0.1779496967792511, 0.2865722179412842, -0.10203356295824051, -0.03285622224211693, 0.9951168298721313, -0.08541151136159897, -0.08439826965332031, 1.489013671875, 1.518310546875, 0.2331390380859375, 1.4853515625
46800, 2.4423298835754395, -1.5885502099990845, -3.81256103515625, -0.005740161053836346, 0.010891485959291458, -61.749202728271484, 0.03982429578900337, -0.0703924372792244, -2.7340309619903564, -0.7656108140945435, -1.0204510688781738, 0.05419599264860153, -1.7229927806646796, 1.6963631601109057, 179.65166155340964, 9362.0, 30146.0, 35388.0, 9362.0, 8.152067184448242, 0.024491652846336365, -0.29913565516471863, -0.4942916929721832, -0.10231693089008331, -0.03152776136994362, 0.9951077699661255, -0.08541151136159897, -0.08439826965332031, 1.489013671875, 1.598876953125, 0.414520263671875, 1.493408203125
46810, 2.4439029693603516, -1.5874961614608765, -3.8150722980499268, -0.005329826846718788, 0.010165905579924583, -61.776546478271484, 0.042242515832185745, -0.0747237503528595, -2.7346291542053223, -0.765590488910675, -1.020434021949768, 0.05417943000793457, -1.7363824464935216, 1.700217726672605, 179.6592676976531, 9362.0, 30146.0, 35388.0, 9362.0, 8.152067184448242, 0.07611030340194702, 0.058994635939598083, -0.06843357533216476, -0.10605169087648392, -0.03259044140577316, 0.9933627247810364, -0.08541151136159897, -0.08439826965332031, 1.489013671875, 1.37109375, 0.0197906494140625, 1.493408203125
46820, 2.4436044692993164, -1.5886231660842896, -3.814183235168457, -0.004895298276096582, 0.009397019632160664, -61.80389404296875, 0.04466300830245018, -0.07905349135398865, -2.735255718231201, -0.7656059861183167, -1.0204359292984009, 0.05421009287238121, -1.728534572463305, 1.702995720033897, 179.64827183349755, 9362.0, 30146.0, 35388.0, 9362.0, 8.152067184448242, -0.15925279259681702, -0.21052435040473938, -0.18329110741615295, -0.1017274260520935, -0.03186721354722977, 0.9951472878456116, -0.08541151136159897, -0.08439826965332031, 1.489013671875, 1.623779296875, 0.4742889404296875, 1.494140625
46830, 2.4442617893218994, -1.590394377708435, -3.813534736633301, -0.00443659070879221, 0.00858485046774149, -61.83124923706055, 0.04707851633429527, -0.0833803191781044, -2.736003875732422, -0.7656001448631287, -1.0204493999481201, 0.05418786406517029, -1.723596692034389, 1.6969075927650294, 179.66722775360324, 9362.0, 30146.0, 35388.0, 9362.0, 8.152067184448242, -0.10627897083759308, 0.26147469878196716, 0.2021869421005249, -0.09868855774402618, -0.03393889591097832, 0.9967483282089233, -0.08541151136159897, -0.08439826965332031, 1.489013671875, 1.5791015625, 0.368133544921875, 1.494140625
46840, 2.4422426223754883, -1.5900856256484985, -3.8124492168426514, -0.003953692968934774, 0.007729369681328535, -61.858612060546875, 0.04950105771422386, -0.08771571516990662, -2.7365493774414062, -0.7655860781669617, -1.0204415321350098, 0.054170552641153336, -1.729789806242094, 1.714200768718797, 179.65490689785037, 9362.0, 30146.0, 35388.0, 9362.0, 8.152067184448242, -0.15871372818946838, -0.4229104220867157, -0.0677841454744339, -0.09967857599258423, -0.0337943397462368, 0.9954207539558411, -0.08541151136159897, -0.08439826965332031, 1.489013671875, 1.575439453125, 0.3596649169921875, 1.4912109375
46850, 2.443068742752075, -1.589502215385437, -3.8150882720947266, -0.0034465494100004435, 0.006830519065260887, -61.88597869873047, 0.05192776396870613, -0.09205438941717148, -2.7370505332946777, -0.7655922770500183, -1.0204358100891113, 0.05421539396047592, -1.7286962495979021, 1.6978335256706316, 179.65065826146653, 9362.0, 30146.0, 35388.0, 9362.0, 8.152067184448242, 0.07703787088394165, -0.04723735526204109, -0.08823572844266891, -0.10382398217916489, -0.0333334356546402, 0.9946603178977966, -0.08541151136159897, -0.08439826965332031, 1.489013671875, 1.560791015625, 0.3262176513671875, 1.4912109375
46860, 2.442864418029785, -1.5896986722946167, -3.8135428428649902, -0.0029151551425457, 0.005888326559215784, -61.913352966308594, 0.05435089021921158, -0.09638418257236481, -2.737675666809082, -0.7655868530273438, -1.0204508304595947, 0.05420193821191788, -1.72935185388461, 1.7113260687977743, 179.64966037974517, 9362.0, 30146.0, 35388.0, 9362.0, 8.152067184448242, 0.012294311076402664, -0.13396063446998596, 0.030817843973636627, -0.10275434702634811, -0.03361082822084427, 0.9960241317749023, -0.08541151136159897, -0.08439826965332031, 1.489013671875, 1.5966796875, 0.409210205078125, 1.48974609375
46870, 2.4422454833984375, -1.5882443189620972, -3.8140132427215576, -0.0023595336824655533, 0.004902824759483337, -61.940731048583984, 0.056773535907268524, -0.10071615129709244, -2.738280773162842, -0.7655808925628662, -1.0204286575317383, 0.054204944521188736, -1.7281660818900197, 1.7112797496811538, 179.64852915726695, 9362.0, 30146.0, 35388.0, 9362.0, 8.152067184448242, -0.02178993634879589, -0.1806325763463974, -0.27559828758239746, -0.10042008757591248, -0.03166363760828972, 0.9977852702140808, -0.08541151136159897, -0.08439826965332031, 1.489013671875, 1.3154296875, 0.03118896484375, 1.48974609375
46880, 2.4415669441223145, -1.5874766111373901, -3.8143386840820312, -0.001779660815373063, 0.0038739650044590235, -61.968116760253906, 0.05920100584626198, -0.10505589097738266, -2.7387049198150635, -0.765602707862854, -1.020455002784729, 0.05418067425489426, -1.7240518530804416, 1.7053824449759247, 179.6434860976551, 9362.0, 30146.0, 35388.0, 9362.0, 8.152067184448242, -0.41193121671676636, -0.005887631326913834, 0.015633217990398407, -0.10423777252435684, -0.03276276960968971, 0.9967021346092224, -0.10670623928308487, -0.03959846496582031, 1.49267578125, 1.387939453125, 0.0297393798828125, 1.493408203125
46890, 2.441220998764038, -1.5858091115951538, -3.816077709197998, -0.0011755120940506458, 0.002801689552143216, -61.995506286621094, 0.06162872910499573, -0.1093992069363594, -2.7390198707580566, -0.7655978202819824, -1.0204545259475708, 0.054196588695049286, -1.7310529640163876, 1.7101116089553443, 179.64421564636504, 9362.0, 30146.0, 35388.0, 9362.0, 8.152067184448242, -0.05106246471405029, -0.19867756962776184, -0.18645219504833221, -0.10398908704519272, -0.031900711357593536, 0.9941343069076538, -0.10670623928308487, -0.03959846496582031, 1.49267578125, 1.543212890625, 0.286834716796875, 1.493408203125
46900, 2.4403722286224365, -1.5836595296859741, -3.817596912384033, -0.0005471208714880049, 0.0016860382165759802, -62.02289962768555, 0.06404942274093628, -0.11373117566108704, -2.739565372467041, -0.7656010389328003, -1.0204447507858276, 0.05420028045773506, -1.7375168719350889, 1.7112021905471693, 179.65498840712772, 9362.0, 30146.0, 35388.0, 9362.0, 8.152067184448242, -0.17131133377552032, -0.24005497992038727, -0.2540704309940338, -0.10212340205907822, -0.031250908970832825, 0.9947097897529602, -0.10670623928308487, -0.03959846496582031, 1.49267578125, 1.494873046875, 0.185455322265625, 1.491943359375
46910, 2.4404296875, -1.5823487043380737, -3.818186044692993, -0.0005471208714880049, 0.0016860382165759802, -62.02289962768555, 0.06404942274093628, -0.11373117566108704, -2.739565372467041, -0.7655981779098511, -1.0204453468322754, 0.0541861429810524, -1.7248088413453275, 1.7044982886692708, 179.64791612216553, 9362.0, 30146.0, 35388.0, 9362.0, 8.152067184448242, 0.25732704997062683, -0.1647711992263794, 0.0010907900286838412, -0.10212340205907822, -0.031250908970832825, 0.9947097897529602, -0.10670623928308487, -0.03959846496582031, 1.49267578125, 1.59228515625, 0.3989715576171875, 1.491943359375
46920, 2.4413177967071533, -1.5820281505584717, -3.818995475769043, -0.0005471208714880049, 0.0016860382165759802, -62.02289962768555, 0.06404942274093628, -0.11373117566108704, -2.739565372467041, -0.7655960321426392, -1.0204530954360962, 0.054159604012966156, -1.7255760795682535, 1.7129281130543461, 179.64929741130226, 9362.0, 30146.0, 35388.0, 9362.0, 8.152067184448242, -0.03548556566238403, -0.5986467599868774, -0.05344314128160477, -0.10212340205907822, -0.031250908970832825, 0.9947097897529602, -0.10670623928308487, -0.03959846496582031, 1.49267578125, 1.544677734375, 0.2900543212890625, 1.48974609375
46930, 2.4415364265441895, -1.5797739028930664, -3.8213257789611816, -0.0005471208714880049, 0.0016860382165759802, -62.02289962768555, 0.06404942274093628, -0.11373117566108704, -2.739565372467041, -0.7656059265136719, -1.0204493999481201, 0.054190147668123245, -1.7236518442369575, 1.7029418797426388, 179.6501915738549, 9362.0, 30146.0, 35388.0, 9362.0, 8.152067184448242, 0.09890086948871613, 0.16799396276474, -0.36051589250564575, -0.10331990569829941, -0.033658433705568314, 0.9950091242790222, -0.10670623928308487, -0.03959846496582031, 1.49267578125, 1.4677734375, 0.1347198486328125, 1.48974609375
46940, 2.44084095954895, -1.5808930397033691, -3.8210158348083496, -0.0005471208714880049, 0.0016860382165759802, -62.02289962768555, 0.06404942274093628, -0.11373117566108704, -2.739565372467041, -0.7656031847000122, -1.0204527378082275, 0.054173894226551056, -1.725787659332023, 1.698004389018422, 179.65175141028536, 9362.0, 30146.0, 35388.0, 9362.0, 8.152067184448242, -0.2609977424144745, -0.1065722107887268, 0.0005364149692468345, -0.10331990569829941, -0.033658433705568314, 0.9950091242790222, -0.10670623928308487, -0.03959846496582031, 1.49267578125, 1.587890625, 0.38861083984375, 1.48974609375
46950, 2.4402050971984863, -1.5791656970977783, -3.8205268383026123, 0.0029565836302936077, -0.004540813155472279, -62.15996170043945, 0.07608944177627563, -0.13534432649612427, -2.7431819438934326, -0.7656083703041077, -1.020464301109314, 0.05416405200958252, -1.7341886728038032, 1.7064309084670128, 179.65326942394339, 9362.0, 30146.0, 35388.0, 9362.0, 8.152067184448242, 0.12474903464317322, 0.035955723375082016, 0.06449883431196213, -0.10190222412347794, -0.033486898988485336, 0.9946892261505127, -0.10670623928308487, -0.03959846496582031, 1.49267578125, 1.3447265625, 0.0158538818359375, 1.48974609375
46960, 2.4400577545166016, -1.5799567699432373, -3.8210184574127197, 0.0029565836302936077, -0.004540813155472279, -62.15996170043945, 0.07608944177627563, -0.13534432649612427, -2.7431819438934326, -0.7656083106994629, -1.0204386711120605, 0.05417187139391899, -1.7254097117071285, 1.7076988789608265, 179.64545669374735, 9362.0, 30146.0, 35388.0, 9362.0, 8.152067184448242, -0.2016264796257019, -0.026844266802072525, -0.08989014476537704, -0.10190222412347794, -0.033486898988485336, 0.9946892261505127, -0.10670623928308487, -0.03959846496582031, 1.49267578125, 1.60107421875, 0.4197540283203125, 1.493408203125
46990, 2.4413437843322754, -1.5795964002609253, -3.8236095905303955, 0.0029565836302936077, -0.004540813155472279, -62.15996170043945, 0.07608944177627563, -0.13534432649612427, -2.7431819438934326, -0.765602707862854, -1.0204378366470337, 0.05415104702115059, -1.7233938144389311, 1.7137423376419179, 179.65168986438528, 9362.0, 30146.0, 35388.0, 9362.0, 8.152067184448242, 0.4089621603488922, 0.2518389821052551, 0.028733260929584503, -0.10281525552272797, -0.03394967317581177, 0.9943017363548279, -0.10322479903697968, -0.32631683349609375, 1.46923828125, 1.563720703125, 0.3327789306640625, 1.493408203125
47010, 2.4410722255706787, -1.5800243616104126, -3.823997735977173, 0.0029565836302936077, -0.004540813155472279, -62.15996170043945, 0.07608944177627563, -0.13534432649612427, -2.7431819438934326, -0.765600860118866, -1.020455241203308, 0.054176971316337585, -1.7271180218176887, 1.704241981369023, 179.65411147577112, 9362.0, 30146.0, 35388.0, 9362.0, 8.152067184448242, -0.22781726717948914, -0.07908254861831665, -0.015836019068956375, -0.10345969349145889, -0.03258319944143295, 0.9964353442192078, -0.10322479903697968, -0.32631683349609375, 1.46923828125, 1.563720703125, 0.3327789306640625, 1.493408203125
47030, 2.4401800632476807, -1.5789498090744019, -3.8259899616241455, 0.009813357144594193, -0.01675194501876831, -62.3796272277832, 0.0953296646475792, -0.16993659734725952, -2.748541831970215, -0.7655971050262451, -1.0204384326934814, 0.054161857813596725, -1.7250291857909061, 1.705636188845915, 179.65754431091358, 9362.0, 30146.0, 35388.0, 9362.0, 8.152067184448242, 0.15845976769924164, -0.033980317413806915, -0.2239365130662918, -0.10118976980447769, -0.033669549971818924, 0.9943821430206299, -0.10322479903697968, -0.32631683349609375, 1.46923828125, 1.4912109375, 0.178253173828125, 1.5
47060, 2.4408068656921387, -1.579280972480774, -3.8280506134033203, 0.012781444005668163, -0.02204461395740509, -62.46211242675781, 0.10254301130771637, -0.1829110085964203, -2.7504451274871826, -0.7655909657478333, -1.0204496383666992, 0.05416553094983101, -1.7324112487681769, 1.702873264866355, 179.66000844494224, 9362.0, 30146.0, 35388.0, 9362.0, 8.152067184448242, -0.08576676994562149, 0.442862868309021, 0.38570842146873474, -0.1026749536395073, -0.033849772065877914, 0.9925817847251892, -0.10322479903697968, -0.32631683349609375, 1.46923828125, 1.5, 0.19561767578125, 1.494140625
47080, 2.439251184463501, -1.5830318927764893, -3.8281538486480713, 0.012781444005668163, -0.02204461395740509, -62.46211242675781, 0.10254301130771637, -0.1829110085964203, -2.7504451274871826, -0.7656094431877136, -1.0204483270645142, 0.05417625233530998, -1.7357525456955352, 1.699058571660231, 179.6591692591333, 9362.0, 30146.0, 35388.0, 9362.0, 8.152067184448242, 0.007392692845314741, 0.2301080971956253, 0.1758580058813095, -0.10168047994375229, -0.03374961391091347, 0.9950945973396301, -0.09686876833438873, -0.3352775573730469, 1.468505859375, 1.351318359375, 0.0153350830078125, 1.494140625
47110, 2.439830780029297, -1.5846573114395142, -3.830559492111206, 0.01820920966565609, -0.03173060715198517, -62.59971618652344, 0.11458799988031387, -0.20455029606819153, -2.7532901763916016, -0.7655748128890991, -1.0204435586929321, 0.05416445806622505, -1.7299466671283672, 1.7039701826180362, 179.6532737825696, 9362.0, 30146.0, 35388.0, 9362.0, 8.152067184448242, 0.013161102309823036, 0.07027531415224075, -0.10443828999996185, -0.1014334186911583, -0.03101174719631672, 0.9971892237663269, -0.09686876833438873, -0.3352775573730469, 1.468505859375, 1.349853515625, 0.015350341796875, 1.494140625
47140, 2.43916916847229, -1.5883991718292236, -3.829292058944702, 0.020549222826957703, -0.03590811416506767, -62.65479278564453, 0.1194104552268982, -0.21319541335105896, -2.754668712615967, -0.7655720114707947, -1.0204514265060425, 0.05416319519281387, -1.7277874924799532, 1.7211442091705749, 179.66167539030488, 9362.0, 30146.0, 35388.0, 9362.0, 8.152067184448242, 0.10574435442686081, 0.11577682942152023, 0.1664838194847107, -0.10307970643043518, -0.03474816307425499, 0.9941288828849792, -0.09686876833438873, -0.3352775573730469, 1.468505859375, 1.31982421875, 0.0273590087890625, 1.493408203125
47160, 2.439474582672119, -1.5882370471954346, -3.825639009475708, 0.020549222826957703, -0.03590811416506767, -62.65479278564453, 0.1194104552268982, -0.21319541335105896, -2.754668712615967, -0.7655985355377197, -1.0204452276229858, 0.05415426567196846, -1.7285074924545274, 1.7076986110967027, 179.667482942922, 9362.0, 30146.0, 35388.0, 9362.0, 8.152067184448242, 0.09634365141391754, 0.2526024878025055, -0.026877716183662415, -0.10102174431085587, -0.03369291126728058, 0.9933351278305054, -0.09686876833438873, -0.3352775573730469, 1.468505859375, 1.564453125, 0.3344879150390625, 1.493408203125
47190, 2.4387803077697754, -1.5909358263015747, -3.826388359069824, 0.028149191290140152, -0.04947846010327339, -62.8201789855957, 0.13392679393291473, -0.23914359509944916, -2.758521795272827, -0.765587568283081, -1.0204343795776367, 0.05413925647735596, -1.728219287491959, 1.7039042935618625, 179.65143764432725, 9362.0, 30146.0, 35388.0, 9362.0, 8.152067184448242, -0.13002659380435944, -0.1239670068025589, -0.08548222482204437, -0.10200825333595276, -0.03618037328124046, 0.9937872886657715, -0.1026984229683876, -0.27255821228027344, 1.4736328125, 1.55712890625, 0.31793212890625, 1.49560546875
47210, 2.4390640258789062, -1.5917543172836304, -3.827798843383789, 0.02950059249997139, -0.0518915168941021, -62.8477668762207, 0.13635338842868805, -0.24346762895584106, -2.759169340133667, -0.765598714351654, -1.020432949066162, 0.05416638031601906, -1.7286147557044766, 1.7133066878489558, 179.6637907839082, 9362.0, 30146.0, 35388.0, 9362.0, 8.152067184448242, 0.03025176003575325, 0.6439679265022278, 0.025376373901963234, -0.10220737010240555, -0.032067351043224335, 0.995124101638794, -0.1026984229683876, -0.27255821228027344, 1.4736328125, 1.247314453125, 0.172119140625, 1.49560546875
47240, 2.4404642581939697, -1.5935864448547363, -3.8284287452697754, 0.033700283616781235, -0.05939019098877907, -62.93056869506836, 0.1436295360326767, -0.25644898414611816, -2.760890007019043, -0.7656002044677734, -1.0204617977142334, 0.0541519895195961, -1.72285265361559, 1.7115094915986901, 179.6541876161474, 9362.0, 30146.0, 35388.0, 9362.0, 8.152067184448242, -0.10458669811487198, 0.2207648903131485, 0.216632679104805, -0.10303116589784622, -0.03370155394077301, 0.9944708943367004, -0.1026984229683876, -0.27255821228027344, 1.4736328125, 1.55126953125, 0.304718017578125, 1.491943359375
47250, 2.4412307739257812, -1.5939351320266724, -3.8274683952331543, 0.033700283616781235, -0.05939019098877907, -62.93056869506836, 0.1436295360326767, -0.25644898414611816, -2.760890007019043, -0.7655894756317139, -1.0204530954360962, 0.05416814237833023, -1.7209933708104639, 1.722099974067504, 179.64854270036298, 9362.0, 30146.0, 35388.0, 9362.0, 8.152067184448242, 0.1376151740550995, 0.037298645824193954, -0.04907046630978584, -0.10113983601331711, -0.034782323986291885, 0.9958932995796204, -0.1026984229683876, -0.27255821228027344, 1.4736328125, 1.3564453125, 0.0156707763671875, 1.491943359375
47260, 2.4401376247406006, -1.593033790588379, -3.8268473148345947, 0.03811836987733841, -0.06727833300828934, -63.013423919677734, 0.15091058611869812, -0.2694265842437744, -2.762895107269287, -0.7655959725379944, -1.0204473733901978, 0.054123006761074066, -1.726892793394433, 1.7117554010423532, 179.64376030569989, 9362.0, 30146.0, 35388.0, 9362.0, 8.152067184448242, -0.2021254599094391, -0.15297405421733856, 0.27434396743774414, -0.10113983601331711, -0.034782323986291885, 0.9958932995796204, -0.1026984229683876, -0.27255821228027344, 1.4736328125, 1.4794921875, 0.155975341796875, 1.49560546875
47280, 2.438793659210205, -1.5959789752960205, -3.8225295543670654, 0.03811836987733841, -0.06727833300828934, -63.013423919677734, 0.15091058611869812, -0.2694265842437744, -2.762895107269287, -0.765596866607666, -1.0204501152038574, 0.054164737462997437, -1.7283261579041247, 1.708969924461627, 179.64405095683762, 9362.0, 30146.0, 35388.0, 9362.0, 8.152067184448242, 0.01730412058532238, 0.11394188553094864, 0.04612244665622711, -0.10273150354623795, -0.034568607807159424, 0.9942341446876526, -0.10026269406080246, -0.021678924560546875, 1.494140625, 1.447998046875, 0.1016693115234375, 1.49560546875
47290, 2.4380383491516113, -1.59536874294281, -3.8241922855377197, 0.03811836987733841, -0.06727833300828934, -63.013423919677734, 0.15091058611869812, -0.2694265842437744, -2.762895107269287, -0.7656054496765137, -1.0204514265060425, 0.05418206751346588, -1.7247731847368228, 1.6988460719113618, 179.64588389639053, 9362.0, 30146.0, 35388.0, 9362.0, 8.152067184448242, 0.2278835028409958, -0.01565726101398468, -0.20954681932926178, -0.10325084626674652, -0.03426285833120346, 0.9963791966438293, -0.10026269406080246, -0.021678924560546875, 1.494140625, 1.5439453125, 0.2884979248046875, 1.49560546875
47310, 2.439840316772461, -1.5948712825775146, -3.8279848098754883, 0.045967862010002136, -0.0812910869717598, -63.151634216308594, 0.16307008266448975, -0.29107293486595154, -2.7656500339508057, -0.7655866146087646, -1.020449161529541, 0.054139118641614914, -1.7223688981361167, 1.7132344075682795, 179.65102459778876, 9362.0, 30146.0, 35388.0, 9362.0, 8.152067184448242, 0.042206261307001114, -0.24884144961833954, -0.03544069826602936, -0.10351505875587463, -0.032963596284389496, 0.9930012226104736, -0.10026269406080246, -0.021678924560546875, 1.494140625, 1.5439453125, 0.2884979248046875, 1.49560546875
47320, 2.438685894012451, -1.5943095684051514, -3.827089786529541, 0.045967862010002136, -0.0812910869717598, -63.151634216308594, 0.16307008266448975, -0.29107293486595154, -2.7656500339508057, -0.7655990719795227, -1.0204349756240845, 0.05417780205607414, -1.7202398189672161, 1.7035793761648677, 179.65692619469604, 9362.0, 30146.0, 35388.0, 9362.0, 8.152067184448242, 0.2520887851715088, 0.4338240623474121, -0.06689993292093277, -0.10238315165042877, -0.03412751853466034, 0.9928556084632874, -0.10026269406080246, -0.021678924560546875, 1.494140625, 1.472900390625, 0.1439361572265625, 1.49560546875
47330, 2.4394710063934326, -1.5975369215011597, -3.8301615715026855, 0.04927780479192734, -0.087198905646801, -63.20696258544922, 0.1679232269525528, -0.29970890283584595, -2.7672688961029053, -0.7655951976776123, -1.0204530954360962, 0.054171741008758545, -1.7212669340730815, 1.705981591667097, 179.64413285670764, 9362.0, 30146.0, 35388.0, 9362.0, 8.152067184448242, -0.041775014251470566, 0.2509255111217499, -0.030884254723787308, -0.10328591614961624, -0.034568075090646744, 0.9939783215522766, -0.10026269406080246, -0.021678924560546875, 1.494140625, 1.472900390625, 0.1439361572265625, 1.49560546875
47350, 2.439995765686035, -1.6008872985839844, -3.831498146057129, 0.05268483608961105, -0.09327949583530426, -63.26232147216797, 0.17278419435024261, -0.3083542585372925, -2.7686574459075928, -0.7656034827232361, -1.0204399824142456, 0.05416512489318848, -1.717712168757682, 1.7065694457194525, 179.6444573836674, 9362.0, 30146.0, 35388.0, 9362.0, 8.152067184448242, 0.07922259718179703, 0.012091930955648422, -0.019899379462003708, -0.10328591614961624, -0.034568075090646744, 0.9939783215522766, -0.10026269406080246, -0.021678924560546875, 1.494140625, 1.544677734375, 0.2900543212890625, 1.49853515625
47360, 2.4394371509552, -1.5988023281097412, -3.833113431930542, 0.05268483608961105, -0.09327949583530426, -63.26232147216797, 0.17278419435024261, -0.3083542585372925, -2.7686574459075928, -0.7655959129333496, -1.0204322338104248, 0.054167117923498154, -1.713273284345011, 1.7087340960077881, 179.6529749833179, 9362.0, 30146.0, 35388.0, 9362.0, 8.152067184448242, -0.01984833925962448, -0.05511075630784035, -0.1716245412826538, -0.10328591614961624, -0.034568075090646744, 0.9939783215522766, -0.10026269406080246, -0.021678924560546875, 1.494140625, 1.51025390625, 0.2164154052734375, 1.5
47370, 2.4392898082733154, -1.601309895515442, -3.8344473838806152, 0.05268483608961105, -0.09327949583530426, -63.26232147216797, 0.17278419435024261, -0.3083542585372925, -2.7686574459075928, -0.7655978798866272, -1.020440697669983, 0.05417294800281525, -1.7160488664320872, 1.7164905841611642, 179.64548851408932, 9362.0, 30146.0, 35388.0, 9362.0, 8.152067184448242, -0.01984833925962448, -0.05511075630784035, -0.1716245412826538, -0.10239434987306595, -0.03337628394365311, 0.9956229329109192, -0.10026269406080246, -0.021678924560546875, 1.494140625, 1.51025390625, 0.2164154052734375, 1.5
47380, 2.4389848709106445, -1.5994356870651245, -3.836090564727783, 0.05268483608961105, -0.09327949583530426, -63.26232147216797, 0.17278419435024261, -0.3083542585372925, -2.7686574459075928, -0.7656048536300659, -1.0204375982284546, 0.05417449772357941, -1.7152461848011924, 1.6963626672680334, 179.64868051615497, 9362.0, 30146.0, 35388.0, 9362.0, 8.152067184448242, -0.1023123562335968, -0.12094864249229431, -0.09559490531682968, -0.10404808074235916, -0.03424143046140671, 0.9939990639686584, -0.10026269406080246, -0.021678924560546875, 1.494140625, 1.598876953125, 0.414520263671875, 1.5
47390, 2.4393486976623535, -1.5985950231552124, -3.837653398513794, 0.05268483608961105, -0.09327949583530426, -63.26232147216797, 0.17278419435024261, -0.3083542585372925, -2.7686574459075928, -0.7655953764915466, -1.0204249620437622, 0.05416429042816162, -1.7161487701007048, 1.705850588493206, 179.6535620405486, 9362.0, 30146.0, 35388.0, 9362.0, 8.152067184448242, -0.17776541411876678, 0.2544538080692291, -0.11383270472288132, -0.1046375036239624, -0.03204761818051338, 0.9957337975502014, -0.10026269406080246, -0.021678924560546875, 1.494140625, 1.5205078125, 0.237762451171875, 1.5
47410, 2.4384684562683105, -1.5982977151870728, -3.839498519897461, 0.06162915378808975, -0.1092386320233345, -63.40081787109375, 0.18498408794403076, -0.3300018608570099, -2.7714955806732178, -0.7655988335609436, -1.0204191207885742, 0.054160017520189285, -1.7092768719784162, 1.7036894665860132, 179.65934509697436, 9362.0, 30146.0, 35388.0, 9362.0, 8.152067184448242, 0.013463565148413181, -0.30545735359191895, -0.06892745196819305, -0.10331818461418152, -0.029186604544520378, 0.9939424991607666, -0.10026269406080246, -0.021678924560546875, 1.494140625, 1.61279296875, 0.4476470947265625, 1.493408203125
47430, 2.438199281692505, -1.6001325845718384, -3.8381857872009277, 0.06728827208280563, -0.11933337897062302, -63.48398971557617, 0.1922881156206131, -0.3429768979549408, -2.7734122276306152, -0.7656000852584839, -1.0204038619995117, 0.054171137511730194, -1.7017032758587247, 1.7154579816778437, 179.64807674521546, 9362.0, 30146.0, 35388.0, 9362.0, 8.152067184448242, 0.04471082612872124, -0.06899546831846237, -0.23241855204105377, -0.1029527485370636, -0.03502491116523743, 0.9942899346351624, -0.10026269406080246, -0.021678924560546875, 1.494140625, 1.447998046875, 0.1016693115234375, 1.4912109375
47450, 2.438472270965576, -1.6005809307098389, -3.838172197341919, 0.07118278741836548, -0.12627941370010376, -63.53947067260742, 0.19716277718544006, -0.35162442922592163, -2.7747390270233154, -0.7655973434448242, -1.0203990936279297, 0.05417788028717041, -1.7029377432864428, 1.7131604370908917, 179.6602567198253, 9362.0, 30146.0, 35388.0, 9362.0, 8.152067184448242, 0.038127489387989044, -0.10557383298873901, -0.030409006401896477, -0.10368626564741135, -0.03290675953030586, 0.9958255887031555, -0.10026269406080246, -0.021678924560546875, 1.494140625, 1.223876953125, 0.2634124755859375, 1.49853515625
47460, 2.439664363861084, -1.6028321981430054, -3.838402509689331, 0.07316660135984421, -0.12981727719306946, -63.567222595214844, 0.1996007263660431, -0.3559483289718628, -2.7754058837890625, -0.7655918002128601, -1.0203909873962402, 0.054176148027181625, -1.6991107266928318, 1.7087059451588402, 179.6554025993163, 9362.0, 30146.0, 35388.0, 9362.0, 8.152067184448242, 0.061945393681526184, 0.021273210644721985, -0.14730244874954224, -0.10484562069177628, -0.031456056982278824, 0.9965348243713379, -0.10026269406080246, -0.021678924560546875, 1.494140625, 1.5908203125, 0.395538330078125, 1.49853515625
47480, 2.4392995834350586, -1.6018954515457153, -3.8412063121795654, 0.07517482340335846, -0.1333984136581421, -63.59497833251953, 0.20204351842403412, -0.3602795898914337, -2.775904417037964, -0.7655979990959167, -1.0204254388809204, 0.054183974862098694, -1.706987652074149, 1.7044503388491137, 179.64284413791145, 9362.0, 30146.0, 35388.0, 9362.0, 8.152067184448242, -0.001628266298212111, 0.16325193643569946, -0.1487783044576645, -0.10179350525140762, -0.0327819362282753, 0.9933273196220398, -0.10026269406080246, -0.021678924560546875, 1.494140625, 1.566650390625, 0.3395233154296875, 1.5
47500, 2.4390947818756104, -1.6054580211639404, -3.8409626483917236, 0.08134608715772629, -0.14440153539180756, -63.67828369140625, 0.2093731164932251, -0.3732629120349884, -2.777761220932007, -0.7656050324440002, -1.0204355716705322, 0.05415896326303482, -1.718010114886462, 1.7110274524298745, 179.65873233699074, 9362.0, 30146.0, 35388.0, 9362.0, 8.152067184448242, 0.026259895414114, -0.050294797867536545, -0.026326311752200127, -0.1026143878698349, -0.03136930614709854, 0.9953491687774658, -0.10026269406080246, -0.021678924560546875, 1.494140625, 1.326416015625, 0.022705078125, 1.5
47520, 2.4404778480529785, -1.6054071187973022, -3.8403103351593018, 0.08558257669210434, -0.15195344388484955, -63.733848571777344, 0.21427510678768158, -0.38192808628082275, -2.778834581375122, -0.7655764818191528, -1.02043616771698, 0.054152533411979675, -1.7138401919095785, 1.711290431674371, 179.65628319411104, 9362.0, 30146.0, 35388.0, 9362.0, 8.152067184448242, 0.061528291553258896, -0.21902935206890106, 0.11642365902662277, -0.10346564650535583, -0.03486962988972664, 0.995973527431488, -0.10026269406080246, -0.021678924560546875, 1.494140625, 1.36376953125, 0.017181396484375, 1.4912109375
47530, 2.4406795501708984, -1.604878306388855, -3.841064214706421, 0.08558257669210434, -0.15195344388484955, -63.733848571777344, 0.21427510678768158, -0.38192808628082275, -2.778834581375122, -0.7655941247940063, -1.0204498767852783, 0.05416109785437584, -1.7349453430795343, 1.7104414008186382, 179.65774030787983, 9362.0, 30146.0, 35388.0, 9362.0, 8.152067184448242, -0.2137133777141571, -0.09192759543657303, -0.03474199399352074, -0.10180278867483139, -0.0339316688477993, 0.993081271648407, -0.10026269406080246, -0.021678924560546875, 1.494140625, 1.52783203125, 0.253387451171875, 1.4912109375
47550, 2.439755439758301, -1.604546308517456, -3.842416286468506, 0.09212109446525574, -0.16360625624656677, -63.817237854003906, 0.22161832451820374, -0.3949161171913147, -2.780719041824341, -0.7656086087226868, -1.020464539527893, 0.05418025702238083, -1.7393230182123574, 1.7032995990105633, 179.6364634874233, 9362.0, 30146.0, 35388.0, 9362.0, 8.152067184448242, 0.013718809932470322, -0.06775058805942535, -0.2112250030040741, -0.10049791634082794, -0.03302812948822975, 0.9920583367347717, -0.10026269406080246, -0.021678924560546875, 1.494140625, 1.428955078125, 0.073577880859375, 1.4912109375
47580, 2.4411604404449463, -1.6075704097747803, -3.8451342582702637, 0.09212109446525574, -0.16360625624656677, -63.817237854003906, 0.22161832451820374, -0.3949161171913147, -2.780719041824341, -0.7655959725379944, -1.0204575061798096, 0.05416502058506012, -1.7492841250888478, 1.6885457183407482, 179.6540293279468, 9362.0, 30146.0, 35388.0, 9362.0, 8.152067184448242, 0.0792522132396698, -0.17890456318855286, -0.3398298919200897, -0.1021486446261406, -0.033603183925151825, 0.9967045187950134, -0.10026269406080246, -0.021678924560546875, 1.494140625, 1.585693359375, 0.383544921875, 1.497802734375
47600, 2.4408328533172607, -1.608763337135315, -3.846982717514038, 0.10350734740495682, -0.18389257788658142, -63.95636749267578, 0.2338426113128662, -0.4165516495704651, -2.784109115600586, -0.7656134366989136, -1.020462155342102, 0.05415672808885574, -1.7303829931851866, 1.7131203254928096, 179.65067773182042, 9362.0, 30146.0, 35388.0, 9362.0, 8.152067184448242, -0.12930649518966675, -0.20249803364276886, -0.0820460394024849, -0.10262636840343475, -0.030546821653842926, 0.992194414138794, -0.10026269406080246, -0.021678924560546875, 1.494140625, 1.585693359375, 0.383544921875, 1.497802734375
47630, 2.442173480987549, -1.6094517707824707, -3.8479959964752197, 0.10823313146829605, -0.19230999052524567, -64.01206970214844, 0.2387363612651825, -0.42519158124923706, -2.7858450412750244, -0.7656027674674988, -1.0204411745071411, 0.05414772406220436, -1.7243425898115086, 1.7107456217978552, 179.64919179319162, 9362.0, 30146.0, 35388.0, 9362.0, 8.152067184448242, -0.0597187764942646, 0.18049609661102295, 0.29445183277130127, -0.10152554512023926, -0.030440958216786385, 0.9942156672477722, -0.10026269406080246, -0.021678924560546875, 1.494140625, 1.597412109375, 0.4110870361328125, 1.497802734375
47650, 2.442427158355713, -1.6128257513046265, -3.8481907844543457, 0.11550544947385788, -0.20526036620140076, -64.0956802368164, 0.2460879236459732, -0.4381732940673828, -2.7880425453186035, -0.7656004428863525, -1.0204280614852905, 0.054161764681339264, -1.710566227020261, 1.71137102521962, 179.642856644551, 9362.0, 30146.0, 35388.0, 9362.0, 8.152067184448242, -0.13399051129817963, 0.22660388052463531, 0.2553955614566803, -0.10360504686832428, -0.030667413026094437, 0.9951380491256714, -0.10026269406080246, -0.021678924560546875, 1.494140625, 1.38720703125, 0.0291900634765625, 1.497802734375
47670, 2.439728260040283, -1.6102620363235474, -3.849113702774048, 0.12047635763883591, -0.21411055326461792, -64.15145111083984, 0.25100624561309814, -0.44684791564941406, -2.789106607437134, -0.7655881643295288, -1.020425796508789, 0.054175324738025665, -1.7114714740926371, 1.7147944684591891, 179.65333972720384, 9362.0, 30146.0, 35388.0, 9362.0, 8.152067184448242, -0.14597533643245697, -0.007203325163573027, 0.3280033469200134, -0.10360504686832428, -0.030667413026094437, 0.9951380491256714, -0.10026269406080246, -0.021678924560546875, 1.494140625, 1.57470703125, 0.3579864501953125, 1.49560546875
47680, 2.437983751296997, -1.6119866371154785, -3.846104860305786, 0.12299872934818268, -0.21860070526599884, -64.1793441772461, 0.2534677982330322, -0.4511825144290924, -2.7896556854248047, -0.765583336353302, -1.0204123258590698, 0.0541611909866333, -1.7014191662545846, 1.7116687121950918, 179.65201729721807, 9362.0, 30146.0, 35388.0, 9362.0, 8.152067184448242, -0.23236297070980072, 0.20303243398666382, 0.18478593230247498, -0.10016872733831406, -0.03437007591128349, 0.9923811554908752, -0.10026269406080246, -0.021678924560546875, 1.494140625, 1.57470703125, 0.3579864501953125, 1.4912109375
47690, 2.434994697570801, -1.6110827922821045, -3.8454487323760986, 0.12299872934818268, -0.21860070526599884, -64.1793441772461, 0.2534677982330322, -0.4511825144290924, -2.7896556854248047, -0.7655835747718811, -1.0203896760940552, 0.054149191826581955, -1.6867603562040174, 1.7090137999893216, 179.65905375095917, 9362.0, 30146.0, 35388.0, 9362.0, 8.152067184448242, -0.16350552439689636, 0.17248690128326416, 0.24999859929084778, -0.1019367054104805, -0.03313564136624336, 0.9928761720657349, -0.10026269406080246, -0.021678924560546875, 1.494140625, 1.56005859375, 0.324493408203125, 1.4912109375
47700, 2.43277645111084, -1.6108787059783936, -3.8440370559692383, 0.12811708450317383, -0.22771069407463074, -64.23515319824219, 0.2583692967891693, -0.45981648564338684, -2.791393280029297, -0.7656006813049316, -1.0203925371170044, 0.05416196212172508, -1.6888426454217562, 1.7039803851911586, 179.64629493884914, 9362.0, 30146.0, 35388.0, 9362.0, 8.152067184448242, -0.1526786834001541, -0.3475340008735657, -0.29129764437675476, -0.1019367054104805, -0.03313564136624336, 0.9928761720657349, -0.10026269406080246, -0.021678924560546875, 1.494140625, 1.28466796875, 0.07440185546875, 1.497802734375
