timeTick, roll, pitch, yaw, stateX, stateY, stateZ, stateVX, stateVY, stateVZ, otX0, otY0, otZ0, otRoll0, otPitch0, otYaw0, left wing, pitch motor, yaw motor, right wing, voltage, roll rate, pitch rate, yaw rate, A_x, A_y, A_z, current, i_raw, v_raw, airflow_voltage, airflow_speed, pot_Pitch
84942, -0.00019011810945812613, -0.0011524903820827603, -0.0017170541686937213, 0, 0, 0, 0, 0, 0, -0.794055163860321, -1.0186948776245117, 0.05424945056438446, -1.8694759923236304, 0.46476916026190906, 178.87755063358398, 0, 0, 0, 0, 0, 0, 0, 0, 0, 0, 0, 0, 0, 0, 0, 0, 0
84952, -0.00029742042534053326, -0.0014776322059333324, 0.00012087469076504931, 1.1100843577693809e-09, 8.292047937175084e-09, -1.4455465134233236e-05, 2.0815399182083638e-07, 1.6821908275233e-06, -0.001541099976748228, -0.7940101623535156, -1.0187324285507202, 0.05425116419792175, -1.8640615571644545, 0.46262618240922393, 178.8714875093921, 9362.0, 30146.0, 35388.0, 9362.0, 0, 0.24243593215942383, -0.07142491638660431, 0.10813301801681519, 0, 0, 0, 0, 0, 0, 0, 0, 0
84962, 0.0004038619517814368, -0.001645855139940977, 0.0015104863559827209, 1.2983723429726979e-08, 2.672898524735956e-08, -3.355802618898451e-05, 2.162375949410489e-06, 2.003877398237819e-06, -0.002279015025123954, -0.793798565864563, -1.0186517238616943, 0.054417721927165985, -1.7213269250415537, 0.6558402018869742, 178.91541654900902, 9362.0, 30146.0, 35388.0, 9362.0, 0, 0.13438309729099274, 0.16247516870498657, 0.22741475701332092, -0.12080628424882889, -0.03462442755699158, 0.9900271892547607, 0, 0, 0, 1.41650390625, 0.0577545166015625, 0
84972, 0.0011090271873399615, -0.0028186512645334005, 0.003764298977330327, 4.7133291047884995e-08, 4.928899599576653e-08, -6.115582073107362e-05, 4.664703283197014e-06, 2.5199494757544016e-06, -0.0032401466742157936, -0.7940448522567749, -1.0186891555786133, 0.05424859747290611, -1.8584070071175, 0.4653336870656233, 178.86480512990582, 9362.0, 30146.0, 35388.0, 9362.0, 0, -0.1911483258008957, -0.049663472920656204, -0.08444765210151672, -0.1225677877664566, -0.03386678174138069, 0.9893655776977539, 0, 0, 0, 1.408447265625, 0.0485382080078125, 1.48974609375
84982, 0.0010604513809084892, -0.0020025840494781733, 0.003890134859830141, 1.0772227199140616e-07, 7.106779520427153e-08, -9.871216025203466e-05, 7.432025086018257e-06, 1.8486027784092585e-06, -0.004270724952220917, -0.7940801382064819, -1.0186755657196045, 0.05422961711883545, -1.8649818513438128, 0.4502050220567355, 178.87337674429565, 9362.0, 30146.0, 35388.0, 9362.0, 0, -0.12620027363300323, -0.3313329517841339, 0.057637203484773636, -0.12064631283283234, -0.033589016646146774, 0.9927138090133667, 0, 0, 0, 1.3505859375, 0.0153045654296875, 1.48974609375
84992, 0.0007078624330461025, -0.00018514649127610028, 0.00518996873870492, 2.0598567118668143e-07, 8.013498131731467e-08, -0.00014523175195790827, 1.2231510481797159e-05, -3.579995322411378e-08, -0.005032796412706375, -0.7938554883003235, -1.0185823440551758, 0.0543736070394516, -1.696282131473131, 0.6478428572629866, 178.90100807387654, 9362.0, 30146.0, 35388.0, 9362.0, 0, -0.010705460794270039, 0.07514343410730362, 0.22548459470272064, -0.11909619718790054, -0.0325079970061779, 0.993024468421936, 0, 0, 0, 1.46484375, 0.1295928955078125, 1.491943359375
85002, 0.0005865522543899715, -0.0006487006321549416, 0.008037522435188293, 3.4532550330368394e-07, 7.076319263887854e-08, -0.00019898565369658172, 1.5658211850677617e-05, -1.8426942460791906e-06, -0.005717582069337368, -0.7940259575843811, -1.0187212228775024, 0.054250989109277725, -1.864054891739393, 0.45485824242507533, 178.86831306311296, 9362.0, 30146.0, 35388.0, 9362.0, 0, -0.10563788563013077, 0.18062730133533478, -0.10919586569070816, -0.12108781933784485, -0.03494485467672348, 0.9931190013885498, 0, 0, 0, 1.467041015625, 0.1334686279296875, 1.491943359375
85012, 0.00015169619291555136, -0.0012594010913744569, 0.007852536626160145, 5.03481999203359e-07, 4.6319293289798225e-08, -0.0002596255799289793, 1.5967543731676415e-05, -3.047535301448079e-06, -0.006410007365047932, -0.7939847111701965, -1.0187550783157349, 0.05425550043582916, -1.8762318801909361, 0.48515737187034347, 178.8636265959922, 9362.0, 30146.0, 35388.0, 9362.0, 0, -0.06789837032556534, 0.060403816401958466, 0.12339264154434204, -0.11886158585548401, -0.034651979804039, 0.9912075400352478, 0, 0, 0, 1.41650390625, 0.0577545166015625, 1.493408203125
85022, 0.00015566250658594072, -0.0027686352841556072, 0.009240501560270786, 6.686644269393582e-07, 1.0865971233897653e-08, -0.00032789050601422787, 1.706006696622353e-05, -4.049452400067821e-06, -0.00724258366972208, -0.7938531041145325, -1.0185883045196533, 0.054407455027103424, -1.701456051820662, 0.6400888271511178, 178.90462316958582, 9362.0, 30146.0, 35388.0, 9362.0, 0, 0.1508745402097702, -0.018123779445886612, -0.18324777483940125, -0.11853857338428497, -0.03318469226360321, 0.9915968179702759, 0, 0, 0, 1.458251953125, 0.1184234619140625, 1.493408203125
85032, 0.0018486272310838103, -0.0032609489280730486, 0.00815027579665184, 8.499545174345258e-07, -3.091461309168153e-08, -0.0004045151872560382, 1.917585359478835e-05, -4.3065565478173085e-06, -0.00808195024728775, -0.7940688729286194, -1.0186854600906372, 0.05424482375383377, -1.8712861208453064, 0.44973798439386314, 178.87130281098564, 9362.0, 30146.0, 35388.0, 9362.0, 0, -0.043982647359371185, -0.04141738638281822, -0.03660469129681587, -0.12096581608057022, -0.030668921768665314, 0.9940377473831177, 0, 0, 0, 1.435546875, 0.0829315185546875, 1.4912109375
85042, 0.002132203197106719, -0.0023661626037210226, 0.00821528211236, 1.0652647688402794e-06, -7.530051959747652e-08, -0.0004884481313638389, 2.3880831577116624e-05, -4.5523347580456175e-06, -0.00870424322783947, -0.7940757870674133, -1.0186867713928223, 0.054237376898527145, -1.8627809330711467, 0.4508766432711582, 178.87048226329816, 9362.0, 30146.0, 35388.0, 9362.0, 8.370248794555664, -0.03403221070766449, 0.10051311552524567, -0.09169924259185791, -0.1211242824792862, -0.034281451255083084, 0.9931120872497559, 0, 0, 0, 1.404052734375, 0.04400634765625, 1.4912109375
85052, 0.002079426310956478, -0.0022088228724896908, 0.0075141750276088715, 1.3317985576577485e-06, -1.3653612995767617e-07, -0.0005788876442238688, 2.943651816167403e-05, -7.691418431932107e-06, -0.00938325934112072, -0.7940536141395569, -1.0186560153961182, 0.05422890931367874, -1.8468583776060084, 0.462226011694014, 178.87278813722554, 9362.0, 30146.0, 35388.0, 9362.0, 8.370248794555664, -0.04555986821651459, -0.10940348356962204, -0.013431649655103683, -0.12000145763158798, -0.03700743243098259, 0.9931458234786987, -0.11518486589193344, -0.1739978790283203, 1.481689453125, 1.46630859375, 0.132171630859375, 1.48828125
85062, 0.0014066507574170828, -0.0018432928482070565, 0.007497520186007023, 1.6462770418002037e-06, -2.3156961503900675e-07, -0.0006762474658899009, 3.346107041579671e-05, -1.131597764469916e-05, -0.01008831150829792, -0.7937983870506287, -1.0186846256256104, 0.054429151117801666, -1.7434019998372412, 0.6515635402689384, 178.89976870980414, 9362.0, 30146.0, 35388.0, 9362.0, 8.370248794555664, -0.06428254395723343, 0.060629721730947495, -0.12820959091186523, -0.11878365278244019, -0.03378858417272568, 0.9932490587234497, -0.11518486589193344, -0.1739978790283203, 1.481689453125, 1.396728515625, 0.0370025634765625, 1.48828125
85072, 0.0011538543039932847, -0.002495824359357357, 0.006521481554955244, 1.9996707578684436e-06, -3.6240743384041707e-07, -0.0007804686902090907, 3.722193287103437e-05, -1.4859414477541577e-05, -0.010755539871752262, -0.7940573692321777, -1.0186704397201538, 0.054261304438114166, -1.8516301038621386, 0.4519425816332898, 178.8722881142618, 9362.0, 30146.0, 35388.0, 9362.0, 8.370248794555664, 0.10543279349803925, -0.09177590161561966, -0.2888118028640747, -0.12120141088962555, -0.033443890511989594, 0.9933054447174072, -0.11518486589193344, -0.1739978790283203, 1.481689453125, 1.427490234375, 0.0716400146484375, 1.494873046875
85082, 0.0011152331717312336, -0.0009911638917401433, 0.0046355533413589, 2.3875691113062203e-06, -5.229632620284974e-07, -0.0008912169141694903, 4.035043093608692e-05, -1.7254620615858585e-05, -0.01139370072633028, -0.7940270304679871, -1.0187346935272217, 0.05424262583255768, -1.873842878287098, 0.45379664695434485, 178.86576640177242, 9362.0, 30146.0, 35388.0, 9362.0, 8.370248794555664, 0.0662161111831665, -0.049393463879823685, -0.06953231245279312, -0.1199919655919075, -0.03489777445793152, 0.9929929375648499, -0.11518486589193344, -0.1739978790283203, 1.481689453125, 1.427490234375, 0.0716400146484375, 1.494873046875
85092, 0.0011522641871124506, 0.0001459287595935166, 0.003780858824029565, 2.8122988169343444e-06, -7.053192803141428e-07, -0.0010084183886647224, 4.461255593923852e-05, -1.921715374919586e-05, -0.01204619463533163, -0.7937742471694946, -1.0186612606048584, 0.05437806621193886, -1.7257814558945357, 0.6773385201128406, 178.91059271582841, 9362.0, 30146.0, 35388.0, 9362.0, 8.370248794555664, 0.14400972425937653, 0.004190657287836075, 0.02477339468896389, -0.12057484686374664, -0.0353693813085556, 0.9932270646095276, -0.11518486589193344, -0.1739978790283203, 1.481689453125, 1.4384765625, 0.0871429443359375, 1.49267578125
85102, 0.0029112554620951414, -0.0008357228362001479, 0.003692690981552005, 3.26685449181241e-06, -9.069747193279909e-07, -0.0011321036145091057, 4.631135379895568e-05, -2.1113542970851995e-05, -0.012690458446741104, -0.7940581440925598, -1.0186731815338135, 0.0542471781373024, -1.8509460057185876, 0.46838979178113505, 178.86713948935113, 9362.0, 30146.0, 35388.0, 9362.0, 8.370248794555664, -0.08166364580392838, -0.1533980816602707, -0.37746334075927734, -0.11815747618675232, -0.034039467573165894, 0.9923688173294067, -0.11518486589193344, -0.1739978790283203, 1.481689453125, 1.46630859375, 0.132171630859375, 1.49267578125
85112, 0.0028344206511974335, -0.000504883355461061, 0.0023819494526833296, 3.7287290979293175e-06, -1.1278987130936002e-06, -0.0012627833057194948, 4.605062349583022e-05, -2.3048089133226313e-05, -0.013445073738694191, -0.794023871421814, -1.018782138824463, 0.05427641049027443, -1.9093576988881586, 0.4490251447895446, 178.86494111154238, 9362.0, 30146.0, 35388.0, 9362.0, 8.370248794555664, 0.07190272957086563, 0.2569088935852051, -0.15781423449516296, -0.1187785416841507, -0.036155615001916885, 0.991578221321106, -0.11518486589193344, -0.1739978790283203, 1.481689453125, 1.447265625, 0.1004791259765625, 1.491943359375
85122, 0.0032951405737549067, -0.002541069872677326, 0.001349741593003273, 4.196330337435938e-06, -1.383089397677395e-06, -0.0014014175394549966, 4.747435013996437e-05, -2.7991196475340985e-05, -0.014281369745731354, -0.7938613295555115, -1.018606424331665, 0.05437392741441727, -1.7178720337540871, 0.6396446494822214, 178.90721758031253, 9362.0, 30146.0, 35388.0, 9362.0, 8.370248794555664, 0.24292130768299103, 0.17355702817440033, -0.40188249945640564, -0.1216394230723381, -0.035235319286584854, 0.9923220276832581, -0.11518486589193344, -0.1739978790283203, 1.481689453125, 1.480224609375, 0.157379150390625, 1.491943359375
85132, 0.005331088788807392, -0.003954234998673201, -0.00270089041441679, 4.675364380091196e-06, -1.687082772150461e-06, -0.0015479394933208823, 4.830604302696884e-05, -3.280153759988025e-05, -0.015022634528577328, -0.7940682768821716, -1.0186859369277954, 0.054251283407211304, -1.8735998376645313, 0.4509661437270438, 178.86438650050513, 9362.0, 30146.0, 35388.0, 9362.0, 8.370248794555664, -0.09841568022966385, -0.02585425414144993, -0.3650777041912079, -0.12275861948728561, -0.03671190142631531, 0.993591845035553, -0.11518486589193344, -0.1739978790283203, 1.481689453125, 1.46044921875, 0.12200927734375, 1.4912109375
85142, 0.005024767015129328, -0.00409725634381175, -0.005160199012607336, 5.180032985663274e-06, -2.043117092398461e-06, -0.0017014642944559455, 5.261100159259513e-05, -3.8382237107725814e-05, -0.015681931748986244, -0.7937949895858765, -1.01866614818573, 0.05439423397183418, -1.7237645682325875, 0.6628870050032845, 178.90506140924006, 9362.0, 30146.0, 35388.0, 9362.0, 8.370248794555664, 0.008252706378698349, 0.05854667350649834, -0.26723992824554443, -0.12226592749357224, -0.03540382161736488, 0.9923186302185059, -0.11518486589193344, -0.1739978790283203, 1.481689453125, 1.388671875, 0.03033447265625, 1.4912109375
85152, 0.006230327766388655, -0.004232744686305523, -0.0057743266224861145, 5.739751941291615e-06, -2.4722551188460784e-06, -0.0018617714522406459, 5.933063221164048e-05, -4.7449379053432494e-05, -0.016379106789827347, -0.7937830090522766, -1.0186501741409302, 0.054399870336055756, -1.7200160393909443, 0.67511913884249, 178.9064338366347, 9362.0, 30146.0, 35388.0, 9362.0, 8.370248794555664, -0.025101924315094948, -0.01665102131664753, 0.17217184603214264, -0.1224980503320694, -0.03389158844947815, 0.9912630915641785, -0.10885127633810043, 0.023120880126953125, 1.497802734375, 1.443603515625, 0.0948486328125, 1.491943359375
85162, 0.005897728726267815, -0.0034741016570478678, -0.005092449951916933, 6.3678212427475955e-06, -2.989389486174332e-06, -0.0020298834424465895, 6.628113624174148e-05, -5.595937182079069e-05, -0.017242908477783203, -0.7940738797187805, -1.0186604261398315, 0.05420897156000137, -1.8495044595170476, 0.45383546378775463, 178.88023580337173, 9362.0, 30146.0, 35388.0, 9362.0, 8.370248794555664, 0.04937562346458435, 0.32245680689811707, -0.09854983538389206, -0.11957751214504242, -0.034642547369003296, 0.9918566346168518, -0.10885127633810043, 0.023120880126953125, 1.497802734375, 1.4091796875, 0.04937744140625, 1.491943359375
85172, 0.00599427567794919, -0.005433811340481043, -0.006104796193540096, 7.066559192026034e-06, -3.601876187531161e-06, -0.002206427277997136, 7.34774730517529e-05, -6.654266326222569e-05, -0.018065445125102997, -0.7940070629119873, -1.0187355279922485, 0.05424226447939873, -1.8885673284103965, 0.4680395525557799, 178.87172103918238, 9362.0, 30146.0, 35388.0, 9362.0, 8.370248794555664, 0.1468738466501236, -0.15624693036079407, -0.03986070677638054, -0.11993539333343506, -0.03599431365728378, 0.9940826296806335, -0.10885127633810043, 0.023120880126953125, 1.497802734375, 1.4150390625, 0.05596923828125, 1.493408203125
85182, 0.006937708240002394, -0.004661404062062502, -0.006877698935568333, 7.830885806470178e-06, -4.317480943427654e-06, -0.00239013135433197, 7.936683687148616e-05, -7.657738751731813e-05, -0.018674999475479126, -0.7940776348114014, -1.018668532371521, 0.0542328767478466, -1.858351047572444, 0.44258088838307685, 178.87477070569557, 9362.0, 30146.0, 35388.0, 9362.0, 8.370248794555664, -0.10179208219051361, 0.41949766874313354, 0.1718120574951172, -0.11996308714151382, -0.03403910622000694, 0.993694007396698, -0.10885127633810043, 0.023120880126953125, 1.497802734375, 1.4326171875, 0.0786895751953125, 1.493408203125
85192, 0.0063605220057070255, -0.00705215847119689, -0.00546953734010458, 8.670789611642249e-06, -5.134270395501517e-06, -0.0025798019487410784, 8.862170216161758e-05, -8.67709968588315e-05, -0.019258718937635422, -0.7937886118888855, -1.0186543464660645, 0.05438970401883125, -1.7201065149210724, 0.6661856303140326, 178.90344375002545, 9362.0, 30146.0, 35388.0, 9362.0, 8.370248794555664, -0.06789014488458633, 0.04547422379255295, 0.02652629278600216, -0.12077175080776215, -0.03562704473733902, 0.9913813471794128, -0.10885127633810043, 0.023120880126953125, 1.497802734375, 1.418701171875, 0.0603485107421875, 1.491943359375
85202, 0.006669204216450453, -0.007379508577287197, -0.004895912017673254, 9.596585186955053e-06, -6.060902251192601e-06, -0.002776316599920392, 9.650504944147542e-05, -9.85630540526472e-05, -0.020043836906552315, -0.7940613627433777, -1.0186725854873657, 0.05422957241535187, -1.8556527004586396, 0.45276438158998644, 178.86994719847513, 9362.0, 30146.0, 35388.0, 9362.0, 8.370248794555664, 0.13101162016391754, -0.10749576985836029, 0.012481608428061008, -0.12151414155960083, -0.035251766443252563, 0.99183189868927, -0.10885127633810043, 0.023120880126953125, 1.497802734375, 1.446533203125, 0.09930419921875, 1.491943359375
85212, 0.006637072190642357, -0.0068573416210711, -0.004895141813904047, 1.0621491128404159e-05, -7.100528364389902e-06, -0.002980912569910288, 0.00010847154044313356, -0.00010935757745755836, -0.02087496779859066, -0.7940474152565002, -1.0186651945114136, 0.054237112402915955, -1.854609243241752, 0.4777999460470994, 178.86809969024463, 9362.0, 30146.0, 35388.0, 9362.0, 8.370248794555664, 0.1464744359254837, -0.20168176293373108, 0.2831973731517792, -0.11889409273862839, -0.03521207720041275, 0.9902418255805969, -0.10885127633810043, 0.023120880126953125, 1.497802734375, 1.4736328125, 0.1452178955078125, 1.487548828125
85222, 0.007687733508646488, -0.005787459667772055, -0.002189530758187175, 1.1768772310460918e-05, -8.250657629105262e-06, -0.0031943530775606632, 0.00012099325977033004, -0.00012066876661265269, -0.021812716498970985, -0.7940208315849304, -1.0187455415725708, 0.05423826724290848, -1.8791947159391553, 0.4569069696700865, 178.8687209248046, 9362.0, 30146.0, 35388.0, 9362.0, 8.370248794555664, 0.08963312953710556, 0.22976301610469818, 0.11567335575819016, -0.12033829092979431, -0.034538399428129196, 0.9904530644416809, -0.10885127633810043, 0.023120880126953125, 1.497802734375, 1.480224609375, 0.157379150390625, 1.487548828125
85232, 0.00824262760579586, -0.006774844601750374, -0.0012141382321715355, 1.3036837117397226e-05, -9.513619261269923e-06, -0.003417223459109664, 0.0001326379569945857, -0.0001319057191722095, -0.02276097610592842, -0.7940566539764404, -1.0187069177627563, 0.05424638092517853, -1.8779395498476226, 0.4473544722973486, 178.8701500302899, 9362.0, 30146.0, 35388.0, 9362.0, 8.370248794555664, 0.09407825767993927, 0.09297583252191544, 0.10132855176925659, -0.12174234539270401, -0.03438619151711464, 0.993147611618042, -0.10885127633810043, 0.023120880126953125, 1.497802734375, 1.363037109375, 0.0169219970703125, 1.48828125
85242, 0.008866268210113049, -0.006114535965025425, -0.0006298620137386024, 1.4412385098694358e-05, -1.0897994798142463e-05, -0.00364854047074914, 0.00014245914644561708, -0.00014496197400148958, -0.02350202575325966, -0.7940590977668762, -1.0186856985092163, 0.05423109233379364, -1.8738513081658532, 0.4650997227593905, 178.86744292873644, 9362.0, 30146.0, 35388.0, 9362.0, 8.390083312988281, 0.19688530266284943, 0.15019026398658752, 0.06061847507953644, -0.12150488048791885, -0.035363201051950455, 0.9945266842842102, -0.10885127633810043, 0.023120880126953125, 1.497802734375, 1.41943359375, 0.0612945556640625, 1.48828125
85252, 0.009115651249885559, -0.005353622138500214, 0.00032512759207747877, 1.5894653188297525e-05, -1.2417790458130185e-05, -0.0038862680085003376, 0.00015400089614558965, -0.00015899106801953167, -0.024043086916208267, -0.7940273880958557, -1.0187358856201172, 0.05425781384110451, -1.8707333542503837, 0.44830669261784806, 178.86291214520443, 9362.0, 30146.0, 35388.0, 9362.0, 8.390083312988281, 0.20325441658496857, 0.11732025444507599, -0.03727816790342331, -0.12053585797548294, -0.03539041057229042, 0.9932736158370972, -0.12373017519712448, -0.3083972930908203, 1.470703125, 1.415771484375, 0.0568695068359375, 1.48974609375
85262, 0.009914366528391838, -0.005453841295093298, -0.00032050488516688347, 1.7486670913058333e-05, -1.40831180033274e-05, -0.004129843786358833, 0.0001644113362999633, -0.00017407149425707757, -0.024671675637364388, -0.7940832376480103, -1.0186599493026733, 0.05422957241535187, -1.8521042048775587, 0.4543594314583004, 178.87639741371618, 9362.0, 30146.0, 35388.0, 9362.0, 8.390083312988281, 0.0936606302857399, 0.11017049103975296, 0.16744638979434967, -0.1203688234090805, -0.035073891282081604, 0.9933504462242126, -0.12373017519712448, -0.3083972930908203, 1.470703125, 1.446533203125, 0.09930419921875, 1.48974609375
85272, 0.010580429807305336, -0.004951827693730593, 0.0003014897520188242, 1.917631561809685e-05, -1.59013598022284e-05, -0.004379772115498781, 0.00017351644055452198, -0.0001895679597510025, -0.025313589721918106, -0.7940073609352112, -1.0187256336212158, 0.05423552542924881, -1.8695630657330513, 0.4617750917216483, 178.86328087676665, 9362.0, 30146.0, 35388.0, 9362.0, 8.390083312988281, 0.2176256775856018, -0.11970777064561844, 0.13303254544734955, -0.11959264427423477, -0.035256147384643555, 0.9914489984512329, -0.12373017519712448, -0.3083972930908203, 1.470703125, 1.43701171875, 0.085052490234375, 1.484619140625
85282, 0.011601247824728489, -0.004606328904628754, 0.0011314389994367957, 2.095779200317338e-05, -1.7881231542560272e-05, -0.004636859055608511, 0.0001827861269703135, -0.00020639706053771079, -0.02610342763364315, -0.7940526008605957, -1.0186656713485718, 0.05422587692737579, -1.8490613417762818, 0.4615187818611446, 178.86825790006958, 9362.0, 30146.0, 35388.0, 9362.0, 8.390083312988281, -0.05933017283678055, -0.3297595679759979, 0.13738155364990234, -0.1188378632068634, -0.035079121589660645, 0.9935532212257385, -0.12373017519712448, -0.3083972930908203, 1.470703125, 1.3916015625, 0.0325927734375, 1.484619140625
85292, 0.011568526737391949, -0.001987122232094407, 0.0012340100947767496, 2.2827751308795996e-05, -2.0035149645991623e-05, -0.004901302047073841, 0.00019121005607303232, -0.0002243743510916829, -0.026784777641296387, -0.7940738201141357, -1.0186809301376343, 0.05422195792198181, -1.8660860172741216, 0.450440867079152, 178.87483456242933, 9362.0, 30146.0, 35388.0, 9362.0, 8.390083312988281, -0.06842844933271408, -0.15134471654891968, 0.1648096740245819, -0.12091074883937836, -0.03540373966097832, 0.9948749542236328, -0.12373017519712448, -0.3083972930908203, 1.470703125, 1.393798828125, 0.0344085693359375, 1.490478515625
85302, 0.010591753758490086, -0.0011424538679420948, 0.0025208829902112484, 2.4779092200333253e-05, -2.2377713321475312e-05, -0.005171593278646469, 0.00019908029935322702, -0.00024413879145868123, -0.02727310173213482, -0.7940545082092285, -1.018702507019043, 0.05425397306680679, -1.8734533238188618, 0.46118117914522827, 178.87448397614259, 9362.0, 30146.0, 35388.0, 9362.0, 8.390083312988281, -0.08692662417888641, -0.24461381137371063, -0.15373297035694122, -0.11844713240861893, -0.03653237223625183, 0.993064284324646, -0.12373017519712448, -0.3083972930908203, 1.470703125, 1.436279296875, 0.0838775634765625, 1.490478515625
85312, 0.01059182919561863, -0.0009577806922607124, 0.0020540684927254915, 2.678679084056057e-05, -2.491744999133516e-05, -0.005447729490697384, 0.00020246986241545528, -0.0002638199657667428, -0.027953725308179855, -0.7938733100891113, -1.0186028480529785, 0.05436849221587181, -1.7197686859239558, 0.643943718835402, 178.9039747778448, 9362.0, 30146.0, 35388.0, 9362.0, 8.390083312988281, -0.012510332278907299, -0.07991113513708115, -0.25041162967681885, -0.11838803440332413, -0.03433813527226448, 0.9911973476409912, -0.12373017519712448, -0.3083972930908203, 1.470703125, 1.44580078125, 0.098236083984375, 1.491943359375
85322, 0.010145772248506546, -0.00016787192726042122, 0.0002804975083563477, 2.882119224523194e-05, -2.764556120382622e-05, -0.005731388460844755, 0.00020441280503291637, -0.00028180237859487534, -0.0287777129560709, -0.7940930128097534, -1.0186824798583984, 0.0542164146900177, -1.8650324147239492, 0.4381031430349651, 178.88668403028646, 9362.0, 30146.0, 35388.0, 9362.0, 8.390083312988281, 0.003387589007616043, 0.18842829763889313, 0.13202960789203644, -0.11745046079158783, -0.03409968689084053, 0.9913988709449768, -0.12373017519712448, -0.3083972930908203, 1.470703125, 1.393798828125, 0.0344085693359375, 1.491943359375
85332, 0.010370943695306778, -0.0024978569708764553, 0.001449435600079596, 3.087344884988852e-05, -3.055346314795315e-05, -0.006023483816534281, 0.0002060502301901579, -0.0002997844130732119, -0.029640939086675644, -0.7940070033073425, -1.0187174081802368, 0.05422276630997658, -1.8535261475591533, 0.4641368244297439, 178.87326859638515, 9362.0, 30146.0, 35388.0, 9362.0, 8.390083312988281, -0.2642226815223694, -0.02485598437488079, 0.334865540266037, -0.11671684682369232, -0.032494623214006424, 0.993342936038971, -0.12373017519712448, -0.3083972930908203, 1.470703125, 1.4150390625, 0.05596923828125, 1.491943359375
85342, 0.009351682849228382, -0.002107087289914489, 0.0027995158452540636, 3.293537884019315e-05, -3.363755968166515e-05, -0.006323312874883413, 0.00020630833751056343, -0.00031703192507848144, -0.030324459075927734, -0.7940161824226379, -1.0187397003173828, 0.05426129698753357, -1.8799918977711145, 0.4583059673441028, 178.8696167128839, 9362.0, 30146.0, 35388.0, 9362.0, 8.390083312988281, 0.1227567121386528, -0.30494916439056396, -0.12474130094051361, -0.11852716654539108, -0.03257002681493759, 0.9947134256362915, -0.12373017519712448, -0.3083972930908203, 1.470703125, 1.4033203125, 0.043182373046875, 1.491943359375
85352, 0.01013774424791336, -0.0017603965243324637, 0.002362662460654974, 3.501972969388589e-05, -3.689617369673215e-05, -0.006629249081015587, 0.0002105661405948922, -0.00033470059861429036, -0.030862413346767426, -0.7940715551376343, -1.018682599067688, 0.05424359068274498, -1.8641535315011841, 0.4469034970920518, 178.87332383353868, 9362.0, 30146.0, 35388.0, 9362.0, 8.390083312988281, 0.030206894502043724, 0.04383277893066406, 0.008437988348305225, -0.11924926936626434, -0.03460828214883804, 0.9940041303634644, -0.10095273703336716, -0.13815879821777344, 1.484619140625, 1.4091796875, 0.04937744140625, 1.490478515625
85362, 0.011131211183965206, -0.0030006864108145237, 0.003017402719706297, 3.7143330700928345e-05, -4.032277502119541e-05, -0.006940701976418495, 0.00021415708761196584, -0.00035061201197095215, -0.03142775967717171, -0.7940239310264587, -1.0187429189682007, 0.054247040301561356, -1.8798018133400234, 0.44814997369445564, 178.86736596619048, 9362.0, 30146.0, 35388.0, 9362.0, 8.390083312988281, 0.055115897208452225, 0.27926990389823914, -0.16656863689422607, -0.1165655255317688, -0.03663041442632675, 0.993696928024292, -0.10095273703336716, -0.13815879821777344, 1.484619140625, 1.453857421875, 0.1110687255859375, 1.490478515625
85372, 0.010740437544882298, -0.005012908950448036, 0.0019810155499726534, 3.929988088202663e-05, -4.391512629808858e-05, -0.007258119527250528, 0.0002171392407035455, -0.0003678474167827517, -0.0320553295314312, -0.7940047383308411, -1.0187207460403442, 0.05423986166715622, -1.8720089471781927, 0.4844563393063481, 178.87275568003798, 9362.0, 30146.0, 35388.0, 9362.0, 8.390083312988281, -0.04257349669933319, 0.12285230308771133, 0.17666786909103394, -0.11907461285591125, -0.03485431894659996, 0.9927668571472168, -0.10095273703336716, -0.13815879821777344, 1.484619140625, 1.41943359375, 0.0612945556640625, 1.4912109375
85392, 0.012152604758739471, -0.006193188019096851, 0.003977308049798012, 4.376150536700152e-05, -5.16471300215926e-05, -0.007913840934634209, 0.0002307034155819565, -0.0004050032002851367, -0.033596307039260864, -0.7940532565116882, -1.0186492204666138, 0.05423055589199066, -1.8453809326388642, 0.46558174642248673, 178.87600805883784, 9362.0, 30146.0, 35388.0, 9362.0, 8.390083312988281, 0.05957522988319397, 0.1949642449617386, 0.00324563542380929, -0.11907461285591125, -0.03485431894659996, 0.9927668571472168, -0.10095273703336716, -0.13815879821777344, 1.484619140625, 1.41943359375, 0.0612945556640625, 1.4912109375
85412, 0.014643006026744843, -0.009403465315699577, 0.002969873370602727, 4.8596240958431736e-05, -6.01273677602876e-05, -0.008603755384683609, 0.00025240215472877026, -0.00044407485984265804, -0.035344988107681274, -0.7940100431442261, -1.0187585353851318, 0.054242320358753204, -1.8862974012992815, 0.476103411737256, 178.86856659762142, 9362.0, 30146.0, 35388.0, 9362.0, 8.390083312988281, -0.10451160371303558, -0.12678425014019012, 0.32831814885139465, -0.11907461285591125, -0.03485431894659996, 0.9927668571472168, -0.10095273703336716, -0.13815879821777344, 1.484619140625, 1.41064453125, 0.0509490966796875, 1.494873046875
85432, 0.014792763628065586, -0.011197436600923538, 0.005511820781975985, 5.392590173869394e-05, -6.947953079361469e-05, -0.009326801635324955, 0.00028181110974401236, -0.0004920364008285105, -0.03693629056215286, -0.7940599322319031, -1.018706202507019, 0.05424794554710388, -1.8905374630385805, 0.4666352543363246, 178.8765594074789, 9362.0, 30146.0, 35388.0, 9362.0, 8.390083312988281, -0.016139021143317223, 0.07441796362400055, 0.016869395971298218, -0.11907461285591125, -0.03485431894659996, 0.9927668571472168, -0.10095273703336716, -0.13815879821777344, 1.484619140625, 1.41064453125, 0.0509490966796875, 1.494873046875
85442, 0.014075111597776413, -0.01229795627295971, 0.005630673840641975, 5.682954360963777e-05, -7.451973215211183e-05, -0.009699828922748566, 0.0002989034401252866, -0.00051599444122985, -0.03766879811882973, -0.7940673232078552, -1.0187004804611206, 0.05424300208687782, -1.8743617609272938, 0.45338414954724726, 178.8682581037143, 9362.0, 30146.0, 35388.0, 9362.0, 8.370248794555664, -0.016139021143317223, 0.07441796362400055, 0.016869395971298218, -0.11907461285591125, -0.03485431894659996, 0.9927668571472168, -0.10095273703336716, -0.13815879821777344, 1.484619140625, 1.41064453125, 0.0509490966796875, 1.494873046875
85452, 0.014650041237473488, -0.012039350345730782, 0.006081449333578348, 5.682954360963777e-05, -7.451973215211183e-05, -0.009699828922748566, 0.0002989034401252866, -0.00051599444122985, -0.03766879811882973, -0.794011116027832, -1.0187269449234009, 0.05423665791749954, -1.8741447296008649, 0.46084805481652324, 178.87074341234, 9362.0, 30146.0, 35388.0, 9362.0, 8.370248794555664, 0.015081418678164482, -0.14974282681941986, 0.14880812168121338, -0.11907461285591125, -0.03485431894659996, 0.9927668571472168, -0.09120594710111618, -0.0037593841552734375, 1.49560546875, 1.412841796875, 0.0534515380859375, 1.49267578125
85462, 0.014881725423038006, -0.011930548585951328, 0.00635423744097352, 5.682954360963777e-05, -7.451973215211183e-05, -0.009699828922748566, 0.0002989034401252866, -0.00051599444122985, -0.03766879811882973, -0.7937928438186646, -1.018669843673706, 0.05439960956573486, -1.7442808478387701, 0.6529389024591978, 178.90336699565114, 9362.0, 30146.0, 35388.0, 9362.0, 8.370248794555664, 0.20558103919029236, 0.0722142830491066, 0.12467268854379654, -0.11907461285591125, -0.03485431894659996, 0.9927668571472168, -0.09120594710111618, -0.0037593841552734375, 1.49560546875, 1.377685546875, 0.023040771484375, 1.49267578125
85472, 0.016454150900244713, -0.013048632070422173, 0.006806128658354282, 6.668926653219387e-05, -9.11127935978584e-05, -0.010856891050934792, 0.00035934813786298037, -0.000590009440202266, -0.03958834335207939, -0.794061541557312, -1.0186810493469238, 0.0542224682867527, -1.8588863998929195, 0.45853265149722233, 178.87443563925743, 9362.0, 30146.0, 35388.0, 9362.0, 8.370248794555664, 0.08201979100704193, -0.2152917981147766, 0.0697709321975708, -0.11907461285591125, -0.03485431894659996, 0.9927668571472168, -0.09120594710111618, -0.0037593841552734375, 1.49560546875, 1.396728515625, 0.0370025634765625, 1.49267578125
85482, 0.01680779457092285, -0.012092014774680138, 0.00782246608287096, 7.038406329229474e-05, -9.713923645904288e-05, -0.011256767436861992, 0.0003795964294113219, -0.0006152577698230743, -0.040386516600847244, -0.794047474861145, -1.018671989440918, 0.05422903969883919, -1.8629818278840906, 0.47438415742198003, 178.87278719753093, 9362.0, 30146.0, 35388.0, 9362.0, 8.370248794555664, 0.07768319547176361, 0.31086844205856323, 0.4974260926246643, -0.11907461285591125, -0.03485431894659996, 0.9927668571472168, -0.09120594710111618, -0.0037593841552734375, 1.49560546875, 1.396728515625, 0.0370025634765625, 1.49267578125
85492, 0.01855872943997383, -0.013969266787171364, 0.010670081712305546, 7.429088873323053e-05, -0.00010343157919123769, -0.01166441012173891, 0.0004017822502646595, -0.0006432053633034229, -0.04114166274666786, -0.7940011620521545, -1.0187214612960815, 0.054239753633737564, -1.8643755298766618, 0.4697491172445325, 178.87073125806887, 9362.0, 30146.0, 35388.0, 9362.0, 8.370248794555664, 0.03043362870812416, 0.257131427526474, -0.03418606519699097, -0.11907461285591125, -0.03485431894659996, 0.9927668571472168, -0.09120594710111618, -0.0037593841552734375, 1.49560546875, 1.396728515625, 0.0370025634765625, 1.491943359375
85512, 0.01803831197321415, -0.01488431729376316, 0.010359326377511024, 8.275323489215225e-05, -0.00011688139784382656, -0.012502278201282024, 0.0004460446070879698, -0.0007032667053863406, -0.042617522180080414, -0.7940106391906738, -1.0187115669250488, 0.054235465824604034, -1.8591096446104354, 0.47581571787608823, 178.8635593701824, 9362.0, 30146.0, 35388.0, 9362.0, 8.370248794555664, 0.2805546224117279, -0.03339077904820442, -0.09941098839044571, -0.11907461285591125, -0.03485431894659996, 0.9927668571472168, -0.09120594710111618, -0.0037593841552734375, 1.49560546875, 1.396728515625, 0.0370025634765625, 1.491943359375
85532, 0.02061072736978531, -0.01876663789153099, 0.006986488588154316, 9.2178066552151e-05, -0.0001315853005507961, -0.013367900624871254, 0.0004964919062331319, -0.0007662537973374128, -0.04398715868592262, -0.7940655946731567, -1.0186556577682495, 0.05424609035253525, -1.8530608546690024, 0.45607866864719426, 178.88121599788016, 9362.0, 30146.0, 35388.0, 9362.0, 8.370248794555664, -0.010016484186053276, 0.12018681317567825, -0.00840627308934927, -0.11907461285591125, -0.03485431894659996, 0.9927668571472168, -0.09120594710111618, -0.0037593841552734375, 1.49560546875, 1.415771484375, 0.0568695068359375, 1.491943359375
85542, 0.02077711746096611, -0.01985486038029194, 0.006865744013339281, 9.72787820501253e-05, -0.00013941631186753511, -0.01381227932870388, 0.0005236075958237052, -0.0007999360095709562, -0.04488811641931534, -0.7938750386238098, -1.0185943841934204, 0.05440046638250351, -1.7153567121656876, 0.6352326993461475, 178.9041467786849, 9362.0, 30146.0, 35388.0, 9362.0, 8.370248794555664, -0.010016484186053276, 0.12018681317567825, -0.00840627308934927, -0.11907461285591125, -0.03485431894659996, 0.9927668571472168, -0.09120594710111618, -0.0037593841552734375, 1.49560546875, 1.415771484375, 0.0568695068359375, 1.491943359375
85552, 0.020373694598674774, -0.020046299323439598, 0.004424359183758497, 9.72787820501253e-05, -0.00013941631186753511, -0.01381227932870388, 0.0005236075958237052, -0.0007999360095709562, -0.04488811641931534, -0.7938827276229858, -1.0186012983322144, 0.05439285561442375, -1.7173254500008863, 0.6240173894197767, 178.90276616648214, 9362.0, 30146.0, 35388.0, 9362.0, 8.370248794555664, -0.010016484186053276, 0.12018681317567825, -0.00840627308934927, -0.11907461285591125, -0.03485431894659996, 0.9927668571472168, -0.09120594710111618, -0.0037593841552734375, 1.49560546875, 1.396728515625, 0.0370025634765625, 1.491943359375
85562, 0.020682740956544876, -0.021034132689237595, 0.0036348351277410984, 0.00010839660535566509, -0.00015611540584359318, -0.014728676527738571, 0.0005891320179216564, -0.0008701630868017673, -0.04663751646876335, -0.794013261795044, -1.018688678741455, 0.05425208434462547, -1.8374801780762344, 0.46543756798291724, 178.87581345868983, 9362.0, 30146.0, 35388.0, 9362.0, 8.370248794555664, 0.17610542476177216, -0.07590577751398087, -0.13269466161727905, -0.11907461285591125, -0.03485431894659996, 0.9927668571472168, -0.09120594710111618, -0.0037593841552734375, 1.49560546875, 1.396728515625, 0.0370025634765625, 1.491943359375
85572, 0.02088385447859764, -0.02035728469491005, 0.0023464953992515802, 0.00011445827840361744, -0.0001649901387281716, -0.015198704786598682, 0.0006231887964531779, -0.0009047804633155465, -0.04736768826842308, -0.7940569519996643, -1.0186668634414673, 0.05424027889966965, -1.855403008313573, 0.45979403418732545, 178.87262171155695, 9362.0, 30146.0, 35388.0, 9362.0, 8.370248794555664, 0.0201744232326746, 0.0036599496379494667, -0.06922483444213867, -0.11907461285591125, -0.03485431894659996, 0.9927668571472168, -0.09120594710111618, -0.0037593841552734375, 1.49560546875, 1.396728515625, 0.0370025634765625, 1.491943359375
85582, 0.021106094121932983, -0.019213393330574036, -0.00047713902313262224, 0.00011445827840361744, -0.0001649901387281716, -0.015198704786598682, 0.0006231887964531779, -0.0009047804633155465, -0.04736768826842308, -0.7940582036972046, -1.0186320543289185, 0.054247353225946426, -1.8367732345582857, 0.46109119749158367, 178.86981337390336, 9362.0, 30146.0, 35388.0, 9362.0, 8.370248794555664, -0.10119443386793137, -0.05163619667291641, -0.29184189438819885, -0.11907461285591125, -0.03485431894659996, 0.9927668571472168, -0.09120594710111618, -0.0037593841552734375, 1.49560546875, 1.3740234375, 0.0210723876953125, 1.491943359375
85592, 0.02111349068582058, -0.018643636256456375, -0.00299080484546721, 0.00012763134145643562, -0.00018379036919213831, -0.01616065390408039, 0.0006935588316991925, -0.000975417613517493, -0.04881519079208374, -0.7940304279327393, -1.0187203884124756, 0.054270822554826736, -1.874092147265004, 0.4482040404013219, 178.87075949090368, 9362.0, 30146.0, 35388.0, 9362.0, 8.370248794555664, 0.08373666554689407, 0.17530542612075806, -0.07580693811178207, -0.11907461285591125, -0.03485431894659996, 0.9927668571472168, -0.09120594710111618, -0.0037593841552734375, 1.49560546875, 1.3740234375, 0.0210723876953125, 1.487548828125
85602, 0.02123084105551243, -0.020283948630094528, -0.002569795586168766, 0.00013473020226228982, -0.00019372391398064792, -0.01665239781141281, 0.00072621984872967, -0.0010112918680533767, -0.04953306168317795, -0.7940707802772522, -1.0186504125595093, 0.054235514253377914, -1.8452937553352877, 0.45504010284471974, 178.87368759605903, 9362.0, 30146.0, 35388.0, 9362.0, 8.370248794555664, 0.006884806323796511, -0.06736557185649872, -0.3111381232738495, -0.11907461285591125, -0.03485431894659996, 0.9927668571472168, -0.09120594710111618, -0.0037593841552734375, 1.49560546875, 1.3740234375, 0.0210723876953125, 1.487548828125
85612, 0.02113054320216179, -0.020004963502287865, -0.004479049704968929, 0.00014215073315426707, -0.00020401616347953677, -0.01715160347521305, 0.0007578649674542248, -0.0010471558198332787, -0.05030757188796997, -0.7937950491905212, -1.0186867713928223, 0.05443856492638588, -1.7525626150036662, 0.6481623027706007, 178.9002691654674, 9362.0, 30146.0, 35388.0, 9362.0, 8.370248794555664, 0.07631196826696396, -0.037733398377895355, 0.2238939106464386, -0.11907461285591125, -0.03485431894659996, 0.9927668571472168, -0.09120594710111618, -0.0037593841552734375, 1.49560546875, 1.3740234375, 0.0210723876953125, 1.491943359375
85622, 0.021399419754743576, -0.020248478278517723, -0.003525850363075733, 0.00014990154886618257, -0.00021466793259605765, -0.01765885204076767, 0.0007923004450276494, -0.0010832016123458743, -0.05114156752824783, -0.7940472364425659, -1.0186598300933838, 0.05421903729438782, -1.8602242757900689, 0.45964993376310304, 178.87205288464762, 9362.0, 30146.0, 35388.0, 9362.0, 8.370248794555664, -0.22838225960731506, 0.42845362424850464, 0.12831608951091766, -0.11907461285591125, -0.03485431894659996, 0.9927668571472168, -0.09120594710111618, -0.0037593841552734375, 1.49560546875, 1.3740234375, 0.0210723876953125, 1.491943359375
85632, 0.021173810586333275, -0.023387361317873, -0.002937419805675745, 0.00014990154886618257, -0.00021466793259605765, -0.01765885204076767, 0.0007923004450276494, -0.0010832016123458743, -0.05114156752824783, -0.7940629124641418, -1.0186481475830078, 0.05422653257846832, -1.8420601718658107, 0.4519629024958931, 178.87451708166756, 9362.0, 30146.0, 35388.0, 9362.0, 8.370248794555664, -0.1805003136396408, -0.16823865473270416, -0.037866201251745224, -0.11907461285591125, -0.03485431894659996, 0.9927668571472168, -0.09120594710111618, -0.0037593841552734375, 1.49560546875, 1.3740234375, 0.0210723876953125, 1.48681640625
85642, 0.021489091217517853, -0.023204263299703598, -0.0025922416243702173, 0.00016642904665786773, -0.00023705199419055134, -0.018697518855333328, 0.0008606532937847078, -0.0011554686352610588, -0.05263471603393555, -0.7937867641448975, -1.0186105966567993, 0.05436374247074127, -1.6998949041759785, 0.6659154041198292, 178.90441154489838, 9362.0, 30146.0, 35388.0, 9362.0, 8.390083312988281, -0.1805003136396408, -0.16823865473270416, -0.037866201251745224, -0.11907461285591125, -0.03485431894659996, 0.9927668571472168, -0.09120594710111618, -0.0037593841552734375, 1.49560546875, 1.3740234375, 0.0210723876953125, 1.48681640625
85652, 0.020836947485804558, -0.021803170442581177, -0.001709883683361113, 0.00017523446877021343, -0.00024878676049411297, -0.019227083772420883, 0.0009004340972751379, -0.0011914820643141866, -0.053278036415576935, -0.7940685749053955, -1.0186506509780884, 0.054215896874666214, -1.8445234433398043, 0.4541477178481159, 178.86911374874106, 9362.0, 30146.0, 35388.0, 9362.0, 8.390083312988281, 0.13882537186145782, -0.11775560677051544, 0.23035550117492676, -0.11977402865886688, -0.036080945283174515, 0.9926641583442688, -0.09120594710111618, -0.0037593841552734375, 1.49560546875, 1.382080078125, 0.0256195068359375, 1.48681640625
85662, 0.02171269804239273, -0.021461931988596916, -0.00044459092896431684, 0.00018443597946316004, -0.0002608841750770807, -0.019763510674238205, 0.0009398851543664932, -0.0012280108639970422, -0.054006993770599365, -0.7938648462295532, -1.01856529712677, 0.054380614310503006, -1.698368246078274, 0.6389854411629301, 178.91153049614357, 9362.0, 30146.0, 35388.0, 9362.0, 8.390083312988281, -0.3156314790248871, -0.035487089306116104, 0.17799890041351318, -0.11977402865886688, -0.036080945283174515, 0.9926641583442688, -0.09120594710111618, -0.0037593841552734375, 1.49560546875, 1.364501953125, 0.0173492431640625, 1.48681640625
85672, 0.020645378157496452, -0.02171844244003296, -0.000495968502946198, 0.00019401995814405382, -0.00027334122569300234, -0.02030755952000618, 0.0009769174503162503, -0.001263385871425271, -0.05480243265628815, -0.79408860206604, -1.0186529159545898, 0.054244909435510635, -1.8518403817283409, 0.4382144090294844, 178.87486777575526, 9362.0, 30146.0, 35388.0, 9362.0, 8.390083312988281, 0.08408194780349731, -0.08933897316455841, 0.3975814878940582, -0.12259617447853088, -0.03408263623714447, 0.995008647441864, -0.09120594710111618, -0.0037593841552734375, 1.49560546875, 1.39599609375, 0.0362701416015625, 1.487548828125
85682, 0.021918827667832375, -0.022743545472621918, 0.0017734190914779902, 0.00020397188200149685, -0.00028615997871384025, -0.020858217030763626, 0.0010134640615433455, -0.0013003722997382283, -0.05532873794436455, -0.7938691973686218, -1.0185526609420776, 0.054393745958805084, -1.6833050230575435, 0.6432672456618889, 178.9063433729584, 9362.0, 30146.0, 35388.0, 9362.0, 8.390083312988281, -0.11518624424934387, 0.5326056480407715, 0.15476739406585693, -0.12259617447853088, -0.03408263623714447, 0.995008647441864, -0.09120594710111618, -0.0037593841552734375, 1.49560546875, 1.443603515625, 0.0948486328125, 1.487548828125
85692, 0.021629175171256065, -0.028181318193674088, 0.003291541477665305, 0.00021429105254355818, -0.0002993391244672239, -0.02141520380973816, 0.0010503571247681975, -0.0013354364782571793, -0.056068141013383865, -0.7940037846565247, -1.0187079906463623, 0.05423180013895035, -1.8578879402303736, 0.46881490522116565, 178.86569116227764, 9362.0, 30146.0, 35388.0, 9362.0, 8.390083312988281, -0.06836704164743423, 0.054717548191547394, 0.14879372715950012, -0.12259617447853088, -0.03408263623714447, 0.995008647441864, -0.09120594710111618, -0.0037593841552734375, 1.49560546875, 1.430419921875, 0.0756378173828125, 1.49267578125
85702, 0.02299746498465538, -0.029887374490499496, 0.0044652195647358894, 0.00022498775797430426, -0.00031287959427572787, -0.021979859098792076, 0.001088909455575049, -0.0013726628385484219, -0.0568624846637249, -0.794076144695282, -1.0186519622802734, 0.054204490035772324, -1.8501680908041669, 0.4431589314723112, 178.88520586557027, 9362.0, 30146.0, 35388.0, 9362.0, 8.390083312988281, -0.03051048144698143, 0.027027729898691177, -0.2170001119375229, -0.12010321021080017, -0.034689709544181824, 0.9911950826644897, -0.09120594710111618, -0.0037593841552734375, 1.49560546875, 1.430419921875, 0.0756378173828125, 1.49267578125
85712, 0.023270398378372192, -0.03018353506922722, 0.003275688039138913, 0.000236116029554978, -0.00032678977004252374, -0.022552726790308952, 0.0011367211118340492, -0.0014093514764681458, -0.05771063640713692, -0.79408198595047, -1.0186580419540405, 0.0542522594332695, -1.8518417397672744, 0.4392707190945089, 178.88367700667814, 9362.0, 30146.0, 35388.0, 9362.0, 8.390083312988281, 0.11640440672636032, -0.04635636880993843, 0.13106846809387207, -0.11743754148483276, -0.033284492790699005, 0.992395281791687, -0.09120594710111618, -0.0037593841552734375, 1.49560546875, 1.374755859375, 0.021392822265625, 1.49267578125
85722, 0.024591509252786636, -0.03002057410776615, 0.004351961892098188, 0.0002477371890563518, -0.0003410786739550531, -0.023133525624871254, 0.0011875067139044404, -0.0014484241837635636, -0.05844869464635849, -0.794013261795044, -1.0187147855758667, 0.05425012856721878, -1.8651748473222225, 0.46377703368631273, 178.86957092669752, 9362.0, 30146.0, 35388.0, 9362.0, 8.390083312988281, -0.15877921879291534, 0.3241705894470215, -0.11151013523340225, -0.11878552287817001, -0.03514073044061661, 0.9923478960990906, -0.09120594710111618, -0.0037593841552734375, 1.49560546875, 1.423828125, 0.066802978515625, 1.49267578125
85732, 0.023417599499225616, -0.03248438611626625, 0.0034565464593470097, 0.00025986871332861483, -0.00035576062509790063, -0.023721707984805107, 0.0012388017494231462, -0.0014879460213705897, -0.05918734893202782, -0.7940068244934082, -1.0186878442764282, 0.05422591045498848, -1.8476037609283424, 0.47829478090810085, 178.8667711418203, 9362.0, 30146.0, 35388.0, 9362.0, 8.390083312988281, -0.05588473379611969, -0.29944682121276855, -0.24513423442840576, -0.11916295439004898, -0.037992894649505615, 0.9911121129989624, -0.09120594710111618, -0.0037593841552734375, 1.49560546875, 1.423828125, 0.066802978515625, 1.490478515625
85742, 0.023938853293657303, -0.03191708028316498, 0.001721227657981217, 0.0002725115045905113, -0.00037084874929860234, -0.02431788481771946, 0.001289716805331409, -0.0015296958154067397, -0.06004777178168297, -0.7940120100975037, -1.0187129974365234, 0.05422096699476242, -1.8590098647024118, 0.47774451294779396, 178.8712044386232, 9362.0, 30146.0, 35388.0, 9362.0, 8.370248794555664, -0.05588473379611969, -0.29944682121276855, -0.24513423442840576, -0.12208598107099533, -0.036514732986688614, 0.9910271763801575, -0.09120594710111618, -0.0037593841552734375, 1.49560546875, 1.34765625, 0.0154571533203125, 1.490478515625
85752, 0.02545144595205784, -0.032177504152059555, 0.001440149499103427, 0.0002725115045905113, -0.00037084874929860234, -0.02431788481771946, 0.001289716805331409, -0.0015296958154067397, -0.06004777178168297, -0.794011652469635, -1.0186971426010132, 0.05423561483621597, -1.8500527955063217, 0.47164186914920947, 178.86667164413058, 9362.0, 30146.0, 35388.0, 9362.0, 8.370248794555664, -0.013134436681866646, -0.4190644323825836, -0.028044695034623146, -0.12208598107099533, -0.036514732986688614, 0.9910271763801575, -0.09120594710111618, -0.0037593841552734375, 1.49560546875, 1.383544921875, 0.026611328125, 1.490478515625
85762, 0.024724990129470825, -0.031420376151800156, 0.0016883661737665534, 0.00029940338572487235, -0.00040224153781309724, -0.02553674764931202, 0.0013989853905513883, -0.001610004692338407, -0.06183496490120888, -0.7940051555633545, -1.018700361251831, 0.054206736385822296, -1.8642867238180056, 0.4683555087259492, 178.87243598745093, 9362.0, 30146.0, 35388.0, 9362.0, 8.370248794555664, -0.2260068953037262, -0.2858762741088867, -0.390311062335968, -0.12208598107099533, -0.036514732986688614, 0.9910271763801575, -0.09120594710111618, -0.0037593841552734375, 1.49560546875, 1.383544921875, 0.026611328125, 1.490478515625
85772, 0.023701965808868408, -0.029805863276124, -0.0008279233588837087, 0.00031366682378575206, -0.0004185579891782254, -0.026158440858125687, 0.001453713164664805, -0.0016532916342839599, -0.06250329315662384, -0.7938635945320129, -1.0185483694076538, 0.0543406680226326, -1.6935538165265076, 0.6540352184296978, 178.908913895344, 9362.0, 30146.0, 35388.0, 9362.0, 8.370248794555664, -0.15279048681259155, -0.32439953088760376, -0.04153544455766678, -0.12208598107099533, -0.036514732986688614, 0.9910271763801575, -0.09120594710111618, -0.0037593841552734375, 1.49560546875, 1.383544921875, 0.026611328125, 1.490478515625
85782, 0.023743698373436928, -0.029716970399022102, -0.0008748222608119249, 0.00032847109832800925, -0.00043530113180167973, -0.02678682468831539, 0.0015071610687300563, -0.0016953484155237675, -0.06317310035228729, -0.7940071225166321, -1.0187300443649292, 0.05423542484641075, -1.8823558748845202, 0.4601305393514963, 178.8754183546742, 9362.0, 30146.0, 35388.0, 9362.0, 8.370248794555664, -0.15154686570167542, 0.3721756637096405, 0.18246892094612122, -0.12208598107099533, -0.036514732986688614, 0.9910271763801575, -0.09120594710111618, -0.0037593841552734375, 1.49560546875, 1.383544921875, 0.026611328125, 1.490478515625
85792, 0.023562585934996605, -0.031579624861478806, -0.001043630763888359, 0.000343795632943511, -0.0004524557734839618, -0.0274228285998106, 0.0015577498124912381, -0.001735576894134283, -0.064027339220047, -0.7937873601913452, -1.0186229944229126, 0.054367780685424805, -1.7112773747595171, 0.6736900706186475, 178.91372164412462, 9362.0, 30146.0, 35388.0, 9362.0, 8.370248794555664, -0.13264529407024384, -0.42006543278694153, -0.10324158519506454, -0.12208598107099533, -0.036514732986688614, 0.9910271763801575, -0.09120594710111618, -0.0037593841552734375, 1.49560546875, 1.383544921875, 0.026611328125, 1.490478515625
85802, 0.023620761930942535, -0.028936462476849556, -0.001321331481449306, 0.000343795632943511, -0.0004524557734839618, -0.0274228285998106, 0.0015577498124912381, -0.001735576894134283, -0.064027339220047, -0.7940288782119751, -1.0187509059906006, 0.05422921106219292, -1.8875279306271626, 0.44435939488178633, 178.86418955325814, 9362.0, 30146.0, 35388.0, 9362.0, 8.370248794555664, 0.06069192662835121, 0.0791393369436264, 0.0868956595659256, -0.12208598107099533, -0.036514732986688614, 0.9910271763801575, -0.09120594710111618, -0.0037593841552734375, 1.49560546875, 1.330810546875, 0.0203399658203125, 1.490478515625
85812, 0.024553801864385605, -0.026967890560626984, -0.001742974971421063, 0.00037597701884806156, -0.00048797341878525913, -0.02871653251349926, 0.0016620027599856257, -0.001816032687202096, -0.06534410268068314, -0.7938600778579712, -1.0185837745666504, 0.054377537220716476, -1.702443546480926, 0.6588953374717335, 178.909578550725, 9362.0, 30146.0, 35388.0, 9362.0, 8.370248794555664, 0.006839035078883171, -0.3708215653896332, -0.07060173153877258, -0.12208598107099533, -0.036514732986688614, 0.9910271763801575, -0.09120594710111618, -0.0037593841552734375, 1.49560546875, 1.330810546875, 0.0203399658203125, 1.490478515625
85832, 0.022413570433855057, -0.024954404681921005, -0.002029283670708537, 0.0004101828089915216, -0.0005251036491245031, -0.030040666460990906, 0.0017569491174072027, -0.0018978045554831624, -0.06705111265182495, -0.7940497398376465, -1.0186569690704346, 0.054240383207798004, -1.8505941052828478, 0.4764282405017184, 178.8720655644651, 9362.0, 30146.0, 35388.0, 9362.0, 8.370248794555664, 0.007857197895646095, 0.10296234488487244, -0.18390338122844696, -0.12208598107099533, -0.036514732986688614, 0.9910271763801575, -0.09120594710111618, -0.0037593841552734375, 1.49560546875, 1.3798828125, 0.0243377685546875, 1.49267578125
85842, 0.020830851048231125, -0.025441134348511696, -0.004276381339877844, 0.00042796102934516966, -0.0005442798719741404, -0.030715011060237885, 0.0017986894818022847, -0.0019374564290046692, -0.0678173080086708, -0.794074535369873, -1.0186585187911987, 0.05421653762459755, -1.8460328408748157, 0.45928998165462076, 178.87560567448017, 9362.0, 30146.0, 35388.0, 9362.0, 8.370248794555664, 0.007857197895646095, 0.10296234488487244, -0.18390338122844696, -0.12208598107099533, -0.036514732986688614, 0.9910271763801575, -0.09120594710111618, -0.0037593841552734375, 1.49560546875, 1.3857421875, 0.0280914306640625, 1.49267578125
85852, 0.018983609974384308, -0.022669166326522827, -0.00720884557813406, 0.00044616017839871347, -0.0005638450966216624, -0.031396351754665375, 0.0018411315977573395, -0.0019756050314754248, -0.06845056265592575, -0.7938562631607056, -1.0185794830322266, 0.05437631160020828, -1.6996980080113027, 0.6460859741955858, 178.91077012758421, 9362.0, 30146.0, 35388.0, 9362.0, 8.370248794555664, -0.17512920498847961, -0.20303769409656525, 0.24384264647960663, -0.12208598107099533, -0.036514732986688614, 0.9910271763801575, -0.09120594710111618, -0.0037593841552734375, 1.49560546875, 1.3857421875, 0.0280914306640625, 1.49267578125
85862, 0.017335573211312294, -0.022021347656846046, -0.006719913799315691, 0.0004647875903174281, -0.0005837781354784966, -0.03208465874195099, 0.0018843859434127808, -0.0020110243931412697, -0.06921035796403885, -0.794021487236023, -1.0187265872955322, 0.05425596982240677, -1.8769040327509607, 0.46312029452056436, 178.87554566353472, 9362.0, 30146.0, 35388.0, 9362.0, 8.370248794555664, -0.6096028089523315, -0.449523001909256, -0.16800205409526825, -0.12208598107099533, -0.036514732986688614, 0.9910271763801575, -0.09120594710111618, -0.0037593841552734375, 1.49560546875, 1.426025390625, 0.069732666015625, 1.49267578125
85882, 0.0062239584513008595, -0.01564551331102848, -0.01085436437278986, 0.0005032404442317784, -0.000624630250968039, -0.033483173698186874, 0.001960376277565956, -0.002072846982628107, -0.070674829185009, -0.794061541557312, -1.018650770187378, 0.054225191473960876, -1.844126664245392, 0.46531230381401656, 178.8789242529872, 9362.0, 30146.0, 35388.0, 9362.0, 8.370248794555664, -0.6221849918365479, 0.19831378757953644, 0.2743965685367584, -0.11973653733730316, -0.031679052859544754, 0.9916678071022034, -0.09120594710111618, -0.0037593841552734375, 1.49560546875, 1.43115234375, 0.0766143798828125, 1.49267578125
85892, -0.000961299694608897, -0.015718374401330948, -0.010160734876990318, 0.0005230033420957625, -0.0006454606191255152, -0.03419353440403938, 0.001992238452658057, -0.0020933025516569614, -0.07139655947685242, -0.7938613295555115, -1.018586277961731, 0.05438709259033203, -1.71477989050503, 0.6391279362165676, 178.9156913778489, 9362.0, 30146.0, 35388.0, 9362.0, 8.370248794555664, -0.8910269141197205, -0.23642797768115997, -2.6934307243209332e-05, -0.11973653733730316, -0.031679052859544754, 0.9916678071022034, -0.09120594710111618, -0.0037593841552734375, 1.49560546875, 1.43115234375, 0.0766143798828125, 1.49267578125
85902, -0.01029365323483944, -0.014734000898897648, -0.009637141600251198, 0.0005230033420957625, -0.0006454606191255152, -0.03419353440403938, 0.001992238452658057, -0.0020933025516569614, -0.07139655947685242, -0.7938596606254578, -1.0185664892196655, 0.05438658595085144, -1.7026925890493856, 0.6517981425154744, 178.9167911819595, 9362.0, 30146.0, 35388.0, 9362.0, 8.370248794555664, -0.938398003578186, -0.0843328908085823, -0.34751641750335693, -0.11973653733730316, -0.031679052859544754, 0.9916678071022034, -0.09120594710111618, -0.0037593841552734375, 1.49560546875, 1.389404296875, 0.03082275390625, 1.49267578125
85912, -0.019722606986761093, -0.014525270089507103, -0.011347416788339615, 0.0005633814143948257, -0.0006874782266095281, -0.03563263267278671, 0.002045657951384783, -0.00210241274908185, -0.07244018465280533, -0.7937964200973511, -1.018640398979187, 0.05441434681415558, -1.725492006218554, 0.6568194875466418, 178.91546532759202, 9362.0, 30146.0, 35388.0, 9362.0, 8.370248794555664, -1.0243281126022339, 0.10892525315284729, 0.296220064163208, -0.11973653733730316, -0.031679052859544754, 0.9916678071022034, -0.09120594710111618, -0.0037593841552734375, 1.49560546875, 1.389404296875, 0.03082275390625, 1.48828125
85922, -0.028520727530121803, -0.01599978469312191, -0.009329061023890972, 0.0005633814143948257, -0.0006874782266095281, -0.03563263267278671, 0.002045657951384783, -0.00210241274908185, -0.07244018465280533, -0.7940685749053955, -1.0186489820480347, 0.054233111441135406, -1.8430731115895478, 0.45985466331867997, 178.87675104115567, 9362.0, 30146.0, 35388.0, 9362.0, 8.370248794555664, -0.6237377524375916, 0.08434991538524628, 0.1406637728214264, -0.11973653733730316, -0.031679052859544754, 0.9916678071022034, -0.09120594710111618, -0.0037593841552734375, 1.49560546875, 1.386474609375, 0.028656005859375, 1.48828125
85932, -0.03591063991189003, -0.017149629071354866, -0.007790599018335342, 0.000604793312959373, -0.0007290982757695019, -0.037097442895174026, 0.002095302799716592, -0.002051770454272628, -0.07415913045406342, -0.7938568592071533, -1.0186094045639038, 0.05439114570617676, -1.7226963313815253, 0.6445748846870458, 178.90480346334542, 9362.0, 30146.0, 35388.0, 9362.0, 8.370248794555664, -0.5094916820526123, -0.1048939898610115, 0.6096253991127014, -0.11973653733730316, -0.031679052859544754, 0.9916678071022034, -0.09120594710111618, -0.0037593841552734375, 1.49560546875, 1.386474609375, 0.028656005859375, 1.494140625
85942, -0.03998414799571037, -0.01711282879114151, -0.003896693466231227, 0.0006258822395466268, -0.0007493738085031509, -0.03784293681383133, 0.0021224699448794127, -0.0020034306216984987, -0.07493900507688522, -0.7937827110290527, -1.0186407566070557, 0.05441170185804367, -1.7231591048123216, 0.6661934191685077, 178.90921483332272, 9362.0, 30146.0, 35388.0, 9362.0, 8.370248794555664, 0.03288494050502777, 0.007963587529957294, 0.2563348710536957, -0.11973653733730316, -0.031679052859544754, 0.9916678071022034, -0.09120594710111618, -0.0037593841552734375, 1.49560546875, 1.386474609375, 0.028656005859375, 1.494140625
85952, -0.039931006729602814, -0.018634987995028496, -0.0015655668685212731, 0.0006258822395466268, -0.0007493738085031509, -0.03784293681383133, 0.0021224699448794127, -0.0020034306216984987, -0.07493900507688522, -0.7938794493675232, -1.0185843706130981, 0.05437001958489418, -1.706994400484108, 0.6260284799250826, 178.90594772409105, 9362.0, 30146.0, 35388.0, 9362.0, 8.370248794555664, 0.23478668928146362, -0.2459574192762375, 0.3358422517776489, -0.11973653733730316, -0.031679052859544754, 0.9916678071022034, -0.09120594710111618, -0.0037593841552734375, 1.49560546875, 1.386474609375, 0.028656005859375, 1.494140625
85962, -0.037643082439899445, -0.017166249454021454, 0.00151186587754637, 0.0006689144647680223, -0.0007881876081228256, -0.03935600072145462, 0.002180680399760604, -0.0018745115958154202, -0.07640525698661804, -0.7940724492073059, -1.0186729431152344, 0.054238636046648026, -1.855109197348617, 0.4551240395535956, 178.88321612365905, 9362.0, 30146.0, 35388.0, 9362.0, 8.370248794555664, 0.48588645458221436, 0.47467902302742004, 0.4480632543563843, -0.11973653733730316, -0.031679052859544754, 0.9916678071022034, -0.09120594710111618, -0.0037593841552734375, 1.49560546875, 1.386474609375, 0.028656005859375, 1.494140625
