timeTick, roll, pitch, yaw, stateX, stateY, stateZ, stateVX, stateVY, stateVZ, otX0, otY0, otZ0, otRoll0, otPitch0, otYaw0, left wing, pitch motor, yaw motor, right wing, voltage, roll rate, pitch rate, yaw rate, A_x, A_y, A_z, current, i_raw, v_raw, airflow_voltage, airflow_speed, pot_Pitch
48038, 0.00042870533070527017, -0.0003404049784876406, -0.0008917662198655307, 0, 0, 0, 0, 0, 0, -0.6848514676094055, -0.7726829648017883, 0.05433836951851845, -0.4578570080881241, -1.0072572932262176, -4.651010813717332, 0, 0, 0, 0, 0, 0, 0, 0, 0, 0, 0, 0, 0, 0, 0, 0, 0
48048, -0.00020488326845224947, -0.001611450337804854, -0.0004633787029888481, 3.680413129814042e-08, -2.2385243880762573e-08, 8.245819481089711e-05, 2.8698825644823955e-06, -1.9596820948208915e-06, 0.005651390179991722, -0.6848545074462891, -0.7726820707321167, 0.054353971034288406, -0.4638483333927367, -1.0043590512106277, -4.655030234465949, 9362.0, 30146.0, 35388.0, 9362.0, 0, -0.07190104573965073, 0.22635787725448608, 0.05898742377758026, -0.11697816103696823, -0.020055213943123817, 1.0208405256271362, 0, 0, 0, 1.578369140625, 0.3665008544921875, 0
48058, 0.00019075945601798594, -0.0034071619156748056, 0.0002962469297926873, 7.958608705393999e-08, -4.0191622474594624e-08, 0.00014920206740498543, 5.750635409640381e-06, -1.615687551748124e-06, 0.007697778753936291, -0.6848361492156982, -0.7726897597312927, 0.05433674529194832, -0.460382539030541, -1.012347535298943, -4.669266691070518, 9362.0, 30146.0, 35388.0, 9362.0, 0, -0.09164783358573914, 0.0397186353802681, -0.16609083116054535, -0.11815395951271057, -0.01938110776245594, 1.0185070037841797, 0, 0, 0, 1.447998046875, 0.1016693115234375, 0
48068, -0.00017496818327344954, -0.003995795734226704, -0.0017148212064057589, 1.668193334580792e-07, -5.801268088134748e-08, 0.00023557431995868683, 1.1715306754922494e-05, -1.936737817231915e-06, 0.009577063843607903, -0.6848437786102295, -0.7726815342903137, 0.05432247370481491, -0.46087203363993073, -1.0061044773225376, -4.6525824923332655, 9362.0, 30146.0, 35388.0, 9362.0, 0, -0.0837373360991478, -0.2911253571510315, -0.2880418002605438, -0.11577069759368896, -0.016603292897343636, 1.0213758945465088, 0, 0, 0, 1.5439453125, 0.2884979248046875, 1.491943359375
48078, -0.00015076500130817294, -0.001882264157757163, -0.0031214170157909393, 3.188884534210956e-07, -7.585220629380274e-08, 0.0003415048704482615, 1.8623559299157932e-05, -1.6321969269483816e-06, 0.011609443463385105, -0.6848401427268982, -0.7726854085922241, 0.054331935942173004, -0.45815319675735483, -1.017726404077365, -4.6636298586563125, 9362.0, 30146.0, 35388.0, 9362.0, 0, -0.21286240220069885, 0.21007473766803741, -0.1169249564409256, -0.1170901358127594, -0.01746355928480625, 1.0205273628234863, 0, 0, 0, 1.519775390625, 0.236236572265625, 1.491943359375
48088, -0.0012743971310555935, -0.0016830950044095516, -0.0034939716570079327, 5.215719056650414e-07, -9.085764673955055e-08, 0.00046776526141911745, 2.1906060283072293e-05, -1.3290365359353018e-06, 0.013643044047057629, -0.6848556399345398, -0.7726923227310181, 0.05435483157634735, -0.461157363401443, -1.0051742763747598, -4.659085578044002, 9362.0, 30146.0, 35388.0, 9362.0, 0, -0.04601084068417549, -0.06272313743829727, -0.07342564314603806, -0.11547249555587769, -0.0183816347271204, 1.0178066492080688, 0, 0, 0, 1.57763671875, 0.3647918701171875, 1.491943359375
48098, -0.0007624523714184761, -0.0006852518417872488, -0.004729899577796459, 7.553065870524733e-07, -9.303862924525674e-08, 0.0006132040289230645, 2.4809538444969803e-05, 8.76678086569882e-07, 0.015445102006196976, -0.684855580329895, -0.7726782560348511, 0.054376065731048584, -0.4588432264407785, -1.0035183215078405, -4.655341230351771, 9362.0, 30146.0, 35388.0, 9362.0, 0, -0.032801296561956406, 0.07976634800434113, -0.07537934929132462, -0.1135900616645813, -0.01838172972202301, 1.019311785697937, 0, 0, 0, 1.506591796875, 0.2088775634765625, 1.491943359375
48108, -0.0005593781243078411, -0.0008968891925178468, -0.005444223061203957, 1.0093774562847102e-06, -7.762420750623278e-08, 0.0007767403149046004, 2.6011377485701814e-05, 2.1997507246851455e-06, 0.017262551933526993, -0.6848435997962952, -0.772686243057251, 0.054315876215696335, -0.4582501284707761, -1.0155716571989046, -4.6533315071459755, 9362.0, 30146.0, 35388.0, 9362.0, 0, -0.10604248195886612, -0.10164494812488556, -0.05166183412075043, -0.115317203104496, -0.01803698018193245, 1.0206869840621948, 0, 0, 0, 1.53955078125, 0.278778076171875, 1.4912109375
48118, -0.0005335741443559527, 0.00020566371676977724, -0.0056670308113098145, 1.2773277831001906e-06, -5.074017295214617e-08, 0.0009594575967639685, 2.7539857910596766e-05, 3.1761444461153587e-06, 0.019281312823295593, -0.6848492622375488, -0.7726737856864929, 0.05434514582157135, -0.4567003712119522, -1.0071789533104152, -4.651434475332562, 9362.0, 30146.0, 35388.0, 9362.0, 0, 0.06410322338342667, -0.4724174439907074, -0.010791658423841, -0.11928729712963104, -0.016935808584094048, 1.020848274230957, 0, 0, 0, 1.550537109375, 0.303131103515625, 1.4912109375
48128, -0.00021368631860241294, 0.0028152866289019585, -0.005396439228206873, 1.5509294826188125e-06, -1.4315677532295012e-08, 0.0011624750914052129, 2.708753709157463e-05, 4.097369583178079e-06, 0.0213225819170475, -0.6848334074020386, -0.7726933360099792, 0.05433306470513344, -0.4592374871808875, -1.016560153120082, -4.658992000844688, 9362.0, 30146.0, 35388.0, 9362.0, 0, -0.0753711462020874, 0.18485020101070404, 0.013528039678931236, -0.1184760108590126, -0.01912851072847843, 1.0223820209503174, 0, 0, 0, 1.540283203125, 0.280364990234375, 1.4912109375
48138, -0.0004650446935556829, 0.002757438225671649, -0.005636423826217651, 1.7971797205973417e-06, 2.852944902542731e-08, 0.001386367017403245, 2.2164655092637986e-05, 4.481034920900129e-06, 0.023456212133169174, -0.6848469972610474, -0.7726723551750183, 0.0543389767408371, -0.4599681908539798, -1.0029871726439978, -4.656612555946889, 9362.0, 30146.0, 35388.0, 9362.0, 8.350414276123047, -0.07506076991558075, -0.15161731839179993, 0.03891487792134285, -0.1172027438879013, -0.017370030283927917, 1.0218138694763184, -0.10180292278528214, -0.2635974884033203, 1.474365234375, 1.4794921875, 0.155975341796875, 1.4912109375
48148, -0.0003080239112023264, 0.0031619721557945013, -0.0062437960878014565, 1.9946930933656404e-06, 7.741231655700176e-08, 0.001631891238503158, 1.7322547137155198e-05, 5.289582986733876e-06, 0.02564902789890766, -0.6848454475402832, -0.7726726531982422, 0.0543367862701416, -0.46274606251051703, -1.0097947854408176, -4.654166243706158, 9362.0, 30146.0, 35388.0, 9362.0, 8.350414276123047, 0.15010811388492584, 0.08465447276830673, -0.1305568963289261, -0.1157618835568428, -0.018586009740829468, 1.0200186967849731, -0.10180292278528214, -0.2635974884033203, 1.474365234375, 1.447998046875, 0.1016693115234375, 1.49267578125
48158, 4.7194658691296354e-05, 0.003891240805387497, -0.008559209294617176, 2.140301148756407e-06, 1.3300153511863755e-07, 0.0018983206246048212, 1.1773789083235897e-05, 5.816158136440208e-06, 0.02763725072145462, -0.6848301291465759, -0.772685170173645, 0.05431855842471123, -0.45677093709591754, -1.0164863871426633, -4.655237776171494, 9362.0, 30146.0, 35388.0, 9362.0, 8.350414276123047, -0.06846385449171066, 0.28068286180496216, -0.015983834862709045, -0.11762277781963348, -0.020733507350087166, 1.0188229084014893, -0.10180292278528214, -0.2635974884033203, 1.474365234375, 1.575439453125, 0.3596649169921875, 1.49267578125
48168, -0.001373106730170548, 0.0023942170664668083, -0.010004018433392048, 2.224096533609554e-06, 1.907565234660069e-07, 0.002183970995247364, 5.033755769545678e-06, 5.781000254501123e-06, 0.029493210837244987, -0.6848323941230774, -0.7726940512657166, 0.05436311662197113, -0.4568160029003524, -1.004110025738015, -4.656762208290627, 9362.0, 30146.0, 35388.0, 9362.0, 8.350414276123047, 0.08955501019954681, 0.11703680455684662, -0.04061753302812576, -0.11511843651533127, -0.018821414560079575, 1.016242265701294, -0.10180292278528214, -0.2635974884033203, 1.474365234375, 1.55126953125, 0.304718017578125, 1.489013671875
48178, -0.00010688228212529793, 0.004450367763638496, -0.009878542274236679, 2.253588718303945e-06, 2.6052640578200226e-07, 0.002487301593646407, 8.043936077228864e-07, 8.135862117342185e-06, 0.031173313036561012, -0.6848486065864563, -0.7726835608482361, 0.054328881204128265, -0.4583809568942086, -1.0069799375068271, -4.657067553128404, 9362.0, 30146.0, 35388.0, 9362.0, 8.350414276123047, -0.17582285404205322, -0.04868445172905922, -0.03473573923110962, -0.11716362833976746, -0.017474524676799774, 1.01835298538208, -0.10180292278528214, -0.2635974884033203, 1.474365234375, 1.584228515625, 0.3801727294921875, 1.489013671875
48188, -0.0007683884468860924, 0.0039560217410326, -0.009413572028279305, 2.2228707621252397e-06, 3.428226307278237e-07, 0.002807572716847062, -6.933270924491808e-06, 8.343028639501426e-06, 0.032881319522857666, -0.6848345994949341, -0.7727014422416687, 0.05432011932134628, -0.457647697373505, -1.0170632421798587, -4.656790806166557, 9362.0, 30146.0, 35388.0, 9362.0, 8.350414276123047, 0.15433438122272491, -0.2254771739244461, -0.12567846477031708, -0.11639463901519775, -0.018725404515862465, 1.0219855308532715, -0.10180292278528214, -0.2635974884033203, 1.474365234375, 1.51171875, 0.21942138671875, 1.490478515625
48198, -0.0004239943518768996, 0.0061523448675870895, -0.010404434986412525, 2.1189650851738406e-06, 4.3297399088260136e-07, 0.0031466279178857803, -1.392635840602452e-05, 9.675059118308127e-06, 0.03493015095591545, -0.6848425269126892, -0.7726802825927734, 0.05434339493513107, -0.4552508011957274, -1.003081630518949, -4.6530633309053115, 9362.0, 30146.0, 35388.0, 9362.0, 8.350414276123047, 0.01158702839165926, 0.05646165460348129, 0.09831022471189499, -0.11817086488008499, -0.018495790660381317, 1.021152138710022, -0.10180292278528214, -0.2635974884033203, 1.474365234375, 1.559326171875, 0.32293701171875, 1.490478515625
48208, -0.00015627473476342857, 0.005294485948979855, -0.010356713086366653, 1.9259020973549923e-06, 5.334420052349742e-07, 0.0035064604599028826, -2.4654729713802226e-05, 1.0408694834040944e-05, 0.03703676164150238, -0.6848418712615967, -0.7726941704750061, 0.05431750789284706, -0.45759906563310515, -1.0159236299916756, -4.658489148367494, 9362.0, 30146.0, 35388.0, 9362.0, 8.350414276123047, -0.18021906912326813, -0.11259851604700089, -0.043136101216077805, -0.11849929392337799, -0.018952209502458572, 1.018500804901123, -0.10180292278528214, -0.2635974884033203, 1.474365234375, 1.541748046875, 0.2835540771484375, 1.49560546875
48218, -0.00031178808421827853, 0.005624298471957445, -0.011160287074744701, 1.6331620145138004e-06, 6.389007580764883e-07, 0.0038862181827425957, -3.390409619896673e-05, 1.0688281690818258e-05, 0.03891519829630852, -0.6848499774932861, -0.772683322429657, 0.05433575063943863, -0.4584386918778927, -1.0099752242364843, -4.648266815789435, 9362.0, 30146.0, 35388.0, 9362.0, 8.350414276123047, -0.3698307275772095, 0.30255115032196045, -0.011698880232870579, -0.11801736056804657, -0.01731749251484871, 1.0190868377685547, -0.10180292278528214, -0.2635974884033203, 1.474365234375, 1.525634765625, 0.248626708984375, 1.49560546875
48228, -0.0018547518411651254, 0.00219377176836133, -0.011418470181524754, 1.2450775557226734e-06, 7.485119226657844e-07, 0.004284489434212446, -4.3603609810816124e-05, 1.128307940234663e-05, 0.04073945805430412, -0.6848639249801636, -0.7726776599884033, 0.054320283234119415, -0.4565557514707624, -1.0056134510924437, -4.658373499507406, 9362.0, 30146.0, 35388.0, 9362.0, 8.350414276123047, -0.09856373816728592, -0.053076308220624924, -0.07338018715381622, -0.11743515729904175, -0.017843972891569138, 1.0192201137542725, -0.10180292278528214, -0.2635974884033203, 1.474365234375, 1.49853515625, 0.1927032470703125, 1.493408203125
48238, -0.0022801102604717016, 0.001040025381371379, -0.012425321154296398, 7.898959211161127e-07, 8.77536081134167e-07, 0.004701499827206135, -4.739394353237003e-05, 1.4536086382577196e-05, 0.04266307130455971, -0.6848557591438293, -0.7726856470108032, 0.05433364585042, -0.4578790758391142, -1.0120026616573625, -4.65482732541216, 9362.0, 30146.0, 35388.0, 9362.0, 8.350414276123047, -0.08419447392225266, 0.17283307015895844, -0.37621694803237915, -0.11606653779745102, -0.018162719905376434, 1.0194902420043945, -0.1038329228758812, -0.05751800537109375, 1.4912109375, 1.563720703125, 0.3327789306640625, 1.493408203125
48248, -0.002924621570855379, 0.00042401032987982035, -0.01589011959731579, 3.0688750030094525e-07, 1.0427908136989572e-06, 0.005137484520673752, -4.918740160064772e-05, 1.853601679613348e-05, 0.044534262269735336, -0.6848564147949219, -0.772685170173645, 0.054338522255420685, -0.4589823123820159, -1.0105927801138535, -4.656039998816938, 9362.0, 30146.0, 35388.0, 9362.0, 8.350414276123047, 0.04546263813972473, 0.49853917956352234, -0.15616145730018616, -0.11441321671009064, -0.017715096473693848, 1.020468831062317, -0.1038329228758812, -0.05751800537109375, 1.4912109375, 1.445068359375, 0.0970306396484375, 1.491943359375
48258, -0.0024752169847488403, -0.0045266468077898026, -0.01574612967669964, -1.8868337292587967e-07, 1.2536997928691562e-06, 0.005592829547822475, -4.9753998609958217e-05, 2.363003841310274e-05, 0.04653511196374893, -0.684858500957489, -0.77269446849823, 0.054324280470609665, -0.46101592073092934, -1.00536076585081, -4.658316030115959, 9362.0, 30146.0, 35388.0, 9362.0, 8.350414276123047, 0.04434087872505188, 0.2038564234972, 0.14045923948287964, -0.11740009486675262, -0.02040109969675541, 1.0225346088409424, -0.1038329228758812, -0.05751800537109375, 1.4912109375, 1.5029296875, 0.201446533203125, 1.491943359375
48268, -0.0021697089541703463, -0.00653007673099637, -0.014987108297646046, -6.466058835030708e-07, 1.5116492022571038e-06, 0.0060690599493682384, -4.1754512494662777e-05, 2.7948324714088812e-05, 0.0487113818526268, -0.6848301887512207, -0.7726912498474121, 0.054308660328388214, -0.45938589041828143, -1.0196182389132105, -4.663578035627037, 9362.0, 30146.0, 35388.0, 9362.0, 8.350414276123047, -0.1786947399377823, -0.3431105613708496, -0.16613268852233887, -0.11769497394561768, -0.019647294655442238, 1.0196781158447266, -0.1038329228758812, -0.05751800537109375, 1.4912109375, 1.38720703125, 0.0291900634765625, 1.49267578125
48278, -0.0031827872153371572, -0.0025382977910339832, -0.01638524979352951, -1.0070962161989883e-06, 1.8100730585501879e-06, 0.006566235795617104, -3.0426936064031906e-05, 3.1793351809028536e-05, 0.05072423443198204, -0.6848597526550293, -0.7726916074752808, 0.054326385259628296, -0.45837482129843593, -1.0077006034828457, -4.6541290033785, 9362.0, 30146.0, 35388.0, 9362.0, 8.350414276123047, 0.01808593049645424, -0.254932165145874, -0.15558594465255737, -0.11711060255765915, -0.019280754029750824, 1.0204709768295288, -0.1038329228758812, -0.05751800537109375, 1.4912109375, 1.477294921875, 0.1519775390625, 1.49267578125
48288, -0.0031827872153371572, -0.0025382977910339832, -0.01638524979352951, -1.2751112308251322e-06, 2.1611383544950513e-06, 0.007083063013851643, -2.323002991033718e-05, 3.8399146433221176e-05, 0.05264155939221382, -0.6848766803741455, -0.7726761102676392, 0.05429139360785484, -0.4487871086339515, -0.9925497015637461, -4.6750943438272685, 9362.0, 30146.0, 35388.0, 9362.0, 8.350414276123047, -0.05596126988530159, 0.16880805790424347, 0.3103058338165283, -0.11944182217121124, -0.01932733692228794, 1.0212489366531372, -0.1038329228758812, -0.05751800537109375, 1.4912109375, 1.52490234375, 0.247039794921875, 1.493408203125
48298, -0.0026931974571198225, -0.0023452695459127426, -0.013443553820252419, -1.4852217873340123e-06, 2.5729373192007188e-06, 0.007619675248861313, -1.8768983863992617e-05, 4.396981239551678e-05, 0.05468130111694336, -0.6848775148391724, -0.7726865410804749, 0.054266393184661865, -0.44696915836801515, -0.9943454806053751, -4.663466453639691, 9362.0, 30146.0, 35388.0, 9362.0, 8.350414276123047, -0.012612096033990383, 0.002187291858717799, 0.14858612418174744, -0.11842549592256546, -0.019553719088435173, 1.0213481187820435, -0.1038329228758812, -0.05751800537109375, 1.4912109375, 1.44287109375, 0.0936279296875, 1.493408203125
48308, -0.0026931974571198225, -0.0023452695459127426, -0.013443553820252419, -1.645002384975669e-06, 3.0426785997406114e-06, 0.008176823146641254, -1.3217829291534144e-05, 4.9951766413869336e-05, 0.05674869194626808, -0.6848889589309692, -0.7726863026618958, 0.05429533123970032, -0.4448544153988902, -0.9923286342907431, -4.669532701537537, 9362.0, 30146.0, 35388.0, 9362.0, 8.350414276123047, 0.09325706213712692, -0.03625098988413811, 0.15329107642173767, -0.11647513508796692, -0.018992627039551735, 1.017013430595398, -0.1038329228758812, -0.05751800537109375, 1.4912109375, 1.55712890625, 0.31793212890625, 1.48974609375
48318, -0.0023675484117120504, -0.0028080069459974766, -0.012847227044403553, -1.7567227814652142e-06, 3.5656778436532477e-06, 0.008753466419875622, -9.111532563110813e-06, 5.463772686198354e-05, 0.05858040973544121, -0.6848667860031128, -0.7726865410804749, 0.05429016053676605, -0.44456903170762585, -1.0005899473786428, -4.671941703163826, 9362.0, 30146.0, 35388.0, 9362.0, 8.350414276123047, -0.11284535378217697, -0.2857723832130432, 0.13761967420578003, -0.11834603548049927, -0.020773643627762794, 1.0180362462997437, -0.1038329228758812, -0.05751800537109375, 1.4912109375, 1.54248046875, 0.28521728515625, 1.48974609375
48328, -0.0019905602093786, -0.0022222772240638733, -0.011540288105607033, -1.8233708942716476e-06, 4.132674803258851e-06, 0.009347913786768913, -4.235863798385253e-06, 5.8750454627443105e-05, 0.06030937656760216, -0.6848849654197693, -0.7726876735687256, 0.054284773766994476, -0.4502576239878753, -0.9900460973584302, -4.677911711113249, 9362.0, 30146.0, 35388.0, 9362.0, 8.350414276123047, -0.3120797276496887, 0.06533773988485336, 0.11938124895095825, -0.11707412451505661, -0.01808880642056465, 1.018964409828186, -0.1038329228758812, -0.05751800537109375, 1.4912109375, 1.5498046875, 0.3014678955078125, 1.49267578125
48338, -0.0025744945742189884, -0.00022919154434930533, -0.010077912360429764, -1.8463485957909143e-06, 4.7375324356835335e-06, 0.009960105642676353, -3.627332603173272e-07, 6.226320692803711e-05, 0.06212935969233513, -0.6848756074905396, -0.7726925611495972, 0.05430113524198532, -0.450041989908201, -0.9998411876670161, -4.6699855298230855, 9362.0, 30146.0, 35388.0, 9362.0, 8.350414276123047, 0.03546673059463501, -0.18613652884960175, 0.033007122576236725, -0.11766011267900467, -0.01653761975467205, 1.021438479423523, -0.11684361100196838, -0.22775840759277344, 1.477294921875, 1.51611328125, 0.2286224365234375, 1.49267578125
48348, -0.0029951485339552164, 0.00014488336455542594, -0.00933204684406519, -1.8313870668862364e-06, 5.389150828705169e-06, 0.010591618716716766, 3.2873060717975022e-06, 6.803403084632009e-05, 0.06417358666658401, -0.68486487865448, -0.772685170173645, 0.05425485223531723, -0.44975083712902747, -1.0088290719884299, -4.6760379916046455, 9362.0, 30146.0, 35388.0, 9362.0, 8.350414276123047, 0.08780886977910995, -0.056487955152988434, 0.09748133271932602, -0.11709614098072052, -0.0175885371863842, 1.0202784538269043, -0.11684361100196838, -0.22775840759277344, 1.477294921875, 1.51904296875, 0.2346954345703125, 1.4912109375
48358, -0.0037584740202873945, -0.000942390353884548, -0.011145125143229961, -1.7965071492653806e-06, 6.091989234846551e-06, 0.011243556626141071, 3.6753078802576056e-06, 7.254859519889578e-05, 0.06621446460485458, -0.684918999671936, -0.7726854681968689, 0.054257385432720184, -0.4594639281592105, -1.0224854731647781, -4.640123898859506, 9362.0, 30146.0, 35388.0, 9362.0, 8.350414276123047, -0.15007895231246948, 0.11892865598201752, -0.19783790409564972, -0.11721152067184448, -0.017383327707648277, 1.0200793743133545, -0.11684361100196838, -0.22775840759277344, 1.477294921875, 1.51904296875, 0.2346954345703125, 1.4912109375
48368, -0.004489733371883631, 0.0007867508684284985, -0.013179266825318336, -1.761014914336556e-06, 6.843628852948314e-06, 0.011915507726371288, 3.4604854590725154e-06, 7.780549640301615e-05, 0.06817609071731567, -0.6849271655082703, -0.7726700305938721, 0.054187286645174026, -0.4765036955419991, -1.0157465999764952, -4.6577728161922884, 9362.0, 30146.0, 35388.0, 9362.0, 8.350414276123047, -0.10524556040763855, -0.0473351925611496, -0.12424163520336151, -0.11759356409311295, -0.018137406557798386, 1.0209108591079712, -0.11684361100196838, -0.22775840759277344, 1.477294921875, 1.54833984375, 0.298126220703125, 1.48828125
48378, -0.004252409562468529, -0.0028897798620164394, -0.01289124321192503, -1.71816679994663e-06, 7.654532964807004e-06, 0.012607553042471409, 5.047316335549112e-06, 8.440139936283231e-05, 0.07023334503173828, -0.6849330067634583, -0.7726828455924988, 0.05417117103934288, -0.47715199968063127, -1.0143430287266426, -4.648229440116933, 9362.0, 30146.0, 35388.0, 9362.0, 8.350414276123047, -0.04845905676484108, 0.4529620110988617, -0.014526084996759892, -0.1208377406001091, -0.01799805834889412, 1.0191665887832642, -0.11684361100196838, -0.22775840759277344, 1.477294921875, 1.42822265625, 0.0726470947265625, 1.48828125
48388, -0.004493522457778454, 0.0015227008843794465, -0.012830695137381554, -1.6745518678362714e-06, 8.537737812730484e-06, 0.013319500721991062, 3.7989173051755643e-06, 9.223156666848809e-05, 0.07215654850006104, -0.6849275827407837, -0.7726852893829346, 0.0542062409222126, -0.47328042595511055, -1.0174344796645016, -4.64822547741812, 9362.0, 30146.0, 35388.0, 9362.0, 8.350414276123047, -0.09445279091596603, -0.443697452545166, 0.004527076613157988, -0.11975546181201935, -0.01807624101638794, 1.021126627922058, -0.11684361100196838, -0.22775840759277344, 1.477294921875, 1.48828125, 0.172576904296875, 1.49267578125
48398, -0.006080552935600281, 0.0013664653524756432, -0.012457629665732384, -1.6112962839542888e-06, 9.497215614828747e-06, 0.01405135728418827, 8.693788913660683e-06, 9.967272490030155e-05, 0.07421521842479706, -0.6849362850189209, -0.7726922035217285, 0.05419297143816948, -0.4710942619443505, -1.0246891306564407, -4.639512494469287, 9362.0, 30146.0, 35388.0, 9362.0, 8.350414276123047, -0.2006165087223053, 0.053337644785642624, 0.14297428727149963, -0.11759151518344879, -0.01799081265926361, 1.0188897848129272, -0.11684361100196838, -0.22775840759277344, 1.477294921875, 1.494873046875, 0.185455322265625, 1.49267578125
48408, -0.006032758392393589, 0.001818411867134273, -0.012652797624468803, -1.5376367628050502e-06, 1.0533156455494463e-05, 0.014802973717451096, 6.0432425925682765e-06, 0.00010756779374787584, 0.07610838860273361, -0.6849326491355896, -0.7726784944534302, 0.05419737100601196, -0.4689285781788993, -1.024212940171509, -4.642894664236268, 9362.0, 30146.0, 35388.0, 9362.0, 8.350414276123047, 0.05880708247423172, -0.21305705606937408, -0.0693034827709198, -0.11798986047506332, -0.01678283140063286, 1.0198992490768433, -0.11684361100196838, -0.22775840759277344, 1.477294921875, 1.4677734375, 0.1347198486328125, 1.48974609375
48418, -0.00661021051928401, 0.0014971173368394375, -0.0133051797747612, -1.489119085817947e-06, 1.1661906683002599e-05, 0.015573622658848763, 3.6452624954108614e-06, 0.00011818067287094891, 0.07802173495292664, -0.6849345564842224, -0.772688090801239, 0.054201021790504456, -0.46938095150091874, -1.0174793162553328, -4.645663603329591, 9362.0, 30146.0, 35388.0, 9362.0, 8.350414276123047, -0.02699246071279049, 0.016416536644101143, -0.16625475883483887, -0.11896984279155731, -0.018951091915369034, 1.019273042678833, -0.11684361100196838, -0.22775840759277344, 1.477294921875, 1.428955078125, 0.073577880859375, 1.48974609375
48428, -0.006352009251713753, 0.0017453905893489718, -0.014150953851640224, -1.4685244877910009e-06, 1.2896365660708398e-05, 0.016363369300961494, 4.844637828682608e-07, 0.00012873038940597326, 0.07992810010910034, -0.684943437576294, -0.7726809978485107, 0.05421219393610954, -0.47366897715944123, -1.0094117589278255, -4.637731031543217, 9362.0, 30146.0, 35388.0, 9362.0, 8.350414276123047, 0.16584829986095428, 0.02991042286157608, -0.04180894419550896, -0.11814221739768982, -0.01936221867799759, 1.0214104652404785, -0.11684361100196838, -0.22775840759277344, 1.477294921875, 1.5703125, 0.34783935546875, 1.4912109375
48438, -0.007362659089267254, -0.0006345008150674403, -0.013105967082083225, -1.4767525726711028e-06, 1.4241451935959049e-05, 0.01717296615242958, -2.1388450477388687e-06, 0.00014027755241841078, 0.08199161291122437, -0.6849458813667297, -0.7726730704307556, 0.05422595888376236, -0.47442311099052525, -0.9995887430641517, -4.6409201021036255, 9362.0, 30146.0, 35388.0, 9362.0, 8.350414276123047, 0.02830832451581955, 0.2665414810180664, 0.12311844527721405, -0.1175035834312439, -0.01983427070081234, 1.0211751461029053, -0.09501660615205765, 0.08584022521972656, 1.5029296875, 1.571044921875, 0.349578857421875, 1.4912109375
48448, -0.007987595163285732, 0.00041463179513812065, -0.015464980155229568, -1.5133725810301257e-06, 1.569971391290892e-05, 0.018002834171056747, -5.102720479044365e-06, 0.00015140963660087436, 0.08398237824440002, -0.6849426627159119, -0.7726711630821228, 0.054212819784879684, -0.4717492416794531, -1.009429094143968, -4.63663091565126, 9362.0, 30146.0, 35388.0, 9362.0, 8.350414276123047, -0.026481108739972115, -0.2918950021266937, -0.2708783745765686, -0.11706562340259552, -0.016200296580791473, 1.0229130983352661, -0.09501660615205765, 0.08584022521972656, 1.5029296875, 1.51025390625, 0.2164154052734375, 1.489013671875
48458, -0.009041780605912209, 0.0014780070632696152, -0.015543048270046711, -1.5588287851642235e-06, 1.7278283849009313e-05, 0.018853891640901566, -4.029106094094459e-06, 0.00016432865231763572, 0.08622957020998001, -0.6849469542503357, -0.7726712226867676, 0.054211318492889404, -0.4738198745370894, -1.0067292269268364, -4.640536481549585, 9362.0, 30146.0, 35388.0, 9362.0, 8.350414276123047, -0.08023079484701157, 0.07606367766857147, 0.07983645796775818, -0.11404067277908325, -0.016036413609981537, 1.021227478981018, -0.09501660615205765, 0.08584022521972656, 1.5029296875, 1.5234375, 0.2439727783203125, 1.489013671875
48488, -0.009556789882481098, 0.003651002189144492, -0.01815115101635456, -1.5588287851642235e-06, 1.7278283849009313e-05, 0.018853891640901566, -4.029106094094459e-06, 0.00016432865231763572, 0.08622957020998001, -0.6849349141120911, -0.7726765871047974, 0.05423790216445923, -0.4736462216086219, -1.007421453245712, -4.642276557108793, 9362.0, 30146.0, 35388.0, 9362.0, 8.350414276123047, -0.05673608556389809, 0.030554678291082382, -0.23353055119514465, -0.11928998678922653, -0.021257534623146057, 1.0200121402740479, -0.09501660615205765, 0.08584022521972656, 1.5029296875, 1.54248046875, 0.28521728515625, 1.48828125
48498, -0.010461602360010147, 0.004674557596445084, -0.017618292942643166, -1.5588287851642235e-06, 1.7278283849009313e-05, 0.018853891640901566, -4.029106094094459e-06, 0.00016432865231763572, 0.08622957020998001, -0.6849453449249268, -0.7726732492446899, 0.05422384664416313, -0.47298945253953417, -1.0059267827344627, -4.63803024481705, 9362.0, 30146.0, 35388.0, 9362.0, 8.350414276123047, -0.22422832250595093, -0.1351127326488495, 0.09344188868999481, -0.11928998678922653, -0.021257534623146057, 1.0200121402740479, -0.09501660615205765, 0.08584022521972656, 1.5029296875, 1.56298828125, 0.3311767578125, 1.48828125
48568, -0.007598173804581165, 0.0012451977236196399, -0.020291654393076897, -2.3224692995427176e-06, 2.9943641493446194e-05, 0.024389075115323067, -3.0298029741970822e-05, 0.0002619345614220947, 0.09801967442035675, -0.6849307417869568, -0.7726805806159973, 0.05420082062482834, -0.4723268453790425, -1.0160611427467643, -4.652542674863126, 9362.0, 30146.0, 35388.0, 9362.0, 8.350414276123047, 0.16853615641593933, -0.09636035561561584, 0.036408066749572754, -0.11920081079006195, -0.019138170406222343, 1.0203558206558228, -0.09098707139492035, -0.04855918884277344, 1.491943359375, 1.502197265625, 0.20001220703125, 1.48828125
48588, -0.007094351574778557, 1.6916308595682494e-05, -0.021911192685365677, -2.3224692995427176e-06, 2.9943641493446194e-05, 0.024389075115323067, -3.0298029741970822e-05, 0.0002619345614220947, 0.09801967442035675, -0.6849525570869446, -0.7726760506629944, 0.05422346293926239, -0.46881673626614484, -1.0116413165125948, -4.636485329402657, 9362.0, 30146.0, 35388.0, 9362.0, 8.350414276123047, -0.1599966585636139, -0.4076244533061981, -0.3479335606098175, -0.11799737811088562, -0.018627764657139778, 1.0211503505706787, -0.09098707139492035, -0.04855918884277344, 1.491943359375, 1.486083984375, 0.16845703125, 1.48828125
48648, -0.004389114212244749, -0.002262273570522666, -0.023359812796115875, -6.945519089640584e-06, 6.435133400373161e-05, 0.03515171259641647, -5.341008727555163e-05, 0.00041395059088245034, 0.11745970696210861, -0.6849316358566284, -0.7726852297782898, 0.05420393496751785, -0.47262253393549625, -1.0159975375593717, -4.647978070993122, 9362.0, 30146.0, 35388.0, 9362.0, 8.350414276123047, 0.19025936722755432, 0.1434381604194641, -0.09099150449037552, -0.11765269190073013, -0.017987798899412155, 1.0195820331573486, -0.07965275645256042, -0.19191741943359375, 1.480224609375, 1.563720703125, 0.3327789306640625, 1.48828125
48658, -0.003928313963115215, -0.003128632204607129, -0.023397665470838547, -6.945519089640584e-06, 6.435133400373161e-05, 0.03515171259641647, -5.341008727555163e-05, 0.00041395059088245034, 0.11745970696210861, -0.6849584579467773, -0.7726801037788391, 0.05422193557024002, -0.4722341255115316, -1.0053820189453972, -4.634804001451539, 9362.0, 30146.0, 35388.0, 9362.0, 8.350414276123047, -0.048849545419216156, -0.17167164385318756, 0.03912041336297989, -0.11765269190073013, -0.017987798899412155, 1.0195820331573486, -0.07965275645256042, -0.19191741943359375, 1.480224609375, 1.471435546875, 0.14129638671875, 1.48828125
48668, -0.0032075110357254744, -0.0027386313304305077, -0.02503267489373684, -6.945519089640584e-06, 6.435133400373161e-05, 0.03515171259641647, -5.341008727555163e-05, 0.00041395059088245034, 0.11745970696210861, -0.6849327683448792, -0.7726854085922241, 0.05421379953622818, -0.4753308490190897, -1.0174271884291386, -4.644809211435035, 9362.0, 30146.0, 35388.0, 9362.0, 8.350414276123047, 0.07331400364637375, -0.024671079590916634, -0.18724006414413452, -0.11763922870159149, -0.017798181623220444, 1.021100401878357, -0.07965275645256042, -0.19191741943359375, 1.480224609375, 1.5673828125, 0.3411102294921875, 1.48828125
48688, -0.0023553106002509594, -0.004171707201749086, -0.027702966704964638, -6.945519089640584e-06, 6.435133400373161e-05, 0.03515171259641647, -5.341008727555163e-05, 0.00041395059088245034, 0.11745970696210861, -0.6849615573883057, -0.7726712226867676, 0.05422530323266983, -0.4748246241272353, -1.0088543327505022, -4.637467527031183, 9362.0, 30146.0, 35388.0, 9362.0, 8.350414276123047, -0.07030683755874634, -0.03743594139814377, -0.08055996149778366, -0.11850644648075104, -0.018733015283942223, 1.0204719305038452, -0.07965275645256042, -0.19191741943359375, 1.480224609375, 1.5234375, 0.2439727783203125, 1.48828125
48718, -0.003154824487864971, -0.005374781787395477, -0.027025746181607246, -1.1650056876533199e-05, 0.00011014101619366556, 0.047908250242471695, -2.3142907593864948e-05, 0.0004885501111857593, 0.13780967891216278, -0.6849488615989685, -0.772683322429657, 0.05425126850605011, -0.4749046186334961, -1.0137248022629706, -4.632378322397855, 9362.0, 30146.0, 35388.0, 9362.0, 8.350414276123047, -0.133904829621315, 0.09767968952655792, -0.06599639356136322, -0.11540805548429489, -0.01603645086288452, 1.0218565464019775, -0.07965275645256042, -0.19191741943359375, 1.480224609375, 1.5146484375, 0.225494384765625, 1.48828125
48738, -0.003564224112778902, -0.0028725378215312958, -0.02948077581822872, -1.1951969099754933e-05, 0.00012001024151686579, 0.05070246383547783, -6.150294211693108e-06, 0.0004987596767023206, 0.14159467816352844, -0.6849538683891296, -0.7726755738258362, 0.05422770231962204, -0.4715625161917226, -1.0082171096726427, -4.639283513749498, 9362.0, 30146.0, 35388.0, 9362.0, 8.350414276123047, 0.0718810111284256, -0.0037034954875707626, 0.17182554304599762, -0.117898128926754, -0.018121058121323586, 1.0210645198822021, -0.07965275645256042, -0.19191741943359375, 1.480224609375, 1.487548828125, 0.1712188720703125, 1.48828125
48788, -0.003543323837220669, -0.0027254584711045027, -0.030188627541065216, -1.1706740224326495e-05, 0.00014041585382074118, 0.056532081216573715, 1.483904998167418e-05, 0.0005226954817771912, 0.1499423086643219, -0.6849226951599121, -0.7726873159408569, 0.05420305207371712, -0.47379524248967103, -1.0277907899811112, -4.6467849088171, 9362.0, 30146.0, 35388.0, 9362.0, 8.350414276123047, 0.07543123513460159, -0.25012314319610596, -0.14312192797660828, -0.1146099790930748, -0.018572475761175156, 1.0231659412384033, -0.07965275645256042, -0.19191741943359375, 1.480224609375, 1.44140625, 0.0914459228515625, 1.48681640625
48798, -0.001992946956306696, -0.003452226286754012, -0.03086291253566742, -1.1706740224326495e-05, 0.00014041585382074118, 0.056532081216573715, 1.483904998167418e-05, 0.0005226954817771912, 0.1499423086643219, -0.6849387884140015, -0.7726709842681885, 0.05422388017177582, -0.4722956928007906, -1.0105633824820757, -4.639438844373384, 9362.0, 30146.0, 35388.0, 9362.0, 8.350414276123047, 0.15947949886322021, 0.04167390987277031, -0.10286799818277359, -0.11903677135705948, -0.01862182840704918, 1.020143985748291, -0.07965275645256042, -0.19191741943359375, 1.480224609375, 1.44140625, 0.0914459228515625, 1.48681640625
48818, -0.0024397021625190973, -0.003884017001837492, -0.032778311520814896, -1.1706740224326495e-05, 0.00014041585382074118, 0.056532081216573715, 1.483904998167418e-05, 0.0005226954817771912, 0.1499423086643219, -0.6849284172058105, -0.7726708054542542, 0.05419940873980522, -0.47518332941691754, -1.0162138883277123, -4.6482511800078905, 9362.0, 30146.0, 35388.0, 9362.0, 8.350414276123047, -0.06263243407011032, -0.07184024155139923, -0.0975164994597435, -0.11758343130350113, -0.016152923926711082, 1.019219160079956, -0.07965275645256042, -0.19191741943359375, 1.480224609375, 1.497802734375, 0.19122314453125, 1.48681640625
48828, -0.0013472571736201644, -0.007489374373108149, -0.032476458698511124, -1.1706740224326495e-05, 0.00014041585382074118, 0.056532081216573715, 1.483904998167418e-05, 0.0005226954817771912, 0.1499423086643219, -0.6849415898323059, -0.7726789116859436, 0.05422001704573631, -0.4692696900419943, -1.0125585281512883, -4.634015730853831, 9362.0, 30146.0, 35388.0, 9362.0, 8.350414276123047, 0.1904148906469345, 0.43677201867103577, 0.11309463530778885, -0.11785674840211868, -0.01794857159256935, 1.017887830734253, -0.07965275645256042, -0.19191741943359375, 1.480224609375, 1.52490234375, 0.247039794921875, 1.48681640625
48838, -0.0003457287384662777, -0.00945801567286253, -0.032514188438653946, -1.1706740224326495e-05, 0.00014041585382074118, 0.056532081216573715, 1.483904998167418e-05, 0.0005226954817771912, 0.1499423086643219, -0.6849300265312195, -0.7726709842681885, 0.05422520637512207, -0.4692973128200579, -1.0145679093021158, -4.634316463191004, 9362.0, 30146.0, 35388.0, 9362.0, 8.350414276123047, 0.008089671842753887, 0.12552084028720856, -0.08491742610931396, -0.11785674840211868, -0.01794857159256935, 1.017887830734253, -0.08204910904169083, -0.0037593841552734375, 1.49560546875, 1.52490234375, 0.247039794921875, 1.48681640625
48848, 0.0009569332469254732, -0.009814068675041199, -0.03420144319534302, -1.1706740224326495e-05, 0.00014041585382074118, 0.056532081216573715, 1.483904998167418e-05, 0.0005226954817771912, 0.1499423086643219, -0.684922993183136, -0.7726693153381348, 0.05421680957078934, -0.4684773474131269, -1.0125327643363846, -4.636665944227905, 9362.0, 30146.0, 35388.0, 9362.0, 8.350414276123047, 0.19090010225772858, 0.14167393743991852, -0.2127630114555359, -0.11785674840211868, -0.01794857159256935, 1.017887830734253, -0.08204910904169083, -0.0037593841552734375, 1.49560546875, 1.4970703125, 0.18975830078125, 1.48681640625
48908, -0.0009692735620774329, -0.015093838796019554, -0.032148443162441254, -7.285559149750043e-06, 0.000194996377103962, 0.07253491133451462, 0.00011088889732491225, 0.0005525692831724882, 0.1694377362728119, -0.6849429607391357, -0.7726743221282959, 0.05421880632638931, -0.4719262312028013, -1.0099960026225006, -4.635718628651745, 9362.0, 30146.0, 35388.0, 9362.0, 8.350414276123047, 0.11316695809364319, 0.24254415929317474, 0.13247522711753845, -0.11889675259590149, -0.017136739566922188, 1.0205285549163818, -0.08204910904169083, -0.0037593841552734375, 1.49560546875, 1.571044921875, 0.349578857421875, 1.494140625
48928, -0.0008503753924742341, -0.01366543397307396, -0.027392638847231865, -1.1336064744682517e-06, 0.00021705396648030728, 0.07947032898664474, 0.0002015067293541506, 0.0005530145135708153, 0.177285298705101, -0.6849337816238403, -0.7726740837097168, 0.054218366742134094, -0.47674304873140344, -1.0112669387323479, -4.632627089856577, 9362.0, 30146.0, 35388.0, 9362.0, 8.350414276123047, 0.2138136625289917, -0.05556931346654892, 0.183029443025589, -0.11889675259590149, -0.017136739566922188, 1.0205285549163818, -0.08204910904169083, -0.0037593841552734375, 1.49560546875, 1.521240234375, 0.2393646240234375, 1.489013671875
48948, -0.0006331271142698824, -0.012196778319776058, -0.030154457315802574, -1.1336064744682517e-06, 0.00021705396648030728, 0.07947032898664474, 0.0002015067293541506, 0.0005530145135708153, 0.177285298705101, -0.684939980506897, -0.772670328617096, 0.05423164740204811, -0.47003329405933786, -1.0131636777664994, -4.634776815613917, 9362.0, 30146.0, 35388.0, 9362.0, 8.350414276123047, -0.05465903505682945, -0.2850312888622284, 0.034740984439849854, -0.11871875077486038, -0.019393736496567726, 1.0200698375701904, -0.07758835703134537, -0.0037593841552734375, 1.49560546875, 1.521240234375, 0.2393646240234375, 1.48828125
48958, 0.00016234151553362608, -0.011414087377488613, -0.02802368812263012, -1.1336064744682517e-06, 0.00021705396648030728, 0.07947032898664474, 0.0002015067293541506, 0.0005530145135708153, 0.177285298705101, -0.6849393248558044, -0.7726708650588989, 0.05422143265604973, -0.4762072999546559, -1.0128552007569738, -4.641024857291388, 9362.0, 30146.0, 35388.0, 9362.0, 8.350414276123047, 0.11519724875688553, -0.12672100961208344, 0.237990602850914, -0.11871875077486038, -0.019393736496567726, 1.0200698375701904, -0.07758835703134537, -0.0037593841552734375, 1.49560546875, 1.55126953125, 0.304718017578125, 1.48828125
48978, 0.0011285630753263831, -0.01588745042681694, -0.028859451413154602, 1.5389712643809617e-05, 0.0002505910233594477, 0.09047269076108932, 0.00034151136060245335, 0.0005616368143819273, 0.18935726583003998, -0.6849471926689148, -0.7726652026176453, 0.05422542616724968, -0.4691319428338533, -1.00739135570808, -4.641339323657269, 9362.0, 30146.0, 35388.0, 9362.0, 8.350414276123047, 0.16974905133247375, 0.1720004826784134, -0.17735444009304047, -0.11871209740638733, -0.02050378918647766, 1.0208100080490112, -0.07758835703134537, -0.0037593841552734375, 1.49560546875, 1.5439453125, 0.2884979248046875, 1.48828125
48998, -0.000494257896207273, -0.01649266853928566, -0.028667613863945007, 2.27200762310531e-05, 0.00026182187139056623, 0.09430032968521118, 0.00039332141750492156, 0.0005601977463811636, 0.1931794136762619, -0.6849352717399597, -0.7726696133613586, 0.054233040660619736, -0.4720965782740773, -1.0101443915913535, -4.636061726937111, 9362.0, 30146.0, 35388.0, 9362.0, 8.350414276123047, -0.05448010563850403, 0.22010354697704315, 0.08156298100948334, -0.11629559099674225, -0.017763866111636162, 1.0161638259887695, -0.07758835703134537, -0.0037593841552734375, 1.49560546875, 1.550537109375, 0.303131103515625, 1.48828125
49008, -0.0006846616743132472, -0.01590876467525959, -0.028457781299948692, 2.27200762310531e-05, 0.00026182187139056623, 0.09430032968521118, 0.00039332141750492156, 0.0005601977463811636, 0.1931794136762619, -0.6849398612976074, -0.7726688385009766, 0.05423552170395851, -0.4750370528085876, -1.007559640672838, -4.6365255444782, 9362.0, 30146.0, 35388.0, 9362.0, 8.350414276123047, 0.08942872285842896, -0.26064348220825195, 0.004565598908811808, -0.11317283660173416, -0.020285960286855698, 1.0199846029281616, -0.07758835703134537, -0.0037593841552734375, 1.49560546875, 1.550537109375, 0.303131103515625, 1.48828125
49058, -0.001218829769641161, -0.019991055130958557, -0.03226279839873314, 4.0709899622015655e-05, 0.00028425888740457594, 0.10218283534049988, 0.0005089971818961203, 0.0005627195350825787, 0.20113317668437958, -0.6849442720413208, -0.7726618051528931, 0.05421797186136246, -0.4724127348804387, -1.0097045544412424, -4.6364718042066215, 9362.0, 30146.0, 35388.0, 9362.0, 8.350414276123047, -0.04495491087436676, -0.2931838631629944, -0.10011501610279083, -0.11934425681829453, -0.01793312281370163, 1.0202383995056152, -0.07758835703134537, -0.0037593841552734375, 1.49560546875, 1.571044921875, 0.349578857421875, 1.48974609375
49078, -0.0023425305262207985, -0.015687670558691025, -0.03427924960851669, 4.0709899622015655e-05, 0.00028425888740457594, 0.10218283534049988, 0.0005089971818961203, 0.0005627195350825787, 0.20113317668437958, -0.6849372386932373, -0.7726640701293945, 0.054220352321863174, -0.47497611556758096, -1.0094313195177165, -4.641186753159187, 9362.0, 30146.0, 35388.0, 9362.0, 8.350414276123047, 0.17644482851028442, 0.3519359230995178, 0.2515188753604889, -0.11847072094678879, -0.01947392337024212, 1.0198144912719727, -0.07758835703134537, -0.0037593841552734375, 1.49560546875, 1.52197265625, 0.2408599853515625, 1.48974609375
49088, -0.0012160979676991701, -0.017223399132490158, -0.03342065587639809, 4.0709899622015655e-05, 0.00028425888740457594, 0.10218283534049988, 0.0005089971818961203, 0.0005627195350825787, 0.20113317668437958, -0.6849435567855835, -0.7726617455482483, 0.0542244054377079, -0.47321573771289704, -1.0083101750000196, -4.6359307895085395, 9362.0, 30146.0, 35388.0, 9362.0, 8.350414276123047, 0.0002472771448083222, 0.20696508884429932, -0.41995206475257874, -0.1178760975599289, -0.0192496906965971, 1.0184623003005981, -0.07758835703134537, -0.0037593841552734375, 1.49560546875, 1.4619140625, 0.1246185302734375, 1.487548828125
49098, -0.001624413183890283, -0.019105803221464157, -0.035318709909915924, 7.736669795121998e-05, 0.00031822206801734865, 0.11461354792118073, 0.000703772297129035, 0.0005726749077439308, 0.21294090151786804, -0.6849401593208313, -0.7726653218269348, 0.05421772971749306, -0.4725629032868037, -1.0037531308390442, -4.638732695986082, 9362.0, 30146.0, 35388.0, 9362.0, 8.350414276123047, 0.10831919312477112, 0.26149818301200867, 0.1885899156332016, -0.1208576187491417, -0.01967308297753334, 1.0205497741699219, -0.07758835703134537, -0.0037593841552734375, 1.49560546875, 1.512451171875, 0.2209625244140625, 1.487548828125
49108, -0.001716657425276935, -0.02134164795279503, -0.03445008397102356, 8.457129297312349e-05, 0.00032396288588643074, 0.11675284802913666, 0.0007372233085334301, 0.000575495243538171, 0.2149202674627304, -0.6849441528320312, -0.772666335105896, 0.05422171205282211, -0.47261565079125517, -1.0115174794465531, -4.643188437811715, 9362.0, 30146.0, 35388.0, 9362.0, 8.350414276123047, 0.1560865193605423, -0.2900035083293915, -0.4327581226825714, -0.12215054780244827, -0.0166587233543396, 1.0226296186447144, -0.07758835703134537, -0.0037593841552734375, 1.49560546875, 1.5380859375, 0.2755889892578125, 1.491943359375
49128, -0.0014489038148894906, -0.01852455362677574, -0.03542420268058777, 9.213033627020195e-05, 0.00032973274937830865, 0.11891305446624756, 0.0007745134062133729, 0.0005784584791399539, 0.21712161600589752, -0.6849256157875061, -0.7726808786392212, 0.05421088635921478, -0.4782805370665219, -1.0248919600223871, -4.645297466887206, 9362.0, 30146.0, 35388.0, 9362.0, 8.350414276123047, 0.01676812209188938, 0.22862838208675385, -0.07507707923650742, -0.11872043460607529, -0.01903078705072403, 1.0190767049789429, -0.07758835703134537, -0.0037593841552734375, 1.49560546875, 1.569580078125, 0.3462371826171875, 1.4912109375
49168, 0.000559070787858218, -0.017793599516153336, -0.04046602174639702, 0.00012578650785144418, 0.00035302439937368035, 0.12775474786758423, 0.0009086803183890879, 0.000584140419960022, 0.22480806708335876, -0.6849358081817627, -0.7726635336875916, 0.054217152297496796, -0.47391330130227155, -1.0086608528128806, -4.64568122469227, 9362.0, 30146.0, 35388.0, 9362.0, 8.350414276123047, 0.07917888462543488, 0.5902994871139526, -0.11177156120538712, -0.11835218220949173, -0.01840376853942871, 1.0213230848312378, -0.09400796890258789, -0.13815879821777344, 1.484619140625, 1.546875, 0.2949676513671875, 1.4912109375
49218, -0.0006638160557486117, -0.017711658030748367, -0.04079810902476311, 0.00018643485964275897, 0.00038786212098784745, 0.1416121870279312, 0.001118409913033247, 0.0005795354954898357, 0.23674336075782776, -0.6849237680435181, -0.7726765871047974, 0.054210010915994644, -0.46759887595971455, -1.0242235835304143, -4.641411216004638, 9362.0, 30146.0, 35388.0, 9362.0, 8.350414276123047, -0.24103392660617828, 0.18065397441387177, -0.2693693935871124, -0.11951170861721039, -0.01951523870229721, 1.0164767503738403, -0.09400796890258789, -0.13815879821777344, 1.484619140625, 1.426025390625, 0.069732666015625, 1.494873046875
49228, -0.002487623831257224, -0.018766524270176888, -0.041436709463596344, 0.00018643485964275897, 0.00038786212098784745, 0.1416121870279312, 0.001118409913033247, 0.0005795354954898357, 0.23674336075782776, -0.6849271655082703, -0.7726708054542542, 0.054224301129579544, -0.47598128554009317, -1.0164562673656974, -4.638012313899705, 9362.0, 30146.0, 35388.0, 9362.0, 8.350414276123047, -0.1429893970489502, -0.05955477058887482, -0.1005510464310646, -0.11911008507013321, -0.020152779296040535, 1.0210988521575928, -0.09400796890258789, -0.13815879821777344, 1.484619140625, 1.51171875, 0.21942138671875, 1.494873046875
49238, -0.0023256256245076656, -0.020010311156511307, -0.0416928231716156, 0.00018643485964275897, 0.00038786212098784745, 0.1416121870279312, 0.001118409913033247, 0.0005795354954898357, 0.23674336075782776, -0.6849353313446045, -0.7726711630821228, 0.054236989468336105, -0.4730008475485504, -1.011635983315017, -4.639221594477411, 9362.0, 30146.0, 35388.0, 9362.0, 8.350414276123047, 0.09950335323810577, -0.04983144626021385, -0.11915120482444763, -0.11911008507013321, -0.020152779296040535, 1.0210988521575928, -0.11637222021818161, -0.08439826965332031, 1.489013671875, 1.51171875, 0.21942138671875, 1.494873046875
49248, -0.0016256930539384484, -0.019858909770846367, -0.04293385520577431, 0.00018643485964275897, 0.00038786212098784745, 0.1416121870279312, 0.001118409913033247, 0.0005795354954898357, 0.23674336075782776, -0.6849325299263, -0.7726730704307556, 0.054249539971351624, -0.469215272394386, -1.0095444925655102, -4.631596468098763, 9362.0, 30146.0, 35388.0, 9362.0, 8.350414276123047, -0.03011859580874443, 0.13212516903877258, -0.03212961554527283, -0.11911008507013321, -0.020152779296040535, 1.0210988521575928, -0.11637222021818161, -0.08439826965332031, 1.489013671875, 1.512451171875, 0.2209625244140625, 1.494873046875
49258, -0.0012524829944595695, -0.020346973091363907, -0.0439268983900547, 0.00018643485964275897, 0.00038786212098784745, 0.1416121870279312, 0.001118409913033247, 0.0005795354954898357, 0.23674336075782776, -0.684939444065094, -0.7726722955703735, 0.05421799421310425, -0.4808088728685855, -1.0118647086235626, -4.63142336751158, 9362.0, 30146.0, 35388.0, 9362.0, 8.350414276123047, -0.03011859580874443, 0.13212516903877258, -0.03212961554527283, -0.11911008507013321, -0.020152779296040535, 1.0210988521575928, -0.11637222021818161, -0.08439826965332031, 1.489013671875, 1.55126953125, 0.304718017578125, 1.494873046875
49268, 0.00027871044585481286, -0.01932401955127716, -0.045147668570280075, 0.00018643485964275897, 0.00038786212098784745, 0.1416121870279312, 0.001118409913033247, 0.0005795354954898357, 0.23674336075782776, -0.6849183440208435, -0.7726739048957825, 0.05419004335999489, -0.4757486017126068, -1.019067371493719, -4.644974837723373, 9362.0, 30146.0, 35388.0, 9362.0, 8.350414276123047, -0.08374291658401489, -0.10847152024507523, 0.32875892519950867, -0.11911008507013321, -0.020152779296040535, 1.0210988521575928, -0.11637222021818161, -0.08439826965332031, 1.489013671875, 1.541748046875, 0.2835540771484375, 1.494873046875
49278, -0.0005363132222555578, -0.01897914707660675, -0.04272245243191719, 0.00018643485964275897, 0.00038786212098784745, 0.1416121870279312, 0.001118409913033247, 0.0005795354954898357, 0.23674336075782776, -0.6849488615989685, -0.7726660370826721, 0.0542154386639595, -0.47305416627282687, -1.0102317166849843, -4.6384770807985465, 9362.0, 30146.0, 35388.0, 9362.0, 8.350414276123047, 0.15466351807117462, 0.3615679442882538, -0.05607355758547783, -0.1177746132016182, -0.020238813012838364, 1.0202935934066772, -0.11637222021818161, -0.08439826965332031, 1.489013671875, 1.4736328125, 0.1452178955078125, 1.494873046875
49298, 0.0006107322406023741, -0.023101486265659332, -0.04163183644413948, 0.0002866203722078353, 0.00043500924948602915, 0.1611839383840561, 0.0013920478522777557, 0.0005928517202846706, 0.2527395486831665, -0.6849395036697388, -0.7726608514785767, 0.05423613637685776, -0.47205181795490747, -1.0140341607563244, -4.634388969049086, 9362.0, 30146.0, 35388.0, 9362.0, 8.350414276123047, -0.0018838116666302085, 0.19267882406711578, -0.33583006262779236, -0.1177746132016182, -0.020238813012838364, 1.0202935934066772, -0.11637222021818161, -0.08439826965332031, 1.489013671875, 1.486083984375, 0.16845703125, 1.494873046875
49318, 0.0020956313237547874, -0.026043551042675972, -0.04243423789739609, 0.00031527751707471907, 0.00044683433952741325, 0.16627658903598785, 0.0014746548840776086, 0.0005886831786483526, 0.2564770579338074, -0.6849420070648193, -0.7726539373397827, 0.05422507971525192, -0.47486702257811836, -1.0101775139848712, -4.641435414187791, 9362.0, 30146.0, 35388.0, 9362.0, 8.350414276123047, -0.12113970518112183, 0.23314109444618225, 0.1351587176322937, -0.11694233864545822, -0.016240913420915604, 1.0198692083358765, -0.11637222021818161, -0.08439826965332031, 1.489013671875, 1.53076171875, 0.2596435546875, 1.494873046875
49348, 0.0023974503856152296, -0.03176122158765793, -0.040881119668483734, 0.00034570053685456514, 0.00045853893971070647, 0.1714455783367157, 0.001569798681885004, 0.0005822443054057658, 0.26062506437301636, -0.6849372386932373, -0.7726626396179199, 0.05422646179795265, -0.4749683380160888, -1.0132632601648481, -4.641217963060392, 9362.0, 30146.0, 35388.0, 9362.0, 8.350414276123047, -0.11120286583900452, 0.2521383464336395, 0.16012771427631378, -0.1180896982550621, -0.017986930906772614, 1.018744945526123, -0.11637222021818161, -0.08439826965332031, 1.489013671875, 1.491943359375, 0.179656982421875, 1.49267578125
49398, 0.002075270749628544, -0.0412878654897213, -0.040785662829875946, 0.0004503937961999327, 0.0004928606795147061, 0.18746232986450195, 0.001935277716256678, 0.0005603806930594146, 0.2731564939022064, -0.6849201321601868, -0.7726724147796631, 0.054193343967199326, -0.4755488866413941, -1.019056714055381, -4.645851054132343, 9362.0, 30146.0, 35388.0, 9362.0, 8.350414276123047, -0.08574211597442627, 0.3969089388847351, 0.4565657377243042, -0.11650512367486954, -0.01906917430460453, 1.0205419063568115, -0.11637222021818161, -0.08439826965332031, 1.489013671875, 1.5615234375, 0.3278350830078125, 1.496337890625
49418, 0.0028995785396546125, -0.03910793364048004, -0.040122900158166885, 0.0004503937961999327, 0.0004928606795147061, 0.18746232986450195, 0.001935277716256678, 0.0005603806930594146, 0.2731564939022064, -0.6849331855773926, -0.772675633430481, 0.054238807410001755, -0.47997207034652134, -1.0112094231608353, -4.640335627571749, 9362.0, 30146.0, 35388.0, 9362.0, 8.350414276123047, -0.025903141126036644, -0.27713197469711304, -0.12382006645202637, -0.11921264231204987, -0.01940293237566948, 1.020219087600708, -0.11637222021818161, -0.08439826965332031, 1.489013671875, 1.487548828125, 0.1712188720703125, 1.496337890625
49428, 0.0027118821162730455, -0.03830501809716225, -0.0412897989153862, 0.0004503937961999327, 0.0004928606795147061, 0.18746232986450195, 0.001935277716256678, 0.0005603806930594146, 0.2731564939022064, -0.6849212646484375, -0.7726783156394958, 0.05421070009469986, -0.4755328696009303, -1.01863877999358, -4.6370473536679935, 9362.0, 30146.0, 35388.0, 9362.0, 8.350414276123047, 0.1505720019340515, -0.19356215000152588, -0.09057197719812393, -0.12080028653144836, -0.017942937090992928, 1.0197314023971558, -0.11637222021818161, -0.08439826965332031, 1.489013671875, 1.54248046875, 0.28521728515625, 1.496337890625
49458, 0.004773240070790052, -0.03613508865237236, -0.038232918828725815, 0.0004503937961999327, 0.0004928606795147061, 0.18746232986450195, 0.001935277716256678, 0.0005603806930594146, 0.2731564939022064, -0.6849459409713745, -0.7726732492446899, 0.05423279106616974, -0.4728468229009896, -1.0123662646155651, -4.6308307918887825, 9362.0, 30146.0, 35388.0, 9362.0, 8.350414276123047, -0.23150722682476044, 0.25514018535614014, 0.22069555521011353, -0.11984048038721085, -0.017033115029335022, 1.0185068845748901, -0.0793386772274971, 0.08584022521972656, 1.5029296875, 1.513916015625, 0.224029541015625, 1.49560546875
49508, 0.004679892677813768, -0.042447950690984726, -0.040214378386735916, 0.0006273145554587245, 0.0005359291681088507, 0.2099551558494568, 0.0024786931462585926, 0.0005111867794767022, 0.28885266184806824, -0.6849486827850342, -0.772685170173645, 0.05422140657901764, -0.4751084187739581, -1.0119389717353329, -4.6374020077347256, 9362.0, 30146.0, 35388.0, 9362.0, 8.350414276123047, -0.08652708679437637, 0.3791159391403198, -0.0453169010579586, -0.11669875681400299, -0.01881634257733822, 1.0195084810256958, -0.0793386772274971, 0.08584022521972656, 1.5029296875, 1.4150390625, 0.05596923828125, 1.494873046875
49518, 0.0047566997818648815, -0.046026214957237244, -0.04044881835579872, 0.0006273145554587245, 0.0005359291681088507, 0.2099551558494568, 0.0024786931462585926, 0.0005111867794767022, 0.28885266184806824, -0.6849439144134521, -0.7726737260818481, 0.05421881377696991, -0.4735063666437064, -1.0138540821289155, -4.643582501144922, 9362.0, 30146.0, 35388.0, 9362.0, 8.350414276123047, -0.08652708679437637, 0.3791159391403198, -0.0453169010579586, -0.11669875681400299, -0.01881634257733822, 1.0195084810256958, -0.0793386772274971, 0.08584022521972656, 1.5029296875, 1.434814453125, 0.081787109375, 1.494873046875
49538, 0.004959368146955967, -0.050085775554180145, -0.04461109638214111, 0.0007889583357609808, 0.0005653778207488358, 0.22764571011066437, 0.002927481895312667, 0.00046955919242464006, 0.30068472027778625, -0.6849495768547058, -0.772675096988678, 0.054220281541347504, -0.47324058168216215, -1.0139240442336472, -4.638886548100598, 9362.0, 30146.0, 35388.0, 9362.0, 8.350414276123047, 0.2764870822429657, 0.17498661577701569, -0.22643625736236572, -0.11669875681400299, -0.01881634257733822, 1.0195084810256958, -0.09069991111755371, -0.021678924560546875, 1.494140625, 1.4736328125, 0.1452178955078125, 1.494873046875
49548, 0.004990623332560062, -0.05120418220758438, -0.04278460890054703, 0.0007889583357609808, 0.0005653778207488358, 0.22764571011066437, 0.002927481895312667, 0.00046955919242464006, 0.30068472027778625, -0.6849268078804016, -0.7726854085922241, 0.054199133068323135, -0.47478138977575246, -1.0152982900732468, -4.6479817253873055, 9362.0, 30146.0, 35388.0, 9362.0, 8.350414276123047, 0.13495486974716187, 0.35127484798431396, 0.09174709767103195, -0.1152537390589714, -0.019996751099824905, 1.0192101001739502, -0.09069991111755371, -0.021678924560546875, 1.494140625, 1.4736328125, 0.1452178955078125, 1.494873046875
49578, 0.005522986873984337, -0.055645909160375595, -0.04446139931678772, 0.0009132387931458652, 0.0005834384937770665, 0.23982277512550354, 0.0032950073946267366, 0.00043236720375716686, 0.30819207429885864, -0.684945821762085, -0.7726733088493347, 0.054230697453022, -0.4707523783196748, -1.0127995924281663, -4.641878491624607, 9362.0, 30146.0, 35388.0, 9362.0, 8.350414276123047, -0.09196006506681442, -0.36053699254989624, -0.010128417983651161, -0.11738825589418411, -0.01888488233089447, 1.0182538032531738, -0.09069991111755371, -0.021678924560546875, 1.494140625, 1.52490234375, 0.247039794921875, 1.494873046875
49598, 0.005181687884032726, -0.05387366935610771, -0.046578116714954376, 0.0009810557821765542, 0.000591895601246506, 0.24602580070495605, 0.0034842281602323055, 0.00041373996646143496, 0.3121585249900818, -0.6849338412284851, -0.7726845741271973, 0.05420906841754913, -0.46936091071266167, -1.0206400289997646, -4.640059608132736, 9362.0, 30146.0, 35388.0, 9362.0, 8.350414276123047, 0.12846174836158752, -0.01947678253054619, -0.029015090316534042, -0.11609271168708801, -0.018929265439510345, 1.0202312469482422, -0.09069991111755371, -0.021678924560546875, 1.494140625, 1.537353515625, 0.27386474609375, 1.494873046875
49608, 0.0056172143667936325, -0.054222606122493744, -0.04735410958528519, 0.0009810557821765542, 0.000591895601246506, 0.24602580070495605, 0.0034842281602323055, 0.00041373996646143496, 0.3121585249900818, -0.6849452257156372, -0.7726718783378601, 0.05421607941389084, -0.4760872593323174, -1.006543741380824, -4.642939908083008, 9362.0, 30146.0, 35388.0, 9362.0, 8.350414276123047, 0.10563647001981735, 0.019304675981402397, -0.0637928918004036, -0.116982102394104, -0.016961298882961273, 1.0192866325378418, -0.09069991111755371, -0.021678924560546875, 1.494140625, 1.537353515625, 0.27386474609375, 1.494873046875
49658, 0.008152555674314499, -0.05518890172243118, -0.04701565206050873, 0.001207093708217144, 0.0006149493856355548, 0.2651008367538452, 0.004055366385728121, 0.0003510888200253248, 0.3238796889781952, -0.6849406957626343, -0.7726762890815735, 0.0542294941842556, -0.4747290157845348, -1.0164102913949193, -4.640636584947624, 9362.0, 30146.0, 35388.0, 9362.0, 8.350414276123047, -0.2566511332988739, 0.18582569062709808, -0.038760848343372345, -0.11836929619312286, -0.017706474289298058, 1.0200438499450684, -0.09069991111755371, -0.021678924560546875, 1.494140625, 1.480224609375, 0.157379150390625, 1.49267578125
49688, 0.008507082238793373, -0.05692984536290169, -0.0474359393119812, 0.001207093708217144, 0.0006149493856355548, 0.2651008367538452, 0.004055366385728121, 0.0003510888200253248, 0.3238796889781952, -0.684938371181488, -0.7726743817329407, 0.054230496287345886, -0.4751365165559297, -1.016582951595268, -4.640334241035831, 9362.0, 30146.0, 35388.0, 9362.0, 8.350414276123047, 0.0965600535273552, 0.4563088119029999, 0.12140342593193054, -0.11778574436903, -0.019369954243302345, 1.0201960802078247, -0.09069991111755371, -0.021678924560546875, 1.494140625, 1.499267578125, 0.1941070556640625, 1.493408203125
