timeTick, roll, pitch, yaw, stateX, stateY, stateZ, stateVX, stateVY, stateVZ, otX0, otY0, otZ0, otRoll0, otPitch0, otYaw0, left wing, pitch motor, yaw motor, right wing, voltage, roll rate, pitch rate, yaw rate, A_x, A_y, A_z, current, i_raw, v_raw, airflow_voltage, airflow_speed, pot_Pitch
43270, -1.31130850315094, 3.4064793586730957, -2.6869657039642334, 0, 0, 0, 0, 0, 0, -0.7064849734306335, -0.7605574131011963, 0.0533628985285759, -1.3228306344078378, -1.538421796846933, -5.435264163171391, 0, 0, 0, 0, 0, 0, 0, 0, 0, 0, 0, 0, 0, 0, 0, 0, 0
43280, -1.3117564916610718, 3.4046237468719482, -2.6857690811157227, 0.002112835645675659, -0.0009284316329285502, -76.52398681640625, 0.20845414698123932, -0.09159985184669495, -3.668574094772339, -0.706454336643219, -0.760563850402832, 0.05340294539928436, -1.2987594739060684, -1.5479150024225419, -5.438474541074705, 9362.0, 30146.0, 35388.0, 9362.0, 0, -0.05970403924584389, 0.02977582812309265, 0.1400945633649826, 0, 0, 0, 0, 0, 0, 0, 0, 0
43290, -1.3112465143203735, 3.402409553527832, -2.6867690086364746, 0.004169060382992029, -0.0018319672672078013, -76.56067657470703, 0.2027907371520996, -0.08910739421844482, -3.6696722507476807, -0.7064549326896667, -0.7605766654014587, 0.05342385172843933, -1.296577336072074, -1.5515784425867878, -5.443709200854232, 9362.0, 30146.0, 35388.0, 9362.0, 0, 0.06774971634149551, 0.22497698664665222, -0.029872462153434753, -0.12913019955158234, -0.03212451934814453, 0.9903697967529297, 0, 0, 0, 0, 0, 0
43300, -1.3115798234939575, 3.4010567665100098, -2.685621738433838, 0.006168682593852282, -0.002710582921281457, -76.59738159179688, 0.19713373482227325, -0.08661560714244843, -3.670825242996216, -0.706462025642395, -0.7606435418128967, 0.05392865091562271, -1.1605495641777692, -1.422613458304994, -5.438912214722389, 9362.0, 30146.0, 35388.0, 9362.0, 0, -0.07428906112909317, 0.36891308426856995, 0.21324676275253296, -0.12991781532764435, -0.031120145693421364, 0.9905005693435669, 0, 0, 0, 1.61279296875, 0.4476470947265625, 0
43310, -1.3119877576828003, 3.4009006023406982, -2.684906244277954, 0.0081117432564497, -0.0035642809234559536, -76.63409423828125, 0.19147835671901703, -0.0841241106390953, -3.671943426132202, -0.7064583897590637, -0.7606365084648132, 0.0539330430328846, -1.1663146763984138, -1.4312149707840263, -5.433511929746953, 9362.0, 30146.0, 35388.0, 9362.0, 0, 0.1429600715637207, -0.07574939727783203, 0.1644686907529831, -0.12841102480888367, -0.031224248930811882, 0.9919323921203613, 0, 0, 0, 1.5498046875, 0.3014678955078125, 1.49267578125
43320, -1.3114780187606812, 3.400541067123413, -2.685304880142212, 0.009998233988881111, -0.004393049981445074, -76.67082214355469, 0.1858198642730713, -0.08162982016801834, -3.6729674339294434, -0.7064565420150757, -0.7606445550918579, 0.053921643644571304, -1.166408823070867, -1.4268934935376762, -5.439420753142763, 9362.0, 30146.0, 35388.0, 9362.0, 0, -0.01932526007294655, 0.10058116912841797, -0.09538330137729645, -0.1293155401945114, -0.03077123500406742, 0.9905081391334534, 0, 0, 0, 1.6083984375, 0.437225341796875, 1.49267578125
43330, -1.311032772064209, 3.399477005004883, -2.683927536010742, 0.011828167364001274, -0.005196884740144014, -76.70755767822266, 0.18016691505908966, -0.07913712412118912, -3.6740822792053223, -0.7064935564994812, -0.7606318593025208, 0.05396583676338196, -1.192022147496384, -1.4647280545764545, -5.456156578078467, 9362.0, 30146.0, 35388.0, 9362.0, 0, -0.23581252992153168, 0.31766197085380554, 0.20903097093105316, -0.12927128374576569, -0.030649777501821518, 0.9910317063331604, 0, 0, 0, 1.516845703125, 0.23004150390625, 1.49267578125
43340, -1.3116679191589355, 3.3970024585723877, -2.683913230895996, 0.01360156200826168, -0.005975791253149509, -76.74430084228516, 0.1745118498802185, -0.07664429396390915, -3.675151824951172, -0.7064469456672668, -0.7606502175331116, 0.05393282324075699, -1.1630576201152356, -1.4274947986380937, -5.439851711614282, 9362.0, 30146.0, 35388.0, 9362.0, 0, -0.08110105991363525, 0.20413370430469513, 0.170089453458786, -0.1296541690826416, -0.032963190227746964, 0.9918655157089233, 0, 0, 0, 1.60400390625, 0.4266204833984375, 1.49267578125
43350, -1.3114254474639893, 3.39518666267395, -2.6845905780792236, 0.015318396501243114, -0.0067297667264938354, -76.78105926513672, 0.16885508596897125, -0.07415080815553665, -3.6761622428894043, -0.7064663767814636, -0.760638952255249, 0.05392803996801376, -1.1630246228808507, -1.4247697588503172, -5.440285651325275, 9362.0, 30146.0, 35388.0, 9362.0, 0, 0.18674986064434052, 5.843532562721521e-05, 0.11620040237903595, -0.12944763898849487, -0.03112603910267353, 0.9921470880508423, 0, 0, 0, 1.582763671875, 0.3765869140625, 1.489013671875
43360, -1.3113980293273926, 3.3955349922180176, -2.68400502204895, 0.0169786736369133, -0.007458798121660948, -76.81782531738281, 0.16320040822029114, -0.07165539264678955, -3.6771342754364014, -0.706480085849762, -0.7606410384178162, 0.05389965698122978, -1.162772757359072, -1.427349598898246, -5.436481821706558, 9362.0, 30146.0, 35388.0, 9362.0, 0, 0.15848755836486816, -0.08876066654920578, -0.08208731561899185, -0.1274876445531845, -0.029501454904675484, 0.9917116165161133, 0, 0, 0, 1.629638671875, 0.4884490966796875, 1.489013671875
43370, -1.3098899126052856, 3.395594835281372, -2.6845829486846924, 0.018582429736852646, -0.008162882179021835, -76.85459899902344, 0.1575509011745453, -0.06916151940822601, -3.678142547607422, -0.7064530849456787, -0.7606475949287415, 0.05392980948090553, -1.1655390133392427, -1.4282906074509754, -5.43494463197596, 9362.0, 30146.0, 35388.0, 9362.0, 7.814876556396484, 0.16758637130260468, 0.5358834266662598, 0.07434343546628952, -0.12959958612918854, -0.03286852315068245, 0.9906479716300964, 0, 0, 0, 1.639892578125, 0.5136566162109375, 1.493408203125
43380, -1.310286045074463, 3.39262056350708, -2.6834261417388916, 0.020129716023802757, -0.008842039853334427, -76.89138793945312, 0.15190625190734863, -0.0666699931025505, -3.6792449951171875, -0.7064635157585144, -0.7606467008590698, 0.053926557302474976, -1.1603501778413985, -1.42384133600126, -5.437121729960994, 9362.0, 30146.0, 35388.0, 9362.0, 7.814876556396484, 0.07781287282705307, 0.014561810530722141, 0.10481579601764679, -0.13174612820148468, -0.031898390501737595, 0.991359531879425, -0.07998703420162201, -0.15607833862304688, 1.483154296875, 1.579833984375, 0.369873046875, 1.493408203125
43390, -1.3089215755462646, 3.393453359603882, -2.6837990283966064, 0.02162053808569908, -0.009496287442743778, -76.92818450927734, 0.14625804126262665, -0.06417970359325409, -3.680290699005127, -0.7064543962478638, -0.760650634765625, 0.053952690213918686, -1.1617847048358219, -1.4286101061756824, -5.438190026332536, 9362.0, 30146.0, 35388.0, 9362.0, 7.814876556396484, 0.0671575516462326, -0.17138293385505676, -0.04084702581167221, -0.1304032951593399, -0.03226538375020027, 0.9920645356178284, -0.07998703420162201, -0.15607833862304688, 1.483154296875, 1.39453125, 0.035003662109375, 1.4912109375
43400, -1.307639479637146, 3.3930041790008545, -2.6840131282806396, 0.02305489219725132, -0.010125625878572464, -76.9649887084961, 0.14061269164085388, -0.061687927693128586, -3.681297779083252, -0.7064895033836365, -0.7606280446052551, 0.0539836622774601, -1.1865743475356008, -1.4642653129874645, -5.455009541786307, 9362.0, 30146.0, 35388.0, 9362.0, 7.814876556396484, 0.1835593432188034, -0.06343982368707657, -0.09546219557523727, -0.12760044634342194, -0.03206666186451912, 0.9905161261558533, -0.07998703420162201, -0.15607833862304688, 1.483154296875, 1.57470703125, 0.3579864501953125, 1.4912109375
43410, -1.3062458038330078, 3.3940072059631348, -2.685140609741211, 0.024432813748717308, -0.010730070061981678, -77.0018081665039, 0.134971484541893, -0.05920087546110153, -3.682401180267334, -0.7064593434333801, -0.7606422901153564, 0.053929977118968964, -1.1648460165220194, -1.4240945079258722, -5.435438781719613, 9362.0, 30146.0, 35388.0, 9362.0, 7.814876556396484, -0.026737811043858528, -0.19245347380638123, -0.10912081599235535, -0.1283242553472519, -0.031452152878046036, 0.9901297688484192, -0.07998703420162201, -0.15607833862304688, 1.483154296875, 1.552001953125, 0.3063201904296875, 1.497802734375
43420, -1.306103229522705, 3.3965370655059814, -2.6861250400543213, 0.02575433999300003, -0.011309660971164703, -77.03863525390625, 0.12933380901813507, -0.0567171610891819, -3.683554172515869, -0.706465482711792, -0.7606561183929443, 0.05391736328601837, -1.1632608784470342, -1.4216408556743545, -5.440721525835219, 9362.0, 30146.0, 35388.0, 9362.0, 7.814876556396484, 0.03693859279155731, -0.22930094599723816, -0.0018059026915580034, -0.12761938571929932, -0.03083832934498787, 0.9882779717445374, -0.07998703420162201, -0.15607833862304688, 1.483154296875, 1.636962890625, 0.5064239501953125, 1.497802734375
43430, -1.3044894933700562, 3.39739727973938, -2.6867358684539795, 0.027019530534744263, -0.011864447966217995, -77.07547760009766, 0.12370452284812927, -0.05424010008573532, -3.684880495071411, -0.7064692974090576, -0.7606362104415894, 0.05391157791018486, -1.1596276080052743, -1.4271632766990763, -5.439117220030406, 9362.0, 30146.0, 35388.0, 9362.0, 7.814876556396484, 0.07031276822090149, 0.14160819351673126, -0.1961127668619156, -0.1301136314868927, -0.033794961869716644, 0.9890218377113342, -0.07998703420162201, -0.15607833862304688, 1.483154296875, 1.4677734375, 0.1347198486328125, 1.48828125
43440, -1.3046311140060425, 3.3969621658325195, -2.686054229736328, 0.028228389099240303, -0.012394455261528492, -77.11233520507812, 0.11806713044643402, -0.051761314272880554, -3.6861414909362793, -0.7064637541770935, -0.760641872882843, 0.05390682816505432, -1.1596095188741185, -1.4216542597764317, -5.439624681000673, 9362.0, 30146.0, 35388.0, 9362.0, 7.814876556396484, -0.03691006451845169, -0.09367965906858444, 0.18987445533275604, -0.1277419477701187, -0.032514121383428574, 0.990699291229248, -0.07998703420162201, -0.15607833862304688, 1.483154296875, 1.599609375, 0.416259765625, 1.48828125
43450, -1.305086612701416, 3.396301031112671, -2.685380220413208, 0.029380828142166138, -0.0128996716812253, -77.14920043945312, 0.11242074519395828, -0.04928205534815788, -3.6872761249542236, -0.7064616680145264, -0.7606436014175415, 0.05390950292348862, -1.1547747712972076, -1.4287213258264728, -5.433158363504234, 9362.0, 30146.0, 35388.0, 9362.0, 7.814876556396484, 0.06521569192409515, 0.07232709974050522, 0.07694059610366821, -0.1307249516248703, -0.03404097259044647, 0.9907034039497375, -0.07998703420162201, -0.15607833862304688, 1.483154296875, 1.45166015625, 0.107452392578125, 1.491943359375
43460, -1.3051893711090088, 3.3973002433776855, -2.684915542602539, 0.030476799234747887, -0.01338009163737297, -77.18608093261719, 0.10677357017993927, -0.04680199176073074, -3.688384771347046, -0.7064652442932129, -0.7606338858604431, 0.05392366647720337, -1.1652671303476325, -1.4222132822609694, -5.444326511347285, 9362.0, 30146.0, 35388.0, 9362.0, 7.814876556396484, -0.10954711586236954, -0.22472074627876282, -0.0513400100171566, -0.13083623349666595, -0.03301648050546646, 0.9920268654823303, -0.07998703420162201, -0.15607833862304688, 1.483154296875, 1.55126953125, 0.304718017578125, 1.491943359375
43470, -1.3058652877807617, 3.3970694541931152, -2.6862220764160156, 0.031516268849372864, -0.013835692778229713, -77.22296905517578, 0.10112068802118301, -0.044318243861198425, -3.68937611579895, -0.7064563632011414, -0.7606370449066162, 0.05386674031615257, -1.1637017549405364, -1.4214721248758906, -5.44019576375627, 9362.0, 30146.0, 35388.0, 9362.0, 7.814876556396484, -0.13363666832447052, 0.2157009243965149, 0.21439780294895172, -0.12945662438869476, -0.032694969326257706, 0.991157591342926, -0.07998703420162201, -0.15607833862304688, 1.483154296875, 1.51318359375, 0.2224273681640625, 1.493408203125
43480, -1.3057963848114014, 3.3958852291107178, -2.683462619781494, 0.032499223947525024, -0.014266463927924633, -77.2598648071289, 0.09547004848718643, -0.04183583706617355, -3.6904337406158447, -0.7064574360847473, -0.7606423497200012, 0.05388659983873367, -1.164614181053291, -1.4223770036882968, -5.4358868602853025, 9362.0, 30146.0, 35388.0, 9362.0, 7.814876556396484, 0.09315133094787598, -0.28157341480255127, -0.034759771078825, -0.12684468924999237, -0.029933352023363113, 0.9912005066871643, -0.06218048930168152, 0.05896186828613281, 1.500732421875, 1.458251953125, 0.1184234619140625, 1.493408203125
43490, -1.3061013221740723, 3.397359848022461, -2.6836395263671875, 0.033425670117139816, -0.01467240322381258, -77.2967758178711, 0.08981893956661224, -0.039352212101221085, -3.6914782524108887, -0.706449568271637, -0.7606473565101624, 0.05391827970743179, -1.1615596796551302, -1.433231163920027, -5.435145457659572, 9362.0, 30146.0, 35388.0, 9362.0, 7.814876556396484, -0.18159349262714386, -0.2237122803926468, -0.08184848725795746, -0.12858203053474426, -0.029992500320076942, 0.9923721551895142, -0.06218048930168152, 0.05896186828613281, 1.500732421875, 1.568115234375, 0.3428955078125, 1.4912109375
43500, -1.3062629699707031, 3.3989624977111816, -2.6841630935668945, 0.03429558873176575, -0.01505349762737751, -77.33369445800781, 0.08416515588760376, -0.03686671331524849, -3.692441940307617, -0.7064580321311951, -0.7606403827667236, 0.053886886686086655, -1.1658531968921608, -1.4232523687909975, -5.443993836016669, 9362.0, 30146.0, 35388.0, 9362.0, 7.814876556396484, 0.013631191104650497, 0.003989451099187136, -0.09810095280408859, -0.13043059408664703, -0.03131086006760597, 0.9896054863929749, -0.06218048930168152, 0.05896186828613281, 1.500732421875, 1.639892578125, 0.5136566162109375, 1.4912109375
43510, -1.3066952228546143, 3.399322509765625, -2.6834089756011963, 0.0351090207695961, -0.015409760177135468, -77.3706283569336, 0.07852102816104889, -0.03438583016395569, -3.693612575531006, -0.7064620852470398, -0.7606441974639893, 0.05389442294836044, -1.1630000289924478, -1.4281357740313467, -5.439937184695362, 9362.0, 30146.0, 35388.0, 9362.0, 7.814876556396484, -0.09071195870637894, -0.1345517933368683, 0.17818579077720642, -0.12952883541584015, -0.03329265117645264, 0.9887800812721252, -0.06218048930168152, 0.05896186828613281, 1.500732421875, 1.604736328125, 0.428436279296875, 1.493408203125
43520, -1.3070589303970337, 3.3990232944488525, -2.6831512451171875, 0.03586602583527565, -0.015741223469376564, -77.4075698852539, 0.07287973165512085, -0.0319070965051651, -3.6948797702789307, -0.7064863443374634, -0.7606406807899475, 0.053950563073158264, -1.1827573160410374, -1.4596158543645288, -5.454008373214006, 9362.0, 30146.0, 35388.0, 9362.0, 7.814876556396484, 0.039486274123191833, -0.3041921854019165, 0.23486211895942688, -0.128238245844841, -0.0328967347741127, 0.9910222291946411, -0.06218048930168152, 0.05896186828613281, 1.500732421875, 1.604736328125, 0.428436279296875, 1.493408203125
43530, -1.306452751159668, 3.3987293243408203, -2.6815571784973145, 0.03656656667590141, -0.016047876328229904, -77.44452667236328, 0.06722822040319443, -0.029423385858535767, -3.695981025695801, -0.7064610719680786, -0.7606428861618042, 0.05390949919819832, -1.1644849983616623, -1.42919984552762, -5.4362491684847365, 9362.0, 30146.0, 35388.0, 9362.0, 7.814876556396484, 0.023057155311107635, 0.511171817779541, 0.2464485764503479, -0.1295424997806549, -0.03317130729556084, 0.9897853136062622, -0.06218048930168152, 0.05896186828613281, 1.500732421875, 1.6552734375, 0.5520477294921875, 1.49560546875
43540, -1.307286024093628, 3.3944294452667236, -2.680387258529663, 0.0372106172144413, -0.016329698264598846, -77.48149108886719, 0.06158153712749481, -0.026941152289509773, -3.6971585750579834, -0.706460177898407, -0.7606475353240967, 0.053898174315690994, -1.1655521029418123, -1.4239635666027368, -5.440217015362622, 9362.0, 30146.0, 35388.0, 9362.0, 7.814876556396484, -0.01676785945892334, 0.418056458234787, 0.12366937100887299, -0.13095834851264954, -0.03128674998879433, 0.9893459677696228, -0.06218048930168152, 0.05896186828613281, 1.500732421875, 1.629638671875, 0.4884490966796875, 1.49560546875
43550, -1.3073633909225464, 3.3913190364837646, -2.6812803745269775, 0.03779821842908859, -0.01658671163022518, -77.51847076416016, 0.05593882501125336, -0.02446170151233673, -3.698397159576416, -0.7064579129219055, -0.7606468796730042, 0.053880199790000916, -1.1638767645185486, -1.4200463565670134, -5.450055020495105, 9362.0, 30146.0, 35388.0, 9362.0, 7.814876556396484, 0.12097146362066269, 0.2546831965446472, -0.4200051724910736, -0.1281759887933731, -0.03126301243901253, 0.9928041696548462, -0.06218048930168152, 0.05896186828613281, 1.500732421875, 1.61279296875, 0.4476470947265625, 1.497802734375
43560, -1.3075898885726929, 3.392331838607788, -2.682753562927246, 0.038329336792230606, -0.016818884760141373, -77.55545806884766, 0.05028475448489189, -0.021972818300127983, -3.699313163757324, -0.7064635753631592, -0.7606396675109863, 0.05387699231505394, -1.1645299276899677, -1.4219838735311043, -5.440271671596644, 9362.0, 30146.0, 35388.0, 9362.0, 7.814876556396484, -0.016820991411805153, 0.17740046977996826, -0.05301086977124214, -0.1298099309206009, -0.03468320518732071, 0.9930932521820068, -0.06218048930168152, 0.05896186828613281, 1.500732421875, 1.611328125, 0.44427490234375, 1.497802734375
43570, -1.3059279918670654, 3.39119291305542, -2.684330463409424, 0.03880392760038376, -0.017026163637638092, -77.59245300292969, 0.04463334009051323, -0.019482720643281937, -3.7001826763153076, -0.7064759135246277, -0.760644257068634, 0.05388760566711426, -1.164004054306827, -1.4230139691838701, -5.432024005436299, 9362.0, 30146.0, 35388.0, 9362.0, 7.814876556396484, 0.04156149551272392, 0.2389632761478424, -0.0449226014316082, -0.1304416060447693, -0.030709736049175262, 0.9891465306282043, -0.06218048930168152, 0.05896186828613281, 1.500732421875, 1.64208984375, 0.519073486328125, 1.494140625
43580, -1.3069896697998047, 3.3910422325134277, -2.684814691543579, 0.03922209516167641, -0.017208581790328026, -77.62946319580078, 0.03900047764182091, -0.017000870779156685, -3.701399803161621, -0.7064438462257385, -0.7606447339057922, 0.053883399814367294, -1.1607229343328673, -1.4237827039411286, -5.443687628675877, 9362.0, 30146.0, 35388.0, 9362.0, 7.814876556396484, 0.01661410927772522, -0.35066884756088257, -0.28736212849617004, -0.1301720142364502, -0.03105224296450615, 0.9895697236061096, -0.08215977996587753, -0.0037593841552734375, 1.49560546875, 1.568115234375, 0.3428955078125, 1.494140625
43590, -1.3058182001113892, 3.3926842212677, -2.686845302581787, 0.03958394378423691, -0.01736619509756565, -77.6664810180664, 0.03336934372782707, -0.014521858654916286, -3.7026145458221436, -0.7064651846885681, -0.7606470584869385, 0.05387001484632492, -1.1613242143258096, -1.4209459490452048, -5.439542777614228, 9362.0, 30146.0, 35388.0, 9362.0, 7.814876556396484, -0.3166457712650299, -0.08937924355268478, -0.08286513388156891, -0.12932820618152618, -0.031556885689496994, 0.9896175265312195, -0.08215977996587753, -0.0037593841552734375, 1.49560546875, 1.455322265625, 0.1134796142578125, 1.49560546875
43600, -1.304888367652893, 3.393505096435547, -2.688185691833496, 0.039889488369226456, -0.017499011009931564, -77.7035140991211, 0.02773938700556755, -0.012041162699460983, -3.7038424015045166, -0.706455409526825, -0.7606340646743774, 0.053866706788539886, -1.1607228416273452, -1.419668518152747, -5.438416695201979, 9362.0, 30146.0, 35388.0, 9362.0, 7.814876556396484, 0.05799763649702072, -0.3158392310142517, -0.23196344077587128, -0.13231205940246582, -0.032165199518203735, 0.9884240627288818, -0.08215977996587753, -0.0037593841552734375, 1.49560546875, 1.46630859375, 0.132171630859375, 1.49560546875
43610, -1.3038532733917236, 3.3944711685180664, -2.6886541843414307, 0.04013874754309654, -0.01760704070329666, -77.74056243896484, 0.022112354636192322, -0.009564720094203949, -3.7051687240600586, -0.7064626812934875, -0.7606311440467834, 0.05388614535331726, -1.1640014940825236, -1.4187670685164449, -5.446553590223477, 9362.0, 30146.0, 35388.0, 9362.0, 7.814876556396484, 0.2597130239009857, -0.08089954406023026, 0.140767902135849, -0.1283724009990692, -0.0303055290132761, 0.9899420738220215, -0.08215977996587753, -0.0037593841552734375, 1.49560546875, 1.66259765625, 0.5705108642578125, 1.494140625
43620, -1.3038567304611206, 3.3957605361938477, -2.688840389251709, 0.04033168405294418, -0.017690293490886688, -77.77761840820312, 0.016474859789013863, -0.007085748016834259, -3.7063393592834473, -0.7064638733863831, -0.7606372833251953, 0.05389902740716934, -1.163847685231155, -1.42149272702369, -5.443825910560758, 9362.0, 30146.0, 35388.0, 9362.0, 7.814876556396484, -0.11118157207965851, 0.09145982563495636, 0.0507727675139904, -0.12889860570430756, -0.03047352470457554, 0.9900492429733276, -0.08215977996587753, -0.0037593841552734375, 1.49560546875, 1.612060546875, 0.4459686279296875, 1.494140625
43630, -1.3038010597229004, 3.3944759368896484, -2.68837308883667, 0.0404682382941246, -0.017748765647411346, -77.81468963623047, 0.010836063884198666, -0.00460865069180727, -3.7075178623199463, -0.7064644694328308, -0.7606385350227356, 0.05385114997625351, -1.1647102286492736, -1.414939992070714, -5.445791621739112, 9362.0, 30146.0, 35388.0, 9362.0, 7.814876556396484, 0.0763024389743805, 0.4282520115375519, -0.06041622534394264, -0.12823611497879028, -0.03188827633857727, 0.9895815849304199, -0.08215977996587753, -0.0037593841552734375, 1.49560546875, 1.559326171875, 0.32293701171875, 1.49267578125
43640, -1.3035434484481812, 3.3955416679382324, -2.6904184818267822, 0.040548402816057205, -0.01778247021138668, -77.85176849365234, 0.005196564365178347, -0.002132141962647438, -3.7087225914001465, -0.7064586877822876, -0.7606385350227356, 0.05387946963310242, -1.164962266929558, -1.4194006746942591, -5.445238900118634, 9362.0, 30146.0, 35388.0, 9362.0, 7.814876556396484, -0.0763571560382843, -0.3724120855331421, 0.014455001801252365, -0.1311265230178833, -0.03137143328785896, 0.9909089803695679, -0.08215977996587753, -0.0037593841552734375, 1.49560546875, 1.53662109375, 0.27239990234375, 1.49267578125
43650, -1.3038488626480103, 3.397966146469116, -2.689415454864502, 0.0405721552670002, -0.017791397869586945, -77.88886260986328, -0.00044608107418753207, 0.0003467504575382918, -3.709834098815918, -0.7064699530601501, -0.760640025138855, 0.05388130620121956, -1.1652630094054783, -1.4207440406128455, -5.44788773060674, 9362.0, 30146.0, 35388.0, 9362.0, 7.814876556396484, -0.017654914408922195, -0.16168342530727386, 0.10079541802406311, -0.1281971037387848, -0.030322490260004997, 0.9901889562606812, -0.08215977996587753, -0.0037593841552734375, 1.49560546875, 1.636962890625, 0.5064239501953125, 1.493408203125
43660, -1.3033936023712158, 3.399167060852051, -2.691148281097412, 0.04053948447108269, -0.01777554303407669, -77.92596435546875, -0.006088186986744404, 0.002824129071086645, -3.7109861373901367, -0.7064694762229919, -0.7606483697891235, 0.053866881877183914, -1.167941486672137, -1.4169106059979697, -5.443076137144541, 9362.0, 30146.0, 35388.0, 9362.0, 7.814876556396484, -0.031621139496564865, -0.22522248327732086, -0.0748012363910675, -0.12797187268733978, -0.033332645893096924, 0.9910414814949036, -0.08215977996587753, -0.0037593841552734375, 1.49560546875, 1.622314453125, 0.470672607421875, 1.493408203125
43670, -1.3033050298690796, 3.398991346359253, -2.691020965576172, 0.040450356900691986, -0.01773490384221077, -77.96308135986328, -0.011737366206943989, 0.005303745158016682, -3.7120859622955322, -0.7064918279647827, -0.7606434226036072, 0.05397458374500275, -1.1866898757678637, -1.461028290982938, -5.45301920744685, 9362.0, 30146.0, 35388.0, 9362.0, 7.814876556396484, 0.26406311988830566, 0.28508830070495605, 0.08732402324676514, -0.12866780161857605, -0.030032025650143623, 0.9923663139343262, -0.08215977996587753, -0.0037593841552734375, 1.49560546875, 1.640625, 0.5154571533203125, 1.493408203125
43680, -1.3021125793457031, 3.399667739868164, -2.691559076309204, 0.04030469059944153, -0.01766945607960224, -78.00020599365234, -0.017395710572600365, 0.007785782217979431, -3.7130651473999023, -0.7064651846885681, -0.7606368064880371, 0.053860198706388474, -1.1602529128847552, -1.4226824254907626, -5.4396457430878655, 9362.0, 30146.0, 35388.0, 9362.0, 7.814876556396484, -0.03182646259665489, -0.08394695073366165, -0.09692301601171494, -0.13009178638458252, -0.029693737626075745, 0.9930959939956665, -0.10914567857980728, -0.32631683349609375, 1.46923828125, 1.575439453125, 0.3596649169921875, 1.493408203125
43690, -1.3018853664398193, 3.3981857299804688, -2.690986156463623, 0.04010242223739624, -0.017579179257154465, -78.03733825683594, -0.02305777370929718, 0.010269470512866974, -3.713974952697754, -0.7064514756202698, -0.760639488697052, 0.05389001592993736, -1.1656321804453762, -1.4176668786828657, -5.4399573942228905, 9362.0, 30146.0, 35388.0, 9362.0, 7.814876556396484, 0.14570754766464233, 0.14103275537490845, 0.012075157836079597, -0.13053685426712036, -0.029656486585736275, 0.9920104146003723, -0.10914567857980728, -0.32631683349609375, 1.46923828125, 1.62158203125, 0.46893310546875, 1.49560546875
43700, -1.3022751808166504, 3.399718761444092, -2.691817283630371, 0.039843540638685226, -0.017464080825448036, -78.0744857788086, -0.0287188533693552, 0.012750152498483658, -3.7149224281311035, -0.7064701914787292, -0.7606462240219116, 0.05384806543588638, -1.1611224014566868, -1.4166435523773657, -5.4419237816737365, 9362.0, 30146.0, 35388.0, 9362.0, 7.814876556396484, -0.10390777885913849, -0.19872193038463593, 0.06384237855672836, -0.13012650609016418, -0.03254036232829094, 0.9905278086662292, -0.10914567857980728, -0.32631683349609375, 1.46923828125, 1.63916015625, 0.51190185546875, 1.49560546875
43710, -1.302369236946106, 3.399683952331543, -2.6895546913146973, 0.039528101682662964, -0.01732419617474079, -78.11164093017578, -0.03436907008290291, 0.015226748771965504, -3.7160136699676514, -0.706486165523529, -0.760635256767273, 0.05393339693546295, -1.18512478092096, -1.4548464994117865, -5.457461181941614, 9362.0, 30146.0, 35388.0, 9362.0, 7.814876556396484, -0.016776030883193016, 0.1991751343011856, 0.1366448998451233, -0.13012650609016418, -0.03254036232829094, 0.9905278086662292, -0.10914567857980728, -0.32631683349609375, 1.46923828125, 1.550537109375, 0.303131103515625, 1.49267578125
43720, -1.3021880388259888, 3.4008853435516357, -2.691039562225342, 0.039528101682662964, -0.01732419617474079, -78.11164093017578, -0.03436907008290291, 0.015226748771965504, -3.7160136699676514, -0.706449031829834, -0.7606421709060669, 0.05389540642499924, -1.1615552367007362, -1.419795343795613, -5.440210252470272, 9362.0, 30146.0, 35388.0, 9362.0, 7.814876556396484, 0.13933351635932922, -0.20245060324668884, -0.1062508299946785, -0.13012650609016418, -0.03254036232829094, 0.9905278086662292, -0.10914567857980728, -0.32631683349609375, 1.46923828125, 1.639892578125, 0.5136566162109375, 1.49267578125
43730, -1.3028030395507812, 3.4038798809051514, -2.691772699356079, 0.038727663457393646, -0.016970116645097733, -78.18598175048828, -0.04567603021860123, 0.02018195576965809, -3.7181735038757324, -0.7064641714096069, -0.7606427073478699, 0.05388245731592178, -1.1625934864660374, -1.428572763018849, -5.439849114477609, 9362.0, 30146.0, 35388.0, 9362.0, 7.814876556396484, 0.04272311180830002, -0.053981225937604904, 0.11362377554178238, -0.13012650609016418, -0.03254036232829094, 0.9905278086662292, -0.10914567857980728, -0.32631683349609375, 1.46923828125, 1.58642578125, 0.3851776123046875, 1.49267578125
43740, -1.3018311262130737, 3.401942014694214, -2.69184947013855, 0.03824262320995331, -0.016755906865000725, -78.2231674194336, -0.0513322614133358, 0.022659918293356895, -3.7192392349243164, -0.7064518332481384, -0.7606333494186401, 0.0538615882396698, -1.1629622885351902, -1.4259961893517072, -5.435919266611248, 9362.0, 30146.0, 35388.0, 9362.0, 7.814876556396484, 0.1820758432149887, 0.22620585560798645, -0.17456059157848358, -0.13012650609016418, -0.03254036232829094, 0.9905278086662292, -0.10914567857980728, -0.32631683349609375, 1.46923828125, 1.58642578125, 0.3851776123046875, 1.49267578125
43750, -1.300793170928955, 3.4030921459198, -2.692854642868042, 0.03824262320995331, -0.016755906865000725, -78.2231674194336, -0.0513322614133358, 0.022659918293356895, -3.7192392349243164, -0.7064576148986816, -0.7606374621391296, 0.05387503281235695, -1.1681421425907694, -1.4266372675548098, -5.441155560709875, 9362.0, 30146.0, 35388.0, 9362.0, 7.814876556396484, -0.07731308788061142, -0.04623083397746086, -0.056609176099300385, -0.13012650609016418, -0.03254036232829094, 0.9905278086662292, -0.10914567857980728, -0.32631683349609375, 1.46923828125, 1.371826171875, 0.02008056640625, 1.494873046875
43760, -1.3008782863616943, 3.406378984451294, -2.6946771144866943, 0.03710285201668739, -0.016253167763352394, -78.29757690429688, -0.06264298409223557, 0.027613021433353424, -3.721517562866211, -0.7064775824546814, -0.7606371641159058, 0.05396745353937149, -1.1819764561056267, -1.458254477732055, -5.454028403094768, 9362.0, 30146.0, 35388.0, 9362.0, 7.814876556396484, -0.07731308788061142, -0.04623083397746086, -0.056609176099300385, -0.13012650609016418, -0.03254036232829094, 0.9905278086662292, -0.10914567857980728, -0.32631683349609375, 1.46923828125, 1.5087890625, 0.21337890625, 1.494873046875
43770, -1.3013931512832642, 3.4023396968841553, -2.693636655807495, 0.03710285201668739, -0.016253167763352394, -78.29757690429688, -0.06264298409223557, 0.027613021433353424, -3.721517562866211, -0.7064607739448547, -0.7606398463249207, 0.053874045610427856, -1.159090217253486, -1.43020191543269, -5.441791701280728, 9362.0, 30146.0, 35388.0, 9362.0, 7.814876556396484, -0.07731308788061142, -0.04623083397746086, -0.056609176099300385, -0.13012650609016418, -0.03254036232829094, 0.9905278086662292, -0.10914567857980728, -0.32631683349609375, 1.46923828125, 1.5087890625, 0.21337890625, 1.493408203125
43780, -1.3001295328140259, 3.40140438079834, -2.692154884338379, 0.03710285201668739, -0.016253167763352394, -78.29757690429688, -0.06264298409223557, 0.027613021433353424, -3.721517562866211, -0.7064603567123413, -0.7606428265571594, 0.05386806279420853, -1.1595889908043227, -1.4191748622389184, -5.443369699307522, 9362.0, 30146.0, 35388.0, 9362.0, 7.814876556396484, -0.07731308788061142, -0.04623083397746086, -0.056609176099300385, -0.13012650609016418, -0.03254036232829094, 0.9905278086662292, -0.08729046583175659, 0.014162063598632812, 1.4970703125, 1.411376953125, 0.05181884765625, 1.493408203125
43790, -1.300340175628662, 3.4007771015167236, -2.693174362182617, 0.03710285201668739, -0.016253167763352394, -78.29757690429688, -0.06264298409223557, 0.027613021433353424, -3.721517562866211, -0.7064512372016907, -0.7606395483016968, 0.0538918562233448, -1.1568809198894114, -1.4269730455751244, -5.434977188991086, 9362.0, 30146.0, 35388.0, 9362.0, 7.814876556396484, 0.017976224422454834, 0.01408861018717289, 0.08649102598428726, -0.13012650609016418, -0.03254036232829094, 0.9905278086662292, -0.08729046583175659, 0.014162063598632812, 1.4970703125, 1.453857421875, 0.1110687255859375, 1.494140625
43800, -1.2998226881027222, 3.4002649784088135, -2.693284273147583, 0.03710285201668739, -0.016253167763352394, -78.29757690429688, -0.06264298409223557, 0.027613021433353424, -3.721517562866211, -0.7064389586448669, -0.7606332898139954, 0.05390177667140961, -1.1654600614476762, -1.4249954586314573, -5.439702085688336, 9362.0, 30146.0, 35388.0, 9362.0, 7.814876556396484, -0.320061057806015, -0.055358804762363434, 0.05829162895679474, -0.13012650609016418, -0.03254036232829094, 0.9905278086662292, -0.08729046583175659, 0.014162063598632812, 1.4970703125, 1.453857421875, 0.1110687255859375, 1.494140625
43810, -1.2999475002288818, 3.402599573135376, -2.6939005851745605, 0.03326333314180374, -0.01456310786306858, -78.48379516601562, -0.09094640612602234, 0.039994385093450546, -3.726750373840332, -0.7064459323883057, -0.7606340646743774, 0.053898170590400696, -1.1633422271330414, -1.4264064691444105, -5.438707189025991, 9362.0, 30146.0, 35388.0, 9362.0, 7.814876556396484, 0.10126592218875885, -0.0349910594522953, -0.31225401163101196, -0.13012650609016418, -0.03254036232829094, 0.9905278086662292, -0.08729046583175659, 0.014162063598632812, 1.4970703125, 1.453857421875, 0.1110687255859375, 1.494140625
43820, -1.2997957468032837, 3.401371955871582, -2.694295644760132, 0.03326333314180374, -0.01456310786306858, -78.48379516601562, -0.09094640612602234, 0.039994385093450546, -3.726750373840332, -0.7064654231071472, -0.7606350183486938, 0.05387282744050026, -1.158431747801573, -1.4256151256017233, -5.4336965544651115, 9362.0, 30146.0, 35388.0, 9362.0, 7.814876556396484, -0.11907197535037994, -0.0757925882935524, -0.11873732507228851, -0.13012650609016418, -0.03254036232829094, 0.9905278086662292, -0.08729046583175659, 0.014162063598632812, 1.4970703125, 1.609130859375, 0.4388580322265625, 1.494140625
43830, -1.2999831438064575, 3.4019899368286133, -2.6955156326293945, 0.03133128583431244, -0.013713737949728966, -78.558349609375, -0.1022610142827034, 0.04494311660528183, -3.7288806438446045, -0.7064612507820129, -0.7606474757194519, 0.05386320874094963, -1.159459242231766, -1.4257442271565708, -5.441755727477906, 9362.0, 30146.0, 35388.0, 9362.0, 7.814876556396484, 0.09182906895875931, 0.2184230238199234, 0.16128747165203094, -0.13012650609016418, -0.03254036232829094, 0.9905278086662292, -0.08729046583175659, 0.014162063598632812, 1.4970703125, 1.609130859375, 0.4388580322265625, 1.496337890625
43840, -1.2993927001953125, 3.4022486209869385, -2.692960739135742, 0.030280405655503273, -0.013251942582428455, -78.59564208984375, -0.10791508108377457, 0.04741610586643219, -3.7299983501434326, -0.7064504027366638, -0.7606427669525146, 0.05387938395142555, -1.1592968398632355, -1.4265634286368822, -5.439378268818712, 9362.0, 30146.0, 35388.0, 9362.0, 7.814876556396484, 0.09182906895875931, 0.2184230238199234, 0.16128747165203094, -0.13012650609016418, -0.03254036232829094, 0.9905278086662292, -0.08729046583175659, 0.014162063598632812, 1.4970703125, 1.58642578125, 0.3851776123046875, 1.496337890625
43850, -1.299096941947937, 3.4033334255218506, -2.6917309761047363, 0.029173053801059723, -0.012765447609126568, -78.63294982910156, -0.11355529725551605, 0.0498826764523983, -3.7313733100891113, -0.7064367532730103, -0.7606394290924072, 0.05388354882597923, -1.1698737632258105, -1.4272058596590114, -5.4414244001134575, 9362.0, 30146.0, 35388.0, 9362.0, 7.814876556396484, 0.07955657690763474, 0.1644357442855835, 0.1717141568660736, -0.13012650609016418, -0.03254036232829094, 0.9905278086662292, -0.08729046583175659, 0.014162063598632812, 1.4970703125, 1.634765625, 0.5010528564453125, 1.490478515625
43860, -1.2981574535369873, 3.403510808944702, -2.6921181678771973, 0.029173053801059723, -0.012765447609126568, -78.63294982910156, -0.11355529725551605, 0.0498826764523983, -3.7313733100891113, -0.7064681649208069, -0.7606415152549744, 0.05389106646180153, -1.1666778691833815, -1.4251432428902149, -5.440774874251169, 9362.0, 30146.0, 35388.0, 9362.0, 7.814876556396484, 0.14762213826179504, -0.3368909955024719, -0.12459073215723038, -0.13012650609016418, -0.03254036232829094, 0.9905278086662292, -0.08729046583175659, 0.014162063598632812, 1.4970703125, 1.387939453125, 0.0297393798828125, 1.490478515625
43870, -1.2962762117385864, 3.404724359512329, -2.6914360523223877, 0.029173053801059723, -0.012765447609126568, -78.63294982910156, -0.11355529725551605, 0.0498826764523983, -3.7313733100891113, -0.7065027356147766, -0.7606309652328491, 0.05385751277208328, -1.145960691100866, -1.4050573277842489, -5.4580959374142255, 9362.0, 30146.0, 35388.0, 9362.0, 7.814876556396484, 0.14873215556144714, 0.23378591239452362, 0.17025038599967957, -0.13012650609016418, -0.03254036232829094, 0.9905278086662292, -0.08729046583175659, 0.014162063598632812, 1.4970703125, 1.585693359375, 0.383544921875, 1.4970703125
43880, -1.2957494258880615, 3.402693748474121, -2.68997859954834, 0.02551225945353508, -0.011157921515405178, -78.74494934082031, -0.13050441443920135, 0.057286664843559265, -3.735107898712158, -0.7064968347549438, -0.7606433033943176, 0.053838543593883514, -1.1474011984101105, -1.408939593274198, -5.458895911359263, 9362.0, 30146.0, 35388.0, 9362.0, 7.814876556396484, 0.05237186700105667, 0.11366868019104004, 0.09256216138601303, -0.13012650609016418, -0.03254036232829094, 0.9905278086662292, -0.07795626670122147, -0.0037593841552734375, 1.49560546875, 1.585693359375, 0.383544921875, 1.4970703125
43890, -1.2965693473815918, 3.4016189575195312, -2.687019109725952, 0.02551225945353508, -0.011157921515405178, -78.74494934082031, -0.13050441443920135, 0.057286664843559265, -3.735107898712158, -0.7064874172210693, -0.7606377005577087, 0.05385581776499748, -1.1466731283742462, -1.4079401504803286, -5.455165838333715, 9362.0, 30146.0, 35388.0, 9362.0, 7.814876556396484, -0.2673703134059906, -0.1202038899064064, -0.12608861923217773, -0.13012650609016418, -0.03254036232829094, 0.9905278086662292, -0.07795626670122147, -0.0037593841552734375, 1.49560546875, 1.571044921875, 0.349578857421875, 1.49560546875
43900, -1.296573519706726, 3.401118516921997, -2.689039945602417, 0.02551225945353508, -0.011157921515405178, -78.74494934082031, -0.13050441443920135, 0.057286664843559265, -3.735107898712158, -0.7064962387084961, -0.7606492042541504, 0.053855493664741516, -1.1484000653375803, -1.406833696015667, -5.466940627752177, 9362.0, 30146.0, 35388.0, 9362.0, 7.814876556396484, -0.05730058252811432, 0.4063878059387207, -0.03344393149018288, -0.13012650609016418, -0.03254036232829094, 0.9905278086662292, -0.07795626670122147, -0.0037593841552734375, 1.49560546875, 1.571044921875, 0.349578857421875, 1.49560546875
43910, -1.2967618703842163, 3.398024082183838, -2.689497470855713, 0.021342456340789795, -0.009328319691121578, -78.85704803466797, -0.1474895179271698, 0.06469131261110306, -3.7382431030273438, -0.7065038681030273, -0.760654866695404, 0.05388158559799194, -1.1457341518827988, -1.403377044126529, -5.457423435279912, 9362.0, 30146.0, 35388.0, 9362.0, 7.814876556396484, 0.01490899920463562, -0.13297124207019806, -0.044375140219926834, -0.13012650609016418, -0.03254036232829094, 0.9905278086662292, -0.07795626670122147, -0.0037593841552734375, 1.49560546875, 1.439208984375, 0.0882415771484375, 1.49267578125
43920, -1.2964820861816406, 3.3998045921325684, -2.690796375274658, 0.021342456340789795, -0.009328319691121578, -78.85704803466797, -0.1474895179271698, 0.06469131261110306, -3.7382431030273438, -0.706491231918335, -0.760637640953064, 0.053889088332653046, -1.1532588916006814, -1.410237155517109, -5.458831889165409, 9362.0, 30146.0, 35388.0, 9362.0, 7.814876556396484, -0.07394485920667648, -0.14567609131336212, 0.0897158533334732, -0.13012650609016418, -0.03254036232829094, 0.9905278086662292, -0.07795626670122147, -0.0037593841552734375, 1.49560546875, 1.3623046875, 0.0167999267578125, 1.49267578125
43930, -1.2979580163955688, 3.3996222019195557, -2.6899044513702393, 0.021342456340789795, -0.009328319691121578, -78.85704803466797, -0.1474895179271698, 0.06469131261110306, -3.7382431030273438, -0.7064757943153381, -0.7606358528137207, 0.0538695827126503, -1.1480452989790808, -1.4061994908447843, -5.456398919865409, 9362.0, 30146.0, 35388.0, 9362.0, 7.814876556396484, 0.05045723542571068, 0.03790484741330147, 0.06799717992544174, -0.13012650609016418, -0.03254036232829094, 0.9905278086662292, -0.07795626670122147, -0.0037593841552734375, 1.49560546875, 1.590087890625, 0.3937835693359375, 1.493408203125
43940, -1.2974364757537842, 3.399207353591919, -2.6887848377227783, 0.021342456340789795, -0.009328319691121578, -78.85704803466797, -0.1474895179271698, 0.06469131261110306, -3.7382431030273438, -0.7064981460571289, -0.7606512904167175, 0.05385942757129669, -1.1485931971754906, -1.4062937881775213, -5.458781622815032, 9362.0, 30146.0, 35388.0, 9362.0, 7.814876556396484, 0.04640226811170578, -0.018328053876757622, 0.04401795566082001, -0.13012650609016418, -0.03254036232829094, 0.9905278086662292, -0.07795626670122147, -0.0037593841552734375, 1.49560546875, 1.483154296875, 0.162841796875, 1.493408203125
43950, -1.2970457077026367, 3.3994786739349365, -2.690856456756592, 0.021342456340789795, -0.009328319691121578, -78.85704803466797, -0.1474895179271698, 0.06469131261110306, -3.7382431030273438, -0.706490695476532, -0.76064532995224, 0.05385749414563179, -1.1480191184349555, -1.4089614296619573, -5.457151499180853, 9362.0, 30146.0, 35388.0, 9362.0, 7.814876556396484, 0.04640226811170578, -0.018328053876757622, 0.04401795566082001, -0.13012650609016418, -0.03254036232829094, 0.9905278086662292, -0.07795626670122147, -0.0037593841552734375, 1.49560546875, 1.458251953125, 0.1184234619140625, 1.4912109375
43960, -1.2965608835220337, 3.398395538330078, -2.69126296043396, 0.021342456340789795, -0.009328319691121578, -78.85704803466797, -0.1474895179271698, 0.06469131261110306, -3.7382431030273438, -0.7065050601959229, -0.7606374025344849, 0.05386427789926529, -1.1520506192953521, -1.4092329586549965, -5.454970182997408, 9362.0, 30146.0, 35388.0, 9362.0, 7.814876556396484, 0.2405327707529068, 0.21376363933086395, 0.02213262766599655, -0.13012650609016418, -0.03254036232829094, 0.9905278086662292, -0.07795626670122147, -0.0037593841552734375, 1.49560546875, 1.471435546875, 0.14129638671875, 1.4912109375
43970, -1.2947274446487427, 3.3960928916931152, -2.6929149627685547, 0.021342456340789795, -0.009328319691121578, -78.85704803466797, -0.1474895179271698, 0.06469131261110306, -3.7382431030273438, -0.7064817547798157, -0.7605713605880737, 0.05337301641702652, -1.2864018517916802, -1.5429421264581435, -5.460734150901255, 9362.0, 30146.0, 35388.0, 9362.0, 7.814876556396484, 0.2405327707529068, 0.21376363933086395, 0.02213262766599655, -0.13012650609016418, -0.03254036232829094, 0.9905278086662292, -0.07795626670122147, -0.0037593841552734375, 1.49560546875, 1.582763671875, 0.3765869140625, 1.493408203125
43980, -1.2942427396774292, 3.394853115081787, -2.694667100906372, 0.009632319211959839, -0.004194866865873337, -79.11898040771484, -0.18708676099777222, 0.08198149502277374, -3.7453930377960205, -0.7064807415008545, -0.7605853080749512, 0.05336699262261391, -1.2910121100931091, -1.5443165875398392, -5.454146250949333, 9362.0, 30146.0, 35388.0, 9362.0, 7.814876556396484, 0.13351014256477356, -0.1947677731513977, 0.01680019125342369, -0.13012650609016418, -0.03254036232829094, 0.9905278086662292, -0.07795626670122147, -0.0037593841552734375, 1.49560546875, 1.582763671875, 0.3765869140625, 1.493408203125
43990, -1.2937864065170288, 3.3953206539154053, -2.6934709548950195, 0.009632319211959839, -0.004194866865873337, -79.11898040771484, -0.18708676099777222, 0.08198149502277374, -3.7453930377960205, -0.7064894437789917, -0.7605777978897095, 0.05335880070924759, -1.2912346562350407, -1.550357057189018, -5.459506743701812, 9362.0, 30146.0, 35388.0, 9362.0, 7.814876556396484, 0.13351014256477356, -0.1947677731513977, 0.01680019125342369, -0.13012650609016418, -0.03254036232829094, 0.9905278086662292, -0.07795626670122147, -0.0037593841552734375, 1.49560546875, 1.46923828125, 0.137359619140625, 1.493408203125
44000, -1.2927874326705933, 3.3969080448150635, -2.6952643394470215, 0.009632319211959839, -0.004194866865873337, -79.11898040771484, -0.18708676099777222, 0.08198149502277374, -3.7453930377960205, -0.7064900398254395, -0.7605831623077393, 0.05339256674051285, -1.2922875538097336, -1.5509912430402721, -5.454857783027159, 9362.0, 30146.0, 35388.0, 9362.0, 7.814876556396484, 0.168060764670372, -0.09732121974229813, -0.3497227728366852, -0.13012650609016418, -0.03254036232829094, 0.9905278086662292, -0.07795626670122147, -0.0037593841552734375, 1.49560546875, 1.46923828125, 0.137359619140625, 1.493408203125
44010, -1.2926342487335205, 3.395659923553467, -2.697256565093994, 0.009632319211959839, -0.004194866865873337, -79.11898040771484, -0.18708676099777222, 0.08198149502277374, -3.7453930377960205, -0.7064985632896423, -0.7605688571929932, 0.05337773263454437, -1.290644733738345, -1.5454663105485906, -5.45332239619135, 9362.0, 30146.0, 35388.0, 9362.0, 7.814876556396484, 0.168060764670372, -0.09732121974229813, -0.3497227728366852, -0.13012650609016418, -0.03254036232829094, 0.9905278086662292, -0.07795626670122147, -0.0037593841552734375, 1.49560546875, 1.46923828125, 0.137359619140625, 1.49560546875
44020, -1.2918856143951416, 3.395934820175171, -2.6971356868743896, 0.009632319211959839, -0.004194866865873337, -79.11898040771484, -0.18708676099777222, 0.08198149502277374, -3.7453930377960205, -0.7064900398254395, -0.7605734467506409, 0.053362660109996796, -1.2871550455102276, -1.5447955863804168, -5.454645967247319, 9362.0, 30146.0, 35388.0, 9362.0, 7.814876556396484, 0.14583317935466766, 0.09336920827627182, -0.1996026486158371, -0.13012650609016418, -0.03254036232829094, 0.9905278086662292, -0.07795626670122147, -0.0037593841552734375, 1.49560546875, 1.46923828125, 0.137359619140625, 1.49560546875
44030, -1.2908055782318115, 3.3935115337371826, -2.6956088542938232, 0.009632319211959839, -0.004194866865873337, -79.11898040771484, -0.18708676099777222, 0.08198149502277374, -3.7453930377960205, -0.7064667344093323, -0.7605850696563721, 0.05337771028280258, -1.2952497374946985, -1.5417462975435114, -5.461131848229123, 9362.0, 30146.0, 35388.0, 9362.0, 7.814876556396484, -0.09267386049032211, 0.1822696328163147, -0.0032948595471680164, -0.13012650609016418, -0.03254036232829094, 0.9905278086662292, -0.07795626670122147, -0.0037593841552734375, 1.49560546875, 1.46923828125, 0.137359619140625, 1.4912109375
44040, -1.2926920652389526, 3.39253830909729, -2.6958377361297607, 0.009632319211959839, -0.004194866865873337, -79.11898040771484, -0.18708676099777222, 0.08198149502277374, -3.7453930377960205, -0.7064774632453918, -0.7605825066566467, 0.05337513983249664, -1.286945624550571, -1.5399712885673011, -5.4590213984553895, 9362.0, 30146.0, 35388.0, 9362.0, 7.814876556396484, 0.08118123561143875, 0.027548564597964287, 0.3128059506416321, -0.13012650609016418, -0.03254036232829094, 0.9905278086662292, -0.07795626670122147, -0.0037593841552734375, 1.49560546875, 1.587890625, 0.38861083984375, 1.4912109375
44050, -1.2915838956832886, 3.391777753829956, -2.6965417861938477, -0.004845991265028715, 0.0021467339247465134, -79.3814468383789, -0.22658634185791016, 0.09920282661914825, -3.753434658050537, -0.7064825892448425, -0.7605720162391663, 0.053372111171483994, -1.2936906428055865, -1.5478005180729895, -5.450463980074953, 9362.0, 30146.0, 35388.0, 9362.0, 7.814876556396484, 0.1663808375597, 0.018015779554843903, -0.25293976068496704, -0.13012650609016418, -0.03254036232829094, 0.9905278086662292, -0.07795626670122147, -0.0037593841552734375, 1.49560546875, 1.58203125, 0.37493896484375, 1.49853515625
44060, -1.2919247150421143, 3.3897857666015625, -2.6955859661102295, -0.004845991265028715, 0.0021467339247465134, -79.3814468383789, -0.22658634185791016, 0.09920282661914825, -3.753434658050537, -0.706506073474884, -0.7605570554733276, 0.05329137295484543, -1.3152640105408024, -1.527595934945282, -5.4553492370009735, 9362.0, 30146.0, 35388.0, 9362.0, 7.814876556396484, 0.06366490572690964, 0.29082348942756653, -0.012800921685993671, -0.13012650609016418, -0.03254036232829094, 0.9905278086662292, -0.07795626670122147, -0.0037593841552734375, 1.49560546875, 1.58203125, 0.37493896484375, 1.49853515625
44070, -1.2911030054092407, 3.3873684406280518, -2.696460485458374, -0.009490505792200565, 0.004179987590759993, -79.45653533935547, -0.23786404728889465, 0.10412126034498215, -3.755678415298462, -0.7065215110778809, -0.7605459690093994, 0.053293079137802124, -1.3132370273038776, -1.5235626902034767, -5.455844972192404, 9362.0, 30146.0, 35388.0, 9362.0, 7.814876556396484, 0.06366490572690964, 0.29082348942756653, -0.012800921685993671, -0.13012650609016418, -0.03254036232829094, 0.9905278086662292, -0.07795626670122147, -0.0037593841552734375, 1.49560546875, 1.58203125, 0.37493896484375, 1.49853515625
44080, -1.2914645671844482, 3.3869376182556152, -2.69573712348938, -0.009490505792200565, 0.004179987590759993, -79.45653533935547, -0.23786404728889465, 0.10412126034498215, -3.755678415298462, -0.7065189480781555, -0.760554313659668, 0.053272198885679245, -1.3185989645828058, -1.5281817220861171, -5.4591656509712, 9362.0, 30146.0, 35388.0, 9362.0, 7.814876556396484, -0.005727966316044331, -0.16368691623210907, -0.08291827887296677, -0.13012650609016418, -0.03254036232829094, 0.9905278086662292, -0.0776272565126419, -0.01271820068359375, 1.494873046875, 1.47802734375, 0.1532745361328125, 1.49853515625
44090, -1.290592074394226, 3.3865857124328613, -2.6973299980163574, -0.014360622502863407, 0.006311648525297642, -79.53166961669922, -0.24915112555027008, 0.10904642194509506, -3.7575511932373047, -0.7065157890319824, -0.7605563998222351, 0.05328992381691933, -1.3157506137300223, -1.525270329695303, -5.454709137800728, 9362.0, 30146.0, 35388.0, 9362.0, 7.814876556396484, 0.13896676898002625, 0.002344090724363923, 0.04479358345270157, -0.13012650609016418, -0.03254036232829094, 0.9905278086662292, -0.0776272565126419, -0.01271820068359375, 1.494873046875, 1.47802734375, 0.1532745361328125, 1.493408203125
44100, -1.2900681495666504, 3.3860833644866943, -2.6977906227111816, -0.01688036322593689, 0.007414435967803001, -79.56925201416016, -0.2547972500324249, 0.11151126027107239, -3.758395195007324, -0.7065244317054749, -0.7605645060539246, 0.05327451229095459, -1.3157833029475052, -1.5281907474428067, -5.449955285806683, 9362.0, 30146.0, 35388.0, 9362.0, 7.814876556396484, 0.13896676898002625, 0.002344090724363923, 0.04479358345270157, -0.13012650609016418, -0.03254036232829094, 0.9905278086662292, -0.0776272565126419, -0.01271820068359375, 1.494873046875, 1.47802734375, 0.1532745361328125, 1.493408203125
44110, -1.289365291595459, 3.3880631923675537, -2.6970763206481934, -0.019456500187516212, 0.008541837334632874, -79.60684204101562, -0.2604302167892456, 0.11396913975477219, -3.7594542503356934, -0.7065175771713257, -0.760564386844635, 0.05329784378409386, -1.316917240462802, -1.5349274108556585, -5.446149726606548, 9362.0, 30146.0, 35388.0, 9362.0, 7.814876556396484, 0.17159698903560638, -0.0574583075940609, -0.26619255542755127, -0.13012650609016418, -0.03254036232829094, 0.9905278086662292, -0.0776272565126419, -0.01271820068359375, 1.494873046875, 1.528564453125, 0.2548828125, 1.494873046875
44120, -1.2889646291732788, 3.389324426651001, -2.6988937854766846, -0.019456500187516212, 0.008541837334632874, -79.60684204101562, -0.2604302167892456, 0.11396913975477219, -3.7594542503356934, -0.7065178751945496, -0.7605648040771484, 0.053302958607673645, -1.3096372396466007, -1.5364904710303335, -5.445087319528213, 9362.0, 30146.0, 35388.0, 9362.0, 7.814876556396484, 0.01415311824530363, 0.05566592141985893, 0.01964777521789074, -0.13012650609016418, -0.03254036232829094, 0.9905278086662292, -0.0776272565126419, -0.01271820068359375, 1.494873046875, 1.612060546875, 0.4459686279296875, 1.494873046875
44130, -1.289161205291748, 3.390125274658203, -2.6981489658355713, -0.0247776098549366, 0.010870285332202911, -79.68205261230469, -0.2716863453388214, 0.11887700855731964, -3.7617743015289307, -0.70653235912323, -0.7605429887771606, 0.05328591912984848, -1.3090944817521277, -1.5291692302149897, -5.446220496422372, 9362.0, 30146.0, 35388.0, 9362.0, 7.814876556396484, 0.021449025720357895, 0.04473519325256348, 0.19329869747161865, -0.13012650609016418, -0.03254036232829094, 0.9905278086662292, -0.0776272565126419, -0.01271820068359375, 1.494873046875, 1.612060546875, 0.4459686279296875, 1.6142578125
44140, -1.2891888618469238, 3.388798952102661, -2.697294235229492, -0.027522658929228783, 0.012071331031620502, -79.71967315673828, -0.27732351422309875, 0.12133215367794037, -3.762843370437622, -0.7065279483795166, -0.7605488300323486, 0.053296755999326706, -1.3171796193683174, -1.528407690756893, -5.446677544842004, 9362.0, 30146.0, 35388.0, 9362.0, 7.814876556396484, -0.08603090047836304, 0.08172360807657242, 0.03714097663760185, -0.13012650609016418, -0.03254036232829094, 0.9905278086662292, -0.0776272565126419, -0.01271820068359375, 1.494873046875, 1.61865234375, 0.461822509765625, 1.6142578125
44150, -1.2887182235717773, 3.3889997005462646, -2.6969923973083496, -0.027522658929228783, 0.012071331031620502, -79.71967315673828, -0.27732351422309875, 0.12133215367794037, -3.762843370437622, -0.7065306305885315, -0.7605475187301636, 0.053332287818193436, -1.3104252186596423, -1.5280861229086895, -5.441845152771151, 9362.0, 30146.0, 35388.0, 9362.0, 7.814876556396484, 0.1623942255973816, -0.28896841406822205, -0.03410348296165466, -0.13012650609016418, -0.03254036232829094, 0.9905278086662292, -0.0776272565126419, -0.01271820068359375, 1.494873046875, 1.5791015625, 0.368133544921875, 1.49560546875
44160, -1.2892768383026123, 3.391885280609131, -2.6971163749694824, -0.027522658929228783, 0.012071331031620502, -79.71967315673828, -0.27732351422309875, 0.12133215367794037, -3.762843370437622, -0.7065173387527466, -0.7605473399162292, 0.05330588296055794, -1.313974656493427, -1.534800286868176, -5.441143230889761, 9362.0, 30146.0, 35388.0, 9362.0, 7.814876556396484, -0.07599281519651413, -0.4282853603363037, -0.2670222222805023, -0.13012650609016418, -0.03254036232829094, 0.9905278086662292, -0.0776272565126419, -0.01271820068359375, 1.494873046875, 1.54541015625, 0.291656494140625, 1.49560546875
44170, -1.2887552976608276, 3.3940012454986572, -2.6974027156829834, -0.027522658929228783, 0.012071331031620502, -79.71967315673828, -0.27732351422309875, 0.12133215367794037, -3.762843370437622, -0.7065237164497375, -0.7605554461479187, 0.05329063907265663, -1.3127330814240223, -1.5292795382700604, -5.446116327686119, 9362.0, 30146.0, 35388.0, 9362.0, 7.814876556396484, -0.07599281519651413, -0.4282853603363037, -0.2670222222805023, -0.13012650609016418, -0.03254036232829094, 0.9905278086662292, -0.0776272565126419, -0.01271820068359375, 1.494873046875, 1.6171875, 0.4583282470703125, 1.469970703125
44180, -1.2893922328948975, 3.3937642574310303, -2.6965081691741943, -0.027522658929228783, 0.012071331031620502, -79.71967315673828, -0.27732351422309875, 0.12133215367794037, -3.762843370437622, -0.7065249681472778, -0.7605526447296143, 0.053310904651880264, -1.3125691536257436, -1.537610631539934, -5.45128470150738, 9362.0, 30146.0, 35388.0, 9362.0, 7.814876556396484, 0.045868001878261566, -0.48268675804138184, -0.07720833271741867, -0.13012650609016418, -0.03254036232829094, 0.9905278086662292, -0.08532429486513138, -0.030637741088867188, 1.493408203125, 1.49267578125, 0.1811065673828125, 1.469970703125
44190, -1.2892824411392212, 3.3957972526550293, -2.6973772048950195, -0.027522658929228783, 0.012071331031620502, -79.71967315673828, -0.27732351422309875, 0.12133215367794037, -3.762843370437622, -0.7065233588218689, -0.7605472207069397, 0.053294070065021515, -1.3102445180763254, -1.532392933816368, -5.4445126073691865, 9362.0, 30146.0, 35388.0, 9362.0, 7.814876556396484, 0.1522849202156067, 0.30191224813461304, 0.10945653915405273, -0.1264829784631729, -0.032209400087594986, 0.9899322986602783, -0.08532429486513138, -0.030637741088867188, 1.493408203125, 1.49267578125, 0.1811065673828125, 1.494140625
44200, -1.2882167100906372, 3.3949947357177734, -2.696085214614868, -0.027522658929228783, 0.012071331031620502, -79.71967315673828, -0.27732351422309875, 0.12133215367794037, -3.762843370437622, -0.7065317630767822, -0.7605526447296143, 0.05329791456460953, -1.3126450633097242, -1.5337863761990889, -5.432401656920588, 9362.0, 30146.0, 35388.0, 9362.0, 7.814876556396484, 0.07335935533046722, -0.03455371409654617, 0.38896042108535767, -0.1264829784631729, -0.032209400087594986, 0.9899322986602783, -0.08532429486513138, -0.030637741088867188, 1.493408203125, 1.4736328125, 0.1452178955078125, 1.494140625
44210, -1.2874631881713867, 3.3940839767456055, -2.695359468460083, -0.027522658929228783, 0.012071331031620502, -79.71967315673828, -0.27732351422309875, 0.12133215367794037, -3.762843370437622, -0.706516683101654, -0.7605631351470947, 0.053312987089157104, -1.3138607113522507, -1.53241179083426, -5.448835524837426, 9362.0, 30146.0, 35388.0, 9362.0, 7.814876556396484, 0.07335935533046722, -0.03455371409654617, 0.38896042108535767, -0.1264829784631729, -0.032209400087594986, 0.9899322986602783, -0.08532429486513138, -0.030637741088867188, 1.493408203125, 1.4736328125, 0.1452178955078125, 1.494140625
44220, -1.2883784770965576, 3.3932013511657715, -2.694864273071289, -0.027522658929228783, 0.012071331031620502, -79.71967315673828, -0.27732351422309875, 0.12133215367794037, -3.762843370437622, -0.7065272927284241, -0.7605562210083008, 0.05329451337456703, -1.3129575521665149, -1.5306027319638815, -5.440184862676341, 9362.0, 30146.0, 35388.0, 9362.0, 7.814876556396484, -0.0639539435505867, 0.016361895948648453, 0.1653866022825241, -0.1264829784631729, -0.032209400087594986, 0.9899322986602783, -0.08532429486513138, -0.030637741088867188, 1.493408203125, 1.39013671875, 0.0314483642578125, 1.494140625
44230, -1.2883858680725098, 3.3932125568389893, -2.693695306777954, -0.054765380918979645, 0.023985274136066437, -80.05878448486328, -0.32808318734169006, 0.14341674745082855, -3.772883892059326, -0.7065131068229675, -0.7605573534965515, 0.05328633636236191, -1.3151528202843232, -1.5306134125709434, -5.446815856385998, 9362.0, 30146.0, 35388.0, 9362.0, 7.814876556396484, -0.0639539435505867, 0.016361895948648453, 0.1653866022825241, -0.1264829784631729, -0.032209400087594986, 0.9899322986602783, -0.08532429486513138, -0.030637741088867188, 1.493408203125, 1.411376953125, 0.05181884765625, 1.4853515625
44240, -1.286991000175476, 3.3931124210357666, -2.6945297718048096, -0.054765380918979645, 0.023985274136066437, -80.05878448486328, -0.32808318734169006, 0.14341674745082855, -3.772883892059326, -0.7065207958221436, -0.7605541348457336, 0.0532929003238678, -1.3151078523303688, -1.5336562743595437, -5.442928802841676, 9362.0, 30146.0, 35388.0, 9362.0, 7.814876556396484, 0.007081706076860428, -0.15097302198410034, -0.20985998213291168, -0.1264829784631729, -0.032209400087594986, 0.9899322986602783, -0.08532429486513138, -0.030637741088867188, 1.493408203125, 1.433349609375, 0.0797576904296875, 1.4853515625
44250, -1.2871947288513184, 3.3948278427124023, -2.694340229034424, -0.054765380918979645, 0.023985274136066437, -80.05878448486328, -0.32808318734169006, 0.14341674745082855, -3.772883892059326, -0.7065219879150391, -0.7605535387992859, 0.053278934210538864, -1.3099334508689624, -1.5370662121387113, -5.447477668170595, 9362.0, 30146.0, 35388.0, 9362.0, 7.814876556396484, -0.021209074184298515, 0.169050395488739, 0.05370543897151947, -0.1264829784631729, -0.032209400087594986, 0.9899322986602783, -0.08532429486513138, -0.030637741088867188, 1.493408203125, 1.433349609375, 0.0797576904296875, 1.4912109375
