timeTick, roll, pitch, yaw, stateX, stateY, stateZ, stateVX, stateVY, stateVZ, otX0, otY0, otZ0, otRoll0, otPitch0, otYaw0, left wing, pitch motor, yaw motor, right wing, voltage, roll rate, pitch rate, yaw rate, A_x, A_y, A_z, current, i_raw, v_raw, airflow_voltage, airflow_speed, pot_Pitch
39377, -0.7085021734237671, 1.6341643333435059, -2.808351755142212, 0, 0, 0, 0, 0, 0, -0.694740891456604, -0.7727545499801636, 0.05305685102939606, -2.1553975658118727, -1.3904263133501047, -1.632768668123521, 0, 0, 0, 0, 0, 0, 0, 0, 0, 0, 0, 0, 0, 0, 0, 0, 0
39387, -0.7086203694343567, 1.6322828531265259, -2.804609537124634, 0.0008767840918153524, -0.00043322096462361515, -60.29902648925781, 0.08632446825504303, -0.042653217911720276, -3.194016695022583, -0.6947397589683533, -0.772758960723877, 0.0530519001185894, -2.164370561276349, -1.3934940323181593, -1.6287234196509555, 9362.0, 30146.0, 35388.0, 9362.0, 0, -0.07543739676475525, -0.042749058455228806, 0.4385967254638672, 0, 0, 0, 0, 0, 0, 0, 0, 0
39397, -0.7095291018486023, 1.6301816701889038, -2.8003346920013428, 0.0017265013884752989, -0.0008530816994607449, -60.330970764160156, 0.08361884951591492, -0.041319094598293304, -3.1951067447662354, -0.6947396397590637, -0.7727552652359009, 0.05304769426584244, -2.164340275659798, -1.400213407781365, -1.624859279003933, 9362.0, 30146.0, 35388.0, 9362.0, 0, 0.08157598972320557, 0.4565057158470154, 0.365414559841156, -0.12373225390911102, -0.04977931082248688, 0.9904125928878784, 0, 0, 0, 1.628173828125, 0.484893798828125, 0
39407, -0.7085673213005066, 1.6253859996795654, -2.7978925704956055, 0.002549167023971677, -0.0012595964362844825, -60.3629264831543, 0.08091416209936142, -0.03998406603932381, -3.1961185932159424, -0.6947298645973206, -0.7727538347244263, 0.05302632227540016, -2.1599349161515695, -1.3972943511827793, -1.6286806870732455, 9362.0, 30146.0, 35388.0, 9362.0, 0, -0.031097019091248512, 0.19000953435897827, 0.35216760635375977, -0.1244318038225174, -0.04926615580916405, 0.9895703792572021, 0, 0, 0, 1.6552734375, 0.5520477294921875, 1.4912109375
39417, -0.708053469657898, 1.6235949993133545, -2.7947590351104736, 0.00334480800665915, -0.001652757404372096, -60.394893646240234, 0.07821392267942429, -0.03864821046590805, -3.1971631050109863, -0.6947296857833862, -0.7727551460266113, 0.053063176572322845, -2.1582451552078292, -1.4025938789975498, -1.624259099509798, 9362.0, 30146.0, 35388.0, 9362.0, 0, 0.004649152979254723, 0.32180216908454895, 0.4912997782230377, -0.12369897216558456, -0.04979488626122475, 0.9895591735839844, 0, 0, 0, 1.66552734375, 0.5779266357421875, 1.4912109375
39427, -0.7083873748779297, 1.6221188306808472, -2.7901601791381836, 0.004113491158932447, -0.0020325728692114353, -60.42687225341797, 0.07552260160446167, -0.037314996123313904, -3.1982414722442627, -0.6947375535964966, -0.7727559804916382, 0.05305672436952591, -2.1610266255659103, -1.4057917378946456, -1.6258198715262655, 9362.0, 30146.0, 35388.0, 9362.0, 0, -0.1358417272567749, 0.29198208451271057, 0.5151946544647217, -0.12314189225435257, -0.05065096914768219, 0.9914114475250244, 0, 0, 0, 1.648681640625, 0.5355377197265625, 1.49267578125
39437, -0.7100061178207397, 1.6205543279647827, -2.7845571041107178, 0.004855251405388117, -0.002399049699306488, -60.458858489990234, 0.07282929122447968, -0.03598060458898544, -3.199143171310425, -0.6947287321090698, -0.7727627158164978, 0.05304688215255737, -2.1651482576500287, -1.4018988733784568, -1.625124171678029, 9362.0, 30146.0, 35388.0, 9362.0, 0, -0.05520324036478996, 0.12505780160427094, 0.4498859941959381, -0.12480004131793976, -0.049120258539915085, 0.9906058311462402, 0, 0, 0, 1.6025390625, 0.423187255859375, 1.49267578125
39447, -0.7106783986091614, 1.6190381050109863, -2.780064105987549, 0.005570095032453537, -0.002752183936536312, -60.4908561706543, 0.07013928890228271, -0.034646499902009964, -3.2000772953033447, -0.694726288318634, -0.772762656211853, 0.05303846299648285, -2.1553307085803675, -1.4045421475394448, -1.618400723398928, 9362.0, 30146.0, 35388.0, 9362.0, 0, 0.14922945201396942, 0.2709595561027527, 0.29622313380241394, -0.12313465029001236, -0.05037401616573334, 0.9895580410957336, 0, 0, 0, 1.669189453125, 0.5873260498046875, 1.4912109375
39457, -0.7102413177490234, 1.6173757314682007, -2.7780535221099854, 0.006258070003241301, -0.0030919741839170456, -60.52286148071289, 0.06745558232069016, -0.033311787992715836, -3.2011430263519287, -0.6947301030158997, -0.7727596163749695, 0.05304592102766037, -2.1576983315806553, -1.398449372023606, -1.6219481334022265, 9362.0, 30146.0, 35388.0, 9362.0, 0, -0.12414820492267609, -0.0041665141470730305, 0.18357409536838531, -0.12609800696372986, -0.050924208015203476, 0.99080491065979, 0, 0, 0, 1.587158203125, 0.3869171142578125, 1.4912109375
39467, -0.7111042737960815, 1.6173902750015259, -2.777122735977173, 0.006919206585735083, -0.0034184064716100693, -60.55487823486328, 0.06477168947458267, -0.031974758952856064, -3.2021074295043945, -0.6947389841079712, -0.772749125957489, 0.053036995232105255, -2.162150859615772, -1.404701014330243, -1.627520651227537, 9362.0, 30146.0, 35388.0, 9362.0, 0, 0.28833016753196716, 0.20333562791347504, 0.17511163651943207, -0.12538938224315643, -0.04946039244532585, 0.9917231202125549, 0, 0, 0, 1.5849609375, 0.381805419921875, 1.48828125
39477, -0.7102735638618469, 1.6157035827636719, -2.775836944580078, 0.007553508505225182, -0.0037314684595912695, -60.5869026184082, 0.062088627368211746, -0.0306377075612545, -3.2030022144317627, -0.6947349309921265, -0.7727597951889038, 0.05304019898176193, -2.159957660459024, -1.4035047544606698, -1.6195203728716066, 9362.0, 30146.0, 35388.0, 9362.0, 8.013224601745605, -0.06095344200730324, -0.10077070444822311, 0.016220545396208763, -0.12441348284482956, -0.04818829149007797, 0.9905996322631836, 0, 0, 0, 1.546875, 0.2949676513671875, 1.48828125
39487, -0.7103233337402344, 1.6150349378585815, -2.7755074501037598, 0.008160988800227642, -0.004031157121062279, -60.61893844604492, 0.059407323598861694, -0.02930009923875332, -3.203960418701172, -0.6947360634803772, -0.7727600336074829, 0.053018976002931595, -2.1583575730654827, -1.3954590418090902, -1.62547326553371, 9362.0, 30146.0, 35388.0, 9362.0, 8.013224601745605, -0.01408326718956232, 0.16051620244979858, 0.07901132106781006, -0.12302706390619278, -0.05014406889677048, 0.9899663329124451, -0.10521512478590012, -0.10231781005859375, 1.487548828125, 1.563720703125, 0.3327789306640625, 1.494873046875
39497, -0.7104990482330322, 1.6133776903152466, -2.773658037185669, 0.008741680532693863, -0.004317483399063349, -60.65098190307617, 0.05673099309206009, -0.027965156361460686, -3.2049975395202637, -0.6947370767593384, -0.772741973400116, 0.05305078253149986, -2.158969380270563, -1.400339830409223, -1.623551016179093, 9362.0, 30146.0, 35388.0, 9362.0, 8.013224601745605, -0.2585635483264923, 0.09855344146490097, 0.04697953164577484, -0.12358156591653824, -0.050181929022073746, 0.9899880886077881, -0.10521512478590012, -0.10231781005859375, 1.487548828125, 1.651611328125, 0.5428314208984375, 1.494873046875
39507, -0.7112290859222412, 1.6118814945220947, -2.7723069190979004, 0.009295615367591381, -0.004590460564941168, -60.68303680419922, 0.05405598506331444, -0.02663039043545723, -3.2060439586639404, -0.6947425603866577, -0.7727628946304321, 0.05305379629135132, -2.1612458445531435, -1.397314874568906, -1.623519199246736, 9362.0, 30146.0, 35388.0, 9362.0, 8.013224601745605, 0.04440789669752121, -0.09562432765960693, -0.04677632078528404, -0.12413857877254486, -0.049714602530002594, 0.9900780916213989, -0.10521512478590012, -0.10231781005859375, 1.487548828125, 1.669921875, 0.589080810546875, 1.493408203125
39517, -0.7108510732650757, 1.6119886636734009, -2.7731070518493652, 0.00982280820608139, -0.004850086756050587, -60.71510314941406, 0.05138247832655907, -0.025294892489910126, -3.207042694091797, -0.6947540640830994, -0.7727521061897278, 0.053040482103824615, -2.158231762887322, -1.394197196319027, -1.628179477926124, 9362.0, 30146.0, 35388.0, 9362.0, 8.013224601745605, -0.11166317015886307, 0.22750799357891083, 0.16798393428325653, -0.12473206967115402, -0.04992619901895523, 0.991656482219696, -0.10521512478590012, -0.10231781005859375, 1.487548828125, 1.664794921875, 0.57598876953125, 1.493408203125
39527, -0.7118847370147705, 1.6105459928512573, -2.772535562515259, 0.01032326277345419, -0.005096344742923975, -60.74717712402344, 0.04870840907096863, -0.023956626653671265, -3.207926034927368, -0.6947377920150757, -0.772758960723877, 0.05305538326501846, -2.1657994375053287, -1.3898400750986468, -1.624688768080498, 9362.0, 30146.0, 35388.0, 9362.0, 8.013224601745605, -0.08102348446846008, -0.052380818873643875, -0.025536907836794853, -0.12444165349006653, -0.05157313123345375, 0.9929537177085876, -0.10521512478590012, -0.10231781005859375, 1.487548828125, 1.645751953125, 0.5281219482421875, 1.4853515625
39537, -0.7125091552734375, 1.6111546754837036, -2.77382493019104, 0.01079696137458086, -0.005329215433448553, -60.779258728027344, 0.04603121429681778, -0.02261759713292122, -3.2087039947509766, -0.6947455406188965, -0.7727635502815247, 0.05302765220403671, -2.1601063259299105, -1.3975297243386535, -1.6222158005766494, 9362.0, 30146.0, 35388.0, 9362.0, 8.013224601745605, -0.1654168963432312, -0.261464923620224, -0.20848512649536133, -0.12184099853038788, -0.05031223222613335, 0.992300271987915, -0.10521512478590012, -0.10231781005859375, 1.487548828125, 1.63330078125, 0.49737548828125, 1.4853515625
39547, -0.713027834892273, 1.6130309104919434, -2.7761309146881104, 0.011243900284171104, -0.005548688117414713, -60.81134796142578, 0.043356649577617645, -0.02127688378095627, -3.2094836235046387, -0.6947503685951233, -0.7727554440498352, 0.05305970460176468, -2.160660128870164, -1.3945037658845933, -1.628530143356355, 9362.0, 30146.0, 35388.0, 9362.0, 8.013224601745605, 0.05215265601873398, 0.36874809861183167, -0.13241437077522278, -0.12448088079690933, -0.04758191108703613, 0.9905171990394592, -0.10521512478590012, -0.10231781005859375, 1.487548828125, 1.576171875, 0.361328125, 1.494140625
39557, -0.7122091054916382, 1.611196756362915, -2.777789831161499, 0.011664115823805332, -0.005754760932177305, -60.843448638916016, 0.040686480700969696, -0.01993761770427227, -3.210456609725952, -0.6947439312934875, -0.7727588415145874, 0.05304870381951332, -2.158203836231643, -1.3959171976641755, -1.6285604482199314, 9362.0, 30146.0, 35388.0, 9362.0, 8.013224601745605, -0.3301374912261963, -0.41850027441978455, -0.2087458223104477, -0.12379258871078491, -0.051034197211265564, 0.99153071641922, -0.10521512478590012, -0.10231781005859375, 1.487548828125, 1.6171875, 0.4583282470703125, 1.494140625
39567, -0.7145345211029053, 1.613394021987915, -2.780313730239868, 0.012057604268193245, -0.005947430618107319, -60.87555694580078, 0.038011226803064346, -0.01859625056385994, -3.2113585472106934, -0.6947526335716248, -0.772756040096283, 0.05303081125020981, -2.155639655419013, -1.395633810732562, -1.6252773964904421, 9362.0, 30146.0, 35388.0, 9362.0, 8.013224601745605, -0.05047079920768738, -0.2310018539428711, -0.18233045935630798, -0.12281036376953125, -0.053384292870759964, 0.9912853837013245, -0.10521512478590012, -0.10231781005859375, 1.487548828125, 1.598876953125, 0.414520263671875, 1.4912109375
39577, -0.7151507139205933, 1.6140222549438477, -2.7817671298980713, 0.012424351647496223, -0.0061266920529305935, -60.907676696777344, 0.03533826395869255, -0.01725592091679573, -3.2122304439544678, -0.6947393417358398, -0.7727636098861694, 0.05303380638360977, -2.158337101642242, -1.4013953854801855, -1.625371936401028, 9362.0, 30146.0, 35388.0, 9362.0, 8.013224601745605, 0.019337348639965057, 0.14330700039863586, -0.16024893522262573, -0.12384690344333649, -0.05051206052303314, 0.9907212257385254, -0.10521512478590012, -0.10231781005859375, 1.487548828125, 1.67431640625, 0.6003570556640625, 1.4912109375
39587, -0.7151406407356262, 1.6128085851669312, -2.7829222679138184, 0.012764359824359417, -0.006292533129453659, -60.93980407714844, 0.032663438469171524, -0.015912195667624474, -3.2131614685058594, -0.6947253346443176, -0.7727642059326172, 0.05306416377425194, -2.1584001157394748, -1.3961488595903404, -1.6226845027738959, 9362.0, 30146.0, 35388.0, 9362.0, 8.013224601745605, -0.07020483165979385, 0.06287907809019089, -0.1510113775730133, -0.12614192068576813, -0.05247614160180092, 0.9917272329330444, -0.11515068262815475, -0.03959846496582031, 1.49267578125, 1.661865234375, 0.568572998046875, 1.494873046875
39597, -0.7157239317893982, 1.6126528978347778, -2.7849807739257812, 0.013077608309686184, -0.006444927770644426, -60.97193908691406, 0.029986273497343063, -0.014566648751497269, -3.2140448093414307, -0.6947351098060608, -0.7727577686309814, 0.053066205233335495, -2.1652462401855326, -1.398972434310366, -1.6254250855809076, 9362.0, 30146.0, 35388.0, 9362.0, 8.013224601745605, -0.02776496484875679, -0.0025945568922907114, -0.3556821942329407, -0.1255587786436081, -0.047880109399557114, 0.9940380454063416, -0.11515068262815475, -0.03959846496582031, 1.49267578125, 1.661865234375, 0.568572998046875, 1.494873046875
39607, -0.7157619595527649, 1.6112257242202759, -2.788412570953369, 0.013364068232476711, -0.006583853159099817, -61.00408172607422, 0.027305757626891136, -0.013218378648161888, -3.214728355407715, -0.6947410702705383, -0.7727611064910889, 0.05306215211749077, -2.15888779829938, -1.4006477523276715, -1.6262478029626115, 9362.0, 30146.0, 35388.0, 9362.0, 8.013224601745605, -0.11684385687112808, -0.2532697916030884, -0.22455130517482758, -0.12356941401958466, -0.04860258847475052, 0.9933992624282837, -0.11515068262815475, -0.03959846496582031, 1.49267578125, 1.56005859375, 0.324493408203125, 1.494140625
39617, -0.7160968780517578, 1.6123738288879395, -2.7909903526306152, 0.013623724691569805, -0.0067092906683683395, -61.036231994628906, 0.02462555281817913, -0.011868933215737343, -3.2154102325439453, -0.6947270631790161, -0.7727621793746948, 0.05305394530296326, -2.1609677172547097, -1.3995020340779831, -1.6237646986983056, 9362.0, 30146.0, 35388.0, 9362.0, 8.013224601745605, 0.1377861052751541, 0.15241271257400513, 0.022103190422058105, -0.12487783282995224, -0.05063307657837868, 0.9925184845924377, -0.11515068262815475, -0.03959846496582031, 1.49267578125, 1.634765625, 0.5010528564453125, 1.494140625
39627, -0.7152594923973083, 1.6119025945663452, -2.7914743423461914, 0.013856600970029831, -0.006821237504482269, -61.068389892578125, 0.021949728950858116, -0.010520363226532936, -3.2161598205566406, -0.6947265863418579, -0.7727614045143127, 0.053039584308862686, -2.1608215536632103, -1.4002226272739904, -1.6235059921048258, 9362.0, 30146.0, 35388.0, 9362.0, 8.013224601745605, 0.019399626180529594, -0.1845160722732544, -0.5284757614135742, -0.1234753280878067, -0.04988009110093117, 0.9895089864730835, -0.11515068262815475, -0.03959846496582031, 1.49267578125, 1.5791015625, 0.368133544921875, 1.48974609375
39637, -0.7147438526153564, 1.6140857934951782, -2.795583724975586, 0.014062752947211266, -0.006919716950505972, -61.100555419921875, 0.01928061991930008, -0.00917543563991785, -3.217223644256592, -0.694724977016449, -0.7727594375610352, 0.05306996405124664, -2.163354861996635, -1.4035585163180713, -1.619679585271657, 9362.0, 30146.0, 35388.0, 9362.0, 8.013224601745605, 0.405392050743103, -0.09114906936883926, -0.24937337636947632, -0.12105623632669449, -0.05213339254260063, 0.9904522895812988, -0.11515068262815475, -0.03959846496582031, 1.49267578125, 1.575439453125, 0.3596649169921875, 1.48974609375
39647, -0.7127442359924316, 1.615882158279419, -2.797985076904297, 0.014242206700146198, -0.007004748564213514, -61.13273239135742, 0.01661021076142788, -0.007830687798559666, -3.2182083129882812, -0.6947235465049744, -0.7727551460266113, 0.05305976793169975, -2.1593885265273927, -1.403153753046439, -1.62309169831571, 9362.0, 30146.0, 35388.0, 9362.0, 8.013224601745605, -0.08018088340759277, -0.2131979763507843, -0.10674139857292175, -0.12401992827653885, -0.04998207837343216, 0.9909580945968628, -0.11515068262815475, -0.03959846496582031, 1.49267578125, 1.64794921875, 0.533660888671875, 1.48974609375
39657, -0.7132849097251892, 1.6179180145263672, -2.7996902465820312, 0.014394928701221943, -0.007076330482959747, -61.164920806884766, 0.01393424067646265, -0.006485568825155497, -3.219125747680664, -0.694722056388855, -0.7727575302124023, 0.053043924272060394, -2.163722044303879, -1.4075174381812872, -1.6287979866076574, 9362.0, 30146.0, 35388.0, 9362.0, 8.013224601745605, 0.4020879864692688, -0.19539137184619904, -0.26681652665138245, -0.12467838823795319, -0.05012037605047226, 0.9894062280654907, -0.11515068262815475, -0.03959846496582031, 1.49267578125, 1.5673828125, 0.3411102294921875, 1.48974609375
39667, -0.7113669514656067, 1.6188671588897705, -2.800962448120117, 0.014520896598696709, -0.0071344878524541855, -61.19711685180664, 0.01125942450016737, -0.005145807284861803, -3.2201988697052, -0.6947389841079712, -0.7727556228637695, 0.05304659530520439, -2.1624426920299813, -1.4075105839639548, -1.6229170401849133, 9362.0, 30146.0, 35388.0, 9362.0, 8.013224601745605, 0.08519978821277618, 0.25023818016052246, 0.14300528168678284, -0.1246589794754982, -0.050730057060718536, 0.9923615455627441, -0.11515068262815475, -0.03959846496582031, 1.49267578125, 1.625244140625, 0.477783203125, 1.49267578125
39677, -0.710976243019104, 1.6176018714904785, -2.800232410430908, 0.014620073139667511, -0.007179228123277426, -61.22932434082031, 0.008575850166380405, -0.003802188439294696, -3.221078395843506, -0.6947274208068848, -0.7727551460266113, 0.05305836349725723, -2.1688809240541067, -1.4072704561037028, -1.6212090462570758, 9362.0, 30146.0, 35388.0, 9362.0, 8.013224601745605, 0.18166108429431915, -0.08351512253284454, 0.13129082322120667, -0.12359379976987839, -0.05076133832335472, 0.9926655888557434, -0.11515068262815475, -0.03959846496582031, 1.49267578125, 1.57763671875, 0.3647918701171875, 1.49267578125
39687, -0.7104784846305847, 1.619174838066101, -2.7998085021972656, 0.014692388474941254, -0.0072105396538972855, -61.261539459228516, 0.005887141916900873, -0.002460138639435172, -3.2218379974365234, -0.6947376132011414, -0.7727539539337158, 0.05305732414126396, -2.170064359956834, -1.4017434425677209, -1.6264443650075273, 9362.0, 30146.0, 35388.0, 9362.0, 8.013224601745605, -0.16455529630184174, -0.4056003987789154, 0.11339560151100159, -0.12451806664466858, -0.04834924638271332, 0.9905548095703125, -0.08848965913057327, -0.23671722412109375, 1.4765625, 1.657470703125, 0.5576019287109375, 1.493408203125
39697, -0.7113991975784302, 1.6213171482086182, -2.799849033355713, 0.014737854711711407, -0.0072284480556845665, -61.29376220703125, 0.003206032095476985, -0.0011215925915166736, -3.222794532775879, -0.6947317719459534, -0.7727479934692383, 0.05306340008974075, -2.1648456795197983, -1.4026222372887105, -1.6249453382965362, 9362.0, 30146.0, 35388.0, 9362.0, 8.013224601745605, 0.2510465681552887, 0.1155695766210556, 0.2829881012439728, -0.12594345211982727, -0.05126456171274185, 0.988990068435669, -0.08848965913057327, -0.23671722412109375, 1.4765625, 1.59375, 0.4024658203125, 1.493408203125
39707, -0.7100573182106018, 1.6194052696228027, -2.798227310180664, 0.014756519347429276, -0.007232986856251955, -61.32599639892578, 0.0005269686807878315, 0.0002138581039616838, -3.2239227294921875, -0.6947410702705383, -0.7727574706077576, 0.05304957181215286, -2.1627329507748176, -1.4041374247607052, -1.6196648731061665, 9362.0, 30146.0, 35388.0, 9362.0, 8.013224601745605, 0.2636564075946808, 0.12072107940912247, 0.28458693623542786, -0.1216467022895813, -0.04909713566303253, 0.9908740520477295, -0.08848965913057327, -0.23671722412109375, 1.4765625, 1.66259765625, 0.5705108642578125, 1.49267578125
39717, -0.7088211178779602, 1.617408275604248, -2.795382022857666, 0.014748353511095047, -0.007224151398986578, -61.35824203491211, -0.002160108182579279, 0.001553182490170002, -3.22489333152771, -0.6947362422943115, -0.7727579474449158, 0.0530550479888916, -2.1615428798390623, -1.4028475952889892, -1.6245692767103055, 9362.0, 30146.0, 35388.0, 9362.0, 8.013224601745605, -0.10565263777971268, 0.040246739983558655, 0.36042773723602295, -0.12138692289590836, -0.04807668551802635, 0.9903203845024109, -0.08848965913057327, -0.23671722412109375, 1.4765625, 1.657470703125, 0.5576019287109375, 1.49267578125
39727, -0.7090398669242859, 1.615897536277771, -2.7917842864990234, 0.014713331125676632, -0.0072019342333078384, -61.39049530029297, -0.0048444862477481365, 0.0028901153709739447, -3.2258505821228027, -0.6947330832481384, -0.7727584838867188, 0.05304943025112152, -2.162088168552212, -1.3999827448780024, -1.6244001290142276, 9362.0, 30146.0, 35388.0, 9362.0, 8.013224601745605, 0.07867386937141418, 0.03705959767103195, 0.0788709744811058, -0.12379606068134308, -0.048984020948410034, 0.9897380471229553, -0.08848965913057327, -0.23671722412109375, 1.4765625, 1.544677734375, 0.2900543212890625, 1.49267578125
39737, -0.7084808349609375, 1.6150315999984741, -2.7891108989715576, 0.014651495032012463, -0.007166366558521986, -61.422760009765625, -0.007522893138229847, 0.004223223309963942, -3.2269082069396973, -0.6947399973869324, -0.772765040397644, 0.053049176931381226, -2.1649521415916104, -1.401238464274229, -1.6306083127168154, 9362.0, 30146.0, 35388.0, 9362.0, 8.013224601745605, 0.1409100890159607, 0.09509164839982986, 0.3575872480869293, -0.12477526813745499, -0.050725143402814865, 0.9902564883232117, -0.08848965913057327, -0.23671722412109375, 1.4765625, 1.658203125, 0.5592803955078125, 1.49267578125
39747, -0.7076969146728516, 1.6144661903381348, -2.7851803302764893, 0.014562880620360374, -0.007117464207112789, -61.45503234863281, -0.01020012330263853, 0.005557123571634293, -3.2279179096221924, -0.6947369575500488, -0.7727608680725098, 0.05307235196232796, -2.1587331869213013, -1.4133439683521658, -1.6209518335349196, 9362.0, 30146.0, 35388.0, 9362.0, 8.013224601745605, -0.07042020559310913, -0.05988913029432297, 0.2418874204158783, -0.12559561431407928, -0.05131499469280243, 0.9888353943824768, -0.08848965913057327, -0.23671722412109375, 1.4765625, 1.636962890625, 0.5064239501953125, 1.490478515625
39757, -0.7080976963043213, 1.6134389638900757, -2.7829291820526123, 0.014447517693042755, -0.007055237423628569, -61.4873161315918, -0.012872546911239624, 0.006888112984597683, -3.2290523052215576, -0.6947490572929382, -0.7727543115615845, 0.05305713787674904, -2.1594479134823814, -1.4048524771370978, -1.6241085491932015, 9362.0, 30146.0, 35388.0, 9362.0, 8.013224601745605, -0.06360343098640442, -0.12675811350345612, 0.03106207214295864, -0.12393372505903244, -0.048692286014556885, 0.9911593198776245, -0.08848965913057327, -0.23671722412109375, 1.4765625, 1.579833984375, 0.369873046875, 1.490478515625
39767, -0.7095667719841003, 1.6132843494415283, -2.781508445739746, 0.014305409975349903, -0.006979695986956358, -61.51961135864258, -0.01554902270436287, 0.008220030926167965, -3.2300097942352295, -0.6947566866874695, -0.7727565169334412, 0.05300348252058029, -2.1533808836356045, -1.4050089473812477, -1.6438247392432508, 9362.0, 30146.0, 35388.0, 9362.0, 8.013224601745605, 0.35910937190055847, 0.4220291078090668, -0.27591362595558167, -0.12318197637796402, -0.04668007045984268, 0.994343101978302, -0.08848965913057327, -0.23671722412109375, 1.4765625, 1.5673828125, 0.3411102294921875, 1.48974609375
39777, -0.7080407738685608, 1.610194444656372, -2.783155918121338, 0.01413650717586279, -0.006890813820064068, -61.55191421508789, -0.01823156699538231, 0.009556354954838753, -3.2306838035583496, -0.6947516202926636, -0.7727671265602112, 0.0530172735452652, -2.1557755119041446, -1.4035292635879557, -1.6371720571760067, 9362.0, 30146.0, 35388.0, 9362.0, 8.033059120178223, -0.13759665191173553, 0.06699009239673615, 0.03561015799641609, -0.12263291329145432, -0.050278812646865845, 0.9924347996711731, -0.08848965913057327, -0.23671722412109375, 1.4765625, 1.628173828125, 0.484893798828125, 1.48974609375
39787, -0.7095445990562439, 1.6091498136520386, -2.7823147773742676, 0.013940787874162197, -0.006788559723645449, -61.584224700927734, -0.020912189036607742, 0.010894518345594406, -3.231412172317505, -0.6947535872459412, -0.7727547883987427, 0.053006015717983246, -2.153627215563137, -1.4090483651660008, -1.633736379232505, 9362.0, 30146.0, 35388.0, 9362.0, 8.033059120178223, -0.0028171869926154613, -0.013751858845353127, 0.11380012333393097, -0.12372942268848419, -0.0502772182226181, 0.9896702170372009, -0.09438564628362656, 0.03208160400390625, 1.49853515625, 1.614990234375, 0.4530181884765625, 1.4853515625
39797, -0.710555911064148, 1.6082578897476196, -2.781615972518921, 0.013718325644731522, -0.006672956515103579, -61.61654281616211, -0.023580379784107208, 0.012226106598973274, -3.232407331466675, -0.694744884967804, -0.7727620601654053, 0.05301502346992493, -2.160333865329175, -1.4048704172504074, -1.645628278045738, 9362.0, 30146.0, 35388.0, 9362.0, 8.033059120178223, 0.056901976466178894, 0.06939278542995453, -0.010630861856043339, -0.12332835793495178, -0.047228191047906876, 0.9901090860366821, -0.09438564628362656, 0.03208160400390625, 1.49853515625, 1.625244140625, 0.477783203125, 1.4853515625
39807, -0.7111750245094299, 1.6071802377700806, -2.781893730163574, 0.013469194993376732, -0.006544027477502823, -61.64887237548828, -0.026245824992656708, 0.013559685088694096, -3.2334342002868652, -0.6947472095489502, -0.7727516889572144, 0.052994705736637115, -2.161866858452033, -1.4080579502418118, -1.6405444156834452, 9362.0, 30146.0, 35388.0, 9362.0, 8.033059120178223, -0.08673261106014252, -0.22829794883728027, -0.11616295576095581, -0.1265079379081726, -0.04737623408436775, 0.9922022223472595, -0.09438564628362656, 0.03208160400390625, 1.49853515625, 1.6259765625, 0.4795989990234375, 1.483154296875
39817, -0.7120242118835449, 1.6082289218902588, -2.782839059829712, 0.013193389400839806, -0.00640174001455307, -61.681209564208984, -0.028915364295244217, 0.014897778630256653, -3.2342536449432373, -0.6947369575500488, -0.7727537751197815, 0.052996084094047546, -2.1594568326898935, -1.4100929013952737, -1.6445319947798267, 9362.0, 30146.0, 35388.0, 9362.0, 8.033059120178223, 0.09499980509281158, 0.2538873255252838, -0.19250483810901642, -0.12751388549804688, -0.04844680055975914, 0.9920044541358948, -0.09438564628362656, 0.03208160400390625, 1.49853515625, 1.65234375, 0.5445709228515625, 1.483154296875
39827, -0.7115180492401123, 1.6055711507797241, -2.784510850906372, 0.012890900485217571, -0.006246068049222231, -61.71355438232422, -0.031582463532686234, 0.016236629337072372, -3.235090970993042, -0.6947852969169617, -0.7727393507957458, 0.052922409027814865, -2.178966420328541, -1.3980434392076688, -1.6465971102932517, 9362.0, 30146.0, 35388.0, 9362.0, 8.033059120178223, 0.14229892194271088, 0.04321815073490143, -0.26549458503723145, -0.12335879355669022, -0.05317139998078346, 0.9910889267921448, -0.09438564628362656, 0.03208160400390625, 1.49853515625, 1.6259765625, 0.4795989990234375, 1.491943359375
39837, -0.7113504409790039, 1.6040877103805542, -2.786259174346924, 0.012561742216348648, -0.00607700552791357, -61.74591064453125, -0.03424909710884094, 0.01757599413394928, -3.2360081672668457, -0.6947852373123169, -0.7727377414703369, 0.05293498560786247, -2.182906346837975, -1.4014823240350438, -1.626286020726865, 9362.0, 30146.0, 35388.0, 9362.0, 8.033059120178223, -0.11306317150592804, 0.24876080453395844, -0.6813461780548096, -0.12178345769643784, -0.051548123359680176, 0.9897155165672302, -0.09438564628362656, 0.03208160400390625, 1.49853515625, 1.6435546875, 0.5228118896484375, 1.491943359375
39847, -0.7126133441925049, 1.6029516458511353, -2.7913451194763184, 0.012205956503748894, -0.005894562229514122, -61.77827453613281, -0.03690806403756142, 0.018912779167294502, -3.2370405197143555, -0.6947831511497498, -0.7727370858192444, 0.0529361367225647, -2.183871437967338, -1.3964435412485727, -1.6348862603869985, 9362.0, 30146.0, 35388.0, 9362.0, 8.033059120178223, -0.10321388393640518, 0.11247920989990234, -0.7128064632415771, -0.12557882070541382, -0.04997369274497032, 0.9905330538749695, -0.09438564628362656, 0.03208160400390625, 1.49853515625, 1.5439453125, 0.2884979248046875, 1.49267578125
39857, -0.7137067317962646, 1.6031492948532104, -2.7966787815093994, 0.011823590844869614, -0.00569875119253993, -61.81064987182617, -0.03956504538655281, 0.020249687135219574, -3.2380497455596924, -0.6947876214981079, -0.7727488279342651, 0.05293821915984154, -2.1798766138221266, -1.3990486434361173, -1.6439373008765814, 9362.0, 30146.0, 35388.0, 9362.0, 8.033059120178223, 0.03515714406967163, -0.10955338180065155, -0.07827138155698776, -0.12498865276575089, -0.05075185000896454, 0.9898524880409241, -0.09438564628362656, 0.03208160400390625, 1.49853515625, 1.658935546875, 0.561279296875, 1.49267578125
39887, -0.7138569951057434, 1.6059409379959106, -2.8056681156158447, 0.010517117567360401, -0.005030941683799028, -61.9078369140625, -0.04754044860601425, 0.024275094270706177, -3.2407801151275635, -0.6947938203811646, -0.7727478742599487, 0.052934616804122925, -2.179107242166893, -1.3953653306650153, -1.6295635978862824, 9362.0, 30146.0, 35388.0, 9362.0, 8.013224601745605, 0.22671490907669067, -0.18024468421936035, -0.008454321883618832, -0.12722742557525635, -0.05293778330087662, 0.9908468127250671, -0.09438564628362656, 0.03208160400390625, 1.49853515625, 1.63916015625, 0.51190185546875, 1.4912109375
39897, -0.7111299633979797, 1.6073274612426758, -2.8064658641815186, 0.010028398595750332, -0.004781479947268963, -61.940250396728516, -0.05020326375961304, 0.025617403909564018, -3.2416985034942627, -0.6947920918464661, -0.77275151014328, 0.05293720215559006, -2.1721493677836627, -1.397005594667604, -1.6283396446980063, 9362.0, 30146.0, 35388.0, 9362.0, 8.013224601745605, -0.257783442735672, 0.026784487068653107, -0.06325599551200867, -0.12722742557525635, -0.05293778330087662, 0.9908468127250671, -0.09438564628362656, 0.03208160400390625, 1.49853515625, 1.63916015625, 0.51190185546875, 1.4912109375
39907, -0.7122328281402588, 1.607635736465454, -2.8064894676208496, 0.00951306987553835, -0.004518596921116114, -61.97267150878906, -0.052862413227558136, 0.026959283277392387, -3.242722272872925, -0.6947973370552063, -0.7727415561676025, 0.05293518304824829, -2.173254885831004, -1.3906095664365807, -1.6343520826813958, 9362.0, 30146.0, 35388.0, 9362.0, 8.013224601745605, -0.03416703641414642, -0.03127463907003403, -0.0672285407781601, -0.12572045624256134, -0.05014733970165253, 0.9891851544380188, -0.09438564628362656, 0.03208160400390625, 1.49853515625, 1.63916015625, 0.51190185546875, 1.4912109375
39917, -0.7123482823371887, 1.607279658317566, -2.806278944015503, 0.008971146307885647, -0.004242321942001581, -62.005104064941406, -0.05552227795124054, 0.028295671567320824, -3.2438125610351562, -0.6947983503341675, -0.7727470397949219, 0.05292687565088272, -2.1741943306792577, -1.3949425025762139, -1.630359952822207, 9362.0, 30146.0, 35388.0, 9362.0, 8.013224601745605, 0.04373345524072647, -0.015677081421017647, 0.05168698728084564, -0.12572045624256134, -0.05014733970165253, 0.9891851544380188, -0.09438564628362656, 0.03208160400390625, 1.49853515625, 1.63916015625, 0.51190185546875, 1.4912109375
39927, -0.7117757797241211, 1.606072187423706, -2.806678056716919, 0.008402642793953419, -0.003952684346586466, -62.03754806518555, -0.05817842483520508, 0.029631853103637695, -3.24505615234375, -0.6947967410087585, -0.7727490663528442, 0.052934400737285614, -2.171417482958398, -1.3924885441039976, -1.633376139801082, 9362.0, 30146.0, 35388.0, 9362.0, 8.013224601745605, 0.0726030170917511, -0.058724306523799896, -0.1125343069434166, -0.12276005744934082, -0.050338707864284515, 0.9894604086875916, -0.09438564628362656, 0.03208160400390625, 1.49853515625, 1.63916015625, 0.51190185546875, 1.4912109375
39937, -0.7105060815811157, 1.605974793434143, -2.807666540145874, 0.007807565852999687, -0.003649676451459527, -62.070003509521484, -0.06083697825670242, 0.030969742685556412, -3.246189594268799, -0.6948067545890808, -0.7727536559104919, 0.05292125791311264, -2.1668332106329298, -1.397482710820242, -1.625440695129105, 9362.0, 30146.0, 35388.0, 9362.0, 8.013224601745605, 0.09715638309717178, 0.03394094109535217, -0.15531082451343536, -0.12276005744934082, -0.050338707864284515, 0.9894604086875916, -0.09438564628362656, 0.03208160400390625, 1.49853515625, 1.63916015625, 0.51190185546875, 1.4912109375
39957, -0.7079371213912964, 1.6043078899383545, -2.8056983947753906, 0.0065376609563827515, -0.0030035374220460653, -62.13494873046875, -0.06615494936704636, 0.033643875271081924, -3.2482728958129883, -0.6948036551475525, -0.7727394700050354, 0.052938539534807205, -2.168386123772806, -1.3950352349908428, -1.6279340994167868, 9362.0, 30146.0, 35388.0, 9362.0, 8.013224601745605, 0.013214596547186375, -0.2641568183898926, 0.06809324026107788, -0.12276005744934082, -0.050338707864284515, 0.9894604086875916, -0.09438564628362656, 0.03208160400390625, 1.49853515625, 1.63916015625, 0.51190185546875, 1.496337890625
39967, -0.7070868611335754, 1.6046024560928345, -2.803900718688965, 0.0065376609563827515, -0.0030035374220460653, -62.13494873046875, -0.06615494936704636, 0.033643875271081924, -3.2482728958129883, -0.6947938203811646, -0.7727376222610474, 0.05292738229036331, -2.168398069239316, -1.39706271547837, -1.6266394897087935, 9362.0, 30146.0, 35388.0, 9362.0, 8.013224601745605, 0.2877863943576813, -0.11175762116909027, 0.13595792651176453, -0.12484663724899292, -0.05190107971429825, 0.9899879097938538, -0.09438564628362656, 0.03208160400390625, 1.49853515625, 1.63916015625, 0.51190185546875, 1.496337890625
39977, -0.7053307294845581, 1.605334997177124, -2.8030459880828857, 0.0065376609563827515, -0.0030035374220460653, -62.13494873046875, -0.06615494936704636, 0.033643875271081924, -3.2482728958129883, -0.6947982311248779, -0.7727471590042114, 0.052950602024793625, -2.163830665123976, -1.3948165766559555, -1.6245777380243076, 9362.0, 30146.0, 35388.0, 9362.0, 8.013224601745605, 0.2877863943576813, -0.11175762116909027, 0.13595792651176453, -0.12335599958896637, -0.049070410430431366, 0.9903923869132996, -0.09438564628362656, 0.03208160400390625, 1.49853515625, 1.63916015625, 0.51190185546875, 1.496337890625
39987, -0.7060933709144592, 1.6029449701309204, -2.7987937927246094, 0.004433467518538237, -0.0019342778250575066, -62.23244857788086, -0.07412603497505188, 0.03763853758573532, -3.251481294631958, -0.6947980523109436, -0.7727434635162354, 0.052944883704185486, -2.164695918474374, -1.3887219481063653, -1.6272282009030352, 9362.0, 30146.0, 35388.0, 9362.0, 8.013224601745605, -0.043651215732097626, 0.34655267000198364, 0.6309065222740173, -0.12335599958896637, -0.049070410430431366, 0.9903923869132996, -0.09438564628362656, 0.03208160400390625, 1.49853515625, 1.63916015625, 0.51190185546875, 1.489013671875
39997, -0.7060577869415283, 1.599424958229065, -2.7934370040893555, 0.004433467518538237, -0.0019342778250575066, -62.23244857788086, -0.07412603497505188, 0.03763853758573532, -3.251481294631958, -0.6948029398918152, -0.7727521061897278, 0.05291905626654625, -2.170654006998718, -1.391642870682574, -1.629073125814763, 9362.0, 30146.0, 35388.0, 9362.0, 8.013224601745605, 0.2937454283237457, 0.22245685756206512, 0.3319135904312134, -0.1258321851491928, -0.05149368196725845, 0.993405282497406, -0.09438564628362656, 0.03208160400390625, 1.49853515625, 1.63916015625, 0.51190185546875, 1.489013671875
40007, -0.7038688659667969, 1.597058653831482, -2.7896173000335693, 0.0028976979665458202, -0.0011549163609743118, -62.2974967956543, -0.07945124059915543, 0.04029890149831772, -3.253122568130493, -0.6947900652885437, -0.7727547883987427, 0.05293186008930206, -2.1688463625718404, -1.3893977159036979, -1.634920919660503, 9362.0, 30146.0, 35388.0, 9362.0, 8.013224601745605, 0.07731013745069504, 0.03514614701271057, 0.33573347330093384, -0.12462527304887772, -0.049415476620197296, 0.9941871762275696, -0.09438564628362656, 0.03208160400390625, 1.49853515625, 1.63916015625, 0.51190185546875, 1.490478515625
40017, -0.7030043601989746, 1.5950181484222412, -2.785155773162842, 0.00208988506346941, -0.0007452623103745282, -62.33003234863281, -0.08211144059896469, 0.04163176193833351, -3.25374174118042, -0.6947943568229675, -0.7727347016334534, 0.05294976383447647, -2.1640981706676, -1.3896908419758347, -1.6260704808780388, 9362.0, 30146.0, 35388.0, 9362.0, 8.013224601745605, -0.20008999109268188, 0.5153288245201111, 0.2520575523376465, -0.12462527304887772, -0.049415476620197296, 0.9941871762275696, -0.09438564628362656, 0.03208160400390625, 1.49853515625, 1.63916015625, 0.51190185546875, 1.490478515625
40027, -0.7044179439544678, 1.5901784896850586, -2.782343626022339, 0.0012554983841255307, -0.0003223047824576497, -62.362571716308594, -0.08476602286100388, 0.042959537357091904, -3.254429817199707, -0.6947953104972839, -0.7727488279342651, 0.052939657121896744, -2.166195139859161, -1.3982723330297233, -1.6215470928806548, 9362.0, 30146.0, 35388.0, 9362.0, 8.013224601745605, -0.0033339103683829308, 0.42723017930984497, 0.17045752704143524, -0.12552966177463531, -0.049119189381599426, 0.9918645620346069, -0.09438564628362656, 0.03208160400390625, 1.49853515625, 1.63916015625, 0.51190185546875, 1.491943359375
40037, -0.7040020823478699, 1.5869909524917603, -2.780102252960205, 0.0003945989301428199, 0.00011391288717277348, -62.395118713378906, -0.08741401880979538, 0.04428386688232422, -3.2552404403686523, -0.694812536239624, -0.7727453708648682, 0.05292372778058052, -2.1698588549215896, -1.3961443160336273, -1.6262679249432235, 9362.0, 30146.0, 35388.0, 9362.0, 8.013224601745605, -0.05173235386610031, 0.16973932087421417, 0.2753802537918091, -0.12552966177463531, -0.049119189381599426, 0.9918645620346069, -0.09438564628362656, 0.03208160400390625, 1.49853515625, 1.601806640625, 0.42144775390625, 1.491943359375
40047, -0.7046894431114197, 1.584761381149292, -2.7771449089050293, -0.0004927141708321869, 0.0005633706459775567, -62.427677154541016, -0.0900486633181572, 0.045607589185237885, -3.256234645843506, -0.6948012113571167, -0.7727412581443787, 0.05293072387576103, -2.175427553479187, -1.4002910079342712, -1.6246780564029855, 9362.0, 30146.0, 35388.0, 9362.0, 8.013224601745605, -0.06412070989608765, 0.12219061702489853, 0.19556212425231934, -0.12552966177463531, -0.049119189381599426, 0.9918645620346069, -0.09438564628362656, 0.03208160400390625, 1.49853515625, 1.601806640625, 0.42144775390625, 1.491943359375
40057, -0.705312967300415, 1.5826542377471924, -2.7750463485717773, -0.0004927141708321869, 0.0005633706459775567, -62.427677154541016, -0.0900486633181572, 0.045607589185237885, -3.256234645843506, -0.6947931051254272, -0.7727480530738831, 0.05295594781637192, -2.170885700404078, -1.396657433094532, -1.6187236510698946, 9362.0, 30146.0, 35388.0, 9362.0, 8.013224601745605, -0.15659880638122559, -0.0655965730547905, -0.1686139702796936, -0.12613984942436218, -0.048386819660663605, 0.9932924509048462, -0.09438564628362656, 0.03208160400390625, 1.49853515625, 1.601806640625, 0.42144775390625, 1.491943359375
40067, -0.7071213722229004, 1.5820857286453247, -2.776284694671631, -0.002346309833228588, 0.0015020077116787434, -62.49281692504883, -0.09531190246343613, 0.04825785756111145, -3.257917642593384, -0.694799542427063, -0.7727454304695129, 0.05293606221675873, -2.1782683049168785, -1.3917700535380106, -1.623560218546191, 9362.0, 30146.0, 35388.0, 9362.0, 8.013224601745605, -0.18297947943210602, 0.17934398353099823, -0.051052819937467575, -0.12613984942436218, -0.048386819660663605, 0.9932924509048462, -0.09438564628362656, 0.03208160400390625, 1.49853515625, 1.601806640625, 0.42144775390625, 1.491943359375
40087, -0.7107594609260559, 1.5793524980545044, -2.7754993438720703, -0.004305088892579079, 0.002493722829967737, -62.55799102783203, -0.10056502372026443, 0.050914984196424484, -3.2595202922821045, -0.694805383682251, -0.7727360129356384, 0.0529206357896328, -2.174004353994372, -1.3956189056666801, -1.6230606316087237, 9362.0, 30146.0, 35388.0, 9362.0, 8.013224601745605, -0.4443995952606201, -0.1362837851047516, -0.19062963128089905, -0.12613984942436218, -0.048386819660663605, 0.9932924509048462, -0.09438564628362656, 0.03208160400390625, 1.49853515625, 1.601806640625, 0.42144775390625, 1.491943359375
40097, -0.7132186889648438, 1.5815480947494507, -2.7777676582336426, -0.004305088892579079, 0.002493722829967737, -62.55799102783203, -0.10056502372026443, 0.050914984196424484, -3.2595202922821045, -0.6947912573814392, -0.7727388143539429, 0.052933722734451294, -2.1744572041271124, -1.4006924086209551, -1.620750162108334, 9362.0, 30146.0, 35388.0, 9362.0, 8.013224601745605, -0.20214876532554626, -0.033506691455841064, -0.38215166330337524, -0.12472818791866302, -0.051005542278289795, 0.9920328259468079, -0.09438564628362656, 0.03208160400390625, 1.49853515625, 1.601806640625, 0.42144775390625, 1.491943359375
40107, -0.7143308520317078, 1.5810034275054932, -2.7805657386779785, -0.006368855945765972, 0.0035387082025408745, -62.623199462890625, -0.10581020265817642, 0.05358479171991348, -3.261080026626587, -0.6947848796844482, -0.7727420330047607, 0.052945904433727264, -2.179915804770278, -1.402675151850275, -1.6285761072465363, 9362.0, 30146.0, 35388.0, 9362.0, 8.013224601745605, -0.37878480553627014, 0.032758887857198715, -0.22076520323753357, -0.12798701226711273, -0.05145891383290291, 0.9915797710418701, -0.09438564628362656, 0.03208160400390625, 1.49853515625, 1.601806640625, 0.42144775390625, 1.491943359375
40117, -0.7165622115135193, 1.580016851425171, -2.7821991443634033, -0.006368855945765972, 0.0035387082025408745, -62.623199462890625, -0.10581020265817642, 0.05358479171991348, -3.261080026626587, -0.6947991847991943, -0.7727431654930115, 0.05292793735861778, -2.1776935835775197, -1.4006009807553994, -1.624063643412641, 9362.0, 30146.0, 35388.0, 9362.0, 8.013224601745605, -0.15064328908920288, -0.08929264545440674, -0.3431449234485626, -0.1252441108226776, -0.04887021332979202, 0.9939014911651611, -0.09438564628362656, 0.03208160400390625, 1.49853515625, 1.601806640625, 0.42144775390625, 1.491943359375
40127, -0.7167200446128845, 1.5799797773361206, -2.7854111194610596, -0.008537538349628448, 0.004637220874428749, -62.688438415527344, -0.11106017231941223, 0.056268904358148575, -3.262606382369995, -0.6947999596595764, -0.7727393507957458, 0.05292249843478203, -2.1736862416248175, -1.3949238146377354, -1.6301913464648863, 9362.0, 30146.0, 35388.0, 9362.0, 8.013224601745605, -0.2620234489440918, -0.1468927562236786, -0.5084905624389648, -0.1252780705690384, -0.048916514962911606, 0.9908872842788696, -0.09438564628362656, 0.03208160400390625, 1.49853515625, 1.601806640625, 0.42144775390625, 1.491943359375
40137, -0.7174172401428223, 1.581545352935791, -2.7900068759918213, -0.00966123677790165, 0.005206635221838951, -62.7210693359375, -0.11367955058813095, 0.05761415511369705, -3.2634880542755127, -0.6948028206825256, -0.7727369666099548, 0.05291912704706192, -2.177770064202199, -1.4010036800381158, -1.6279022463322492, 9362.0, 30146.0, 35388.0, 9362.0, 8.013224601745605, -0.047075264155864716, -0.2920966148376465, -0.6458829641342163, -0.125642329454422, -0.05021591857075691, 0.9903792142868042, -0.09438564628362656, 0.03208160400390625, 1.49853515625, 1.601806640625, 0.42144775390625, 1.491943359375
40147, -0.7177552580833435, 1.5842534303665161, -2.794818162918091, -0.00966123677790165, 0.005206635221838951, -62.7210693359375, -0.11367955058813095, 0.05761415511369705, -3.2634880542755127, -0.6947953701019287, -0.7727365493774414, 0.0529262013733387, -2.1723691941225987, -1.3961751903192692, -1.6297061278338894, 9362.0, 30146.0, 35388.0, 9362.0, 8.013224601745605, 0.012152453884482384, -0.18993619084358215, -0.1114598885178566, -0.125642329454422, -0.05021591857075691, 0.9903792142868042, -0.09438564628362656, 0.03208160400390625, 1.49853515625, 1.601806640625, 0.42144775390625, 1.491943359375
40157, -0.7190213799476624, 1.5859928131103516, -2.7959744930267334, -0.011987173929810524, 0.006385812535881996, -62.78635787963867, -0.11891647428274155, 0.06030517444014549, -3.265392780303955, -0.6947984099388123, -0.7727459073066711, 0.05291903764009476, -2.1777251478240025, -1.395530716394262, -1.6252595329120385, 9362.0, 30146.0, 35388.0, 9362.0, 8.013224601745605, 0.2047630101442337, -0.21441803872585297, -0.3603457808494568, -0.1248999834060669, -0.053307514637708664, 0.9938926696777344, -0.09438564628362656, 0.03208160400390625, 1.49853515625, 1.601806640625, 0.42144775390625, 1.491943359375
40167, -0.7186453342437744, 1.5868242979049683, -2.7982101440429688, -0.011987173929810524, 0.006385812535881996, -62.78635787963867, -0.11891647428274155, 0.06030517444014549, -3.265392780303955, -0.6948063373565674, -0.7727470397949219, 0.052909500896930695, -2.1706421295501097, -1.4020744101699165, -1.6289351400336474, 9362.0, 30146.0, 35388.0, 9362.0, 8.013224601745605, 0.33710041642189026, 0.02397673949599266, -0.14310617744922638, -0.1248999834060669, -0.053307514637708664, 0.9938926696777344, -0.09438564628362656, 0.03208160400390625, 1.49853515625, 1.601806640625, 0.42144775390625, 1.491943359375
40177, -0.7171911001205444, 1.588068962097168, -2.7995169162750244, -0.014418121427297592, 0.007618930656462908, -62.851680755615234, -0.12417734414339066, 0.06300672888755798, -3.2669427394866943, -0.6948096752166748, -0.7727486491203308, 0.0529274083673954, -2.1720793360048436, -1.398397200269585, -1.6219264937953193, 9362.0, 30146.0, 35388.0, 9362.0, 8.013224601745605, -0.08705358952283859, -0.002507414435967803, 0.040763385593891144, -0.12725311517715454, -0.04963631555438042, 0.988791286945343, -0.09438564628362656, 0.03208160400390625, 1.49853515625, 1.601806640625, 0.42144775390625, 1.491943359375
40187, -0.7177394032478333, 1.588668704032898, -2.7995567321777344, -0.014418121427297592, 0.007618930656462908, -62.851680755615234, -0.12417734414339066, 0.06300672888755798, -3.2669427394866943, -0.6947941780090332, -0.7727452516555786, 0.05294337868690491, -2.1675508874777347, -1.3925865855054838, -1.6306984345490985, 9362.0, 30146.0, 35388.0, 9362.0, 8.013224601745605, 0.22367435693740845, -0.2950208783149719, -0.004449911415576935, -0.12725311517715454, -0.04963631555438042, 0.988791286945343, -0.09438564628362656, 0.03208160400390625, 1.49853515625, 1.601806640625, 0.42144775390625, 1.491943359375
40197, -0.7161735892295837, 1.5905004739761353, -2.7998852729797363, -0.016954168677330017, 0.008905992843210697, -62.91704177856445, -0.1294296234846115, 0.06569889932870865, -3.2691001892089844, -0.694798469543457, -0.7727495431900024, 0.05292307585477829, -2.1691424813461966, -1.3979922985024302, -1.6269346891257268, 9362.0, 30146.0, 35388.0, 9362.0, 8.013224601745605, 0.08287099748849869, -0.0656142383813858, -0.1675652414560318, -0.12725311517715454, -0.04963631555438042, 0.988791286945343, -0.09438564628362656, 0.03208160400390625, 1.49853515625, 1.601806640625, 0.42144775390625, 1.491943359375
40207, -0.7150728106498718, 1.5915477275848389, -2.8016433715820312, -0.016954168677330017, 0.008905992843210697, -62.91704177856445, -0.1294296234846115, 0.06569889932870865, -3.2691001892089844, -0.6948145627975464, -0.7727527022361755, 0.05291183292865753, -2.17288904943353, -1.3961183629937466, -1.6299474252095592, 9362.0, 30146.0, 35388.0, 9362.0, 8.013224601745605, 0.12138716876506805, 0.15677247941493988, -0.04651077091693878, -0.12432777881622314, -0.05066123232245445, 0.991680920124054, -0.09438564628362656, 0.03208160400390625, 1.49853515625, 1.601806640625, 0.42144775390625, 1.491943359375
40217, -0.7138251066207886, 1.5916897058486938, -2.802595376968384, -0.019595464691519737, 0.010246938094496727, -62.98244094848633, -0.13470104336738586, 0.06839432567358017, -3.2708234786987305, -0.694799542427063, -0.7727469801902771, 0.05291420966386795, -2.172715882400806, -1.392294631332959, -1.6326712907948244, 9362.0, 30146.0, 35388.0, 9362.0, 8.013224601745605, 0.12758769094944, -0.3538079559803009, 0.601233720779419, -0.12432777881622314, -0.05066123232245445, 0.991680920124054, -0.09438564628362656, 0.03208160400390625, 1.49853515625, 1.601806640625, 0.42144775390625, 1.491943359375
40227, -0.712867021560669, 1.5942723751068115, -2.7980923652648926, -0.020955655723810196, 0.01093759760260582, -63.01515579223633, -0.13733720779418945, 0.06973756849765778, -3.2717950344085693, -0.6947852969169617, -0.7727466225624084, 0.05292605236172676, -2.1716840015425642, -1.395120987525189, -1.634336523199566, 9362.0, 30146.0, 35388.0, 9362.0, 8.013224601745605, 0.12488245218992233, -0.20383824408054352, 0.07826615869998932, -0.12515461444854736, -0.04999266937375069, 0.9905530214309692, -0.09438564628362656, 0.03208160400390625, 1.49853515625, 1.601806640625, 0.42144775390625, 1.494873046875
40237, -0.7111257910728455, 1.5953878164291382, -2.795902967453003, -0.02234220877289772, 0.011641678400337696, -63.04787826538086, -0.13997340202331543, 0.07107830792665482, -3.272780418395996, -0.694793701171875, -0.7727562785148621, 0.05291568487882614, -2.1723642576542033, -1.3928645664559554, -1.6346067095833043, 9362.0, 30146.0, 35388.0, 9362.0, 8.013224601745605, 0.2785634994506836, -0.15408867597579956, 0.4822249412536621, -0.12515461444854736, -0.04999266937375069, 0.9905530214309692, -0.09438564628362656, 0.03208160400390625, 1.49853515625, 1.601806640625, 0.42144775390625, 1.494873046875
40247, -0.7086864709854126, 1.5953664779663086, -2.7906689643859863, -0.02375517413020134, 0.012359172105789185, -63.08060836791992, -0.14261990785598755, 0.07242044806480408, -3.273554563522339, -0.6947944164276123, -0.7727580666542053, 0.052899137139320374, -2.168899209381579, -1.388139289775836, -1.624673380004545, 9362.0, 30146.0, 35388.0, 9362.0, 8.013224601745605, 0.07176794856786728, 0.20662617683410645, 0.6950315833091736, -0.12515461444854736, -0.04999266937375069, 0.9905530214309692, -0.09438564628362656, 0.03208160400390625, 1.49853515625, 1.601806640625, 0.42144775390625, 1.494873046875
40257, -0.7080241441726685, 1.594125747680664, -2.783796787261963, -0.025194628164172173, 0.01309007965028286, -63.113346099853516, -0.14527106285095215, 0.07376077771186829, -3.274235248565674, -0.6947813630104065, -0.7727444171905518, 0.05290183424949646, -2.176271345142739, -1.3849383318002424, -1.6442890202515301, 9362.0, 30146.0, 35388.0, 9362.0, 8.013224601745605, 0.27960309386253357, -0.0434752032160759, 0.1789766401052475, -0.12530240416526794, -0.04823540151119232, 0.9922418594360352, -0.09438564628362656, 0.03208160400390625, 1.49853515625, 1.601806640625, 0.42144775390625, 1.494873046875
40267, -0.7061815857887268, 1.5943799018859863, -2.780625581741333, -0.026660582050681114, 0.013834361918270588, -63.14609146118164, -0.14791996777057648, 0.07509531825780869, -3.2750134468078613, -0.6947863698005676, -0.772742748260498, 0.05289521440863609, -2.1669375373609303, -1.3896390333726742, -1.6327516820399304, 9362.0, 30146.0, 35388.0, 9362.0, 8.013224601745605, 0.1390741616487503, -0.12032334506511688, 0.3681391179561615, -0.12492811679840088, -0.049875371158123016, 0.9909120202064514, -0.09438564628362656, 0.03208160400390625, 1.49853515625, 1.619384765625, 0.4635009765625, 1.494873046875
40277, -0.7053520083427429, 1.595430850982666, -2.7771482467651367, -0.02815299853682518, 0.014591972343623638, -63.1788444519043, -0.1505633443593979, 0.07642669975757599, -3.275921583175659, -0.6948038339614868, -0.7727773785591125, 0.05295472592115402, -2.162338207525367, -1.41915178943691, -1.598156093602323, 9362.0, 30146.0, 35388.0, 9362.0, 8.013224601745605, 0.01881636306643486, -0.2702904939651489, 0.734796404838562, -0.1266741007566452, -0.04992354288697243, 0.9894450902938843, -0.09438564628362656, 0.03208160400390625, 1.49853515625, 1.619384765625, 0.4635009765625, 1.494873046875
40287, -0.7055912017822266, 1.5966969728469849, -2.7710912227630615, -0.02967183291912079, 0.015362871810793877, -63.21160888671875, -0.1532038003206253, 0.07775302231311798, -3.276958703994751, -0.6947608590126038, -0.7727594971656799, 0.0529790073633194, -2.1590254103009587, -1.402375304945167, -1.6462240104127377, 9362.0, 30146.0, 35388.0, 9362.0, 8.013224601745605, -0.1629316210746765, -0.30994561314582825, 0.0663154274225235, -0.1266741007566452, -0.04992354288697243, 0.9894450902938843, -0.09438564628362656, 0.03208160400390625, 1.49853515625, 1.619384765625, 0.4635009765625, 1.493408203125
40297, -0.7061429619789124, 1.5981497764587402, -2.7695064544677734, -0.02967183291912079, 0.015362871810793877, -63.21160888671875, -0.1532038003206253, 0.07775302231311798, -3.276958703994751, -0.694749116897583, -0.7727646827697754, 0.052974868565797806, -2.1562364272148207, -1.4038875723017838, -1.6340004987181886, 9362.0, 30146.0, 35388.0, 9362.0, 8.013224601745605, 0.15002186596393585, 0.7080172896385193, 0.2932077944278717, -0.1239820197224617, -0.04804069921374321, 0.9922211766242981, -0.09438564628362656, 0.03208160400390625, 1.49853515625, 1.619384765625, 0.4635009765625, 1.493408203125
40307, -0.7056705355644226, 1.5936925411224365, -2.7665274143218994, -0.032788850367069244, 0.01694447174668312, -63.27716827392578, -0.15850038826465607, 0.08040765672922134, -3.2786865234375, -0.6947628855705261, -0.77275151014328, 0.053004611283540726, -2.1615640646122, -1.4064963779917434, -1.637612075282749, 9362.0, 30146.0, 35388.0, 9362.0, 8.013224601745605, -0.23960885405540466, -0.4126415550708771, 0.032670971006155014, -0.12657667696475983, -0.04674762487411499, 0.992225706577301, -0.09438564628362656, 0.03208160400390625, 1.49853515625, 1.619384765625, 0.4635009765625, 1.4912109375
40317, -0.7074896693229675, 1.5964030027389526, -2.7657225131988525, -0.034387122839689255, 0.01775519549846649, -63.309959411621094, -0.1611538976430893, 0.08173689991235733, -3.2794928550720215, -0.6947711706161499, -0.772766649723053, 0.05298178642988205, -2.1636108288010574, -1.4081298731282743, -1.6336323144273268, 9362.0, 30146.0, 35388.0, 9362.0, 8.013224601745605, 0.002936993259936571, 0.09983409941196442, 0.12997327744960785, -0.12657667696475983, -0.04674762487411499, 0.992225706577301, -0.09438564628362656, 0.03208160400390625, 1.49853515625, 1.619384765625, 0.4635009765625, 1.4912109375
40327, -0.7078743577003479, 1.5956730842590332, -2.7641305923461914, -0.036011867225170135, 0.018579192459583282, -63.34275817871094, -0.16379472613334656, 0.08306237310171127, -3.2804856300354004, -0.6947507858276367, -0.7727569937705994, 0.05299697816371918, -2.1629347747428027, -1.4119905715020025, -1.6373323682173566, 9362.0, 30146.0, 35388.0, 9362.0, 8.013224601745605, -0.15348894894123077, -0.6678250432014465, 0.09086602181196213, -0.12460734695196152, -0.046470385044813156, 0.9896834492683411, -0.09438564628362656, 0.03208160400390625, 1.49853515625, 1.619384765625, 0.4635009765625, 1.4912109375
40337, -0.7101290822029114, 1.598986029624939, -2.763331890106201, -0.036011867225170135, 0.018579192459583282, -63.34275817871094, -0.16379472613334656, 0.08306237310171127, -3.2804856300354004, -0.6947444081306458, -0.7727497816085815, 0.05299863591790199, -2.1656884553048994, -1.409740152118843, -1.6354758489338825, 9362.0, 30146.0, 35388.0, 9362.0, 8.013224601745605, -0.13121217489242554, 0.09437236934900284, 0.309783011674881, -0.12460734695196152, -0.046470385044813156, 0.9896834492683411, -0.09438564628362656, 0.03208160400390625, 1.49853515625, 1.619384765625, 0.4635009765625, 1.4912109375
40347, -0.7116259336471558, 1.5984958410263062, -2.76078724861145, -0.03934064134955406, 0.020267006009817123, -63.408390045166016, -0.16908206045627594, 0.08571929484605789, -3.2825467586517334, -0.6947547197341919, -0.7727422118186951, 0.05299842357635498, -2.160407678188628, -1.4138064536425645, -1.632458001686944, 9362.0, 30146.0, 35388.0, 9362.0, 8.013224601745605, 0.03436625003814697, 0.19912688434123993, -0.040133778005838394, -0.12548519670963287, -0.050340477377176285, 0.9891826510429382, -0.09438564628362656, 0.03208160400390625, 1.49853515625, 1.619384765625, 0.4635009765625, 1.4912109375
40357, -0.7119593024253845, 1.5978888273239136, -2.7610931396484375, -0.03934064134955406, 0.020267006009817123, -63.408390045166016, -0.16908206045627594, 0.08571929484605789, -3.2825467586517334, -0.69475257396698, -0.7727600932121277, 0.052957646548748016, -2.172326000716103, -1.4017239551040177, -1.6422657928142412, 9362.0, 30146.0, 35388.0, 9362.0, 8.013224601745605, -0.08645777404308319, 0.11290008574724197, -0.11220578104257584, -0.12405803799629211, -0.04657892510294914, 0.9909411668777466, -0.09438564628362656, 0.03208160400390625, 1.49853515625, 1.619384765625, 0.4635009765625, 1.4912109375
40367, -0.7133285403251648, 1.5970001220703125, -2.7601640224456787, -0.0427752323448658, 0.022008052095770836, -63.47406005859375, -0.17437843978405, 0.08838734030723572, -3.2846007347106934, -0.6947628855705261, -0.7727599143981934, 0.05298251286149025, -2.172109266625492, -1.4112677512111986, -1.6340485449905537, 9362.0, 30146.0, 35388.0, 9362.0, 8.013224601745605, -0.14641016721725464, 0.0014938481617718935, -0.23271866142749786, -0.12405803799629211, -0.04657892510294914, 0.9909411668777466, -0.09438564628362656, 0.03208160400390625, 1.49853515625, 1.619384765625, 0.4635009765625, 1.4912109375
40377, -0.7150475978851318, 1.5960458517074585, -2.761446714401245, -0.044532280415296555, 0.02289861999452114, -63.50690841674805, -0.17703120410442352, 0.08972617983818054, -3.285402297973633, -0.6947628259658813, -0.7727442979812622, 0.05298231914639473, -2.1717397816804, -1.408291256099119, -1.6357701793828026, 9362.0, 30146.0, 35388.0, 9362.0, 8.033059120178223, 0.025110295042395592, -0.03800097107887268, -0.28650882840156555, -0.12405803799629211, -0.04657892510294914, 0.9909411668777466, -0.09438564628362656, 0.03208160400390625, 1.49853515625, 1.619384765625, 0.4635009765625, 1.4912109375
40387, -0.7162289619445801, 1.5952115058898926, -2.764075517654419, -0.044532280415296555, 0.02289861999452114, -63.50690841674805, -0.17703120410442352, 0.08972617983818054, -3.285402297973633, -0.6947510838508606, -0.7727500796318054, 0.05298556387424469, -2.1692612943880145, -1.4083011152372933, -1.6384106350280965, 9362.0, 30146.0, 35388.0, 9362.0, 8.033059120178223, -0.11903982609510422, 0.07295326143503189, -0.020194880664348602, -0.12405803799629211, -0.04657892510294914, 0.9909411668777466, -0.09206461906433105, -0.24567794799804688, 1.475830078125, 1.619384765625, 0.4635009765625, 1.4912109375
40397, -0.7172127366065979, 1.594587802886963, -2.7655560970306396, -0.04812593013048172, 0.02471998706459999, -63.572635650634766, -0.18233248591423035, 0.09241185337305069, -3.2869772911071777, -0.6947639584541321, -0.7727606892585754, 0.05297941714525223, -2.1656477693916236, -1.4107623289617095, -1.6379886824591916, 9362.0, 30146.0, 35388.0, 9362.0, 8.033059120178223, -0.09524533897638321, -0.007254552096128464, -0.2268829494714737, -0.12525060772895813, -0.05000057443976402, 0.9914661049842834, -0.09206461906433105, -0.24567794799804688, 1.475830078125, 1.619384765625, 0.4635009765625, 1.4912109375
