timeTick, roll, pitch, yaw, stateX, stateY, stateZ, stateVX, stateVY, stateVZ, otX0, otY0, otZ0, otRoll0, otPitch0, otYaw0, left wing, pitch motor, yaw motor, right wing, voltage, roll rate, pitch rate, yaw rate, A_x, A_y, A_z, current, i_raw, v_raw, airflow_voltage, airflow_speed, pot_Pitch
59823, 0.00036609734524972737, -0.001233291462995112, 0.00022856084979139268, 0, 0, 0, 0, 0, 0, 0, 0, 0, 0, 0, 0, 0, 0, 0, 0, 0, 0, 0, 0, 0, 0, 0, 0, 0, 0, 0, 0, 0
59833, 0.0005760864005424082, -0.0034011045936495066, 0.0012290185550227761, 0.0, 0.0, -4.47602360509336e-06, -1.9269299045276966e-08, 5.719915208146631e-09, -0.0008952027419582009, 0, 0, 0, 0, 0, 0, 9362.0, 30146.0, 35388.0, 9362.0, 0, 0.002925609005615115, 0.02663578651845455, 0.04745882749557495, -0.1335849016904831, -0.015291991643607616, 0.9893046021461487, 0, 0, 0, 0, 0, 0
59843, 0.001032562111504376, -0.004024980124086142, -0.0010772275272756815, 1.0260539085038545e-08, -3.0457469879507926e-09, -1.8297432688996196e-05, 2.0345564735180233e-06, -6.112655341894424e-07, -0.0018686845432966948, 0, 0, 0, 0, 0, 0, 9362.0, 30146.0, 35388.0, 9362.0, 0, 0.08857537806034088, -0.043187182396650314, -0.36792880296707153, -0.1326317936182022, -0.014439218677580357, 0.9902501106262207, 0, 0, 0, 1.5205078125, 0.237762451171875, 0
59853, 0.0016445128712803125, -0.005494239740073681, -0.0015746153658255935, 5.9409789088249454e-08, -1.4036587003829482e-08, -4.2253697756677866e-05, 7.783782166370656e-06, -1.578741716912191e-06, -0.0029221700970083475, 0, 0, 0, 0, 0, 0, 9362.0, 30146.0, 35388.0, 9362.0, 0, 0.1584698110818863, 0.27800658345222473, 0.16881945729255676, -0.13110575079917908, -0.015034254640340805, 0.9922646284103394, 0, 0, 0, 1.49560546875, 0.1868743896484375, 1.489013671875
59863, 0.0018386475276201963, -0.007843485102057457, -0.0006997437449172139, 1.714166870669942e-07, -3.859035047071302e-08, -7.557575008831918e-05, 1.4596564142266288e-05, -3.3233166050194995e-06, -0.0037418443243950605, 0, 0, 0, 0, 0, 0, 9362.0, 30146.0, 35388.0, 9362.0, 0, -0.046975452452898026, 0.14396755397319794, 0.1927069127559662, -0.130577951669693, -0.013375850394368172, 0.9900825023651123, 0, 0, 0, 1.53955078125, 0.278778076171875, 1.489013671875
59873, 0.0013991878367960453, -0.008682156912982464, 0.0009899730794131756, 3.6401058878254844e-07, -8.578145838100681e-08, -0.00011723602074198425, 2.3887494535301812e-05, -6.111888524173992e-06, -0.004589815158396959, 0, 0, 0, 0, 0, 0, 9362.0, 30146.0, 35388.0, 9362.0, 0, 0.027430936694145203, -0.07598409056663513, 0.0019909278489649296, -0.13064131140708923, -0.013465666212141514, 0.9910792708396912, 0, 0, 0, 1.5615234375, 0.3278350830078125, 1.48828125
59883, 0.0028810633812099695, -0.008222965523600578, -0.0008651684620417655, 6.693949217151385e-07, -1.6249211398644547e-07, -0.00016779013094492257, 3.717583967954852e-05, -9.236988262273371e-06, -0.005520612932741642, 0, 0, 0, 0, 0, 0, 9362.0, 30146.0, 35388.0, 9362.0, 0, -0.08250006288290024, 0.035267893224954605, -0.14261725544929504, -0.13159917294979095, -0.013619582168757915, 0.9909147620201111, 0, 0, 0, 1.5703125, 0.34783935546875, 1.48828125
59893, 0.0028566024266183376, -0.009893650189042091, -0.0018895533867180347, 1.1148242720082635e-06, -2.667332239525422e-07, -0.00022732553770765662, 5.191687523620203e-05, -1.158932991529582e-05, -0.006386074237525463, 0, 0, 0, 0, 0, 0, 9362.0, 30146.0, 35388.0, 9362.0, 0, 0.07503333687782288, 0.015929842367768288, -0.059993062168359756, -0.1303422749042511, -0.0153657840564847, 0.9909021258354187, 0, 0, 0, 1.56591796875, 0.337738037109375, 1.49267578125
59903, 0.003923901356756687, -0.01026101689785719, -0.0033222318161278963, 1.7037267525665811e-06, -4.070600994054985e-07, -0.00029579579131677747, 6.583666981896386e-05, -1.6476691598654725e-05, -0.00730758486315608, 0, 0, 0, 0, 0, 0, 9362.0, 30146.0, 35388.0, 9362.0, 0, 0.14133580029010773, 0.1297597587108612, -0.05757070332765579, -0.130071222782135, -0.01248050108551979, 0.9926530122756958, 0, 0, 0, 1.55859375, 0.3211212158203125, 1.49267578125
59913, 0.0025312076322734356, -0.012348617427051067, -0.0027713761664927006, 2.446119196974905e-06, -5.960908424640365e-07, -0.0003727600851561874, 8.263673953479156e-05, -2.1315399862942286e-05, -0.008084881119430065, 0, 0, 0, 0, 0, 0, 9362.0, 30146.0, 35388.0, 9362.0, 0, -0.12198421359062195, 0.23564444482326508, -0.03590032458305359, -0.13060151040554047, -0.01409562025219202, 0.9915648698806763, 0, 0, 0, 1.5556640625, 0.3145904541015625, 1.494140625
59923, 0.0023063160479068756, -0.011457638815045357, -0.0034892454277724028, 3.359651373102679e-06, -8.425831765634939e-07, -0.00045738561311736703, 0.00010004226351156831, -2.8001235477859154e-05, -0.008839835412800312, 0, 0, 0, 0, 0, 0, 9362.0, 30146.0, 35388.0, 9362.0, 8.112398147583008, -0.012890225276350975, -0.4868517816066742, -0.28528982400894165, -0.13106215000152588, -0.013225710950791836, 0.9932441115379333, -0.07592763751745224, -0.10231781005859375, 1.487548828125, 1.5673828125, 0.3411102294921875, 1.494140625
59933, 0.002019754610955715, -0.013532768934965134, -0.002727604703977704, 4.464944140636362e-06, -1.1440969274190138e-06, -0.0005496988887898624, 0.00012102837354177609, -3.2304847991326824e-05, -0.009622422978281975, 0, 0, 0, 0, 0, 0, 9362.0, 30146.0, 35388.0, 9362.0, 8.112398147583008, -0.2955731451511383, -0.12809236347675323, -0.05323520675301552, -0.13207882642745972, -0.014285856857895851, 0.9913188219070435, -0.07592763751745224, -0.10231781005859375, 1.487548828125, 1.513916015625, 0.224029541015625, 1.493408203125
59943, 0.0027828991878777742, -0.013517891988158226, -0.003389959456399083, 5.772557415184565e-06, -1.486743144596403e-06, -0.000649704656098038, 0.00014046701835468411, -3.622790609369986e-05, -0.010378343053162098, 0, 0, 0, 0, 0, 0, 9362.0, 30146.0, 35388.0, 9362.0, 8.112398147583008, 0.1838030070066452, -0.02597476914525032, -0.07549227774143219, -0.12992465496063232, -0.013475378975272179, 0.9906222224235535, -0.07592763751745224, -0.10231781005859375, 1.487548828125, 1.564453125, 0.3344879150390625, 1.493408203125
59953, 0.0028048467356711626, -0.011612978763878345, -0.004953302908688784, 7.2920288403111044e-06, -1.866161710495362e-06, -0.0007579331286251545, 0.00016342749586328864, -3.964425195590593e-05, -0.011266963556408882, 0, 0, 0, 0, 0, 0, 9362.0, 30146.0, 35388.0, 9362.0, 8.112398147583008, -0.09235453605651855, -0.04648272320628166, -0.2532210350036621, -0.12799188494682312, -0.01476350985467434, 0.9904922842979431, -0.07592763751745224, -0.10231781005859375, 1.487548828125, 1.44873046875, 0.102813720703125, 1.48974609375
59963, 0.003044361248612404, -0.011637073941528797, -0.005510428454726934, 9.040929398906883e-06, -2.286208882651408e-06, -0.0008752552093937993, 0.0001863834186224267, -4.4365468056639656e-05, -0.012197071686387062, 0, 0, 0, 0, 0, 0, 9362.0, 30146.0, 35388.0, 9362.0, 8.112398147583008, -0.060246407985687256, -0.3040390610694885, -0.06881294399499893, -0.13204757869243622, -0.015190454199910164, 0.9894796013832092, -0.07592763751745224, -0.10231781005859375, 1.487548828125, 1.461181640625, 0.1233062744140625, 1.48974609375
59973, 0.0033598176669329405, -0.008818056434392929, -0.004475269932299852, 1.10031769509078e-05, -2.753641865638201e-06, -0.0010021696798503399, 0.00020606555335689336, -4.911719588562846e-05, -0.013185425661504269, 0, 0, 0, 0, 0, 0, 9362.0, 30146.0, 35388.0, 9362.0, 8.112398147583008, -0.06012510135769844, -0.3487872779369354, 0.09753359854221344, -0.13021643459796906, -0.013919612392783165, 0.9910195469856262, -0.07592763751745224, -0.10231781005859375, 1.487548828125, 1.4912109375, 0.178253173828125, 1.487548828125
59983, 0.004993086215108633, -0.01023103017359972, -0.003737278515473008, 1.3162459254090209e-05, -3.270625484219636e-06, -0.001138918800279498, 0.00022583911777473986, -5.427380165201612e-05, -0.014164011925458908, 0, 0, 0, 0, 0, 0, 9362.0, 30146.0, 35388.0, 9362.0, 8.112398147583008, 0.11384719610214233, 0.4101901948451996, -0.026775408536195755, -0.1301715224981308, -0.014832417480647564, 0.9900416731834412, -0.07592763751745224, -0.10231781005859375, 1.487548828125, 1.5, 0.19561767578125, 1.487548828125
59993, 0.005015617236495018, -0.010452906601130962, -0.001952075632289052, 1.5495614206884056e-05, -3.841856141661992e-06, -0.0012852654326707125, 0.00024076869885902852, -5.994533785269596e-05, -0.015104908496141434, 0, 0, 0, 0, 0, 0, 9362.0, 30146.0, 35388.0, 9362.0, 8.112398147583008, -0.06637685745954514, 0.03955312445759773, 0.16426877677440643, -0.13044121861457825, -0.014087405987083912, 0.9899760484695435, -0.07592763751745224, -0.10231781005859375, 1.487548828125, 1.51611328125, 0.2286224365234375, 1.48828125
60003, 0.00402223551645875, -0.011704846285283566, -0.0011919602984562516, 1.7990023479796946e-05, -4.4836392589786556e-06, -0.001441144268028438, 0.00025810947408899665, -6.841037247795612e-05, -0.016070468351244926, 0, 0, 0, 0, 0, 0, 9362.0, 30146.0, 35388.0, 9362.0, 8.112398147583008, -0.0365309864282608, 0.18619857728481293, 0.01311453990638256, -0.13074329495429993, -0.014263813383877277, 0.9927864670753479, -0.07592763751745224, -0.10231781005859375, 1.487548828125, 1.53955078125, 0.278778076171875, 1.48828125
60013, 0.0043779462575912476, -0.010534502565860748, -0.0028301835991442204, 2.0659806978073902e-05, -5.210301878832979e-06, -0.0016062118811532855, 0.0002758282353170216, -7.693704537814483e-05, -0.01694265939295292, 0, 0, 0, 0, 0, 0, 9362.0, 30146.0, 35388.0, 9362.0, 8.112398147583008, 0.0373675599694252, -0.17890729010105133, 0.010561487637460232, -0.13198460638523102, -0.015291539952158928, 0.993605375289917, -0.07592763751745224, -0.10231781005859375, 1.487548828125, 1.48095703125, 0.1587677001953125, 1.48974609375
60023, 0.00347229465842247, -0.011121740564703941, -0.003351194318383932, 2.3517655790783465e-05, -6.013889560563257e-06, -0.0017787483520805836, 0.0002957542019430548, -8.377724589081481e-05, -0.01756424456834793, 0, 0, 0, 0, 0, 0, 9362.0, 30146.0, 35388.0, 9362.0, 8.112398147583008, 0.020228158682584763, 0.2619388997554779, 0.02868814207613468, -0.13041990995407104, -0.013475916348397732, 0.9914500713348389, -0.10826757550239563, -0.01271820068359375, 1.494873046875, 1.544677734375, 0.2900543212890625, 1.48974609375
60033, 0.004392500035464764, -0.014722668565809727, -0.0012971024261787534, 2.6564708605292253e-05, -6.888866209919797e-06, -0.0019580423831939697, 0.0003136488958261907, -9.122979827225208e-05, -0.01829417236149311, 0, 0, 0, 0, 0, 0, 9362.0, 30146.0, 35388.0, 9362.0, 8.112398147583008, 0.11477202922105789, 0.31700989603996277, 0.17367398738861084, -0.13140197098255157, -0.013195901177823544, 0.9916675090789795, -0.10826757550239563, -0.01271820068359375, 1.494873046875, 1.553466796875, 0.309661865234375, 1.494873046875
60043, 0.005716867279261351, -0.016781430691480637, -0.001906377263367176, 2.979561577376444e-05, -7.830648428353015e-06, -0.0021450615022331476, 0.00033248160616494715, -9.711286111269146e-05, -0.019109267741441727, 0, 0, 0, 0, 0, 0, 9362.0, 30146.0, 35388.0, 9362.0, 8.112398147583008, 0.26423379778862, 0.21906597912311554, -0.2326175719499588, -0.13294313848018646, -0.012820390053093433, 0.9913914799690247, -0.10826757550239563, -0.01271820068359375, 1.494873046875, 1.436279296875, 0.0838775634765625, 1.494873046875
60053, 0.008265836164355278, -0.018792955204844475, -0.003896617330610752, 3.3245385566260666e-05, -8.839058864396065e-06, -0.002340378938242793, 0.0003574416332412511, -0.00010455009760335088, -0.019953835755586624, 0, 0, 0, 0, 0, 0, 9362.0, 30146.0, 35388.0, 9362.0, 8.112398147583008, 0.05340000241994858, 0.07670959830284119, -0.31745070219039917, -0.13231712579727173, -0.012473265640437603, 0.9910835027694702, -0.10826757550239563, -0.01271820068359375, 1.494873046875, 1.588623046875, 0.390350341796875, 1.4912109375
60063, 0.009313615970313549, -0.019785737618803978, -0.004747762810438871, 3.696229759952985e-05, -9.933108231052756e-06, -0.002543897368013859, 0.00038591260090470314, -0.00011422548413975164, -0.020749486982822418, 0, 0, 0, 0, 0, 0, 9362.0, 30146.0, 35388.0, 9362.0, 8.112398147583008, 0.045400459319353104, 0.16286198794841766, -0.035552915185689926, -0.1324014961719513, -0.010785136371850967, 0.9909760355949402, -0.10826757550239563, -0.01271820068359375, 1.494873046875, 1.5615234375, 0.3278350830078125, 1.4912109375
60073, 0.009534496814012527, -0.018570657819509506, -0.005941721145063639, 4.098085264558904e-05, -1.1145499229314737e-05, -0.002755810273811221, 0.0004177830705884844, -0.00012823703582398593, -0.021632695570588112, 0, 0, 0, 0, 0, 0, 9362.0, 30146.0, 35388.0, 9362.0, 8.112398147583008, 0.03951505944132805, -0.19394950568675995, -0.015299049206078053, -0.128901869058609, -0.01202450692653656, 0.9915015697479248, -0.10826757550239563, -0.01271820068359375, 1.494873046875, 1.58642578125, 0.3851776123046875, 1.49267578125
60083, 0.008732454851269722, -0.019272658973932266, -0.005270954687148333, 4.532659295364283e-05, -1.250692548637744e-05, -0.002976386109367013, 0.00045138256973586977, -0.00014404556713998318, -0.022482097148895264, 0, 0, 0, 0, 0, 0, 9362.0, 30146.0, 35388.0, 9362.0, 8.112398147583008, -0.11364995688199997, 0.08611264079809189, -0.008790739811956882, -0.13115011155605316, -0.013295945711433887, 0.9904573559761047, -0.10826757550239563, -0.01271820068359375, 1.494873046875, 1.42822265625, 0.0726470947265625, 1.49267578125
60093, 0.008983764797449112, -0.02099458873271942, -0.005462785251438618, 4.99979178130161e-05, -1.4028265468368772e-05, -0.0032057473435997963, 0.0004828717792406678, -0.00016023470379877836, -0.023389782756567, 0, 0, 0, 0, 0, 0, 9362.0, 30146.0, 35388.0, 9362.0, 8.112398147583008, 0.02134745940566063, 0.29389655590057373, 0.11553832143545151, -0.1307481825351715, -0.013186667114496231, 0.9894511103630066, -0.10826757550239563, -0.01271820068359375, 1.494873046875, 1.48681640625, 0.1698150634765625, 1.49267578125
60103, 0.008469323627650738, -0.023130418732762337, -0.00476886797696352, 5.4990010539768264e-05, -1.5704656107118353e-05, -0.003444426693022251, 0.0005155180697329342, -0.00017503932758700103, -0.02434568852186203, 0, 0, 0, 0, 0, 0, 9362.0, 30146.0, 35388.0, 9362.0, 8.112398147583008, -0.26330792903900146, -0.25113776326179504, -0.14108824729919434, -0.12914817035198212, -0.015057507902383804, 0.9887985587120056, -0.10826757550239563, -0.01271820068359375, 1.494873046875, 1.5322265625, 0.2628021240234375, 1.49267578125
60113, 0.008392015472054482, -0.02372111938893795, -0.004829615820199251, 6.032308374415152e-05, -1.7531190678710118e-05, -0.003692882601171732, 0.0005510595510713756, -0.00019027621601708233, -0.025345101952552795, 0, 0, 0, 0, 0, 0, 9362.0, 30146.0, 35388.0, 9362.0, 8.112398147583008, 0.011743545532226562, 0.3393886089324951, -0.14449229836463928, -0.12893331050872803, -0.015002496540546417, 0.9895929098129272, -0.10826757550239563, -0.01271820068359375, 1.494873046875, 1.4677734375, 0.1347198486328125, 1.487548828125
60123, 0.009939666837453842, -0.02080606482923031, -0.004172320477664471, 6.602941721212119e-05, -1.9505641830619425e-05, -0.003951961174607277, 0.0005901956465095282, -0.0002046155568677932, -0.026470176875591278, 0, 0, 0, 0, 0, 0, 9362.0, 30146.0, 35388.0, 9362.0, 8.112398147583008, 0.10291089862585068, -0.29265519976615906, 0.09752272069454193, -0.1336970180273056, -0.016050022095441818, 0.9910699725151062, -0.10751491785049438, -0.14711761474609375, 1.48388671875, 1.576171875, 0.361328125, 1.487548828125
60133, 0.01142948493361473, -0.02331560291349888, -0.0049553136341273785, 7.213255594251677e-05, -2.162299097108189e-05, -0.004221207462251186, 0.0006304790731519461, -0.0002188293874496594, -0.027378728613257408, 0, 0, 0, 0, 0, 0, 9362.0, 30146.0, 35388.0, 9362.0, 8.112398147583008, 0.23439249396324158, 0.34102821350097656, -0.1965804398059845, -0.13417990505695343, -0.013773739337921143, 0.9897774457931519, -0.10751491785049438, -0.14711761474609375, 1.48388671875, 1.496337890625, 0.1883087158203125, 1.4970703125
60143, 0.012242650613188744, -0.024191729724407196, -0.003841742407530546, 7.861379708629102e-05, -2.3895596314105205e-05, -0.0044995686039328575, 0.0006657289923168719, -0.00023566836898680776, -0.028293147683143616, 0, 0, 0, 0, 0, 0, 9362.0, 30146.0, 35388.0, 9362.0, 8.112398147583008, 0.055982474237680435, -0.12618573009967804, -0.03084496222436428, -0.13170836865901947, -0.01565811224281788, 0.9897671341896057, -0.10751491785049438, -0.14711761474609375, 1.48388671875, 1.5615234375, 0.3278350830078125, 1.4970703125
60153, 0.011502629145979881, -0.02340717613697052, -0.004512477200478315, 8.546852768631652e-05, -2.634908742038533e-05, -0.00478779012337327, 0.0007052013534121215, -0.0002550141653046012, -0.029350735247135162, 0, 0, 0, 0, 0, 0, 9362.0, 30146.0, 35388.0, 9362.0, 8.112398147583008, 0.250423401594162, 0.31878960132598877, 0.11687620729207993, -0.13138142228126526, -0.01372411847114563, 0.990768313407898, -0.10751491785049438, -0.14711761474609375, 1.48388671875, 1.53076171875, 0.2596435546875, 1.493408203125
60163, 0.011587676592171192, -0.021197443827986717, -0.003373796818777919, 9.272565512219444e-05, -2.9003047529840842e-05, -0.005085984710603952, 0.0007462370558641851, -0.00027579066227190197, -0.03028782643377781, 0, 0, 0, 0, 0, 0, 9362.0, 30146.0, 35388.0, 9362.0, 8.112398147583008, -0.12438640743494034, -0.19572864472866058, 0.20628605782985687, -0.13190613687038422, -0.014030222781002522, 0.9924730658531189, -0.10751491785049438, -0.14711761474609375, 1.48388671875, 1.55126953125, 0.304718017578125, 1.493408203125
60173, 0.011456835083663464, -0.020751694217324257, -0.0020772528368979692, 0.00010038668551715091, -3.185859532095492e-05, -0.005393074359744787, 0.0007860013283789158, -0.00029531712061725557, -0.0311297420412302, 0, 0, 0, 0, 0, 0, 9362.0, 30146.0, 35388.0, 9362.0, 8.112398147583008, 0.046936988830566406, -0.16188748180866241, -0.11447751522064209, -0.13049566745758057, -0.014161079190671444, 0.9924883842468262, -0.10751491785049438, -0.14711761474609375, 1.48388671875, 1.531494140625, 0.26129150390625, 1.493408203125
60183, 0.01227706391364336, -0.020385311916470528, -0.0019108654232695699, 0.00010842683695955202, -3.491025199764408e-05, -0.00570795638486743, 0.000822034664452076, -0.00031501505873166025, -0.031846288591623306, 0, 0, 0, 0, 0, 0, 9362.0, 30146.0, 35388.0, 9362.0, 8.112398147583008, -0.05612229183316231, 0.14882399141788483, -0.09767480939626694, -0.12857089936733246, -0.012830115854740143, 0.9953843951225281, -0.10751491785049438, -0.14711761474609375, 1.48388671875, 1.42822265625, 0.0726470947265625, 1.493408203125
60193, 0.010948283597826958, -0.020407384261488914, -0.0030252544675022364, 0.00011682361218845472, -3.815781383309513e-05, -0.00602979538962245, 0.0008573241648264229, -0.00033448764588683844, -0.03252112865447998, 0, 0, 0, 0, 0, 0, 9362.0, 30146.0, 35388.0, 9362.0, 8.112398147583008, -0.093247190117836, 0.3009653091430664, -0.15822336077690125, -0.12847110629081726, -0.015484247356653214, 0.993387758731842, -0.10751491785049438, -0.14711761474609375, 1.48388671875, 1.506591796875, 0.2088775634765625, 1.496337890625
60203, 0.011103962548077106, -0.019008519127964973, -0.0031437266152352095, 0.00012557055742945522, -4.1607308958191425e-05, -0.0063572837971150875, 0.0008920640684664249, -0.0003554228169377893, -0.0329761728644371, 0, 0, 0, 0, 0, 0, 9362.0, 30146.0, 35388.0, 9362.0, 8.112398147583008, -0.04209667071700096, -0.15413083136081696, 0.18115969002246857, -0.13140715658664703, -0.012396832928061485, 0.9900742769241333, -0.10751491785049438, -0.14711761474609375, 1.48388671875, 1.57763671875, 0.3647918701171875, 1.496337890625
60213, 0.01052253507077694, -0.018282044678926468, -0.005015593022108078, 0.00013466441305354238, -4.5254473661771044e-05, -0.00669123325496912, 0.0009267260902561247, -0.0003740077081602067, -0.03381330519914627, 0, 0, 0, 0, 0, 0, 9362.0, 30146.0, 35388.0, 9362.0, 8.112398147583008, -0.02681751735508442, 0.3325510025024414, -0.19993841648101807, -0.13277730345726013, -0.013540616258978844, 0.990563690662384, -0.10751491785049438, -0.14711761474609375, 1.48388671875, 1.559326171875, 0.32293701171875, 1.48974609375
60223, 0.011016343720257282, -0.018801191821694374, -0.005114415660500526, 0.00014409278810489923, -4.908867776975967e-05, -0.007034218870103359, 0.0009589606779627502, -0.0003928441146854311, -0.034783389419317245, 0, 0, 0, 0, 0, 0, 9362.0, 30146.0, 35388.0, 9362.0, 8.112398147583008, 0.07534456253051758, -0.0356326550245285, 0.02191956713795662, -0.12984095513820648, -0.014353662729263306, 0.9898643493652344, -0.07049240916967392, -0.27255821228027344, 1.4736328125, 1.531494140625, 0.26129150390625, 1.48974609375
60233, 0.01108348835259676, -0.020039057359099388, -0.004071096424013376, 0.00015383741992991418, -5.3106363338883966e-05, -0.0073866890743374825, 0.0009899567812681198, -0.0004106849373783916, -0.035710278898477554, 0, 0, 0, 0, 0, 0, 9362.0, 30146.0, 35388.0, 9362.0, 8.112398147583008, -0.2240307480096817, 0.21167369186878204, -0.03450579568743706, -0.12844005227088928, -0.01388096809387207, 0.990971028804779, -0.07049240916967392, -0.27255821228027344, 1.4736328125, 1.5615234375, 0.3278350830078125, 1.48974609375
60243, 0.00968527514487505, -0.019680755212903023, -0.0067533771507442, 0.0001638963003642857, -5.7306577218696475e-05, -0.00774878216907382, 0.0010217971866950393, -0.00042935600504279137, -0.03670795261859894, 0, 0, 0, 0, 0, 0, 9362.0, 30146.0, 35388.0, 9362.0, 8.112398147583008, 0.12123069167137146, -0.023811187595129013, -0.12590841948986053, -0.12869541347026825, -0.013330298475921154, 0.9914369583129883, -0.07049240916967392, -0.27255821228027344, 1.4736328125, 1.54248046875, 0.28521728515625, 1.48974609375
60253, 0.010193279013037682, -0.019072232767939568, -0.008710573427379131, 0.0001742843014653772, -6.16941979387775e-05, -0.008120198734104633, 0.001055807457305491, -0.00044819011236540973, -0.03757491335272789, 0, 0, 0, 0, 0, 0, 9362.0, 30146.0, 35388.0, 9362.0, 8.112398147583008, -0.06122598424553871, -0.24046356976032257, -0.011296340264379978, -0.12964452803134918, -0.014038769528269768, 0.9921014308929443, -0.07049240916967392, -0.27255821228027344, 1.4736328125, 1.564453125, 0.3344879150390625, 1.49267578125
60263, 0.009947260841727257, -0.016678480431437492, -0.007292748894542456, 0.00018500947044230998, -6.625834794249386e-05, -0.008499984629452229, 0.001089232973754406, -0.0004646344168577343, -0.03838184103369713, 0, 0, 0, 0, 0, 0, 9362.0, 30146.0, 35388.0, 9362.0, 8.112398147583008, 0.028742743656039238, -0.2612232565879822, 0.1034349650144577, -0.1289006471633911, -0.013000483624637127, 0.99201899766922, -0.07049240916967392, -0.27255821228027344, 1.4736328125, 1.5439453125, 0.2884979248046875, 1.49267578125
60273, 0.010170061141252518, -0.01613074727356434, -0.008979764766991138, 0.00019606377463787794, -7.099129288690165e-05, -0.00888767372816801, 0.0011216604616492987, -0.00048195678391493857, -0.03915555030107498, 0, 0, 0, 0, 0, 0, 9362.0, 30146.0, 35388.0, 9362.0, 8.112398147583008, 0.043047428131103516, 0.05546531826257706, -0.20045901834964752, -0.13120171427726746, -0.012224801816046238, 0.9928241968154907, -0.07049240916967392, -0.27255821228027344, 1.4736328125, 1.5732421875, 0.354736328125, 1.48974609375
60283, 0.010119897313416004, -0.018438143655657768, -0.00823990534991026, 0.00020742211199831218, -7.589541201014072e-05, -0.00928280595690012, 0.0011500128312036395, -0.0004988656146451831, -0.03987046331167221, 0, 0, 0, 0, 0, 0, 9362.0, 30146.0, 35388.0, 9362.0, 8.112398147583008, 0.06744642555713654, 0.08875326812267303, 0.0018845958402380347, -0.12846335768699646, -0.015171750448644161, 0.9910929203033447, -0.07049240916967392, -0.27255821228027344, 1.4736328125, 1.540283203125, 0.280364990234375, 1.48974609375
60293, 0.010012072511017323, -0.017419949173927307, -0.007781905587762594, 0.00021905917674303055, -8.097042882582173e-05, -0.009685584343969822, 0.0011773668229579926, -0.0005161385051906109, -0.04068480059504509, 0, 0, 0, 0, 0, 0, 9362.0, 30146.0, 35388.0, 9362.0, 8.112398147583008, -0.12574505805969238, -0.24885886907577515, 0.10505401343107224, -0.12980420887470245, -0.01517274510115385, 0.9903085231781006, -0.07049240916967392, -0.27255821228027344, 1.4736328125, 1.515380859375, 0.2270050048828125, 1.49560546875
60303, 0.009078893810510635, -0.01935666799545288, -0.007190162781625986, 0.00023098922974895686, -8.621767483418807e-05, -0.010096946731209755, 0.0012086591450497508, -0.0005333119770511985, -0.041587285697460175, 0, 0, 0, 0, 0, 0, 9362.0, 30146.0, 35388.0, 9362.0, 8.112398147583008, 0.05201106518507004, 0.12756463885307312, -0.09032692015171051, -0.13199175894260406, -0.013806544244289398, 0.9918670058250427, -0.07049240916967392, -0.27255821228027344, 1.4736328125, 1.54833984375, 0.298126220703125, 1.49560546875
60313, 0.009928584098815918, -0.02008945308625698, -0.007160490844398737, 0.00024322362150996923, -9.163576760329306e-05, -0.010517179034650326, 0.001238188473507762, -0.0005503198481164873, -0.04245880991220474, 0, 0, 0, 0, 0, 0, 9362.0, 30146.0, 35388.0, 9362.0, 8.112398147583008, 0.05589042976498604, 0.010628800839185715, -0.04731520265340805, -0.13060884177684784, -0.013504412956535816, 0.9913449883460999, -0.07049240916967392, -0.27255821228027344, 1.4736328125, 1.497802734375, 0.19122314453125, 1.4912109375
60323, 0.009050322696566582, -0.018835576251149178, -0.007597712799906731, 0.0002557698462624103, -9.721607784740627e-05, -0.010945770889520645, 0.001271047629415989, -0.0005657298606820405, -0.043259188532829285, 0, 0, 0, 0, 0, 0, 9362.0, 30146.0, 35388.0, 9362.0, 8.132232666015625, -0.09046053886413574, -0.07121273130178452, -0.09771144390106201, -0.1326339840888977, -0.01336684636771679, 0.9922358393669128, -0.09379523992538452, -0.20087814331054688, 1.4794921875, 1.51171875, 0.21942138671875, 1.4912109375
60333, 0.009609277360141277, -0.02341555617749691, -0.006931913085281849, 0.00026865085237659514, -0.00010295768151991069, -0.011382460594177246, 0.0013051725691184402, -0.0005826042033731937, -0.044078338891267776, 0, 0, 0, 0, 0, 0, 9362.0, 30146.0, 35388.0, 9362.0, 8.132232666015625, 0.060474373400211334, 0.6163933277130127, 0.263344407081604, -0.13274095952510834, -0.012771510519087315, 0.9899325370788574, -0.09379523992538452, -0.20087814331054688, 1.4794921875, 1.56884765625, 0.3444366455078125, 1.493408203125
60343, 0.009436754509806633, -0.02522982656955719, -0.007895445451140404, 0.0002818623906932771, -0.00010886054224101827, -0.01182754710316658, 0.0013370688538998365, -0.0005979594425298274, -0.0449385941028595, 0, 0, 0, 0, 0, 0, 9362.0, 30146.0, 35388.0, 9362.0, 8.132232666015625, 0.01485643070191145, 0.03142354264855385, -0.2029632329940796, -0.1300874799489975, -0.016113080084323883, 0.9908620715141296, -0.09379523992538452, -0.20087814331054688, 1.4794921875, 1.529296875, 0.2564849853515625, 1.493408203125
60353, 0.00846394244581461, -0.02540668472647667, -0.009051252156496048, 0.0002954317315015942, -0.00011492168414406478, -0.012281341478228569, 0.0013767699711024761, -0.0006142724305391312, -0.04581984505057335, 0, 0, 0, 0, 0, 0, 9362.0, 30146.0, 35388.0, 9362.0, 8.132232666015625, -0.08444008231163025, -0.07695519924163818, 0.0966927632689476, -0.13212692737579346, -0.013976804912090302, 0.9884841442108154, -0.09379523992538452, -0.20087814331054688, 1.4794921875, 1.5673828125, 0.3411102294921875, 1.493408203125
60363, 0.00834647286683321, -0.024276869371533394, -0.008368631824851036, 0.00030941315344534814, -0.00012114438140997663, -0.01274467259645462, 0.001419509993866086, -0.0006302847759798169, -0.04684601351618767, 0, 0, 0, 0, 0, 0, 9362.0, 30146.0, 35388.0, 9362.0, 8.132232666015625, 0.07170764356851578, -0.035814039409160614, 0.2114444226026535, -0.13115794956684113, -0.013250253163278103, 0.9915104508399963, -0.09379523992538452, -0.20087814331054688, 1.4794921875, 1.58642578125, 0.3851776123046875, 1.493408203125
60373, 0.009033750742673874, -0.025948401540517807, -0.009315344505012035, 0.000323823478538543, -0.00012751897156704217, -0.0132182277739048, 0.001462576794438064, -0.0006446344195865095, -0.047864578664302826, 0, 0, 0, 0, 0, 0, 9362.0, 30146.0, 35388.0, 9362.0, 8.132232666015625, 0.0008610225631855428, 0.19160409271717072, -0.16246990859508514, -0.13081589341163635, -0.015205463394522667, 0.994648277759552, -0.09379523992538452, -0.20087814331054688, 1.4794921875, 1.521240234375, 0.2393646240234375, 1.48974609375
60383, 0.008330616168677807, -0.029986560344696045, -0.009778372943401337, 0.0003386555763427168, -0.00013403627963270992, -0.013700390234589577, 0.001503822160884738, -0.0006588207907043397, -0.0485675148665905, 0, 0, 0, 0, 0, 0, 9362.0, 30146.0, 35388.0, 9362.0, 8.132232666015625, 0.1001744419336319, 0.30247950553894043, -0.11226844787597656, -0.1309451162815094, -0.014525095000863075, 0.9928764700889587, -0.09379523992538452, -0.20087814331054688, 1.4794921875, 1.386474609375, 0.028656005859375, 1.48974609375
60393, 0.008478553034365177, -0.03097590245306492, -0.008976544253528118, 0.00035391454002819955, -0.00014070137694943696, -0.014189101755619049, 0.0015479298308491707, -0.0006742072873748839, -0.049174465239048004, 0, 0, 0, 0, 0, 0, 9362.0, 30146.0, 35388.0, 9362.0, 8.132232666015625, -0.024043869227170944, 0.01978939212858677, 0.17704369127750397, -0.1310042291879654, -0.014379607513546944, 0.9911317825317383, -0.09379523992538452, -0.20087814331054688, 1.4794921875, 1.4677734375, 0.1347198486328125, 1.49560546875
60403, 0.008411024697124958, -0.02914425916969776, -0.009249318391084671, 0.00036964862374588847, -0.00014751427806913853, -0.014684498310089111, 0.0015988749219104648, -0.0006883705500513315, -0.049904435873031616, 0, 0, 0, 0, 0, 0, 9362.0, 30146.0, 35388.0, 9362.0, 8.132232666015625, -0.24343815445899963, 0.13026954233646393, -0.017322974279522896, -0.13229331374168396, -0.014499214477837086, 0.9937481880187988, -0.09379523992538452, -0.20087814331054688, 1.4794921875, 1.39892578125, 0.0390167236328125, 1.49560546875
60413, 0.009226962924003601, -0.028426924720406532, -0.008520995266735554, 0.0003859004355035722, -0.00015447003534063697, -0.015187428332865238, 0.0016515133902430534, -0.0007027817191556096, -0.050681162625551224, 0, 0, 0, 0, 0, 0, 9362.0, 30146.0, 35388.0, 9362.0, 8.132232666015625, 0.03025108203291893, -0.19466206431388855, 0.0827217623591423, -0.13237933814525604, -0.013021730817854404, 0.9927389025688171, -0.09379523992538452, -0.20087814331054688, 1.4794921875, 1.447998046875, 0.1016693115234375, 1.4853515625
60423, 0.010452483780682087, -0.029339296743273735, -0.006711119785904884, 0.0004026634560432285, -0.00016156943456735462, -0.01569739729166031, 0.0017010977026075125, -0.0007170885219238698, -0.05131238326430321, 0, 0, 0, 0, 0, 0, 9362.0, 30146.0, 35388.0, 9362.0, 8.132232666015625, 0.08967342972755432, 0.03985971212387085, 0.19289281964302063, -0.12962493300437927, -0.013808444142341614, 0.9926317930221558, -0.08239229768514633, -0.32631683349609375, 1.46923828125, 1.468505859375, 0.13604736328125, 1.4853515625
60433, 0.011636631563305855, -0.0292572770267725, -0.007424755487591028, 0.0004199159156996757, -0.00016881873307283968, -0.016214296221733093, 0.0017493810737505555, -0.0007327545899897814, -0.05206708982586861, 0, 0, 0, 0, 0, 0, 9362.0, 30146.0, 35388.0, 9362.0, 8.132232666015625, 0.13576528429985046, 0.16874684393405914, 0.1791851967573166, -0.13148356974124908, -0.01287801843136549, 0.9898793697357178, -0.08239229768514633, -0.32631683349609375, 1.46923828125, 1.428955078125, 0.073577880859375, 1.491943359375
60443, 0.011805828660726547, -0.02879444882273674, -0.00742306187748909, 0.00043765874579548836, -0.00017623502935748547, -0.016739115118980408, 0.0017991889035329223, -0.0007504889508709311, -0.05289643257856369, 0, 0, 0, 0, 0, 0, 9362.0, 30146.0, 35388.0, 9362.0, 8.132232666015625, -0.05632534995675087, -0.037950318306684494, -0.36263078451156616, -0.13207866251468658, -0.014045788906514645, 0.9911964535713196, -0.08239229768514633, -0.32631683349609375, 1.46923828125, 1.417236328125, 0.058624267578125, 1.491943359375
60453, 0.013641413301229477, -0.03031781129539013, -0.008669303730130196, 0.0004558985529001802, -0.00018383856513537467, -0.017273062840104103, 0.0018487789202481508, -0.0007702138973399997, -0.05389269068837166, 0, 0, 0, 0, 0, 0, 9362.0, 30146.0, 35388.0, 9362.0, 8.132232666015625, 0.07434678077697754, 0.05406427010893822, -0.033878717571496964, -0.13161098957061768, -0.014442446641623974, 0.9914925694465637, -0.08239229768514633, -0.32631683349609375, 1.46923828125, 1.48974609375, 0.1755218505859375, 1.48974609375
60463, 0.014915633015334606, -0.029098909348249435, -0.008323579095304012, 0.0004746307386085391, -0.0001916409528348595, -0.01781613752245903, 0.0018976380815729499, -0.0007902373909018934, -0.05472183972597122, 0, 0, 0, 0, 0, 0, 9362.0, 30146.0, 35388.0, 9362.0, 8.132232666015625, -0.142820805311203, 0.12350177764892578, 0.19330279529094696, -0.13041596114635468, -0.014021388255059719, 0.9905747175216675, -0.08239229768514633, -0.32631683349609375, 1.46923828125, 1.424560546875, 0.0678253173828125, 1.48974609375
60473, 0.015282945707440376, -0.03117702342569828, -0.00487367482855916, 0.000493864354211837, -0.00019965911633335054, -0.018367672339081764, 0.0019491054117679596, -0.0008133765659295022, -0.05558476597070694, 0, 0, 0, 0, 0, 0, 9362.0, 30146.0, 35388.0, 9362.0, 8.132232666015625, 0.13737255334854126, 0.08977377414703369, 0.36809077858924866, -0.13206152617931366, -0.013482792302966118, 0.9897534847259521, -0.08239229768514633, -0.32631683349609375, 1.46923828125, 1.54541015625, 0.291656494140625, 1.48974609375
60483, 0.015315918251872063, -0.030490869656205177, -0.0020160777494311333, 0.0005136020481586456, -0.00020791933638975024, -0.018928393721580505, 0.00199839542619884, -0.0008386587724089622, -0.05655905231833458, 0, 0, 0, 0, 0, 0, 9362.0, 30146.0, 35388.0, 9362.0, 8.132232666015625, 0.13737255334854126, 0.08977377414703369, 0.36809077858924866, -0.13206152617931366, -0.013482792302966118, 0.9897534847259521, -0.08239229768514633, -0.32631683349609375, 1.46923828125, 1.509521484375, 0.2148895263671875, 1.48974609375
60493, 0.01551912073045969, -0.028950128704309464, -0.0026075229980051517, 0.0005136020481586456, -0.00020791933638975024, -0.018928393721580505, 0.00199839542619884, -0.0008386587724089622, -0.05655905231833458, 0, 0, 0, 0, 0, 0, 9362.0, 30146.0, 35388.0, 9362.0, 8.132232666015625, 0.10753706097602844, -0.12180166691541672, -0.11124750226736069, -0.1317647099494934, -0.012183275073766708, 0.989310085773468, -0.08239229768514633, -0.32631683349609375, 1.46923828125, 1.509521484375, 0.2148895263671875, 1.48974609375
60503, 0.015453306958079338, -0.02828739956021309, -0.0035437187179923058, 0.0005136020481586456, -0.00020791933638975024, -0.018928393721580505, 0.00199839542619884, -0.0008386587724089622, -0.05655905231833458, 0, 0, 0, 0, 0, 0, 9362.0, 30146.0, 35388.0, 9362.0, 8.132232666015625, -0.006392505951225758, -0.07981055229902267, 0.16086526215076447, -0.1315053254365921, -0.01409232523292303, 0.989058256149292, -0.08239229768514633, -0.32631683349609375, 1.46923828125, 1.440673828125, 0.090423583984375, 1.48974609375
60513, 0.015484155155718327, -0.027128439396619797, -0.0013697510585188866, 0.0005136020481586456, -0.00020791933638975024, -0.018928393721580505, 0.00199839542619884, -0.0008386587724089622, -0.05655905231833458, 0, 0, 0, 0, 0, 0, 9362.0, 30146.0, 35388.0, 9362.0, 8.132232666015625, -0.08472472429275513, -0.14019876718521118, 0.09635603427886963, -0.13064000010490417, -0.014043794013559818, 0.9904606342315674, -0.08239229768514633, -0.32631683349609375, 1.46923828125, 1.458984375, 0.1195831298828125, 1.493408203125
60523, 0.015886221081018448, -0.02644556574523449, -0.0007122094975784421, 0.0005136020481586456, -0.00020791933638975024, -0.018928393721580505, 0.00199839542619884, -0.0008386587724089622, -0.05655905231833458, 0, 0, 0, 0, 0, 0, 9362.0, 30146.0, 35388.0, 9362.0, 8.112398147583008, -0.08472472429275513, -0.14019876718521118, 0.09635603427886963, -0.13082464039325714, -0.013402269221842289, 0.991400420665741, -0.08754852414131165, -0.22775840759277344, 1.477294921875, 1.524169921875, 0.2455596923828125, 1.493408203125
60533, 0.014835730195045471, -0.02692284807562828, -0.0010450120316818357, 0.0005136020481586456, -0.00020791933638975024, -0.018928393721580505, 0.00199839542619884, -0.0008386587724089622, -0.05655905231833458, 0, 0, 0, 0, 0, 0, 9362.0, 30146.0, 35388.0, 9362.0, 8.112398147583008, -0.05514610931277275, -0.24022597074508667, -0.016458023339509964, -0.13233913481235504, -0.016053151339292526, 0.9918656349182129, -0.08754852414131165, -0.22775840759277344, 1.477294921875, 1.524169921875, 0.2455596923828125, 1.49267578125
60543, 0.014260551892220974, -0.02553851529955864, -0.002442482626065612, 0.0005136020481586456, -0.00020791933638975024, -0.018928393721580505, 0.00199839542619884, -0.0008386587724089622, -0.05655905231833458, 0, 0, 0, 0, 0, 0, 9362.0, 30146.0, 35388.0, 9362.0, 8.112398147583008, -0.13571427762508392, 0.1363617181777954, -0.0664004385471344, -0.12969456613063812, -0.01412926334887743, 0.9912772178649902, -0.08754852414131165, -0.22775840759277344, 1.477294921875, 1.47802734375, 0.1532745361328125, 1.49267578125
60553, 0.01473870500922203, -0.026490148156881332, -0.0015367286978289485, 0.0006657058838754892, -0.00027302332455292344, -0.023129697889089584, 0.0023365970700979233, -0.0010214404901489615, -0.06316140294075012, 0, 0, 0, 0, 0, 0, 9362.0, 30146.0, 35388.0, 9362.0, 8.112398147583008, -0.03993292897939682, 0.20767275989055634, 0.06094494089484215, -0.13017046451568604, -0.01332155242562294, 0.9907543063163757, -0.08754852414131165, -0.22775840759277344, 1.477294921875, 1.51318359375, 0.2224273681640625, 1.494140625
60563, 0.01426759734749794, -0.026964249089360237, -0.0014248986262828112, 0.000689288426656276, -0.0002833586768247187, -0.023765865713357925, 0.0023799019400030375, -0.0010456237941980362, -0.0640716627240181, 0, 0, 0, 0, 0, 0, 9362.0, 30146.0, 35388.0, 9362.0, 8.112398147583008, 0.06694819778203964, -0.06329838186502457, -0.013415193185210228, -0.1311938613653183, -0.014439716003835201, 0.9902924299240112, -0.08754852414131165, -0.22775840759277344, 1.477294921875, 1.51318359375, 0.2224273681640625, 1.494140625
60573, 0.013911796733736992, -0.026790283620357513, -0.0011824748944491148, 0.000689288426656276, -0.0002833586768247187, -0.023765865713357925, 0.0023799019400030375, -0.0010456237941980362, -0.0640716627240181, 0, 0, 0, 0, 0, 0, 9362.0, 30146.0, 35388.0, 9362.0, 8.112398147583008, -0.04977472126483917, -0.012835833244025707, -0.023114709183573723, -0.12993553280830383, -0.014307862147688866, 0.9906815886497498, -0.08754852414131165, -0.22775840759277344, 1.477294921875, 1.46923828125, 0.137359619140625, 1.4912109375
60583, 0.013664641417562962, -0.02650114707648754, -0.0014745618682354689, 0.0007377890287898481, -0.00030476725078187883, -0.025065630674362183, 0.002470553619787097, -0.0010948333656415343, -0.06592582166194916, 0, 0, 0, 0, 0, 0, 9362.0, 30146.0, 35388.0, 9362.0, 8.112398147583008, 0.0366143137216568, 0.1328655481338501, -0.031329650431871414, -0.13058091700077057, -0.015379654243588448, 0.9920543432235718, -0.08754852414131165, -0.22775840759277344, 1.477294921875, 1.46923828125, 0.137359619140625, 1.4912109375
60603, 0.015930449590086937, -0.027216730639338493, 0.002291431650519371, 0.0007881073979660869, -0.00032713430118747056, -0.026400504633784294, 0.002561032772064209, -0.0011416493216529489, -0.06754507124423981, 0, 0, 0, 0, 0, 0, 9362.0, 30146.0, 35388.0, 9362.0, 8.112398147583008, 0.24310751259326935, -0.1362907737493515, 0.05717422068119049, -0.1301114559173584, -0.013458037748932838, 0.9913760423660278, -0.08754852414131165, -0.22775840759277344, 1.477294921875, 1.46923828125, 0.137359619140625, 1.496337890625
60613, 0.01607506535947323, -0.028904231265187263, 0.0026427078992128372, 0.0007881073979660869, -0.00032713430118747056, -0.026400504633784294, 0.002561032772064209, -0.0011416493216529489, -0.06754507124423981, 0, 0, 0, 0, 0, 0, 9362.0, 30146.0, 35388.0, 9362.0, 8.112398147583008, 0.17539897561073303, 0.02158881351351738, -0.028348496183753014, -0.12937766313552856, -0.013383336365222931, 0.9911998510360718, -0.08754852414131165, -0.22775840759277344, 1.477294921875, 1.39892578125, 0.0390167236328125, 1.4912109375
60623, 0.01816205494105816, -0.02751467376947403, 0.0002124869788531214, 0.0007881073979660869, -0.00032713430118747056, -0.026400504633784294, 0.002561032772064209, -0.0011416493216529489, -0.06754507124423981, 0, 0, 0, 0, 0, 0, 9362.0, 30146.0, 35388.0, 9362.0, 8.112398147583008, 0.17539897561073303, 0.02158881351351738, -0.028348496183753014, -0.13317883014678955, -0.014832532033324242, 0.9930065870285034, -0.08831146359443665, -0.08439826965332031, 1.489013671875, 1.41357421875, 0.0542449951171875, 1.4912109375
60633, 0.018031025305390358, -0.026887008920311928, -7.875700976001099e-05, 0.0007881073979660869, -0.00032713430118747056, -0.026400504633784294, 0.002561032772064209, -0.0011416493216529489, -0.06754507124423981, 0, 0, 0, 0, 0, 0, 9362.0, 30146.0, 35388.0, 9362.0, 8.112398147583008, 0.03871771693229675, 0.10592205077409744, 0.06756395846605301, -0.13141919672489166, -0.013093073852360249, 0.9916896820068359, -0.08831146359443665, -0.08439826965332031, 1.489013671875, 1.41357421875, 0.0542449951171875, 1.490478515625
60643, 0.019977010786533356, -0.02888677269220352, 0.0008787827682681382, 0.0007881073979660869, -0.00032713430118747056, -0.026400504633784294, 0.002561032772064209, -0.0011416493216529489, -0.06754507124423981, 0, 0, 0, 0, 0, 0, 9362.0, 30146.0, 35388.0, 9362.0, 8.112398147583008, 0.17456598579883575, -0.002304645488038659, -0.09842239320278168, -0.13022783398628235, -0.012791138142347336, 0.9908061027526855, -0.08831146359443665, -0.08439826965332031, 1.489013671875, 1.434814453125, 0.081787109375, 1.490478515625
60653, 0.018883150070905685, -0.026420388370752335, 0.0007314869435504079, 0.0007881073979660869, -0.00032713430118747056, -0.026400504633784294, 0.002561032772064209, -0.0011416493216529489, -0.06754507124423981, 0, 0, 0, 0, 0, 0, 9362.0, 30146.0, 35388.0, 9362.0, 8.112398147583008, 0.17456598579883575, -0.002304645488038659, -0.09842239320278168, -0.12957033514976501, -0.014076583087444305, 0.990993320941925, -0.08831146359443665, -0.08439826965332031, 1.489013671875, 1.49853515625, 0.1927032470703125, 1.48974609375
60663, 0.01922733336687088, -0.0306552704423666, 0.0020291025284677744, 0.0007881073979660869, -0.00032713430118747056, -0.026400504633784294, 0.002561032772064209, -0.0011416493216529489, -0.06754507124423981, 0, 0, 0, 0, 0, 0, 9362.0, 30146.0, 35388.0, 9362.0, 8.112398147583008, 0.08845216780900955, 0.4446679353713989, 0.05891559645533562, -0.13136109709739685, -0.012433955445885658, 0.9921995997428894, -0.08831146359443665, -0.08439826965332031, 1.489013671875, 1.51171875, 0.21942138671875, 1.48974609375
60673, 0.018501054495573044, -0.03201860934495926, 0.0022135451436042786, 0.0007881073979660869, -0.00032713430118747056, -0.026400504633784294, 0.002561032772064209, -0.0011416493216529489, -0.06754507124423981, 0, 0, 0, 0, 0, 0, 9362.0, 30146.0, 35388.0, 9362.0, 8.112398147583008, -0.15006610751152039, 0.0040033189579844475, 0.030329911038279533, -0.1322929412126541, -0.012000683695077896, 0.9910600781440735, -0.08831146359443665, -0.08439826965332031, 1.489013671875, 1.442138671875, 0.0926361083984375, 1.49267578125
60683, 0.019852200523018837, -0.03433455899357796, 0.002597755054011941, 0.0010080636711791158, -0.00042754376772791147, -0.03207055479288101, 0.0029413895681500435, -0.0013809327501803637, -0.07419098913669586, 0, 0, 0, 0, 0, 0, 9362.0, 30146.0, 35388.0, 9362.0, 8.112398147583008, 0.12916629016399384, 0.4691754877567291, 0.024250125512480736, -0.1322929412126541, -0.012000683695077896, 0.9910600781440735, -0.08831146359443665, -0.08439826965332031, 1.489013671875, 1.442138671875, 0.0926361083984375, 1.49267578125
60693, 0.019692236557602882, -0.03297033905982971, 0.0021166836377233267, 0.0010080636711791158, -0.00042754376772791147, -0.03207055479288101, 0.0029413895681500435, -0.0013809327501803637, -0.07419098913669586, 0, 0, 0, 0, 0, 0, 9362.0, 30146.0, 35388.0, 9362.0, 8.112398147583008, -0.16759121417999268, -0.2829605042934418, -0.1210295706987381, -0.13184307515621185, -0.012471402063965797, 0.9904295802116394, -0.08831146359443665, -0.08439826965332031, 1.489013671875, 1.487548828125, 0.1712188720703125, 1.487548828125
60703, 0.01983209326863289, -0.033998042345047, 0.0007288489723578095, 0.001067996141500771, -0.00045580073492601514, -0.03357414901256561, 0.0030538178980350494, -0.0014459001831710339, -0.07620538026094437, 0, 0, 0, 0, 0, 0, 9362.0, 30146.0, 35388.0, 9362.0, 8.112398147583008, -0.023793213069438934, 0.2289639413356781, -0.13505271077156067, -0.13264013826847076, -0.015516959130764008, 0.9915162920951843, -0.08831146359443665, -0.08439826965332031, 1.489013671875, 1.487548828125, 0.1712188720703125, 1.487548828125
60713, 0.019302884116768837, -0.034237828105688095, 0.0002946527092717588, 0.001067996141500771, -0.00045580073492601514, -0.03357414901256561, 0.0030538178980350494, -0.0014459001831710339, -0.07620538026094437, 0, 0, 0, 0, 0, 0, 9362.0, 30146.0, 35388.0, 9362.0, 8.112398147583008, 0.0389225110411644, -0.2298278659582138, -0.24015042185783386, -0.13385215401649475, -0.01476080622524023, 0.9919443726539612, -0.08831146359443665, -0.08439826965332031, 1.489013671875, 1.43994140625, 0.089324951171875, 1.49267578125
60733, 0.020697055384516716, -0.032621048390865326, -0.0010151987662538886, 0.001162164960987866, -0.0005006816936656833, -0.035899579524993896, 0.0032255584374070168, -0.0015457283006981015, -0.07879754900932312, 0, 0, 0, 0, 0, 0, 9362.0, 30146.0, 35388.0, 9362.0, 8.112398147583008, -0.14006571471691132, -0.07104063779115677, -0.11035627126693726, -0.12980909645557404, -0.014859015122056007, 0.9926543235778809, -0.10074693709611893, -0.2098369598388672, 1.478759765625, 1.399658203125, 0.0396575927734375, 1.494873046875
60743, 0.020165279507637024, -0.029523193836212158, -0.0014642647001892328, 0.001162164960987866, -0.0005006816936656833, -0.035899579524993896, 0.0032255584374070168, -0.0015457283006981015, -0.07879754900932312, 0, 0, 0, 0, 0, 0, 9362.0, 30146.0, 35388.0, 9362.0, 8.112398147583008, -0.16764487326145172, -0.32371053099632263, -0.08132272213697433, -0.12976612150669098, -0.015711653977632523, 0.9929969310760498, -0.10074693709611893, -0.2098369598388672, 1.478759765625, 1.399658203125, 0.0396575927734375, 1.494873046875
60753, 0.019840192049741745, -0.030183061957359314, -0.0009444791357964277, 0.0012278178473934531, -0.0005322823999449611, -0.03749207407236099, 0.003338696900755167, -0.001614937442354858, -0.08034569025039673, 0, 0, 0, 0, 0, 0, 9362.0, 30146.0, 35388.0, 9362.0, 8.112398147583008, -0.08524477481842041, 0.21257223188877106, 0.3117082118988037, -0.13041216135025024, -0.014997190795838833, 0.9915163516998291, -0.10074693709611893, -0.2098369598388672, 1.478759765625, 1.54248046875, 0.28521728515625, 1.494873046875
60763, 0.018776241689920425, -0.03131192922592163, -7.484007073799148e-05, 0.0012278178473934531, -0.0005322823999449611, -0.03749207407236099, 0.003338696900755167, -0.001614937442354858, -0.08034569025039673, 0, 0, 0, 0, 0, 0, 9362.0, 30146.0, 35388.0, 9362.0, 8.112398147583008, -0.010347357019782066, -0.12140310555696487, 0.046035002917051315, -0.13213668763637543, -0.014492569491267204, 0.990868866443634, -0.10074693709611893, -0.2098369598388672, 1.478759765625, 1.4384765625, 0.0871429443359375, 1.494873046875
60773, 0.01676342636346817, -0.030472777783870697, 1.1931867447856348e-05, 0.0012278178473934531, -0.0005322823999449611, -0.03749207407236099, 0.003338696900755167, -0.001614937442354858, -0.08034569025039673, 0, 0, 0, 0, 0, 0, 9362.0, 30146.0, 35388.0, 9362.0, 8.112398147583008, -0.19996412098407745, -0.27252671122550964, -0.08108193427324295, -0.13090935349464417, -0.014930487610399723, 0.9914541840553284, -0.10074693709611893, -0.2098369598388672, 1.478759765625, 1.562255859375, 0.329437255859375, 1.490478515625
60783, 0.01601254753768444, -0.02835756726562977, -0.001899730646982789, 0.001330267172306776, -0.0005822521634399891, -0.03993729501962662, 0.0034932263661175966, -0.001714799553155899, -0.08278825879096985, 0, 0, 0, 0, 0, 0, 9362.0, 30146.0, 35388.0, 9362.0, 8.112398147583008, 0.05150065943598747, 0.11707402020692825, -0.16423159837722778, -0.13136698305606842, -0.014047722332179546, 0.992002546787262, -0.10074693709611893, -0.2098369598388672, 1.478759765625, 1.51904296875, 0.2346954345703125, 1.490478515625
60793, 0.01787628047168255, -0.029859360307455063, -0.001741838757880032, 0.001330267172306776, -0.0005822521634399891, -0.03993729501962662, 0.0034932263661175966, -0.001714799553155899, -0.08278825879096985, 0, 0, 0, 0, 0, 0, 9362.0, 30146.0, 35388.0, 9362.0, 8.112398147583008, 0.19906044006347656, 0.4057424068450928, 0.014774715527892113, -0.13080504536628723, -0.013012722134590149, 0.9921866655349731, -0.10074693709611893, -0.2098369598388672, 1.478759765625, 1.45458984375, 0.11224365234375, 1.4912109375
60803, 0.017478875815868378, -0.03107558563351631, -0.0005054314970038831, 0.0014011492021381855, -0.0006171113345772028, -0.04160868749022484, 0.0035931512247771025, -0.00177045410964638, -0.08436370640993118, 0, 0, 0, 0, 0, 0, 9362.0, 30146.0, 35388.0, 9362.0, 8.112398147583008, -0.09134618937969208, -0.13609743118286133, 0.20288796722888947, -0.13002701103687286, -0.01619158685207367, 0.9920246005058289, -0.10074693709611893, -0.2098369598388672, 1.478759765625, 1.500732421875, 0.1970977783203125, 1.4912109375
60813, 0.01906890980899334, -0.029855554923415184, -0.0010655410587787628, 0.001437334343791008, -0.0006349676987156272, -0.042456209659576416, 0.003643853822723031, -0.0018008247716352344, -0.08514004200696945, 0, 0, 0, 0, 0, 0, 9362.0, 30146.0, 35388.0, 9362.0, 8.112398147583008, -0.007553000468760729, 0.11857233196496964, -0.2682724893093109, -0.1284264177083969, -0.015669913962483406, 0.990375280380249, -0.10074693709611893, -0.2098369598388672, 1.478759765625, 1.5732421875, 0.354736328125, 1.493408203125
60823, 0.019459810107946396, -0.02866586484014988, -0.0021466491743922234, 0.001474036485888064, -0.0006531242397613823, -0.043312009423971176, 0.003696601837873459, -0.0018304599216207862, -0.08601924031972885, 0, 0, 0, 0, 0, 0, 9362.0, 30146.0, 35388.0, 9362.0, 8.112398147583008, 0.023706039413809776, -0.19499336183071136, -0.03202294185757637, -0.13113069534301758, -0.014207481406629086, 0.991097092628479, -0.10582569241523743, -0.14711761474609375, 1.48388671875, 1.5732421875, 0.354736328125, 1.493408203125
60833, 0.019654924049973488, -0.02813168242573738, -0.0030154730193316936, 0.001474036485888064, -0.0006531242397613823, -0.043312009423971176, 0.003696601837873459, -0.0018304599216207862, -0.08601924031972885, 0, 0, 0, 0, 0, 0, 9362.0, 30146.0, 35388.0, 9362.0, 8.112398147583008, 0.12440531700849533, -0.30449536442756653, -0.05056416615843773, -0.12965407967567444, -0.014339840039610863, 0.9900278449058533, -0.10582569241523743, -0.14711761474609375, 1.48388671875, 1.5732421875, 0.354736328125, 1.486083984375
60843, 0.020123109221458435, -0.02832074835896492, -0.0015633495058864355, 0.001474036485888064, -0.0006531242397613823, -0.043312009423971176, 0.003696601837873459, -0.0018304599216207862, -0.08601924031972885, 0, 0, 0, 0, 0, 0, 9362.0, 30146.0, 35388.0, 9362.0, 8.112398147583008, -0.0021785215940326452, 0.09728022664785385, 0.13142751157283783, -0.13116611540317535, -0.012998451478779316, 0.9896623492240906, -0.10582569241523743, -0.14711761474609375, 1.48388671875, 1.405517578125, 0.0454254150390625, 1.486083984375
60853, 0.019372204318642616, -0.028209436684846878, -0.005649611819535494, 0.001474036485888064, -0.0006531242397613823, -0.043312009423971176, 0.003696601837873459, -0.0018304599216207862, -0.08601924031972885, 0, 0, 0, 0, 0, 0, 9362.0, 30146.0, 35388.0, 9362.0, 8.112398147583008, -0.012603110633790493, -0.13342946767807007, -0.30180853605270386, -0.13116611540317535, -0.012998451478779316, 0.9896623492240906, -0.10582569241523743, -0.14711761474609375, 1.48388671875, 1.49560546875, 0.1868743896484375, 1.493408203125
60863, 0.019502954557538033, -0.02930344082415104, -0.006125485524535179, 0.0016258448595181108, -0.0007289703353308141, -0.0468263253569603, 0.0038915767800062895, -0.001963244518265128, -0.0898066982626915, 0, 0, 0, 0, 0, 0, 9362.0, 30146.0, 35388.0, 9362.0, 8.112398147583008, 0.010203265585005283, -0.22061266005039215, -0.055232636630535126, -0.12977710366249084, -0.01497664488852024, 0.9903521537780762, -0.10582569241523743, -0.14711761474609375, 1.48388671875, 1.49560546875, 0.1868743896484375, 1.493408203125
60873, 0.01902327500283718, -0.029523445293307304, -0.006085697561502457, 0.0016258448595181108, -0.0007289703353308141, -0.0468263253569603, 0.0038915767800062895, -0.001963244518265128, -0.0898066982626915, 0, 0, 0, 0, 0, 0, 9362.0, 30146.0, 35388.0, 9362.0, 8.112398147583008, -0.08133168518543243, 0.11893732845783234, -0.21482299268245697, -0.13171519339084625, -0.014454563148319721, 0.9917629361152649, -0.10582569241523743, -0.14711761474609375, 1.48388671875, 1.415771484375, 0.0568695068359375, 1.490478515625
60883, 0.019132891669869423, -0.030156917870044708, -0.007623868994414806, 0.001704642316326499, -0.0007688935729674995, -0.04864085465669632, 0.003989110700786114, -0.0020292061381042004, -0.09161899238824844, 0, 0, 0, 0, 0, 0, 9362.0, 30146.0, 35388.0, 9362.0, 8.112398147583008, -0.014396628364920616, 0.20610196888446808, 0.03210090100765228, -0.13171519339084625, -0.014454563148319721, 0.9917629361152649, -0.10582569241523743, -0.14711761474609375, 1.48388671875, 1.415771484375, 0.0568695068359375, 1.490478515625
60893, 0.01949574612081051, -0.02910931035876274, -0.008710444904863834, 0.001704642316326499, -0.0007688935729674995, -0.04864085465669632, 0.003989110700786114, -0.0020292061381042004, -0.09161899238824844, 0, 0, 0, 0, 0, 0, 9362.0, 30146.0, 35388.0, 9362.0, 8.112398147583008, 0.0002701701014302671, -0.5112330317497253, -0.15691468119621277, -0.13238289952278137, -0.014459071680903435, 0.9917617440223694, -0.10582569241523743, -0.14711761474609375, 1.48388671875, 1.5205078125, 0.237762451171875, 1.486083984375
60903, 0.01950402744114399, -0.02819194458425045, -0.010502864606678486, 0.001704642316326499, -0.0007688935729674995, -0.04864085465669632, 0.003989110700786114, -0.0020292061381042004, -0.09161899238824844, 0, 0, 0, 0, 0, 0, 9362.0, 30146.0, 35388.0, 9362.0, 8.112398147583008, -0.08870834857225418, 0.2987498342990875, -0.26888957619667053, -0.1324622482061386, -0.01504498440772295, 0.9910274147987366, -0.10582569241523743, -0.14711761474609375, 1.48388671875, 1.5234375, 0.2439727783203125, 1.486083984375
60913, 0.02004089765250683, -0.030067451298236847, -0.010937996208667755, 0.0018265829421579838, -0.0008312297868542373, -0.051427632570266724, 0.00413983641192317, -0.002127087442204356, -0.09413719177246094, 0, 0, 0, 0, 0, 0, 9362.0, 30146.0, 35388.0, 9362.0, 8.112398147583008, -0.08870834857225418, 0.2987498342990875, -0.26888957619667053, -0.13186421990394592, -0.014026911929249763, 0.9905567169189453, -0.10582569241523743, -0.14711761474609375, 1.48388671875, 1.5234375, 0.2439727783203125, 1.49267578125
60923, 0.02130378782749176, -0.02946562133729458, -0.013165680691599846, 0.0018265829421579838, -0.0008312297868542373, -0.051427632570266724, 0.00413983641192317, -0.002127087442204356, -0.09413719177246094, 0, 0, 0, 0, 0, 0, 9362.0, 30146.0, 35388.0, 9362.0, 8.132232666015625, -0.08870834857225418, 0.2987498342990875, -0.26888957619667053, -0.1300477385520935, -0.014962196350097656, 0.9907620549201965, -0.07642756402492523, 0.023120880126953125, 1.497802734375, 1.517578125, 0.231689453125, 1.49267578125
60933, 0.02200273610651493, -0.030964087694883347, -0.014652947895228863, 0.0018265829421579838, -0.0008312297868542373, -0.051427632570266724, 0.00413983641192317, -0.002127087442204356, -0.09413719177246094, 0, 0, 0, 0, 0, 0, 9362.0, 30146.0, 35388.0, 9362.0, 8.132232666015625, 0.21174342930316925, 0.1585000902414322, 0.06526441127061844, -0.1291290819644928, -0.015482848510146141, 0.9901617169380188, -0.07642756402492523, 0.023120880126953125, 1.497802734375, 1.517578125, 0.231689453125, 1.48681640625
60943, 0.023492300882935524, -0.030598824843764305, -0.01586560159921646, 0.0018265829421579838, -0.0008312297868542373, -0.051427632570266724, 0.00413983641192317, -0.002127087442204356, -0.09413719177246094, 0, 0, 0, 0, 0, 0, 9362.0, 30146.0, 35388.0, 9362.0, 8.132232666015625, 0.20716127753257751, 0.3762953579425812, 0.17793112993240356, -0.1290733814239502, -0.0143880695104599, 0.9928271174430847, -0.07642756402492523, 0.023120880126953125, 1.497802734375, 1.4970703125, 0.18975830078125, 1.48681640625
60953, 0.02402399480342865, -0.030794966965913773, -0.0156403761357069, 0.0019961358048021793, -0.0009190497803501785, -0.055266331881284714, 0.004341084510087967, -0.002267604460939765, -0.09779626131057739, 0, 0, 0, 0, 0, 0, 9362.0, 30146.0, 35388.0, 9362.0, 8.132232666015625, -0.13327625393867493, -0.11993185430765152, -0.2004111111164093, -0.12945406138896942, -0.012035858817398548, 0.9936171174049377, -0.07642756402492523, 0.023120880126953125, 1.497802734375, 1.56298828125, 0.3311767578125, 1.48681640625
60963, 0.02394723892211914, -0.030058210715651512, -0.018271733075380325, 0.0019961358048021793, -0.0009190497803501785, -0.055266331881284714, 0.004341084510087967, -0.002267604460939765, -0.09779626131057739, 0, 0, 0, 0, 0, 0, 9362.0, 30146.0, 35388.0, 9362.0, 8.132232666015625, 0.0858021005988121, 0.0499534085392952, -0.18619215488433838, -0.13010850548744202, -0.015140559524297714, 0.9891296029090881, -0.07642756402492523, 0.023120880126953125, 1.497802734375, 1.493408203125, 0.1825714111328125, 1.48681640625
60973, 0.02512357011437416, -0.03293851763010025, -0.01900075376033783, 0.0019961358048021793, -0.0009190497803501785, -0.055266331881284714, 0.004341084510087967, -0.002267604460939765, -0.09779626131057739, 0, 0, 0, 0, 0, 0, 9362.0, 30146.0, 35388.0, 9362.0, 8.132232666015625, 0.10958395898342133, 0.18702730536460876, -0.020597340539097786, -0.12999965250492096, -0.01437749806791544, 0.9916163086891174, -0.07642756402492523, 0.023120880126953125, 1.497802734375, 1.50146484375, 0.1985626220703125, 1.48974609375
60983, 0.025486983358860016, -0.03233988210558891, -0.020217031240463257, 0.0019961358048021793, -0.0009190497803501785, -0.055266331881284714, 0.004341084510087967, -0.002267604460939765, -0.09779626131057739, 0, 0, 0, 0, 0, 0, 9362.0, 30146.0, 35388.0, 9362.0, 8.132232666015625, 0.09568407386541367, -0.0004536053747870028, -0.010485789738595486, -0.13170713186264038, -0.014684539288282394, 0.9919994473457336, -0.07642756402492523, 0.023120880126953125, 1.497802734375, 1.477294921875, 0.1519775390625, 1.48974609375
60993, 0.02475188672542572, -0.034606218338012695, -0.01872183196246624, 0.0019961358048021793, -0.0009190497803501785, -0.055266331881284714, 0.004341084510087967, -0.002267604460939765, -0.09779626131057739, 0, 0, 0, 0, 0, 0, 9362.0, 30146.0, 35388.0, 9362.0, 8.132232666015625, -0.031300757080316544, 0.1678263396024704, 0.10068228095769882, -0.13217538595199585, -0.012595174834132195, 0.9923952221870422, -0.07642756402492523, 0.023120880126953125, 1.497802734375, 1.4912109375, 0.178253173828125, 1.486083984375
