timeTick, roll, pitch, yaw, stateX, stateY, stateZ, stateVX, stateVY, stateVZ, otX0, otY0, otZ0, otRoll0, otPitch0, otYaw0, left wing, pitch motor, yaw motor, right wing, voltage, roll rate, pitch rate, yaw rate, A_x, A_y, A_z, current, i_raw, v_raw, airflow_voltage, airflow_speed, pot_Pitch
24956, -0.052229348570108414, -2.6793301105499268, 5.0032057762146, 0, 0, 0, 0, 0, 0, 0.08598864823579788, 0.5158262252807617, 0.0670880451798439, -0.09105050965351394, 0.36788445493260724, -5.83933469597769, 0, 0, 0, 0, 0, 0, 0, 0, 0, 0, 0, 0, 0, 0, 0, 0, 0
24966, -0.053220972418785095, -2.6778974533081055, 5.005263328552246, -0.0038690196815878153, -0.0004153163463342935, -97.56378173828125, -0.38470137119293213, -0.04129551351070404, -8.357884407043457, 0.08599566668272018, 0.5158382654190063, 0.0670827329158783, -0.08310339656993884, 0.36871010724897246, -5.850868225892645, 9362.0, 30146.0, 35388.0, 9362.0, 8.390083312988281, -0.15113121271133423, 0.08313234895467758, -0.16929268836975098, 0.004854610655456781, -0.03759172186255455, 0.963798999786377, -0.07555828243494034, 0.08584022521972656, 1.5029296875, 0, 0, 0
24976, -0.05355268716812134, -2.6794466972351074, 5.003743648529053, -0.0076940665021538734, -0.000825915951281786, -97.64737701416016, -0.3803078532218933, -0.04082430526614189, -8.361581802368164, 0.08598898351192474, 0.5158282518386841, 0.0670740082859993, -0.08791637816828032, 0.36293315036743934, -5.836803269217395, 9362.0, 30146.0, 35388.0, 9362.0, 8.390083312988281, -0.06139743700623512, -0.018490953370928764, 0.3297061622142792, 0.005202597938477993, -0.03719307854771614, 0.9660483002662659, -0.07969731092453003, -0.04855918884277344, 1.491943359375, 1.316162109375, 0.030517578125, 1.49267578125
24986, -0.05344171077013016, -2.6776106357574463, 5.005605697631836, -0.01147516444325447, -0.001231792732141912, -97.73101043701172, -0.3759118318557739, -0.04035120829939842, -8.365166664123535, 0.08606065809726715, 0.5157967805862427, 0.06704223155975342, -0.06806370706215213, 0.40047807677592573, -5.782408421605308, 9362.0, 30146.0, 35388.0, 9362.0, 8.390083312988281, -0.11457367986440659, -0.22117887437343597, -0.09085029363632202, 0.0051298062317073345, -0.039344966411590576, 0.9637206792831421, -0.07567503303289413, -0.09335899353027344, 1.48828125, 1.3125, 0.034027099609375, 1.490478515625
24996, -0.054417289793491364, -2.6764674186706543, 5.006340980529785, -0.01521227229386568, -0.0016329335048794746, -97.81468200683594, -0.37150973081588745, -0.0398767925798893, -8.36867904663086, 0.08600012958049774, 0.5158265233039856, 0.0670858696103096, -0.08981123890348958, 0.3702650271137884, -5.845324176847824, 9362.0, 30146.0, 35388.0, 9362.0, 8.390083312988281, 0.014147046022117138, -0.12082351744174957, -0.08226901292800903, 0.004584040492773056, -0.03774544969201088, 0.96434485912323, -0.07586223632097244, -0.030637741088867188, 1.493408203125, 1.31689453125, 0.0298919677734375, 1.49267578125
25006, -0.05406670644879341, -2.6760921478271484, 5.007724285125732, -0.018905404955148697, -0.002029334893450141, -97.89838409423828, -0.3671168088912964, -0.03940349444746971, -8.37232494354248, 0.08607281744480133, 0.5157926678657532, 0.06699950993061066, -0.08235404293742886, 0.3988629601071807, -5.784277490152105, 9362.0, 30146.0, 35388.0, 9362.0, 8.390083312988281, 0.017645783722400665, 0.3667881488800049, 0.190654918551445, 0.0037078631576150656, -0.035672422498464584, 0.9634131789207458, -0.07741699367761612, -0.1291980743408203, 1.4853515625, 1.3095703125, 0.037139892578125, 1.48974609375
25016, -0.05347694456577301, -2.6779754161834717, 5.008800029754639, -0.022554606199264526, -0.002420994685962796, -97.98212432861328, -0.36272361874580383, -0.03892832249403, -8.375917434692383, 0.08600857853889465, 0.5158283114433289, 0.06710310280323029, -0.0877677807219464, 0.36802939931021683, -5.841772577273114, 9362.0, 30146.0, 35388.0, 9362.0, 8.390083312988281, -0.2164890319108963, 0.10546450316905975, 0.18441279232501984, 0.004323412664234638, -0.036949701607227325, 0.9635898470878601, -0.0744800716638565, -0.03959846496582031, 1.49267578125, 1.30810546875, 0.0388031005859375, 1.494873046875
25026, -0.05404550954699516, -2.6795766353607178, 5.0093607902526855, -0.02615990862250328, -0.0028079086914658546, -98.06590270996094, -0.3583371639251709, -0.03845435008406639, -8.379642486572266, 0.08606666326522827, 0.5157995820045471, 0.06701283156871796, -0.07527561462846907, 0.3929240706405608, -5.783292621765443, 9362.0, 30146.0, 35388.0, 9362.0, 8.390083312988281, -0.07294387370347977, -0.21659383177757263, -0.17610867321491241, 0.0041273608803749084, -0.03820095956325531, 0.964733362197876, -0.0761406272649765, -0.08439826965332031, 1.489013671875, 1.305908203125, 0.0413360595703125, 1.494873046875
25036, -0.05404786765575409, -2.677935838699341, 5.00805139541626, -0.029721315950155258, -0.003190084360539913, -98.14971923828125, -0.3539445400238037, -0.03798077255487442, -8.383302688598633, 0.08600416034460068, 0.5158371329307556, 0.06710158288478851, -0.09467436343227488, 0.3622422413275501, -5.8423057641101686, 9362.0, 30146.0, 35388.0, 9362.0, 8.390083312988281, -0.06888870149850845, 0.06033521518111229, -0.03297993168234825, 0.005656374152749777, -0.038751110434532166, 0.9654828310012817, -0.075162373483181, -0.03959846496582031, 1.49267578125, 1.316162109375, 0.030517578125, 1.491943359375
25046, -0.05402792617678642, -2.678680658340454, 5.007979393005371, -0.03323875367641449, -0.003567514941096306, -98.23356628417969, -0.34954291582107544, -0.03750540688633919, -8.386829376220703, 0.08605725318193436, 0.5157967209815979, 0.06701356172561646, -0.07415445236077085, 0.3976104793447348, -5.780093456794014, 9362.0, 30146.0, 35388.0, 9362.0, 8.390083312988281, 0.05517078936100006, 0.12675374746322632, -0.20561055839061737, 0.007351352833211422, -0.03580460324883461, 0.9643604159355164, -0.07161715626716614, -0.10231781005859375, 1.487548828125, 1.3154296875, 0.03118896484375, 1.493408203125
25056, -0.05491538345813751, -2.6806352138519287, 5.008035182952881, -0.03671218827366829, -0.003940193448215723, -98.31745147705078, -0.3451443314552307, -0.037030309438705444, -8.390357971191406, 0.08605900406837463, 0.5157967209815979, 0.06702195852994919, -0.08644925416001675, 0.4024000826124734, -5.785780789535506, 9362.0, 30146.0, 35388.0, 9362.0, 8.390083312988281, -0.05125938728451729, 0.05629497393965721, 0.1753142774105072, 0.004160099662840366, -0.037503890693187714, 0.9650580883026123, -0.07473726570606232, -0.14711761474609375, 1.48388671875, 1.310302734375, 0.036285400390625, 1.493408203125
25066, -0.055680107325315475, -2.679455518722534, 5.007448196411133, -0.04014163464307785, -0.004308121278882027, -98.40137481689453, -0.34074538946151733, -0.03655528277158737, -8.393906593322754, 0.08600742369890213, 0.5158243775367737, 0.067087821662426, -0.08530735773330143, 0.3723445939209, -5.837245277463845, 9362.0, 30146.0, 35388.0, 9362.0, 8.390083312988281, -0.08127588033676147, -0.24531963467597961, 0.02803880348801613, 0.0031505445949733257, -0.03696653991937637, 0.9652073979377747, -0.07498033344745636, -0.03959846496582031, 1.49267578125, 1.305908203125, 0.0413360595703125, 1.490478515625
25076, -0.054954275488853455, -2.6789777278900146, 5.007969856262207, -0.04352708160877228, -0.004671290051192045, -98.4853286743164, -0.3363436162471771, -0.03607858344912529, -8.397462844848633, 0.08604253828525543, 0.5157979130744934, 0.06702595204114914, -0.07732249526377317, 0.3947781887956694, -5.783760509793114, 9362.0, 30146.0, 35388.0, 9362.0, 8.390083312988281, -0.09632277488708496, -0.01928991824388504, 0.11277289688587189, 0.003928206395357847, -0.036423008888959885, 0.9650300145149231, -0.07508817315101624, -0.10231781005859375, 1.487548828125, 1.31103515625, 0.0355682373046875, 1.491943359375
25086, -0.05584331974387169, -2.678309440612793, 5.0088582038879395, -0.04686850681900978, -0.005029685329645872, -98.56932067871094, -0.331941157579422, -0.03560037165880203, -8.400959968566895, 0.08606000989675522, 0.5157989263534546, 0.06702834367752075, -0.07960012006683025, 0.3964780769449021, -5.773638361739968, 9362.0, 30146.0, 35388.0, 9362.0, 8.390083312988281, -0.04422938823699951, -0.5190763473510742, -0.1913597136735916, 0.0045501915737986565, -0.03591609001159668, 0.9654546976089478, -0.07171081751585007, -0.04855918884277344, 1.491943359375, 1.310302734375, 0.036285400390625, 1.490478515625
25096, -0.0558788999915123, -2.675541639328003, 5.007936000823975, -0.050165917724370956, -0.005383305251598358, -98.65335083007812, -0.3275407552719116, -0.035123590379953384, -8.404485702514648, 0.0860598087310791, 0.5158147811889648, 0.06700865924358368, -0.08233404450793892, 0.40146319223813975, -5.775777822244629, 9362.0, 30146.0, 35388.0, 9362.0, 8.390083312988281, 0.12330193817615509, -0.14599032700061798, -0.08578971773386002, 0.00351930339820683, -0.036869097501039505, 0.9654523730278015, -0.07308090478181839, -0.030637741088867188, 1.493408203125, 1.314697265625, 0.0319061279296875, 1.491943359375
25106, -0.05566183477640152, -2.675795078277588, 5.009510517120361, -0.0534193217754364, -0.005732149351388216, -98.73741149902344, -0.3231401741504669, -0.03464531898498535, -8.407983779907227, 0.08606048673391342, 0.515812337398529, 0.06703503429889679, -0.07226383612257464, 0.40342892668621744, -5.776041633867605, 9362.0, 30146.0, 35388.0, 9362.0, 8.390083312988281, 0.004775404464453459, 0.09270326793193817, -0.0071949283592402935, 0.004747413564473391, -0.03735727444291115, 0.9652592539787292, -0.07765939086675644, -0.14711761474609375, 1.48388671875, 1.311767578125, 0.0348052978515625, 1.4912109375
25116, -0.05538012459874153, -2.6769750118255615, 5.01012659072876, -0.0566287487745285, -0.00607621343806386, -98.8215103149414, -0.318745493888855, -0.034167394042015076, -8.411506652832031, 0.0860900729894638, 0.5158301591873169, 0.06711870431900024, -0.039907758354099376, 0.4291631092167165, -5.781681197339737, 9362.0, 30146.0, 35388.0, 9362.0, 8.390083312988281, -0.03478877991437912, 0.19161470234394073, 0.23269519209861755, 0.003958455286920071, -0.03721486032009125, 0.9644772410392761, -0.08121635764837265, -0.10231781005859375, 1.487548828125, 1.323486328125, 0.024688720703125, 1.493408203125
25126, -0.057313259690999985, -2.6767239570617676, 5.012200832366943, -0.05979423597455025, -0.006415500305593014, -98.9056396484375, -0.31435179710388184, -0.033689890056848526, -8.415060043334961, 0.08606680482625961, 0.515802264213562, 0.06701825559139252, -0.07582968751796088, 0.39587015243151313, -5.786667938423894, 9362.0, 30146.0, 35388.0, 9362.0, 8.390083312988281, -0.1516122668981552, 0.029826141893863678, 0.003966642078012228, 0.0032328420784324408, -0.037547990679740906, 0.9638108611106873, -0.076393723487854, -0.08439826965332031, 1.489013671875, 1.32275390625, 0.0251312255859375, 1.4970703125
25136, -0.05837817117571831, -2.6761131286621094, 5.012794494628906, -0.06291578710079193, -0.006750014144927263, -98.98980712890625, -0.3099580705165863, -0.03321285918354988, -8.418657302856445, 0.08606822043657303, 0.5158179998397827, 0.06700833141803741, -0.07648266338567791, 0.406122190353301, -5.7787130462615055, 9362.0, 30146.0, 35388.0, 9362.0, 8.390083312988281, 0.14392684400081635, -0.09357929229736328, 0.1518266797065735, 0.004332179669290781, -0.04043792933225632, 0.9634842276573181, -0.07477302849292755, -0.11127853393554688, 1.48681640625, 1.31982421875, 0.0273590087890625, 1.4912109375
25146, -0.0581197626888752, -2.6762421131134033, 5.012138843536377, -0.06599342077970505, -0.007079743780195713, -99.07401275634766, -0.305569052696228, -0.03273303434252739, -8.422341346740723, 0.08606741577386856, 0.5158116817474365, 0.06700745970010757, -0.06945272937807191, 0.40043234716810616, -5.7792210272136275, 9362.0, 30146.0, 35388.0, 9362.0, 8.390083312988281, -0.06501182168722153, 0.1198679581284523, -0.12439458072185516, 0.00458560511469841, -0.03735588863492012, 0.963264524936676, -0.07603916525840759, -0.07543754577636719, 1.48974609375, 1.314697265625, 0.0319061279296875, 1.493408203125
25156, -0.05783088877797127, -2.675935745239258, 5.013529300689697, -0.06902717053890228, -0.007404666393995285, -99.15825653076172, -0.3011808395385742, -0.03225148096680641, -8.42601490020752, 0.08605492115020752, 0.5158114433288574, 0.0670194998383522, -0.073974296923346, 0.3969990527650964, -5.78149728170124, 9362.0, 30146.0, 35388.0, 9362.0, 8.390083312988281, 0.12119758129119873, -0.019948652014136314, 0.07239307463169098, 0.004119191784411669, -0.036004893481731415, 0.9635449647903442, -0.07223957031965256, -0.05751800537109375, 1.4912109375, 1.311767578125, 0.0348052978515625, 1.4912109375
25166, -0.058092184364795685, -2.6765856742858887, 5.013096809387207, -0.07201703637838364, -0.007724775467067957, -99.24253845214844, -0.296792596578598, -0.0317702479660511, -8.429695129394531, 0.08606559783220291, 0.5158087611198425, 0.06699706614017487, -0.07258202602053238, 0.4082014184894547, -5.7696819781786335, 9362.0, 30146.0, 35388.0, 9362.0, 8.390083312988281, -0.03952743113040924, 0.22499018907546997, 0.06143221631646156, 0.00452833529561758, -0.03919009491801262, 0.9628794193267822, -0.07239125669002533, -0.03959846496582031, 1.49267578125, 1.3095703125, 0.037139892578125, 1.49267578125
25176, -0.05863124877214432, -2.6781415939331055, 5.014929294586182, -0.0749630331993103, -0.008040075190365314, -99.32685089111328, -0.2924065589904785, -0.03128978982567787, -8.43341064453125, 0.08606986701488495, 0.5158089995384216, 0.06701783835887909, -0.07110991684816927, 0.3977476989500701, -5.778262346957285, 9362.0, 30146.0, 35388.0, 9362.0, 8.390083312988281, -0.27611812949180603, -0.1797734797000885, 0.2851320505142212, 0.0036736868787556887, -0.03806915134191513, 0.9634597897529602, -0.07344156503677368, -0.12023735046386719, 1.486083984375, 1.3271484375, 0.022308349609375, 1.496337890625
25186, -0.06051136553287506, -2.676846504211426, 5.015527248382568, -0.07786516845226288, -0.008350568823516369, -99.41120147705078, -0.28802114725112915, -0.030808864161372185, -8.437163352966309, 0.08606231212615967, 0.5158089399337769, 0.06700869649648666, -0.07773450863105529, 0.40655768298944395, -5.776272106265742, 9362.0, 30146.0, 35388.0, 9362.0, 8.390083312988281, -0.1274864375591278, -0.19555002450942993, 0.1484145224094391, 0.004317887127399445, -0.0377771258354187, 0.964264988899231, -0.07451219856739044, -0.10231781005859375, 1.487548828125, 1.316162109375, 0.030517578125, 1.4912109375
25216, -0.06192483380436897, -2.679513692855835, 5.017296314239502, -0.08630812913179398, -0.009253052063286304, -99.66448211669922, -0.27483996748924255, -0.02935408614575863, -8.44791030883789, 0.08607379347085953, 0.5158179998397827, 0.06701117008924484, -0.07014301525045193, 0.3989044258915726, -5.776625135150416, 9362.0, 30146.0, 35388.0, 9362.0, 8.390083312988281, -0.1274864375591278, -0.19555002450942993, 0.1484145224094391, 0.00400151452049613, -0.036526795476675034, 0.9654817581176758, -0.07601871341466904, -0.1291980743408203, 1.4853515625, 1.316162109375, 0.030517578125, 1.496337890625
25356, 0.0006983104976825416, -0.0016097681364044547, -3.129068500129506e-05, -8.073228485727668e-08, -7.797339662829472e-07, -0.0017302203923463821, 1.2357750165392645e-06, -1.5642714060959406e-05, -0.034474752843379974, 0.08607307076454163, 0.5158026218414307, 0.06701578199863434, -0.07593901169766568, 0.40100833125470103, -5.781974890485258, 9362.0, 30146.0, 35388.0, 9362.0, 8.390083312988281, 0.13533776998519897, -0.0890946090221405, -0.03899582102894783, 0.003836769610643387, -0.039001334458589554, 0.9645301103591919, -0.0911090075969696, -0.030637741088867188, 1.493408203125, 1.2978515625, 0.05224609375, 1.491943359375
25366, 0.0004261635767761618, -0.0025434354320168495, 7.89588284533238e-06, -8.073228485727668e-08, -7.797339662829472e-07, -0.0017302203923463821, 1.2357750165392645e-06, -1.5642714060959406e-05, -0.034474752843379974, 0.0860668420791626, 0.5157999396324158, 0.06702224165201187, -0.06770491717744505, 0.40610615219387114, -5.768283332257569, 9362.0, 30146.0, 35388.0, 9362.0, 8.390083312988281, 0.13533776998519897, -0.0890946090221405, -0.03899582102894783, 0.0036441381089389324, -0.03808775171637535, 0.9655372500419617, -0.0911090075969696, -0.030637741088867188, 1.493408203125, 1.2978515625, 0.05224609375, 1.491943359375
25396, 0.0023248130455613136, -0.006568942219018936, 0.0014891896862536669, -8.073228485727668e-08, -7.797339662829472e-07, -0.0017302203923463821, 1.2357750165392645e-06, -1.5642714060959406e-05, -0.034474752843379974, 0.08607634156942368, 0.51579749584198, 0.06702329963445663, -0.07227972283015051, 0.4035782617137613, -5.774301994225708, 9362.0, 30146.0, 35388.0, 9362.0, 8.390083312988281, 0.25444358587265015, 0.46234676241874695, -0.19647783041000366, 0.0036441381089389324, -0.03808775171637535, 0.9655372500419617, -0.0848211869597435, -0.021678924560546875, 1.494140625, 1.2978515625, 0.05224609375, 1.493408203125
25406, 0.002468207385390997, -0.00940559059381485, 0.001913985121063888, -8.073228485727668e-08, -7.797339662829472e-07, -0.0017302203923463821, 1.2357750165392645e-06, -1.5642714060959406e-05, -0.034474752843379974, 0.08607806265354156, 0.5158179998397827, 0.06702497601509094, -0.07543393307052719, 0.39636786056993856, -5.786141541449507, 9362.0, 30146.0, 35388.0, 9362.0, 8.390083312988281, 0.25444358587265015, 0.46234676241874695, -0.19647783041000366, 0.003372158855199814, -0.036866817623376846, 0.9645175337791443, -0.0848211869597435, -0.021678924560546875, 1.494140625, 1.2978515625, 0.05224609375, 1.493408203125
25426, 0.0024178139865398407, -0.011693067848682404, 0.004873683210462332, -8.073228485727668e-08, -7.797339662829472e-07, -0.0017302203923463821, 1.2357750165392645e-06, -1.5642714060959406e-05, -0.034474752843379974, 0.08607710897922516, 0.5158145427703857, 0.06701353192329407, -0.0764646926531895, 0.4100599429702072, -5.781541337888569, 9362.0, 30146.0, 35388.0, 9362.0, 8.390083312988281, 0.25444358587265015, 0.46234676241874695, -0.19647783041000366, 0.0032047084532678127, -0.03731292858719826, 0.9666258692741394, -0.07133708149194717, -0.04855918884277344, 1.491943359375, 1.2978515625, 0.05224609375, 1.494873046875
25476, 0.0024083820171654224, -0.012335451319813728, 0.005817977711558342, 4.7507901399512775e-06, -4.0471077227266505e-06, -0.0076082199811935425, 0.00013408511586021632, -5.35436010977719e-05, -0.07256996631622314, 0.08607704192399979, 0.5158124566078186, 0.06702478229999542, -0.0791845831839712, 0.4012455508048731, -5.7843523574811355, 9362.0, 30146.0, 35388.0, 9362.0, 8.390083312988281, -0.12381930649280548, -0.053603578358888626, -0.011840037070214748, 0.002314656740054488, -0.03767506033182144, 0.9642297029495239, -0.0746036097407341, -0.13815879821777344, 1.484619140625, 1.319091796875, 0.0279998779296875, 1.494873046875
25486, 0.0029905056580901146, -0.01178490836173296, 0.005533788353204727, 4.7507901399512775e-06, -4.0471077227266505e-06, -0.0076082199811935425, 0.00013408511586021632, -5.35436010977719e-05, -0.07256996631622314, 0.08608083426952362, 0.5158172845840454, 0.06703157722949982, -0.07582799648959843, 0.40321012656835364, -5.772501290351075, 9362.0, 30146.0, 35388.0, 9362.0, 8.390083312988281, -0.12381930649280548, -0.053603578358888626, -0.011840037070214748, 0.002314656740054488, -0.03767506033182144, 0.9642297029495239, -0.07214943319559097, -0.05751800537109375, 1.4912109375, 1.319091796875, 0.0279998779296875, 1.49267578125
25496, 0.002624827204272151, -0.013338597491383553, 0.004781711846590042, 9.651655091147404e-06, -5.822802904731361e-06, -0.009936824440956116, 0.0001930556318257004, -6.437514093704522e-05, -0.08272203803062439, 0.0861135721206665, 0.5158432722091675, 0.06713006645441055, -0.0355324758268287, 0.42455284467774845, -5.78305048445821, 9362.0, 30146.0, 35388.0, 9362.0, 8.390083312988281, 0.13494247198104858, -0.07409878820180893, 0.12760494649410248, 0.002314656740054488, -0.03767506033182144, 0.9642297029495239, -0.07053155452013016, -0.05751800537109375, 1.4912109375, 1.319091796875, 0.0279998779296875, 1.49267578125
25516, 0.0031529974658042192, -0.011390534229576588, 0.006072157062590122, 1.1679419003485236e-05, -6.491211479442427e-06, -0.010781953111290932, 0.00021240008936729282, -6.932968972250819e-05, -0.0863032117486, 0.08608768880367279, 0.5158132910728455, 0.0670396015048027, -0.07718784176926717, 0.397816394996795, -5.775247065622611, 9362.0, 30146.0, 35388.0, 9362.0, 8.390083312988281, 0.13494247198104858, -0.07409878820180893, 0.12760494649410248, 0.002789763966575265, -0.03665982186794281, 0.962982177734375, -0.07332607358694077, -0.06647872924804688, 1.490478515625, 1.319091796875, 0.0279998779296875, 1.493408203125
25616, 0.003375549800693989, -0.011829606257379055, 0.00881425105035305, 4.8601559683447704e-05, -1.683686423348263e-05, -0.022427670657634735, 0.00046102138003334403, -0.00011678218288579956, -0.12501762807369232, 0.08603017777204514, 0.5158371925354004, 0.06708994507789612, -0.08791660456557679, 0.36929226457579034, -5.840558317886094, 9362.0, 30146.0, 35388.0, 9362.0, 8.390083312988281, 0.14579692482948303, -0.24965523183345795, -0.03470970690250397, 0.002783019794151187, -0.037636902183294296, 0.9653689861297607, -0.07895403355360031, -0.06647872924804688, 1.490478515625, 1.319091796875, 0.0279998779296875, 1.49267578125
25626, 0.0032174899242818356, -0.011051131412386894, 0.008718807250261307, 4.8601559683447704e-05, -1.683686423348263e-05, -0.022427670657634735, 0.00046102138003334403, -0.00011678218288579956, -0.12501762807369232, 0.08606568723917007, 0.5159006118774414, 0.06726022809743881, -0.03475197126776483, 0.40059242375994586, -5.827960818469668, 9362.0, 30146.0, 35388.0, 9362.0, 8.390083312988281, -0.08314473181962967, -0.14394451677799225, 0.23926085233688354, 0.005816623102873564, -0.03592580556869507, 0.9636949896812439, -0.07895403355360031, -0.06647872924804688, 1.490478515625, 1.319091796875, 0.0279998779296875, 1.49267578125
25646, 0.0032635314855724573, -0.00906318612396717, 0.010135889053344727, 5.829396104672924e-05, -1.927818993863184e-05, -0.024999553337693214, 0.0005056186928413808, -0.00012754513591062278, -0.13214091956615448, 0.08610279858112335, 0.5158828496932983, 0.06716825067996979, -0.023007069416410737, 0.4433785869272242, -5.76431408079898, 9362.0, 30146.0, 35388.0, 9362.0, 8.390083312988281, -0.08314473181962967, -0.14394451677799225, 0.23926085233688354, 0.0032168773468583822, -0.04012686759233475, 0.9641547203063965, -0.08698774874210358, -0.06647872924804688, 1.490478515625, 1.319091796875, 0.0279998779296875, 1.49267578125
25716, 0.0036182755138725042, -0.015831731259822845, 0.015435152687132359, 0.00010440595360705629, -3.110579200438224e-05, -0.03670140728354454, 0.0006599588668905199, -0.00016680227417964488, -0.16043825447559357, 0.08611627668142319, 0.5158736109733582, 0.0671764686703682, -0.016001520788508476, 0.4369055988025252, -5.772217588105474, 9362.0, 30146.0, 35388.0, 9362.0, 8.390083312988281, -0.10206636786460876, 0.2589815855026245, -0.027916567400097847, 0.002549380762502551, -0.03780072182416916, 0.9629051685333252, -0.07436035573482513, -0.07543754577636719, 1.48974609375, 1.319091796875, 0.0279998779296875, 1.491943359375
25736, 0.004126717336475849, -0.01668589934706688, 0.014529812149703503, 0.000111117769847624, -3.280086093582213e-05, -0.03832446411252022, 0.0006822614232078195, -0.00017218930588569492, -0.16417308151721954, 0.08610758185386658, 0.5158481001853943, 0.06711331009864807, -0.034230847077922746, 0.4302680597821791, -5.779105710375708, 9362.0, 30146.0, 35388.0, 9362.0, 8.390083312988281, 0.223424032330513, 0.0858772024512291, 0.14406418800354004, 0.002549380762502551, -0.03780072182416916, 0.9629051685333252, -0.08228150010108948, -0.11127853393554688, 1.48681640625, 1.319091796875, 0.0279998779296875, 1.494140625
25796, 0.00453709252178669, -0.01859738864004612, 0.01524330023676157, 0.000111117769847624, -3.280086093582213e-05, -0.03832446411252022, 0.0006822614232078195, -0.00017218930588569492, -0.16417308151721954, 0.08608269691467285, 0.5158106684684753, 0.06700687110424042, -0.07166576476338743, 0.4061614298947802, -5.7858172680985565, 9362.0, 30146.0, 35388.0, 9362.0, 8.390083312988281, -0.20823584496974945, -0.13352319598197937, -0.28279951214790344, 0.0035478612408041954, -0.03835883364081383, 0.9634064435958862, -0.08009932935237885, -0.05751800537109375, 1.4912109375, 1.319091796875, 0.0279998779296875, 1.491943359375
25856, 0.004333385732024908, -0.007039883639663458, 0.008591017685830593, 0.0002244626375613734, -6.121538899606094e-05, -0.06266473978757858, 0.0010356936836615205, -0.0002678931050468236, -0.21042677760124207, 0.08604765683412552, 0.5157887935638428, 0.06693713366985321, -0.06514654758480476, 0.3729216132641966, -5.821188887361509, 9362.0, 30146.0, 35388.0, 9362.0, 8.390083312988281, -0.08404409885406494, 0.1364365667104721, -0.2801440358161926, 0.002165959682315588, -0.038492947816848755, 0.9646941423416138, -0.0765748992562294, -0.06647872924804688, 1.490478515625, 1.319091796875, 0.0279998779296875, 1.493408203125
25866, 0.0034965784288942814, -0.008653041906654835, 0.010029719211161137, 0.0002244626375613734, -6.121538899606094e-05, -0.06266473978757858, 0.0010356936836615205, -0.0002678931050468236, -0.21042677760124207, 0.08611466735601425, 0.5158846974372864, 0.06718023121356964, -0.015352402932887046, 0.43930714492015, -5.770999295944462, 9362.0, 30146.0, 35388.0, 9362.0, 8.390083312988281, -0.16995403170585632, -0.30457639694213867, 0.0782274678349495, 0.002165959682315588, -0.038492947816848755, 0.9646941423416138, -0.0765748992562294, -0.06647872924804688, 1.490478515625, 1.319091796875, 0.0279998779296875, 1.493408203125
25876, 0.003360658185556531, -0.006747686304152012, 0.010112496092915535, 0.0002244626375613734, -6.121538899606094e-05, -0.06266473978757858, 0.0010356936836615205, -0.0002678931050468236, -0.21042677760124207, 0.0860777497291565, 0.5158076286315918, 0.06700386852025986, -0.07473363207976269, 0.40920200309250276, -5.782789010660201, 9362.0, 30146.0, 35388.0, 9362.0, 8.390083312988281, -0.16995403170585632, -0.30457639694213867, 0.0782274678349495, 0.0029284441843628883, -0.03667738661170006, 0.9631170034408569, -0.0765748992562294, -0.06647872924804688, 1.490478515625, 1.319091796875, 0.0279998779296875, 1.493408203125
25886, 0.0035095098428428173, -0.008139303885400295, 0.009134193882346153, 0.0002244626375613734, -6.121538899606094e-05, -0.06266473978757858, 0.0010356936836615205, -0.0002678931050468236, -0.21042677760124207, 0.08608315885066986, 0.5158104300498962, 0.06703244894742966, -0.07106215258787892, 0.4102127514558731, -5.779205872807867, 9362.0, 30146.0, 35388.0, 9362.0, 8.390083312988281, -0.16995403170585632, -0.30457639694213867, 0.0782274678349495, 0.0050045643001794815, -0.037714872509241104, 0.9633217453956604, -0.0765748992562294, -0.06647872924804688, 1.490478515625, 1.319091796875, 0.0279998779296875, 1.493408203125
25896, 0.0022773221135139465, -0.0070153274573385715, 0.01094155665487051, 0.0002244626375613734, -6.121538899606094e-05, -0.06266473978757858, 0.0010356936836615205, -0.0002678931050468236, -0.21042677760124207, 0.08611331880092621, 0.5158727169036865, 0.06718754023313522, -0.02052350808662392, 0.435035368518669, -5.775763024502433, 9362.0, 30146.0, 35388.0, 9362.0, 8.390083312988281, -0.16995403170585632, -0.30457639694213867, 0.0782274678349495, 0.004650762304663658, -0.037226367741823196, 0.9632052779197693, -0.0747879222035408, -0.08439826965332031, 1.489013671875, 1.319091796875, 0.0279998779296875, 1.493408203125
25906, 0.0032715490087866783, -0.006427276413887739, 0.010009701363742352, 0.0002244626375613734, -6.121538899606094e-05, -0.06266473978757858, 0.0010356936836615205, -0.0002678931050468236, -0.21042677760124207, 0.0861271545290947, 0.5158782005310059, 0.06720230728387833, -0.021861857573313662, 0.43531719918712497, -5.777435389037032, 9362.0, 30146.0, 35388.0, 9362.0, 8.390083312988281, -0.16995403170585632, -0.30457639694213867, 0.0782274678349495, 0.00416338536888361, -0.035993728786706924, 0.9643623232841492, -0.07737501710653305, -0.03959846496582031, 1.49267578125, 1.319091796875, 0.0279998779296875, 1.493408203125
25926, 0.0036778077483177185, -0.00539362384006381, 0.010517405346035957, 0.0002244626375613734, -6.121538899606094e-05, -0.06266473978757858, 0.0010356936836615205, -0.0002678931050468236, -0.21042677760124207, 0.0860956534743309, 0.5158087611198425, 0.06701698154211044, -0.07809957052329634, 0.39446911327456746, -5.784158035315209, 9362.0, 30146.0, 35388.0, 9362.0, 8.390083312988281, -0.16995403170585632, -0.30457639694213867, 0.0782274678349495, 0.004429771099239588, -0.03637853264808655, 0.9653359055519104, -0.080600805580616, -0.05751800537109375, 1.4912109375, 1.319091796875, 0.0279998779296875, 1.493408203125
25936, 0.0033034207299351692, -0.005147494375705719, 0.010921923443675041, 0.00031149378628470004, -8.457657531835139e-05, -0.08063583076000214, 0.0011333859292790294, -0.0003124275535810739, -0.2387191653251648, 0.0861254557967186, 0.5158759355545044, 0.06719101965427399, -0.016297152149143745, 0.43708165686896905, -5.777173351950319, 9362.0, 30146.0, 35388.0, 9362.0, 8.390083312988281, -0.16995403170585632, -0.30457639694213867, 0.0782274678349495, 0.0047113653272390366, -0.039122045040130615, 0.963964581489563, -0.080600805580616, -0.05751800537109375, 1.4912109375, 1.319091796875, 0.0279998779296875, 1.493408203125
25966, 0.005861015059053898, -0.0059247929602861404, 0.01244185958057642, 0.00034589305869303644, -9.421473077964038e-05, -0.08795280009508133, 0.0011602730955928564, -0.0003302273398730904, -0.24903541803359985, 0.086107037961483, 0.515804648399353, 0.06701864302158356, -0.07492668805075031, 0.40263585134093205, -5.7735055618804525, 9362.0, 30146.0, 35388.0, 9362.0, 8.390083312988281, 0.0024328611325472593, -0.03864087536931038, -0.03733494505286217, 0.004845829680562019, -0.0382753349840641, 0.9660370945930481, -0.08074814826250076, -0.04855918884277344, 1.491943359375, 1.319091796875, 0.0279998779296875, 1.49560546875
25976, 0.005894018337130547, -0.006230496801435947, 0.010667904280126095, 0.00034589305869303644, -9.421473077964038e-05, -0.08795280009508133, 0.0011602730955928564, -0.0003302273398730904, -0.24903541803359985, 0.08608889579772949, 0.5158121585845947, 0.06699400395154953, -0.07518422360446628, 0.4006621022546142, -5.768285623685864, 9362.0, 30146.0, 35388.0, 9362.0, 8.390083312988281, 0.0024328611325472593, -0.03864087536931038, -0.03733494505286217, 0.004117339383810759, -0.03920900821685791, 0.9637011289596558, -0.08088243752717972, -0.07543754577636719, 1.48974609375, 1.319091796875, 0.0279998779296875, 1.4912109375
25996, 0.006647475529462099, -0.009997646324336529, 0.013148651458323002, 0.00036928540794178843, -0.00010097281483467668, -0.09300458431243896, 0.0011792212026193738, -0.00034687036531977355, -0.25619572401046753, 0.08610105514526367, 0.5158084034919739, 0.067017562687397, -0.08134464271834732, 0.39361976598763704, -5.784883094682271, 9362.0, 30146.0, 35388.0, 9362.0, 8.390083312988281, 0.08231180161237717, 0.3391043543815613, 0.10688867419958115, 0.0044566369615495205, -0.03684791550040245, 0.9643818736076355, -0.0778392106294632, -0.07543754577636719, 1.48974609375, 1.319091796875, 0.0279998779296875, 1.4912109375
26006, 0.0066141486167907715, -0.010012433864176273, 0.01332828588783741, 0.00036928540794178843, -0.00010097281483467668, -0.09300458431243896, 0.0011792212026193738, -0.00034687036531977355, -0.25619572401046753, 0.08609157800674438, 0.5158160328865051, 0.06700991839170456, -0.08484487253931026, 0.404228893430286, -5.783966454883378, 9362.0, 30146.0, 35388.0, 9362.0, 8.390083312988281, 0.08231180161237717, 0.3391043543815613, 0.10688867419958115, 0.00478361314162612, -0.03778371959924698, 0.9632362723350525, -0.0778392106294632, -0.07543754577636719, 1.48974609375, 1.319091796875, 0.0279998779296875, 1.4912109375
26016, 0.00538080045953393, -0.010126693174242973, 0.014525649137794971, 0.00036928540794178843, -0.00010097281483467668, -0.09300458431243896, 0.0011792212026193738, -0.00034687036531977355, -0.25619572401046753, 0.08607912063598633, 0.5158002376556396, 0.06702380627393723, -0.07992462073456888, 0.398576646934373, -5.784974109558927, 9362.0, 30146.0, 35388.0, 9362.0, 8.390083312988281, 0.08231180161237717, 0.3391043543815613, 0.10688867419958115, 0.0040079886093735695, -0.0373493991792202, 0.9639192223548889, -0.0778392106294632, -0.07543754577636719, 1.48974609375, 1.319091796875, 0.0279998779296875, 1.4912109375
26126, 0.008018426597118378, -0.014091506600379944, 0.019367408007383347, 0.0005222122417762876, -0.00014953785284888, -0.1262824684381485, 0.001395854284055531, -0.0004561033856589347, -0.29815319180488586, 0.08613401651382446, 0.5158851742744446, 0.0671931654214859, -0.016996058919138354, 0.4389575386691149, -5.774288581688426, 9362.0, 30146.0, 35388.0, 9362.0, 8.390083312988281, -0.05694242939352989, 0.07444382458925247, 0.012771014124155045, 0.00414007343351841, -0.03938816115260124, 0.9650101065635681, -0.07561616599559784, -0.06647872924804688, 1.490478515625, 1.319091796875, 0.0279998779296875, 1.4970703125
26136, 0.008551168255507946, -0.01707341894507408, 0.01947627402842045, 0.0005222122417762876, -0.00014953785284888, -0.1262824684381485, 0.001395854284055531, -0.0004561033856589347, -0.29815319180488586, 0.08608739078044891, 0.5158074498176575, 0.06699991226196289, -0.07837299396618243, 0.3965859283337636, -5.7785445383321505, 9362.0, 30146.0, 35388.0, 9362.0, 8.390083312988281, -0.05694242939352989, 0.07444382458925247, 0.012771014124155045, 0.004251589998602867, -0.03749866038560867, 0.9646894335746765, -0.07561616599559784, -0.06647872924804688, 1.490478515625, 1.319091796875, 0.0279998779296875, 1.4970703125
26146, 0.008256834000349045, -0.017246384173631668, 0.019854802638292313, 0.0005222122417762876, -0.00014953785284888, -0.1262824684381485, 0.001395854284055531, -0.0004561033856589347, -0.29815319180488586, 0.08609616011381149, 0.5158097743988037, 0.06699373573064804, -0.070565286786358, 0.408769737804505, -5.782867229217004, 9362.0, 30146.0, 35388.0, 9362.0, 8.390083312988281, -0.05694242939352989, 0.07444382458925247, 0.012771014124155045, 0.004625661298632622, -0.03815172612667084, 0.9644443392753601, -0.07561616599559784, -0.06647872924804688, 1.490478515625, 1.319091796875, 0.0279998779296875, 1.4970703125
26156, 0.007709000259637833, -0.018248921260237694, 0.02142523229122162, 0.0005222122417762876, -0.00014953785284888, -0.1262824684381485, 0.001395854284055531, -0.0004561033856589347, -0.29815319180488586, 0.08608686178922653, 0.5158073902130127, 0.06701386719942093, -0.07496460577158394, 0.40389324635376056, -5.78154497173117, 9362.0, 30146.0, 35388.0, 9362.0, 8.390083312988281, -0.05694242939352989, 0.07444382458925247, 0.012771014124155045, 0.004878539592027664, -0.03729467839002609, 0.9649251103401184, -0.07561616599559784, -0.06647872924804688, 1.490478515625, 1.319091796875, 0.0279998779296875, 1.4970703125
26236, 0.0063484227284789085, -0.009635611437261105, 0.024953188374638557, 0.0007252128561958671, -0.00021883862791582942, -0.16798651218414307, 0.0017179626738652587, -0.0006116012809798121, -0.34346678853034973, 0.0860590711236, 0.515811026096344, 0.06696479022502899, -0.06853848356809418, 0.3781355842198195, -5.814796037479824, 9362.0, 30146.0, 35388.0, 9362.0, 8.390083312988281, -0.021009471267461777, -0.08595838397741318, 0.29494738578796387, 0.0032884792890399694, -0.038301464170217514, 0.9639219641685486, -0.06302560120820999, -0.03959846496582031, 1.49267578125, 1.319091796875, 0.0279998779296875, 1.493408203125
26246, 0.005731388460844755, -0.009467552416026592, 0.026319513097405434, 0.0007252128561958671, -0.00021883862791582942, -0.16798651218414307, 0.0017179626738652587, -0.0006116012809798121, -0.34346678853034973, 0.08614756166934967, 0.5158754587173462, 0.06716112792491913, -0.010197440139290572, 0.4374658169217014, -5.770738221189028, 9362.0, 30146.0, 35388.0, 9362.0, 8.390083312988281, 0.19374532997608185, 0.2074792981147766, -0.3779270350933075, 0.0032884792890399694, -0.038301464170217514, 0.9639219641685486, -0.057768478989601135, -0.030637741088867188, 1.493408203125, 1.319091796875, 0.0279998779296875, 1.493408203125
26256, 0.007348625920712948, -0.010028431192040443, 0.02442961558699608, 0.0007252128561958671, -0.00021883862791582942, -0.16798651218414307, 0.0017179626738652587, -0.0006116012809798121, -0.34346678853034973, 0.0861201286315918, 0.5158087611198425, 0.06699689477682114, -0.07214237911489967, 0.4040468626755569, -5.779053553939822, 9362.0, 30146.0, 35388.0, 9362.0, 8.390083312988281, 0.19374532997608185, 0.2074792981147766, -0.3779270350933075, 0.0018377514788880944, -0.03724420815706253, 0.9635739922523499, -0.057768478989601135, -0.030637741088867188, 1.493408203125, 1.319091796875, 0.0279998779296875, 1.493408203125
26266, 0.007234863471239805, -0.009938832372426987, 0.023200009018182755, 0.0007774916011840105, -0.00023766409140080214, -0.17844893038272858, 0.001766405999660492, -0.0006423775339499116, -0.3540330231189728, 0.08614087849855423, 0.5158823728561401, 0.06716421246528625, -0.01640667758355133, 0.433353574657815, -5.775927925934848, 9362.0, 30146.0, 35388.0, 9362.0, 8.390083312988281, 0.19374532997608185, 0.2074792981147766, -0.3779270350933075, 0.004021493252366781, -0.03877830505371094, 0.962041974067688, -0.057768478989601135, -0.030637741088867188, 1.493408203125, 1.319091796875, 0.0279998779296875, 1.493408203125
26296, 0.007963682524859905, -0.00534336781129241, 0.020719753578305244, 0.0007774916011840105, -0.00023766409140080214, -0.17844893038272858, 0.001766405999660492, -0.0006423775339499116, -0.3540330231189728, 0.08607807755470276, 0.5157999396324158, 0.0669439509510994, -0.0643862332913811, 0.37839846304370894, -5.808408702474084, 9362.0, 30146.0, 35388.0, 9362.0, 8.390083312988281, 0.19374532997608185, 0.2074792981147766, -0.3779270350933075, 0.003387198317795992, -0.03740569204092026, 0.9621562361717224, -0.05723515897989273, -0.03959846496582031, 1.49267578125, 1.319091796875, 0.0279998779296875, 1.49267578125
26316, 0.00872905645519495, -0.004725194536149502, 0.021698269993066788, 0.0008494127541780472, -0.0002643353655003011, -0.1929028481245041, 0.0018237803597003222, -0.0006918009021319449, -0.36872410774230957, 0.08609664440155029, 0.5158072710037231, 0.0670192614197731, -0.07689372498735238, 0.39351797347964634, -5.7849074693373, 9362.0, 30146.0, 35388.0, 9362.0, 8.390083312988281, 0.10158189386129379, 0.21053491532802582, 0.11781362444162369, 0.003387198317795992, -0.03740569204092026, 0.9621562361717224, -0.059528596699237823, -0.04855918884277344, 1.491943359375, 1.319091796875, 0.0279998779296875, 1.494140625
26356, 0.006604623515158892, -0.0075399321503937244, 0.023149946704506874, 0.0009229816496372223, -0.00029310007812455297, -0.20794042944908142, 0.0018545091152191162, -0.0007470753043889999, -0.38308393955230713, 0.08609592914581299, 0.5158164501190186, 0.06702085584402084, -0.07547380601347804, 0.39759564521861535, -5.7850248369448085, 9362.0, 30146.0, 35388.0, 9362.0, 8.390083312988281, -0.02837059088051319, 0.02525964379310608, -0.08481086045503616, 0.005386723671108484, -0.039425965398550034, 0.966396152973175, -0.06422289460897446, -0.12023735046386719, 1.486083984375, 1.319091796875, 0.0279998779296875, 1.489013671875
26376, 0.005838855169713497, -0.008775712922215462, 0.02495778538286686, 0.0009229816496372223, -0.00029310007812455297, -0.20794042944908142, 0.0018545091152191162, -0.0007470753043889999, -0.38308393955230713, 0.08615174144506454, 0.5158810019493103, 0.06715307384729385, -0.016325411485674016, 0.43590759014674063, -5.770246006782016, 9362.0, 30146.0, 35388.0, 9362.0, 8.390083312988281, -0.13561038672924042, 0.2439458966255188, 0.09014744311571121, 0.0032318541780114174, -0.0368371307849884, 0.9651135206222534, -0.06547930091619492, -0.021678924560546875, 1.494140625, 1.319091796875, 0.0279998779296875, 1.489013671875
26386, 0.00461727287620306, -0.010430573485791683, 0.02506493777036667, 0.0009229816496372223, -0.00029310007812455297, -0.20794042944908142, 0.0018545091152191162, -0.0007470753043889999, -0.38308393955230713, 0.08614107966423035, 0.5158687829971313, 0.06720341742038727, -0.019858205952036467, 0.4403745826807608, -5.778428978590915, 9362.0, 30146.0, 35388.0, 9362.0, 8.390083312988281, -0.13561038672924042, 0.2439458966255188, 0.09014744311571121, 0.0032318541780114174, -0.0368371307849884, 0.9651135206222534, -0.06450142711400986, -0.030637741088867188, 1.493408203125, 1.319091796875, 0.0279998779296875, 1.489013671875
26466, 0.006786270998418331, -0.00689549557864666, 0.02492106892168522, 0.0011554787633940578, -0.00039023245335556567, -0.25635793805122375, 0.0020407915581017733, -0.0008693142444826663, -0.4239239990711212, 0.08610865473747253, 0.5158076882362366, 0.06698957085609436, -0.07544090554749974, 0.40163853741648836, -5.784876031729436, 9362.0, 30146.0, 35388.0, 9362.0, 8.390083312988281, 0.09639148414134979, 0.06601487100124359, -0.11114809662103653, 0.0019049926195293665, -0.03979595750570297, 0.9651406407356262, -0.09193474799394608, -0.05751800537109375, 1.4912109375, 1.319091796875, 0.0279998779296875, 1.49267578125
26486, 0.008646830916404724, -0.0069612786173820496, 0.022339818999171257, 0.0011759551707655191, -0.00039899040712043643, -0.26061496138572693, 0.00205456861294806, -0.0008823437965475023, -0.42747753858566284, 0.08610749989748001, 0.5158465504646301, 0.06711578369140625, -0.003403262159908434, 0.4100517696720658, -5.800916432854268, 9362.0, 30146.0, 35388.0, 9362.0, 8.390083312988281, -0.13118380308151245, -0.18352265655994415, 0.02915205992758274, 0.004023244138807058, -0.03870464116334915, 0.9647144079208374, -0.08645331114530563, 0.0052013397216796875, 1.496337890625, 1.319091796875, 0.0279998779296875, 1.49267578125
26496, 0.00839630514383316, -0.00534345768392086, 0.021707937121391296, 0.0011759551707655191, -0.00039899040712043643, -0.26061496138572693, 0.00205456861294806, -0.0008823437965475023, -0.42747753858566284, 0.08609683811664581, 0.5159050822257996, 0.06723077595233917, -0.03310126995715848, 0.40121308175451986, -5.835534834742328, 9362.0, 30146.0, 35388.0, 9362.0, 8.390083312988281, -0.13118380308151245, -0.18352265655994415, 0.02915205992758274, 0.003431246615946293, -0.03812950849533081, 0.9657559990882874, -0.08645331114530563, 0.0052013397216796875, 1.496337890625, 1.319091796875, 0.0279998779296875, 1.49267578125
26506, 0.00920828152447939, -0.008859558030962944, 0.021876748651266098, 0.0012381301494315267, -0.0004260242567397654, -0.27359330654144287, 0.00209063570946455, -0.0009220149950124323, -0.43773555755615234, 0.08610092103481293, 0.5158072710037231, 0.0669923722743988, -0.07793397245000164, 0.4004977943057213, -5.7787232198472065, 9362.0, 30146.0, 35388.0, 9362.0, 8.390083312988281, -0.13118380308151245, -0.18352265655994415, 0.02915205992758274, 0.004540028050541878, -0.03649123013019562, 0.9628334045410156, -0.08645331114530563, 0.0052013397216796875, 1.496337890625, 1.319091796875, 0.0279998779296875, 1.49267578125
26516, 0.009643882513046265, -0.008784245699644089, 0.021579740568995476, 0.0012381301494315267, -0.0004260242567397654, -0.27359330654144287, 0.00209063570946455, -0.0009220149950124323, -0.43773555755615234, 0.08614923059940338, 0.5158506035804749, 0.06707388907670975, -0.04297004180619041, 0.4209996645613785, -5.786108017051651, 9362.0, 30146.0, 35388.0, 9362.0, 8.390083312988281, -0.13118380308151245, -0.18352265655994415, 0.02915205992758274, 0.005588242318481207, -0.03925607353448868, 0.9607258439064026, -0.08645331114530563, 0.0052013397216796875, 1.496337890625, 1.319091796875, 0.0279998779296875, 1.49267578125
26546, 0.0087627824395895, -0.00747452350333333, 0.0243095550686121, 0.0013227231102064252, -0.0004640769911929965, -0.29138973355293274, 0.0021450889762490988, -0.0009810472838580608, -0.4522968530654907, 0.08610367029905319, 0.5158109664916992, 0.06698326766490936, -0.06790253402796664, 0.4044647888190127, -5.783060842105477, 9362.0, 30146.0, 35388.0, 9362.0, 8.390083312988281, -0.10006167739629745, -0.06841018795967102, -0.021458137780427933, 0.005593881942331791, -0.03796060383319855, 0.962348222732544, -0.11271413415670395, -0.05751800537109375, 1.4912109375, 1.319091796875, 0.0279998779296875, 1.49267578125
26556, 0.008173446170985699, -0.007394316140562296, 0.02477559819817543, 0.0013442301424220204, -0.00047395910951308906, -0.2959303557872772, 0.0021562823094427586, -0.0009953717235475779, -0.4558298587799072, 0.08611085265874863, 0.515811562538147, 0.06699865311384201, -0.07343351056440363, 0.3987074573919074, -5.7936824732586425, 9362.0, 30146.0, 35388.0, 9362.0, 8.390083312988281, -0.10006167739629745, -0.06841018795967102, -0.021458137780427933, 0.005598027724772692, -0.036588478833436966, 0.9651702046394348, -0.09954723715782166, -0.07543754577636719, 1.48974609375, 1.319091796875, 0.0279998779296875, 1.49267578125
26566, 0.007764073554426432, -0.006377330515533686, 0.023077456280589104, 0.0013442301424220204, -0.00047395910951308906, -0.2959303557872772, 0.0021562823094427586, -0.0009953717235475779, -0.4558298587799072, 0.08612626045942307, 0.5158075094223022, 0.06700418889522552, -0.0781288120135278, 0.3983425496507209, -5.7865402835577875, 9362.0, 30146.0, 35388.0, 9362.0, 8.390083312988281, 0.027441058307886124, -0.12518611550331116, 0.14283522963523865, 0.005598027724772692, -0.036588478833436966, 0.9651702046394348, -0.09304836392402649, -0.030637741088867188, 1.493408203125, 1.319091796875, 0.0279998779296875, 1.49267578125
26636, 0.011112324893474579, -0.0034052932169288397, 0.024735409766435623, 0.0013876023003831506, -0.0004941514343954623, -0.3051159381866455, 0.0021809241734445095, -0.0010234012734144926, -0.462713360786438, 0.08611304312944412, 0.5158663392066956, 0.06711973249912262, -0.009365007980452507, 0.40042379158398944, -5.807379807645909, 9362.0, 30146.0, 35388.0, 9362.0, 8.390083312988281, 0.04126032069325447, -0.18142461776733398, -0.07191221415996552, 0.004091273527592421, -0.03852798044681549, 0.9638235569000244, -0.23481325805187225, -2.3691892623901367, 1.30224609375, 1.31103515625, 0.0355682373046875, 1.4970703125
26676, 0.01094154641032219, -0.0036060833372175694, 0.02983815409243107, 0.0015878239646553993, -0.0005917248199693859, -0.3481774628162384, 0.0022567117121070623, -0.0011545304441824555, -0.49426618218421936, 0.08612522482872009, 0.515853226184845, 0.06711292266845703, -0.005417774195180661, 0.40954259219438427, -5.803871280165273, 9362.0, 30146.0, 35388.0, 9362.0, 8.390083312988281, -0.08484404534101486, 0.1839529275894165, 0.3140641748905182, 0.004091273527592421, -0.03852798044681549, 0.9638235569000244, -0.126872718334198, -0.021678924560546875, 1.494140625, 1.28759765625, 0.068939208984375, 1.491943359375
26706, 0.010641810484230518, -0.0077558644115924835, 0.029108669608831406, 0.0016786812338978052, -0.0006393678486347198, -0.3682245910167694, 0.0022864898201078176, -0.0012275087647140026, -0.5081628561019897, 0.08606545627117157, 0.515836775302887, 0.06704742461442947, -0.08818916247467826, 0.3644128933511013, -5.846450143029002, 9362.0, 30146.0, 35388.0, 9362.0, 8.390083312988281, -0.04546792805194855, -0.09950245171785355, -0.2258303016424179, 0.005321952514350414, -0.03824756667017937, 0.9650583863258362, -0.1742287278175354, -0.06647872924804688, 1.490478515625, 1.28759765625, 0.068939208984375, 1.491943359375
26716, 0.009072361513972282, -0.0066511183977127075, 0.028933454304933548, 0.0016786812338978052, -0.0006393678486347198, -0.3682245910167694, 0.0022864898201078176, -0.0012275087647140026, -0.5081628561019897, 0.0861266478896141, 0.51583331823349, 0.06700701266527176, -0.030982909506332576, 0.39213815801616647, -5.81920834186539, 9362.0, 30146.0, 35388.0, 9362.0, 8.390083312988281, 0.23049874603748322, 0.1198621392250061, 0.33084940910339355, 0.005321952514350414, -0.03824756667017937, 0.9650583863258362, -0.15237995982170105, -0.10231781005859375, 1.487548828125, 1.28759765625, 0.068939208984375, 1.491943359375
26726, 0.009751725010573864, -0.006182520650327206, 0.02946389652788639, 0.0016786812338978052, -0.0006393678486347198, -0.3682245910167694, 0.0022864898201078176, -0.0012275087647140026, -0.5081628561019897, 0.08616302907466888, 0.5158684849739075, 0.06715105473995209, -0.01826403424605496, 0.4320860978558301, -5.770619693431605, 9362.0, 30146.0, 35388.0, 9362.0, 8.390083312988281, 0.11804016679525375, -0.43315041065216064, -0.16266410052776337, 0.005321952514350414, -0.03824756667017937, 0.9650583863258362, -0.13510805368423462, -0.12023735046386719, 1.486083984375, 1.28759765625, 0.068939208984375, 1.491943359375
26736, 0.010192056186497211, -0.0025254886131733656, 0.028365857899188995, 0.0016786812338978052, -0.0006393678486347198, -0.3682245910167694, 0.0022864898201078176, -0.0012275087647140026, -0.5081628561019897, 0.08613050729036331, 0.5158588290214539, 0.06711393594741821, -0.008652326477114242, 0.4055453968622942, -5.804741641372614, 9362.0, 30146.0, 35388.0, 9362.0, 8.390083312988281, 0.04640582948923111, 0.03833511099219322, 0.1329314410686493, 0.005321952514350414, -0.03824756667017937, 0.9650583863258362, -0.12325657904148102, -0.10231781005859375, 1.487548828125, 1.28759765625, 0.068939208984375, 1.491943359375
26746, 0.011076405644416809, -0.004544746596366167, 0.02854023687541485, 0.0016786812338978052, -0.0006393678486347198, -0.3682245910167694, 0.0022864898201078176, -0.0012275087647140026, -0.5081628561019897, 0.0861365795135498, 0.5158202648162842, 0.06699341535568237, -0.07840717322920612, 0.4029929161190182, -5.787275815503913, 9362.0, 30146.0, 35388.0, 9362.0, 8.390083312988281, 0.04640582948923111, 0.03833511099219322, 0.1329314410686493, 0.005321952514350414, -0.03824756667017937, 0.9650583863258362, -0.11111882328987122, -0.1291980743408203, 1.4853515625, 1.28759765625, 0.068939208984375, 1.491943359375
26786, 0.013403406366705894, -0.008540233597159386, 0.029927099123597145, 0.0018647713586688042, -0.0007430188124999404, -0.410035103559494, 0.002369327936321497, -0.00136624148581177, -0.5368581414222717, 0.08614061772823334, 0.5158412456512451, 0.06707625091075897, -0.05339659859412165, 0.42221647241512983, -5.795494694008801, 9362.0, 30146.0, 35388.0, 9362.0, 8.390083312988281, 0.04640582948923111, 0.03833511099219322, 0.1329314410686493, 0.0039122700691223145, -0.036313746124506, 0.9638733863830566, -0.09144634753465652, -0.04855918884277344, 1.491943359375, 1.28759765625, 0.068939208984375, 1.4970703125
26796, 0.012456315569579601, -0.009313851594924927, 0.030912086367607117, 0.0018647713586688042, -0.0007430188124999404, -0.410035103559494, 0.002369327936321497, -0.00136624148581177, -0.5368581414222717, 0.08607391268014908, 0.5157943964004517, 0.06692086905241013, -0.06541631933628946, 0.372871202672286, -5.810397291769736, 9362.0, 30146.0, 35388.0, 9362.0, 8.390083312988281, 0.04640582948923111, 0.03833511099219322, 0.1329314410686493, 0.0039122700691223145, -0.036313746124506, 0.9638733863830566, -0.08479945361614227, -0.08439826965332031, 1.489013671875, 1.28759765625, 0.068939208984375, 1.491943359375
26826, 0.012241666205227375, -0.01123844739049673, 0.03054497390985489, 0.001960752997547388, -0.0007993910694494843, -0.43178999423980713, 0.0024322974495589733, -0.0014517471427097917, -0.5509428381919861, 0.08615464717149734, 0.5158694386482239, 0.06714581698179245, -0.020455309781602767, 0.4348720415356411, -5.777446675953481, 9362.0, 30146.0, 35388.0, 9362.0, 8.390083312988281, 0.08305245637893677, 0.30441591143608093, 0.07163839042186737, 0.0039122700691223145, -0.036313746124506, 0.9638733863830566, -0.07301811128854752, -0.01271820068359375, 1.494873046875, 1.28759765625, 0.068939208984375, 1.491943359375
26866, 0.01271886844187975, -0.009459069930016994, 0.03052346408367157, 0.001960752997547388, -0.0007993910694494843, -0.43178999423980713, 0.0024322974495589733, -0.0014517471427097917, -0.5509428381919861, 0.08603185415267944, 0.5158154964447021, 0.06698266416788101, -0.0825432126727728, 0.34539138069018804, -5.871781862269734, 9362.0, 30146.0, 35388.0, 9362.0, 8.390083312988281, -0.052276287227869034, -0.11796502023935318, -0.11591650545597076, 0.003311838721856475, -0.03742636367678642, 0.9631363153457642, -0.07496354728937149, -0.08439826965332031, 1.489013671875, 1.28759765625, 0.068939208984375, 1.496337890625
26876, 0.013548985123634338, -0.008075893856585026, 0.02869998663663864, 0.001960752997547388, -0.0007993910694494843, -0.43178999423980713, 0.0024322974495589733, -0.0014517471427097917, -0.5509428381919861, 0.08609240502119064, 0.5157907009124756, 0.06690457463264465, -0.06257499750867342, 0.37635756049229485, -5.80756491575031, 9362.0, 30146.0, 35388.0, 9362.0, 8.390083312988281, -0.052276287227869034, -0.11796502023935318, -0.11591650545597076, 0.0041029625572264194, -0.03920327499508858, 0.9655086994171143, -0.0765359178185463, -0.11127853393554688, 1.48681640625, 1.28759765625, 0.068939208984375, 1.496337890625
26886, 0.01430051401257515, -0.010002820752561092, 0.028816265985369682, 0.001960752997547388, -0.0007993910694494843, -0.43178999423980713, 0.0024322974495589733, -0.0014517471427097917, -0.5509428381919861, 0.08615875989198685, 0.5158552527427673, 0.06705757230520248, -0.035777502607175514, 0.4221003422063063, -5.783554322404721, 9362.0, 30146.0, 35388.0, 9362.0, 8.390083312988281, -0.26978904008865356, 0.028297921642661095, -0.008912497200071812, 0.004706843756139278, -0.03781243786215782, 0.9658193588256836, -0.07596716284751892, -0.08439826965332031, 1.489013671875, 1.28759765625, 0.068939208984375, 1.4970703125
26896, 0.013392191380262375, -0.01063513569533825, 0.028736041858792305, 0.001960752997547388, -0.0007993910694494843, -0.43178999423980713, 0.0024322974495589733, -0.0014517471427097917, -0.5509428381919861, 0.08612558245658875, 0.5157990455627441, 0.06696739792823792, -0.0821760098140319, 0.3997137411069218, -5.780443935874564, 9362.0, 30146.0, 35388.0, 9362.0, 8.390083312988281, 0.07664450258016586, -0.1528785526752472, 0.1139325276017189, 0.005224765744060278, -0.037417564541101456, 0.9629294276237488, -0.07098552584648132, -0.030637741088867188, 1.493408203125, 1.28759765625, 0.068939208984375, 1.4970703125
26906, 0.013073584996163845, -0.011183337308466434, 0.028322745114564896, 0.001960752997547388, -0.0007993910694494843, -0.43178999423980713, 0.0024322974495589733, -0.0014517471427097917, -0.5509428381919861, 0.08609446883201599, 0.5158014893531799, 0.06694145500659943, -0.06579045830149728, 0.3714324763557215, -5.821021724213712, 9362.0, 30146.0, 35388.0, 9362.0, 8.390083312988281, 0.49996280670166016, 0.4058758318424225, -0.3025488257408142, 0.005224765744060278, -0.037417564541101456, 0.9629294276237488, -0.07122816145420074, -0.12023735046386719, 1.486083984375, 1.28759765625, 0.068939208984375, 1.494873046875
26916, 0.014835228212177753, -0.011859167367219925, 0.02650456689298153, 0.0021873267833143473, -0.0009386716410517693, -0.4828137457370758, 0.0025954998563975096, -0.001647171680815518, -0.5826671123504639, 0.08609165996313095, 0.5158045887947083, 0.06691370904445648, -0.06882952460594714, 0.375428133156845, -5.817722380812333, 9362.0, 30146.0, 35388.0, 9362.0, 8.390083312988281, -0.05512859299778938, -0.04939357936382294, 0.08034363389015198, 0.00410864781588316, -0.038044463843107224, 0.9636409878730774, -0.07301268726587296, -0.12023735046386719, 1.486083984375, 1.3154296875, 0.03118896484375, 1.494873046875
26926, 0.014118828810751438, -0.01049706619232893, 0.026112986728549004, 0.002213374013081193, -0.0009552511619403958, -0.4886583685874939, 0.0026139146648347378, -0.0016686186427250504, -0.5862556099891663, 0.08608725666999817, 0.5158067941665649, 0.066940076649189, -0.06386408441884386, 0.3784328502202925, -5.816456267114705, 9362.0, 30146.0, 35388.0, 9362.0, 8.390083312988281, -0.05512859299778938, -0.04939357936382294, 0.08034363389015198, 0.00410864781588316, -0.038044463843107224, 0.9636409878730774, -0.07363637536764145, -0.07543754577636719, 1.48974609375, 1.3154296875, 0.03118896484375, 1.494873046875
26946, 0.015516046434640884, -0.010396474041044712, 0.025908781215548515, 0.0022660335525870323, -0.0009891076479107141, -0.5004541277885437, 0.0026508772280067205, -0.001716403290629387, -0.5933327078819275, 0.08616780489683151, 0.5158812403678894, 0.06712448596954346, -0.012580650517752376, 0.43925743871906775, -5.777559000458849, 9362.0, 30146.0, 35388.0, 9362.0, 8.390083312988281, 0.05947514995932579, -0.12174370139837265, 0.23054538667201996, 0.004656305070966482, -0.03934600576758385, 0.9654499888420105, -0.07345812022686005, -0.05751800537109375, 1.4912109375, 1.3154296875, 0.03118896484375, 1.494873046875
27076, 0.015515966340899467, -0.010835512541234493, 0.021878937259316444, 0.0025972493458539248, -0.0012140056351199746, -0.5741494297981262, 0.002862019930034876, -0.002030051313340664, -0.6347637176513672, 0.0861111506819725, 0.5158129930496216, 0.06696779280900955, -0.07355900779528123, 0.399855081529779, -5.791200374591746, 9362.0, 30146.0, 35388.0, 9362.0, 8.390083312988281, 0.17000740766525269, -0.4280620217323303, -0.040032994002103806, 0.003051438368856907, -0.039004672318696976, 0.963245689868927, -0.07278941571712494, -0.10231781005859375, 1.487548828125, 1.3154296875, 0.03118896484375, 1.491943359375
27086, 0.015803536400198936, -0.008366244845092297, 0.020817700773477554, 0.0025972493458539248, -0.0012140056351199746, -0.5741494297981262, 0.002862019930034876, -0.002030051313340664, -0.6347637176513672, 0.08612481504678726, 0.5158089995384216, 0.06696255505084991, -0.07932897056387939, 0.40025476107030045, -5.779913285488952, 9362.0, 30146.0, 35388.0, 9362.0, 8.390083312988281, 0.13795791566371918, 0.030170295387506485, 0.19147922098636627, 0.003051438368856907, -0.039004672318696976, 0.963245689868927, -0.07278941571712494, -0.10231781005859375, 1.487548828125, 1.3154296875, 0.03118896484375, 1.491943359375
27096, 0.017060745507478714, -0.009460787288844585, 0.02271205373108387, 0.0025972493458539248, -0.0012140056351199746, -0.5741494297981262, 0.002862019930034876, -0.002030051313340664, -0.6347637176513672, 0.0861344262957573, 0.5158059597015381, 0.06699814647436142, -0.07458951529835885, 0.4005487552014415, -5.791670598910893, 9362.0, 30146.0, 35388.0, 9362.0, 8.390083312988281, 0.13795791566371918, 0.030170295387506485, 0.19147922098636627, 0.003699548076838255, -0.038351867347955704, 0.9636154174804688, -0.07278941571712494, -0.10231781005859375, 1.487548828125, 1.3154296875, 0.03118896484375, 1.491943359375
27116, 0.017698587849736214, -0.009566194377839565, 0.021775715053081512, 0.0025972493458539248, -0.0012140056351199746, -0.5741494297981262, 0.002862019930034876, -0.002030051313340664, -0.6347637176513672, 0.08614183217287064, 0.5158165097236633, 0.06696197390556335, -0.07774752681495413, 0.3998045540745636, -5.791811086450102, 9362.0, 30146.0, 35388.0, 9362.0, 8.390083312988281, 0.13795791566371918, 0.030170295387506485, 0.19147922098636627, 0.0054138400591909885, -0.039617426693439484, 0.9663857221603394, -0.07278941571712494, -0.10231781005859375, 1.487548828125, 1.3154296875, 0.03118896484375, 1.493408203125
