timeTick, roll, pitch, yaw, stateX, stateY, stateZ, stateVX, stateVY, stateVZ, otX0, otY0, otZ0, otRoll0, otPitch0, otYaw0, left wing, pitch motor, yaw motor, right wing, voltage, roll rate, pitch rate, yaw rate, A_x, A_y, A_z, current, i_raw, v_raw, airflow_voltage, airflow_speed, pot_Pitch
37917, -0.003859589109197259, 0.003292485373094678, -0.002425192389637232, 0, 0, 0, 0, 0, 0, 0.0835929811000824, 0.1703934371471405, 0.06841140985488892, 0.5973587285591586, -0.7181668200177285, -7.050302065878591, 0, 0, 0, 0, 0, 0, 0, 0, 0, 0, 0, 0, 0, 0, 0, 0, 0
37927, -0.002312897238880396, 0.0057645682245492935, -0.02475416101515293, 0.0, 0.0, 1.5032652299851179e-05, -1.7276106234476174e-07, 2.0253467880593234e-07, 0.003006528364494443, 0.08361729979515076, 0.17039208114147186, 0.06843960285186768, 0.6035533169192192, -0.7068213736644964, -7.0586811297090915, 9362.0, 30146.0, 35388.0, 9362.0, 8.17190170288086, 0.36267197132110596, 0.37416595220565796, 5.830085754394531, -0.008552275598049164, -0.020097214728593826, 1.0298614501953125, -0.040673721581697464, -0.06647872924804688, 1.490478515625, 0, 0, 0
37937, 0.0025179123040288687, 0.0076599582098424435, -0.019861476495862007, -3.0777286497141176e-08, 3.608143828159882e-08, 6.01439387537539e-05, -6.109909463702934e-06, 6.9348061515484005e-06, 0.006016125902533531, 0.0836016833782196, 0.17038927972316742, 0.06840941309928894, 0.5964711109461089, -0.7159667932645846, -7.053798006128499, 9362.0, 30146.0, 35388.0, 9362.0, 8.17190170288086, -1.090043067932129, -0.28071483969688416, 1.5953290462493896, -0.008807104080915451, -0.0232121329754591, 1.0310646295547485, -0.047617245465517044, -0.10231781005859375, 1.487548828125, 1.30517578125, 0.0422515869140625, 1.496337890625
37947, 0.0020407214760780334, 0.007502980530261993, -0.005101964809000492, -1.427359563876962e-07, 1.258611916910013e-07, 0.00013540050713345408, -1.6382164176320657e-05, 1.0765748811536469e-05, 0.009035568684339523, 0.08363033086061478, 0.17040008306503296, 0.06847219169139862, 0.6009645746425721, -0.7120397702387038, -7.0555587742818595, 9362.0, 30146.0, 35388.0, 9362.0, 8.17190170288086, -0.09655312448740005, -0.40928182005882263, -6.040652751922607, -0.003762556705623865, -0.03218191862106323, 1.0345078706741333, -0.04817928373813629, -0.030637741088867188, 1.493408203125, 1.3095703125, 0.037139892578125, 1.49267578125
37957, -0.0003810402122326195, 0.009416908025741577, -0.002581977052614093, -3.7420574017232866e-07, 2.113080199706019e-07, 0.0002411994501017034, -2.9902175811002962e-05, 6.345853307720972e-06, 0.01212459895759821, 0.08360821008682251, 0.17039452493190765, 0.06845080852508545, 0.6047403740487428, -0.7069778737765091, -7.054952217082871, 9362.0, 30146.0, 35388.0, 9362.0, 8.17190170288086, 0.8061256408691406, 0.34072184562683105, -2.085667133331299, -0.012023535557091236, -0.02740076556801796, 1.0341012477874756, -0.04515700787305832, 0.0052013397216796875, 1.496337890625, 1.30078125, 0.048004150390625, 1.493408203125
37967, 3.197527621523477e-05, 0.00846132729202509, -0.030227547511458397, -7.396341743515222e-07, 2.5671110392977425e-07, 0.0003790402552112937, -4.329420698923059e-05, 2.874484380299691e-06, 0.015443946234881878, 0.08358211070299149, 0.17039655148983002, 0.06844273954629898, 0.5983039930142591, -0.7198175002241385, -7.052139745752988, 9362.0, 30146.0, 35388.0, 9362.0, 8.17190170288086, 0.32890909910202026, 0.8335786461830139, 7.084255218505859, -0.007136098574846983, -0.021085869520902634, 1.031782865524292, -0.04232760891318321, -0.1291980743408203, 1.4853515625, 1.301513671875, 0.046966552734375, 1.4912109375
37977, 0.003877202747389674, 0.006609465926885605, -0.017877651378512383, -1.255943971045781e-06, 2.8883303571092256e-07, 0.0005502179265022278, -5.991158104734495e-05, 3.533850076564704e-06, 0.018791992217302322, 0.08362457156181335, 0.17039592564105988, 0.06846681982278824, 0.6059965648957976, -0.7067292311039353, -7.0645890982124975, 9362.0, 30146.0, 35388.0, 9362.0, 8.17190170288086, -1.3545730113983154, -0.8792997002601624, -4.162748336791992, -0.005608799401670694, -0.02143832854926586, 1.0332725048065186, -0.053546953946352005, -0.10231781005859375, 1.487548828125, 1.300048828125, 0.0489654541015625, 1.494873046875
37987, 0.0025216094218194485, 0.005588612053543329, -0.00463247811421752, -1.929834525071783e-06, 3.239284183109703e-07, 0.0007539729122072458, -7.476438622688875e-05, 3.269364697189303e-06, 0.021959396079182625, 0.0835869312286377, 0.17041751742362976, 0.06841757148504257, 0.603207177178741, -0.7228916774896277, -7.053048636963667, 9362.0, 30146.0, 35388.0, 9362.0, 8.17190170288086, 0.371995747089386, -0.11297192424535751, -4.329601764678955, -0.007013279013335705, -0.033739399164915085, 1.0316084623336792, -0.06285388022661209, -0.13815879821777344, 1.484619140625, 1.30810546875, 0.0388031005859375, 1.4970703125
37997, -0.0015665352111682296, 0.007263316307216883, -0.027202866971492767, -2.735941052378621e-06, 3.223516671368998e-07, 0.0009897707495838404, -8.639751467853785e-05, -3.5107950679957867e-06, 0.02520059235394001, 0.08359066396951675, 0.17039181292057037, 0.06843345612287521, 0.6003776330629238, -0.7213801637132065, -7.046085179045122, 9362.0, 30146.0, 35388.0, 9362.0, 8.17190170288086, 1.0860846042633057, 0.7973967790603638, 4.572846412658691, -0.00830462109297514, -0.022028811275959015, 1.0322849750518799, -0.048671185970306396, -0.0037593841552734375, 1.49560546875, 1.30224609375, 0.0460052490234375, 1.496337890625
38007, 0.0012102490290999413, 0.009863907471299171, -0.026334140449762344, -3.6492647268460132e-06, 2.6498221927795385e-07, 0.001257191295735538, -9.635936294216663e-05, -7.739355169178452e-06, 0.028283916413784027, 0.08361290395259857, 0.17040599882602692, 0.06845415383577347, 0.6057228658781068, -0.7015842382427309, -7.056046514047662, 9362.0, 30146.0, 35388.0, 9362.0, 8.17190170288086, -0.15770137310028076, 0.205597922205925, 3.39542555809021, -0.011552974581718445, -0.024747202172875404, 1.0309169292449951, -0.04546647146344185, -0.05751800537109375, 1.4912109375, 1.31396484375, 0.0325469970703125, 1.491943359375
38017, 0.0036459213588386774, 0.008667067624628544, -0.018074315041303635, -4.677039214584511e-06, 2.0146285351074766e-07, 0.0015558621380478144, -0.00010933930752798915, -5.118074568599695e-06, 0.031450629234313965, 0.08358855545520782, 0.17040927708148956, 0.06842512637376785, 0.6025524133762846, -0.727673706978635, -7.046431876910472, 9362.0, 30146.0, 35388.0, 9362.0, 8.17190170288086, -1.0645397901535034, -1.1794129610061646, -3.5737144947052, -0.004905903711915016, -0.026013532653450966, 1.0314406156539917, -0.050007499754428864, -0.0037593841552734375, 1.49560546875, 1.295654296875, 0.05548095703125, 1.494140625
38027, 0.0014385852264240384, 0.012398935854434967, -0.006208288017660379, -5.857496944372542e-06, 1.396403632725196e-07, 0.0018855659291148186, -0.00012668862473219633, -7.378196642093826e-06, 0.034490521997213364, 0.08359168469905853, 0.1704033762216568, 0.06842513382434845, 0.600617420191236, -0.7118684812859897, -7.055397644826585, 9362.0, 30146.0, 35388.0, 9362.0, 8.17190170288086, 0.7624022960662842, -0.38469940423965454, -4.853494644165039, -0.008947613649070263, -0.03431226313114166, 1.031980037689209, -0.051744721829891205, -0.021678924560546875, 1.494140625, 1.3095703125, 0.037139892578125, 1.49267578125
38037, 0.001543477177619934, 0.012821976095438004, -0.019495289772748947, -7.200954314612318e-06, 3.367617296134995e-08, 0.0022460955660790205, -0.0001422048662789166, -1.3697188478545286e-05, 0.03761579096317291, 0.08358339965343475, 0.1704167127609253, 0.0684262216091156, 0.5996794290982049, -0.7248054002979529, -7.0527458133512155, 9362.0, 30146.0, 35388.0, 9362.0, 8.17190170288086, 0.6338764429092407, 0.35251906514167786, 2.626415491104126, -0.010599248111248016, -0.021729016676545143, 1.0294960737228394, -0.03887099027633667, 0.05896186828613281, 1.500732421875, 1.30517578125, 0.0422515869140625, 1.4912109375
38047, 0.0032393441069871187, 0.014678972773253918, -0.03199572116136551, -8.73244607646484e-06, -1.1598177707128343e-07, 0.0026374850422143936, -0.0001641165727050975, -1.6234929717029445e-05, 0.0406624972820282, 0.08359290659427643, 0.1703881323337555, 0.06844788044691086, 0.5994889759192855, -0.7213267787734026, -7.0501785363639495, 9362.0, 30146.0, 35388.0, 9362.0, 8.17190170288086, -0.16550278663635254, 0.7008218765258789, 5.683014869689941, -0.012235235422849655, -0.02334018237888813, 1.0309196710586548, -0.047646984457969666, -0.07543754577636719, 1.48974609375, 1.30517578125, 0.0422515869140625, 1.487548828125
38057, 0.005955777131021023, 0.01330279279500246, -0.0247456356883049, -1.0486680366739165e-05, -2.9190292138991936e-07, 0.0030588421504944563, -0.0001868262916104868, -1.903165139083285e-05, 0.043609339743852615, 0.08359022438526154, 0.1704019457101822, 0.06842385977506638, 0.5975956225651995, -0.7191911643891729, -7.047780589695546, 9362.0, 30146.0, 35388.0, 9362.0, 8.17190170288086, -0.9842546582221985, -0.7790859341621399, 0.6111526489257812, -0.006575392559170723, -0.026158582419157028, 1.0315606594085693, -0.054304350167512894, -0.021678924560546875, 1.494140625, 1.29931640625, 0.0500640869140625, 1.487548828125
38067, 0.004341025836765766, 0.015340732410550117, -0.006383436731994152, -1.2484537364798598e-05, -5.107420975036803e-07, 0.0035102088004350662, -0.0002126710896845907, -2.488435166014824e-05, 0.04666439816355705, 0.0836029201745987, 0.17039552330970764, 0.06841971725225449, 0.6002654266160078, -0.7213144204321509, -7.045836593308196, 9362.0, 30146.0, 35388.0, 9362.0, 8.17190170288086, 0.2003815770149231, -0.4620145261287689, -7.069069862365723, -0.004370446316897869, -0.02876589074730873, 1.0343036651611328, -0.052959855645895004, -0.14711761474609375, 1.48388671875, 1.304443359375, 0.043182373046875, 1.49560546875
38077, 0.0022118843626230955, 0.016282355412840843, -0.011561177670955658, -1.4728851965628564e-05, -8.121764949464705e-07, 0.0039927763864398, -0.00023630140640307218, -3.5320055758347735e-05, 0.04984953626990318, 0.08360330015420914, 0.17040352523326874, 0.06842631846666336, 0.6041010126712956, -0.7067800012885925, -7.050860363872215, 9362.0, 30146.0, 35388.0, 9362.0, 8.17190170288086, 0.9611271619796753, -0.19359497725963593, -2.108560085296631, -0.008209304884076118, -0.02150627225637436, 1.0307457447052002, -0.040052562952041626, -0.01271820068359375, 1.494873046875, 1.304443359375, 0.043182373046875, 1.491943359375
38087, 0.002900129184126854, 0.017493611201643944, -0.029646724462509155, -1.722753768262919e-05, -1.2037522765240283e-06, 0.004507474135607481, -0.00026348981191404164, -4.287230331101455e-05, 0.05309037119150162, 0.0836266428232193, 0.17038127779960632, 0.06845308095216751, 0.5998503483520458, -0.702196149036098, -7.059456426982908, 9362.0, 30146.0, 35388.0, 9362.0, 8.17190170288086, 0.18045704066753387, 0.7822551727294922, 6.547793865203857, -0.007794463075697422, -0.020384831354022026, 1.0318591594696045, -0.042886923998594284, -0.10231781005859375, 1.487548828125, 1.301513671875, 0.046966552734375, 1.49267578125
38097, 0.006188469473272562, 0.0163287166506052, -0.03092830814421177, -2.00061531359097e-05, -1.6519691143912496e-06, 0.00505358912050724, -0.00029229882056824863, -4.6798682888038456e-05, 0.056133076548576355, 0.0836322009563446, 0.17037677764892578, 0.06846492737531662, 0.597182787203116, -0.7043760504543002, -7.062759443189361, 9362.0, 30146.0, 35388.0, 9362.0, 8.17190170288086, -0.8420675992965698, -0.29521581530570984, 1.38632333278656, -0.004147341009229422, -0.021921416744589806, 1.0326416492462158, -0.04683798551559448, 0.07688140869140625, 1.502197265625, 1.30810546875, 0.0388031005859375, 1.494873046875
38107, 0.007311210967600346, 0.013265748508274555, -0.0029575154185295105, -2.3083759515429847e-05, -2.1455066416820046e-06, 0.005630784668028355, -0.00032315801945514977, -5.2090170356677845e-05, 0.059306398034095764, 0.08363272249698639, 0.17039965093135834, 0.06842389702796936, 0.598876189738577, -0.7075444722985367, -7.06235904851278, 9362.0, 30146.0, 35388.0, 9362.0, 8.17190170288086, -0.289529025554657, -0.3986603319644928, -6.923349857330322, -0.006013660226017237, -0.03126118332147598, 1.0309263467788696, -0.05214241147041321, -0.04855918884277344, 1.491943359375, 1.301513671875, 0.046966552734375, 1.4970703125
38117, 0.0034238738007843494, 0.015540242195129395, -0.019729645922780037, -2.6459634682396427e-05, -2.7210060125071323e-06, 0.00623956136405468, -0.0003518440353218466, -6.30861395620741e-05, 0.062449295073747635, 0.08361241221427917, 0.1703946888446808, 0.06843599677085876, 0.6010352643385776, -0.7133829695341092, -7.051343049603569, 9362.0, 30146.0, 35388.0, 9362.0, 8.17190170288086, 1.220517635345459, 0.09191633015871048, 2.6916916370391846, -0.010234066285192966, -0.027148256078362465, 1.0305968523025513, -0.03037099726498127, 0.06792068481445312, 1.50146484375, 1.300048828125, 0.0489654541015625, 1.4912109375
38127, 0.0045392196625471115, 0.017482219263911247, -0.03219117596745491, -3.0095132387941703e-05, -3.4163733744208002e-06, 0.006879116408526897, -0.0003753793134819716, -7.577651558676735e-05, 0.06546205282211304, 0.08360297232866287, 0.17039893567562103, 0.06842774897813797, 0.6061242060802179, -0.7238346596451777, -7.044753837165048, 9362.0, 30146.0, 35388.0, 9362.0, 8.17190170288086, 0.14242985844612122, 0.7850114703178406, 4.504406452178955, -0.006594381295144558, -0.01961207389831543, 1.0307787656784058, -0.035323407500982285, -0.05751800537109375, 1.4912109375, 1.300048828125, 0.0489654541015625, 1.49267578125
38137, 0.009172677993774414, 0.015275713987648487, -0.020694846287369728, -3.398606713744812e-05, -4.2043043322337326e-06, 0.0075488281436264515, -0.0004029110714327544, -8.186264312826097e-05, 0.06848067045211792, 0.08362916857004166, 0.17039965093135834, 0.06844699382781982, 0.6061095648611872, -0.7015137071123547, -7.061540968625757, 9362.0, 30146.0, 35388.0, 9362.0, 8.17190170288086, -0.9907084703445435, -0.5310459136962891, -0.9613882303237915, -0.006547372788190842, -0.02436888962984085, 1.0297327041625977, -0.042322319000959396, 0.10376167297363281, 1.50439453125, 1.3095703125, 0.037139892578125, 1.493408203125
38197, 0.002598026068881154, 0.013178611174225807, -0.01826387085020542, -3.81694917450659e-05, -5.0629050747375e-06, 0.008248801343142986, -0.0004336558922659606, -9.010920621221885e-05, 0.07151434570550919, 0.08361388742923737, 0.17040464282035828, 0.06845534592866898, 0.6026823757992298, -0.712687661283212, -7.0582264002509785, 9362.0, 30146.0, 35388.0, 9362.0, 8.17190170288086, 0.4816321134567261, -0.652224600315094, -4.684843063354492, -0.014112858101725578, -0.01811862178146839, 1.0319292545318604, -0.05269857123494148, -0.03959846496582031, 1.49267578125, 1.304443359375, 0.043182373046875, 1.48974609375
38217, 0.006618597079068422, 0.013864012435078621, -0.021088631823658943, -7.471912977052853e-05, -1.4392197044799104e-05, 0.013986697420477867, -0.0006022932357154787, -0.00016581948148086667, 0.09278204292058945, 0.0836273580789566, 0.1704004406929016, 0.06846503913402557, 0.6023243125797386, -0.7086820871375892, -7.059461332775404, 9362.0, 30146.0, 35388.0, 9362.0, 8.17190170288086, -0.021471429616212845, 0.8118392825126648, 7.24725341796875, -0.005839257501065731, -0.02865288220345974, 1.0309752225875854, -0.04188855364918709, -0.08439826965332031, 1.489013671875, 1.304443359375, 0.043182373046875, 1.48974609375
38257, 0.007306367624551058, 0.014755882322788239, -0.01909901387989521, -0.00010103462409460917, -2.1619305698550306e-05, 0.01794360764324665, -0.0007159524830058217, -0.00019386160420253873, 0.10488760471343994, 0.08361463248729706, 0.17039816081523895, 0.06845829635858536, 0.6089736637404106, -0.7025608790664251, -7.064713134151302, 9362.0, 30146.0, 35388.0, 9362.0, 8.17190170288086, -1.0023499727249146, -1.1513077020645142, -4.2688493728637695, -0.009455468505620956, -0.016672061756253242, 1.0288716554641724, -0.0429207868874073, -0.030637741088867188, 1.493408203125, 1.304443359375, 0.043182373046875, 1.48974609375
38267, 0.005647256504744291, 0.018095936626195908, -0.007660259492695332, -0.00010835919238161296, -2.360518556088209e-05, 0.01900709979236126, -0.0007487573893740773, -0.0002034231147263199, 0.1078111007809639, 0.08362298458814621, 0.17038436233997345, 0.06846600770950317, 0.6045021281000768, -0.7041343015711448, -7.055194810271928, 9362.0, 30146.0, 35388.0, 9362.0, 8.17190170288086, 0.4564987123012543, -0.15162432193756104, -4.472116947174072, -0.009455468505620956, -0.016672061756253242, 1.0288716554641724, -0.049812790006399155, -0.08439826965332031, 1.489013671875, 1.304443359375, 0.043182373046875, 1.48974609375
38287, 0.010024853982031345, 0.02022337168455124, -0.0313413105905056, -0.00010835919238161296, -2.360518556088209e-05, 0.01900709979236126, -0.0007487573893740773, -0.0002034231147263199, 0.1078111007809639, 0.08361200988292694, 0.17039157450199127, 0.06847933679819107, 0.5975163033488619, -0.7097290194515438, -7.058092811643667, 9362.0, 30146.0, 35388.0, 9362.0, 8.17190170288086, -1.040056586265564, 0.0055482042953372, -1.4261080026626587, -0.006056663580238819, -0.018026690930128098, 1.0305451154708862, -0.04375428333878517, -0.04855918884277344, 1.491943359375, 1.304443359375, 0.043182373046875, 1.48974609375
38307, 0.00793472770601511, 0.01911611296236515, -0.027696803212165833, -0.00010835919238161296, -2.360518556088209e-05, 0.01900709979236126, -0.0007487573893740773, -0.0002034231147263199, 0.1078111007809639, 0.08363588899374008, 0.17039470374584198, 0.0684506744146347, 0.6037114638675312, -0.7098627764699756, -7.065190985381482, 9362.0, 30146.0, 35388.0, 9362.0, 8.17190170288086, 1.114701271057129, 0.47339409589767456, 0.5758029222488403, -0.006056663580238819, -0.018026690930128098, 1.0305451154708862, -0.0514044463634491, -0.08439826965332031, 1.489013671875, 1.304443359375, 0.043182373046875, 1.48974609375
38317, 0.009579133242368698, 0.018785523250699043, -0.0334671288728714, -0.00010835919238161296, -2.360518556088209e-05, 0.01900709979236126, -0.0007487573893740773, -0.0002034231147263199, 0.1078111007809639, 0.08360736817121506, 0.17041413486003876, 0.06843230128288269, 0.5924249280220162, -0.7173261576531331, -7.056547093151104, 9362.0, 30146.0, 35388.0, 9362.0, 8.17190170288086, 0.39085397124290466, 0.532412588596344, 4.613719940185547, -0.006056663580238819, -0.018026690930128098, 1.0305451154708862, -0.0514044463634491, -0.08439826965332031, 1.489013671875, 1.304443359375, 0.043182373046875, 1.48974609375
38327, 0.012534991838037968, 0.016931187361478806, -0.03438037261366844, -0.00010835919238161296, -2.360518556088209e-05, 0.01900709979236126, -0.0007487573893740773, -0.0002034231147263199, 0.1078111007809639, 0.08363071829080582, 0.17039544880390167, 0.06847002357244492, 0.6119681137481936, -0.7033580039534968, -7.0611005090837144, 9362.0, 30146.0, 35388.0, 9362.0, 8.17190170288086, 0.39085397124290466, 0.532412588596344, 4.613719940185547, -0.000879507337231189, -0.02319364622235298, 1.0307961702346802, -0.0514044463634491, -0.08439826965332031, 1.489013671875, 1.304443359375, 0.043182373046875, 1.48974609375
38347, 0.008499473333358765, 0.01623394526541233, -0.02859972044825554, -0.00017862717504613101, -4.3891552195418626e-05, 0.02861471101641655, -0.001009533298201859, -0.0003195723984390497, 0.1324671059846878, 0.08359953761100769, 0.17040210962295532, 0.06845240294933319, 0.5993681425014129, -0.7119576687969698, -7.046578813274196, 9362.0, 30146.0, 35388.0, 9362.0, 8.17190170288086, -0.1756732016801834, -0.49775415658950806, -6.043646335601807, -0.008768591098487377, -0.02527226321399212, 1.0302269458770752, -0.0613168329000473, -0.09335899353027344, 1.48828125, 1.304443359375, 0.043182373046875, 1.48974609375
38437, 0.010070383548736572, 0.016723962500691414, -0.03541562333703041, -0.0002808437857311219, -8.067942690104246e-05, 0.04177884757518768, -0.0012621372006833553, -0.0004973039613105357, 0.16011615097522736, 0.08362091332674026, 0.17038026452064514, 0.06847727298736572, 0.6056635379884459, -0.7052613736759383, -7.054595207112916, 9362.0, 30146.0, 35388.0, 9362.0, 8.17190170288086, 0.21818889677524567, 0.0906088799238205, 6.281316757202148, -0.00032493859180249274, -0.0306408554315567, 1.0325987339019775, -0.09623028337955475, 0.10376167297363281, 1.50439453125, 1.304443359375, 0.043182373046875, 1.48974609375
38447, 0.011001722887158394, 0.019187621772289276, -0.04422750696539879, -0.0002936181263066828, -8.572835213271901e-05, 0.043396688997745514, -0.0012927028583362699, -0.00051255919970572, 0.16345249116420746, 0.08360254019498825, 0.1703961044549942, 0.06844968348741531, 0.6067326546981833, -0.7182496697096781, -7.045391958374784, 9362.0, 30146.0, 35388.0, 9362.0, 8.17190170288086, -0.7497067451477051, 0.4521214962005615, 4.406248569488525, -0.00032493859180249274, -0.0306408554315567, 1.0325987339019775, -0.08123848587274551, -0.07543754577636719, 1.48974609375, 1.304443359375, 0.043182373046875, 1.48974609375
38457, 0.011086252517998219, 0.015779666602611542, -0.010045269504189491, -0.0002936181263066828, -8.572835213271901e-05, 0.043396688997745514, -0.0012927028583362699, -0.00051255919970572, 0.16345249116420746, 0.08362603932619095, 0.1703927367925644, 0.06846866011619568, 0.6044300061587381, -0.7025969461584225, -7.05718624033775, 9362.0, 30146.0, 35388.0, 9362.0, 8.17190170288086, -0.4374975264072418, -1.1290669441223145, -9.711446762084961, -0.00032493859180249274, -0.0306408554315567, 1.0325987339019775, -0.0754910483956337, -0.05751800537109375, 1.4912109375, 1.304443359375, 0.043182373046875, 1.48974609375
38467, 0.00654995022341609, 0.017814483493566513, -0.016507254913449287, -0.0003200869250576943, -9.63439088081941e-05, 0.046729642897844315, -0.0013561287196353078, -0.000549822230823338, 0.16972824931144714, 0.08359984308481216, 0.1703808456659317, 0.06845425069332123, 0.5974696787868544, -0.7174350468078217, -7.048037797417835, 9362.0, 30146.0, 35388.0, 9362.0, 8.17190170288086, 1.1283687353134155, 0.1520211547613144, -0.5947750210762024, -0.008362965658307076, -0.026574067771434784, 1.0298073291778564, -0.07480444759130478, -0.07543754577636719, 1.48974609375, 1.304443359375, 0.043182373046875, 1.48974609375
38567, 0.011801229789853096, 0.02445843443274498, -0.027667656540870667, -0.0004073282761964947, -0.00013201568799559027, 0.057449378073215485, -0.0015642332145944238, -0.0006330878240987659, 0.18792062997817993, 0.08358877152204514, 0.17040376365184784, 0.06842415779829025, 0.6017803572999012, -0.7171557477658155, -7.044810681411195, 9362.0, 30146.0, 35388.0, 9362.0, 8.17190170288086, -1.3545701503753662, -0.8729744553565979, -1.3437364101409912, -0.007448832504451275, -0.021599851548671722, 1.029555082321167, -0.04961846396327019, -0.030637741088867188, 1.493408203125, 1.304443359375, 0.043182373046875, 1.48974609375
38577, 0.008500747382640839, 0.025695087388157845, -0.015512306243181229, -0.0004073282761964947, -0.00013201568799559027, 0.057449378073215485, -0.0015642332145944238, -0.0006330878240987659, 0.18792062997817993, 0.08360297977924347, 0.17040596902370453, 0.06844473630189896, 0.5976934425215611, -0.7204946027502501, -7.057161096945829, 9362.0, 30146.0, 35388.0, 9362.0, 8.17190170288086, 0.25759652256965637, -0.4787118136882782, -5.605417251586914, -0.005085807293653488, -0.03218059241771698, 1.0331416130065918, -0.04961846396327019, -0.030637741088867188, 1.493408203125, 1.304443359375, 0.043182373046875, 1.48974609375
38587, 0.006549903191626072, 0.02707337588071823, -0.027150120586156845, -0.0004073282761964947, -0.00013201568799559027, 0.057449378073215485, -0.0015642332145944238, -0.0006330878240987659, 0.18792062997817993, 0.08361779153347015, 0.17039982974529266, 0.06845750659704208, 0.5981943349049232, -0.7107740458838805, -7.066017132212544, 9362.0, 30146.0, 35388.0, 9362.0, 8.17190170288086, 0.25759652256965637, -0.4787118136882782, -5.605417251586914, -0.008946162648499012, -0.02515454776585102, 1.0320464372634888, -0.04961846396327019, -0.030637741088867188, 1.493408203125, 1.304443359375, 0.043182373046875, 1.48974609375
38657, 0.010142875835299492, 0.0247371606528759, -0.021942568942904472, -0.0005863037658855319, -0.0002026158181251958, 0.07779230922460556, -0.002019184175878763, -0.0007860588957555592, 0.21886315941810608, 0.08358623832464218, 0.17041264474391937, 0.06845160573720932, 0.6004884015278535, -0.7089583450547536, -7.047661232060039, 9362.0, 30146.0, 35388.0, 9362.0, 8.17190170288086, 0.47880223393440247, -0.26015540957450867, -3.754016876220703, -0.005477764643728733, -0.031394682824611664, 1.0319921970367432, -0.04848921298980713, -0.04855918884277344, 1.491943359375, 1.304443359375, 0.043182373046875, 1.48974609375
38677, 0.009432840161025524, 0.025842219591140747, -0.042737606912851334, -0.0005863037658855319, -0.0002026158181251958, 0.07779230922460556, -0.002019184175878763, -0.0007860588957555592, 0.21886315941810608, 0.08362112194299698, 0.1704036295413971, 0.06847142428159714, 0.5984855989338633, -0.7088687415024708, -7.059349098804842, 9362.0, 30146.0, 35388.0, 9362.0, 8.17190170288086, -0.19863949716091156, 0.7240617871284485, 6.524270057678223, -0.005477764643728733, -0.031394682824611664, 1.0319921970367432, -0.043255358934402466, -0.08439826965332031, 1.489013671875, 1.304443359375, 0.043182373046875, 1.48974609375
38687, 0.011062558740377426, 0.026113813742995262, -0.03194882720708847, -0.0005863037658855319, -0.0002026158181251958, 0.07779230922460556, -0.002019184175878763, -0.0007860588957555592, 0.21886315941810608, 0.08362501859664917, 0.1703919619321823, 0.06844689697027206, 0.6055254623334676, -0.7104680551788931, -7.047428926454459, 9362.0, 30146.0, 35388.0, 9362.0, 8.17190170288086, -1.0884058475494385, -0.8882026672363281, -3.676593542098999, -0.005477764643728733, -0.031394682824611664, 1.0319921970367432, -0.05593936890363693, -0.14711761474609375, 1.48388671875, 1.304443359375, 0.043182373046875, 1.48974609375
38757, 0.012240263633430004, 0.028938736766576767, -0.034232884645462036, -0.0008878463413566351, -0.0003202982770744711, 0.10884469747543335, -0.0026264528278261423, -0.0010160128585994244, 0.25897216796875, 0.08362459391355515, 0.17037947475910187, 0.0684908926486969, 0.6043870190813164, -0.7099333335703477, -7.061128703391938, 9362.0, 30146.0, 35388.0, 9362.0, 8.17190170288086, -0.9232174158096313, -0.38523703813552856, -1.8135364055633545, -0.008835664950311184, -0.02189459837973118, 1.0342777967453003, -0.04303542897105217, -0.1291980743408203, 1.4853515625, 1.304443359375, 0.043182373046875, 1.48974609375
38767, 0.012914848513901234, 0.028145039454102516, -0.020343907177448273, -0.0009143718052655458, -0.0003305278078187257, 0.11145105957984924, -0.0026786127127707005, -0.001030156621709466, 0.26230084896087646, 0.08361110836267471, 0.17039868235588074, 0.06845510751008987, 0.597760984581076, -0.7113172721171566, -7.057822675886726, 9362.0, 30146.0, 35388.0, 9362.0, 8.17190170288086, -0.0804300457239151, -0.3027147948741913, -4.670086860656738, -0.008835664950311184, -0.02189459837973118, 1.0342777967453003, -0.041667889803647995, 0.05000114440917969, 1.5, 1.304443359375, 0.043182373046875, 1.48974609375
38777, 0.00889602117240429, 0.026724031195044518, -0.02590874955058098, -0.0009143718052655458, -0.0003305278078187257, 0.11145105957984924, -0.0026786127127707005, -0.001030156621709466, 0.26230084896087646, 0.08358646929264069, 0.17038658261299133, 0.0684456080198288, 0.5996428533857142, -0.7133896059555127, -7.052330992553279, 9362.0, 30146.0, 35388.0, 9362.0, 8.17190170288086, 0.813603401184082, 0.3060869574546814, -2.6662256717681885, -0.0012972621480003, -0.024063212797045708, 1.032524585723877, -0.03099982813000679, -0.10231781005859375, 1.487548828125, 1.304443359375, 0.043182373046875, 1.48974609375
38797, 0.012180480174720287, 0.026248348876833916, -0.0506989024579525, -0.0009969869861379266, -0.0003623907105065882, 0.11945663392543793, -0.002826468087732792, -0.0010901220375671983, 0.2715187966823578, 0.08360064774751663, 0.17040222883224487, 0.06846644729375839, 0.6001340854146705, -0.7251309902857201, -7.0556118852717375, 9362.0, 30146.0, 35388.0, 9362.0, 8.17190170288086, -0.4062914252281189, 0.672998309135437, 7.179725646972656, -0.014354306273162365, -0.025122011080384254, 1.0302172899246216, -0.03935037925839424, -0.06647872924804688, 1.490478515625, 1.304443359375, 0.043182373046875, 1.48974609375
38807, 0.014929670840501785, 0.024442680180072784, -0.021083349362015724, -0.0009969869861379266, -0.0003623907105065882, 0.11945663392543793, -0.002826468087732792, -0.0010901220375671983, 0.2715187966823578, 0.08362980931997299, 0.17038507759571075, 0.06847156584262848, 0.6029989348976819, -0.707171882594622, -7.054865383019349, 9362.0, 30146.0, 35388.0, 9362.0, 8.17190170288086, -0.9855756759643555, -0.8109975457191467, -5.759061813354492, -0.014354306273162365, -0.025122011080384254, 1.0302172899246216, -0.043903350830078125, 0.06792068481445312, 1.50146484375, 1.304443359375, 0.043182373046875, 1.48974609375
38817, 0.011219793930649757, 0.02262778952717781, -0.01613212190568447, -0.0009969869861379266, -0.0003623907105065882, 0.11945663392543793, -0.002826468087732792, -0.0010901220375671983, 0.2715187966823578, 0.08359988033771515, 0.17040424048900604, 0.06844731420278549, 0.5957059231560208, -0.7183340711601716, -7.048876748209737, 9362.0, 30146.0, 35388.0, 9362.0, 8.17190170288086, 0.9146437048912048, -0.3369542062282562, -5.457033157348633, -0.014354306273162365, -0.025122011080384254, 1.0302172899246216, -0.047319911420345306, -0.09335899353027344, 1.48828125, 1.304443359375, 0.043182373046875, 1.48974609375
38827, 0.010662823915481567, 0.025485098361968994, -0.03254220262169838, -0.0010838410817086697, -0.0003960110479965806, 0.12773959338665009, -0.0029618097469210625, -0.001156382611952722, 0.28073081374168396, 0.08362537622451782, 0.17039349675178528, 0.06849518418312073, 0.6056004712911622, -0.7040087769842671, -7.055530673850316, 9362.0, 30146.0, 35388.0, 9362.0, 8.17190170288086, 0.5795596837997437, 1.1395151615142822, 4.132173538208008, -0.011739952489733696, -0.018061520531773567, 1.0298393964767456, -0.047319911420345306, -0.09335899353027344, 1.48828125, 1.304443359375, 0.043182373046875, 1.48974609375
38837, 0.012661705724895, 0.02338348515331745, -0.04634717479348183, -0.0011136586545035243, -0.00040767370956018567, 0.1305614858865738, -0.003001860808581114, -0.0011761147761717439, 0.2836476266384125, 0.08363271504640579, 0.1703956127166748, 0.06847179681062698, 0.6048913389847907, -0.71200227511207, -7.061866633885423, 9362.0, 30146.0, 35388.0, 9362.0, 8.17190170288086, -0.47577428817749023, 0.060748353600502014, 5.3274688720703125, -0.004744445905089378, -0.021213209256529808, 1.0309488773345947, -0.040322527289390564, -0.12023735046386719, 1.486083984375, 1.304443359375, 0.043182373046875, 1.48974609375
38847, 0.015011899173259735, 0.020655915141105652, -0.011494147591292858, -0.0011136586545035243, -0.00040767370956018567, 0.1305614858865738, -0.003001860808581114, -0.0011761147761717439, 0.2836476266384125, 0.08357622474431992, 0.17040158808231354, 0.06843918561935425, 0.6005379207389895, -0.7176027092706931, -7.0451938269962495, 9362.0, 30146.0, 35388.0, 9362.0, 8.17190170288086, -1.041793942451477, -0.6631444096565247, -7.1697773933410645, -0.0037359001580625772, -0.02998988702893257, 1.0314090251922607, -0.048489999026060104, -0.11127853393554688, 1.48681640625, 1.304443359375, 0.043182373046875, 1.48974609375
38857, 0.011888528242707253, 0.020493080839514732, -0.01932368054986, -0.0011136586545035243, -0.00040767370956018567, 0.1305614858865738, -0.003001860808581114, -0.0011761147761717439, 0.2836476266384125, 0.08359134942293167, 0.17039653658866882, 0.06844837963581085, 0.6033054392490429, -0.7176194897745063, -7.050900114096648, 9362.0, 30146.0, 35388.0, 9362.0, 8.17190170288086, 0.9552745223045349, -0.14398686587810516, -1.1273729801177979, -0.0037359001580625772, -0.02998988702893257, 1.0314090251922607, -0.048489999026060104, -0.11127853393554688, 1.48681640625, 1.304443359375, 0.043182373046875, 1.48974609375
38887, 0.016418475657701492, 0.020200630649924278, -0.02796490490436554, -0.0012433903757482767, -0.0004589805321302265, 0.14274252951145172, -0.003168069990351796, -0.0012694693868979812, 0.2965668737888336, 0.08362296223640442, 0.17039738595485687, 0.06846518069505692, 0.6053290480255642, -0.7053662796095352, -7.052652958588384, 9362.0, 30146.0, 35388.0, 9362.0, 8.17190170288086, -0.21149814128875732, -0.6958082318305969, -5.754449844360352, -0.0037359001580625772, -0.02998988702893257, 1.0314090251922607, -0.050824716687202454, -0.05751800537109375, 1.4912109375, 1.304443359375, 0.043182373046875, 1.48974609375
38907, 0.010164435021579266, 0.02264048345386982, -0.03149023279547691, -0.0012433903757482767, -0.0004589805321302265, 0.14274252951145172, -0.003168069990351796, -0.0012694693868979812, 0.2965668737888336, 0.08362114429473877, 0.17039424180984497, 0.06848391890525818, 0.6017752920727321, -0.709497159613818, -7.060805184165619, 9362.0, 30146.0, 35388.0, 9362.0, 8.17190170288086, 0.20795975625514984, 0.6921843886375427, 5.298794269561768, -0.0037359001580625772, -0.02998988702893257, 1.0314090251922607, -0.05197131261229515, -0.06647872924804688, 1.490478515625, 1.304443359375, 0.043182373046875, 1.48974609375
38937, 0.01508609764277935, 0.021647999063134193, -0.012602739036083221, -0.0012433903757482767, -0.0004589805321302265, 0.14274252951145172, -0.003168069990351796, -0.0012694693868979812, 0.2965668737888336, 0.08361398428678513, 0.17039409279823303, 0.06845277547836304, 0.60139378204766, -0.7142021207167488, -7.060148762834883, 9362.0, 30146.0, 35388.0, 9362.0, 8.17190170288086, -0.5700637698173523, -1.1427077054977417, -6.747982501983643, -0.012601591646671295, -0.02941018156707287, 1.0317103862762451, -0.04325328394770622, -0.10231781005859375, 1.487548828125, 1.304443359375, 0.043182373046875, 1.48974609375
38947, 0.012864462099969387, 0.021726880222558975, -0.03538035228848457, -0.0012433903757482767, -0.0004589805321302265, 0.14274252951145172, -0.003168069990351796, -0.0012694693868979812, 0.2965668737888336, 0.08362194150686264, 0.17040565609931946, 0.06847698986530304, 0.5978142279749645, -0.7072400002628001, -7.0607326986504075, 9362.0, 30146.0, 35388.0, 9362.0, 8.17190170288086, 0.8544358611106873, 0.504136860370636, 8.8168306350708, -0.008572547696530819, -0.017976120114326477, 1.0297280550003052, -0.04325328394770622, -0.10231781005859375, 1.487548828125, 1.304443359375, 0.043182373046875, 1.48974609375
38957, 0.014988215640187263, 0.02390553057193756, -0.04431211203336716, -0.0012433903757482767, -0.0004589805321302265, 0.14274252951145172, -0.003168069990351796, -0.0012694693868979812, 0.2965668737888336, 0.08360590040683746, 0.17040443420410156, 0.06844711303710938, 0.5959604577295438, -0.7259857277491903, -7.049611738566348, 9362.0, 30146.0, 35388.0, 9362.0, 8.17190170288086, -1.0679887533187866, 0.3549326956272125, 2.4150571823120117, -0.008572547696530819, -0.017976120114326477, 1.0297280550003052, -0.0437084399163723, -0.03959846496582031, 1.49267578125, 1.304443359375, 0.043182373046875, 1.48974609375
38967, 0.018451692536473274, 0.021107057109475136, -0.04213719815015793, -0.0012433903757482767, -0.0004589805321302265, 0.14274252951145172, -0.003168069990351796, -0.0012694693868979812, 0.2965668737888336, 0.08362465351819992, 0.1703900694847107, 0.06844327598810196, 0.5985841251798936, -0.7074454552027589, -7.066285085843047, 9362.0, 30146.0, 35388.0, 9362.0, 8.17190170288086, -1.0679887533187866, 0.3549326956272125, 2.4150571823120117, -0.0011109384940937161, -0.030330762267112732, 1.0323354005813599, -0.0437084399163723, -0.03959846496582031, 1.49267578125, 1.304443359375, 0.043182373046875, 1.48974609375
38977, 0.019853824749588966, 0.01821637526154518, -0.02310003526508808, -0.0012433903757482767, -0.0004589805321302265, 0.14274252951145172, -0.003168069990351796, -0.0012694693868979812, 0.2965668737888336, 0.08358068019151688, 0.17040029168128967, 0.06841262429952621, 0.5966916784885122, -0.7237328168265833, -7.045988173860653, 9362.0, 30146.0, 35388.0, 9362.0, 8.17190170288086, 0.7824937701225281, -0.10959950089454651, -6.983235836029053, -0.0011109384940937161, -0.030330762267112732, 1.0323354005813599, -0.04355527460575104, -0.08439826965332031, 1.489013671875, 1.304443359375, 0.043182373046875, 1.48974609375
39037, 0.01648098975419998, 0.01755506545305252, -0.047874800860881805, -0.0016558946808800101, -0.0006299299420788884, 0.18092752993106842, -0.0036402503028512, -0.001577512826770544, 0.33446821570396423, 0.0835917592048645, 0.17040160298347473, 0.06844150274991989, 0.6013112829773536, -0.7186843427503504, -7.051542549236926, 9362.0, 30146.0, 35388.0, 9362.0, 8.17190170288086, -0.4265376329421997, 0.47962626814842224, 3.460418224334717, -0.006285974755883217, -0.02624233439564705, 1.0279455184936523, -0.05328020825982094, -0.05751800537109375, 1.4912109375, 1.304443359375, 0.043182373046875, 1.48974609375
39047, 0.021177077665925026, 0.014063549228012562, -0.02854507975280285, -0.0016558946808800101, -0.0006299299420788884, 0.18092752993106842, -0.0036402503028512, -0.001577512826770544, 0.33446821570396423, 0.0836164802312851, 0.17039112746715546, 0.06845440715551376, 0.6023068154287531, -0.7145780286508625, -7.058510517186634, 9362.0, 30146.0, 35388.0, 9362.0, 8.17190170288086, -0.4265376329421997, 0.47962626814842224, 3.460418224334717, -0.008154739625751972, -0.027960365638136864, 1.0303205251693726, -0.05328020825982094, -0.05751800537109375, 1.4912109375, 1.304443359375, 0.043182373046875, 1.48974609375
39057, 0.019509805366396904, 0.011011823080480099, -0.0218049306422472, -0.0016558946808800101, -0.0006299299420788884, 0.18092752993106842, -0.0036402503028512, -0.001577512826770544, 0.33446821570396423, 0.08363264799118042, 0.17039284110069275, 0.06846005469560623, 0.5934110110196283, -0.7148664979037846, -7.06452039188893, 9362.0, 30146.0, 35388.0, 9362.0, 8.17190170288086, -0.4265376329421997, 0.47962626814842224, 3.460418224334717, -0.008154739625751972, -0.027960365638136864, 1.0303205251693726, -0.05328020825982094, -0.05751800537109375, 1.4912109375, 1.304443359375, 0.043182373046875, 1.48974609375
39067, 0.017641659826040268, 0.014273250475525856, -0.035061080008745193, -0.0016558946808800101, -0.0006299299420788884, 0.18092752993106842, -0.0036402503028512, -0.001577512826770544, 0.33446821570396423, 0.08363860845565796, 0.1704048365354538, 0.06844713538885117, 0.6003253826689974, -0.7031187290414209, -7.052762090092779, 9362.0, 30146.0, 35388.0, 9362.0, 8.17190170288086, 0.4537704885005951, 0.7574628591537476, 5.395164489746094, -0.012518435716629028, -0.023562952876091003, 1.0323550701141357, -0.05328020825982094, -0.05751800537109375, 1.4912109375, 1.304443359375, 0.043182373046875, 1.48974609375
39077, 0.01779252290725708, 0.015763776376843452, -0.04530888423323631, -0.001957356696948409, -0.0007666019955649972, 0.20865492522716522, -0.003875256050378084, -0.0018440962303429842, 0.3586779236793518, 0.08359439671039581, 0.17041441798210144, 0.06845832616090775, 0.599091721701161, -0.7174979160962778, -7.055451662215838, 9362.0, 30146.0, 35388.0, 9362.0, 8.17190170288086, -1.2274508476257324, -0.1316944807767868, 0.06511463969945908, -0.00742453895509243, -0.024207456037402153, 1.0314425230026245, -0.05328020825982094, -0.05751800537109375, 1.4912109375, 1.304443359375, 0.043182373046875, 1.48974609375
39087, 0.020778292790055275, 0.01360994391143322, -0.02649206668138504, -0.001957356696948409, -0.0007666019955649972, 0.20865492522716522, -0.003875256050378084, -0.0018440962303429842, 0.3586779236793518, 0.08363024890422821, 0.17039625346660614, 0.06844042241573334, 0.5975823155672634, -0.7101724111626311, -7.063667246320792, 9362.0, 30146.0, 35388.0, 9362.0, 8.17190170288086, -0.26477915048599243, -0.6762943267822266, -6.587038516998291, -0.00742453895509243, -0.024207456037402153, 1.0314425230026245, -0.046779487282037735, -0.12023735046386719, 1.486083984375, 1.304443359375, 0.043182373046875, 1.48974609375
39097, 0.018235817551612854, 0.01404452882707119, -0.019659655168652534, -0.001957356696948409, -0.0007666019955649972, 0.20865492522716522, -0.003875256050378084, -0.0018440962303429842, 0.3586779236793518, 0.08358744531869888, 0.1704176813364029, 0.06846339255571365, 0.5990472740903909, -0.7245451325212571, -7.049449491666575, 9362.0, 30146.0, 35388.0, 9362.0, 8.17190170288086, 0.9633854031562805, -0.531232476234436, 0.9507782459259033, -0.00953842792659998, -0.02782309800386429, 1.0319201946258545, -0.046779487282037735, -0.12023735046386719, 1.486083984375, 1.304443359375, 0.043182373046875, 1.48974609375
39117, 0.018227338790893555, 0.02001776359975338, -0.047356102615594864, -0.0021144330967217684, -0.000842955952975899, 0.22325439751148224, -0.003977486863732338, -0.0019755102694034576, 0.3712370693683624, 0.0836186334490776, 0.17039228975772858, 0.06846357882022858, 0.6038303753273113, -0.7137751530713103, -7.06366909277562, 9362.0, 30146.0, 35388.0, 9362.0, 8.17190170288086, -0.901970624923706, -0.46641650795936584, 2.257514476776123, -0.00953842792659998, -0.02782309800386429, 1.0319201946258545, -0.0406162329018116, -0.05751800537109375, 1.4912109375, 1.304443359375, 0.043182373046875, 1.48974609375
39177, 0.020674459636211395, 0.023568473756313324, -0.027920670807361603, -0.0023596580140292645, -0.0009673967724665999, 0.2460772693157196, -0.00421006279066205, -0.002179777715355158, 0.3894450068473816, 0.08359836786985397, 0.1704084873199463, 0.06844767183065414, 0.6005835880571159, -0.7206102518102, -7.047104170376005, 9362.0, 30146.0, 35388.0, 9362.0, 8.17190170288086, 1.1047475337982178, -0.03279987350106239, 0.7075130939483643, -0.011256558820605278, -0.026051532477140427, 1.0317282676696777, -0.0311892069876194, -0.03959846496582031, 1.49267578125, 1.304443359375, 0.043182373046875, 1.48974609375
39187, 0.01999043859541416, 0.024614594876766205, -0.03865126892924309, -0.0023596580140292645, -0.0009673967724665999, 0.2460772693157196, -0.00421006279066205, -0.002179777715355158, 0.3894450068473816, 0.08362969756126404, 0.1703653782606125, 0.06836145371198654, 0.6257853954072394, -0.6754985044480009, -6.987373502139637, 9362.0, 30146.0, 35388.0, 9362.0, 8.17190170288086, 0.08234348893165588, 0.8479788899421692, 4.244687080383301, -0.011256558820605278, -0.026051532477140427, 1.0317282676696777, -0.033533141016960144, 0.1396007537841797, 1.50732421875, 1.304443359375, 0.043182373046875, 1.48974609375
39197, 0.02228454127907753, 0.02852492220699787, -0.05411633104085922, -0.0023596580140292645, -0.0009673967724665999, 0.2460772693157196, -0.00421006279066205, -0.002179777715355158, 0.3894450068473816, 0.08363164216279984, 0.17039331793785095, 0.06845252215862274, 0.6025041508602842, -0.7027064584456468, -7.0613952266286, 9362.0, 30146.0, 35388.0, 9362.0, 8.17190170288086, -0.5038632154464722, 0.06989853084087372, 5.541548252105713, -0.0064727128483355045, -0.022688159719109535, 1.0311055183410645, -0.033533141016960144, 0.1396007537841797, 1.50732421875, 1.304443359375, 0.043182373046875, 1.48974609375
39207, 0.02501867711544037, 0.02796476148068905, -0.04700671508908272, -0.0023596580140292645, -0.0009673967724665999, 0.2460772693157196, -0.00421006279066205, -0.002179777715355158, 0.3894450068473816, 0.08363082259893417, 0.17039382457733154, 0.06847884505987167, 0.6027094168999728, -0.7164257156699989, -7.054875571765043, 9362.0, 30146.0, 35388.0, 9362.0, 8.17190170288086, -0.5038632154464722, 0.06989853084087372, 5.541548252105713, -0.006407415494322777, -0.026990652084350586, 1.0313163995742798, -0.033533141016960144, 0.1396007537841797, 1.50732421875, 1.304443359375, 0.043182373046875, 1.48974609375
39217, 0.023660164326429367, 0.027709297835826874, -0.02429075539112091, -0.0023596580140292645, -0.0009673967724665999, 0.2460772693157196, -0.00421006279066205, -0.002179777715355158, 0.3894450068473816, 0.0835874006152153, 0.17040520906448364, 0.0684669092297554, 0.6037177477171909, -0.7168617701299524, -7.049445817889673, 9362.0, 30146.0, 35388.0, 9362.0, 8.17190170288086, -0.5038632154464722, 0.06989853084087372, 5.541548252105713, -0.006407415494322777, -0.026990652084350586, 1.0313163995742798, -0.03060336224734783, -0.01271820068359375, 1.494873046875, 1.304443359375, 0.043182373046875, 1.48974609375
39277, 0.021645309403538704, 0.031744688749313354, -0.054312825202941895, -0.0026200353167951107, -0.0011052577756345272, 0.2700100243091583, -0.004482978023588657, -0.0024193294811993837, 0.4082272946834564, 0.08363433182239532, 0.1704138219356537, 0.06849139928817749, 0.5975078198290203, -0.700737993241745, -7.0573377987930295, 9362.0, 30146.0, 35388.0, 9362.0, 8.17190170288086, -1.002708077430725, 0.1838752180337906, 0.4478733241558075, -0.006407415494322777, -0.026990652084350586, 1.0313163995742798, -0.038902170956134796, -0.11127853393554688, 1.48681640625, 1.304443359375, 0.043182373046875, 1.48974609375
39287, 0.02490227296948433, 0.024930544197559357, -0.030184388160705566, -0.0026200353167951107, -0.0011052577756345272, 0.2700100243091583, -0.004482978023588657, -0.0024193294811993837, 0.4082272946834564, 0.08364072442054749, 0.17040716111660004, 0.06848026812076569, 0.6013416986753962, -0.7029119439670524, -7.061125442747492, 9362.0, 30146.0, 35388.0, 9362.0, 8.17190170288086, -0.10631635785102844, -0.5872060060501099, -5.686087131500244, -0.006407415494322777, -0.026990652084350586, 1.0313163995742798, -0.038902170956134796, -0.11127853393554688, 1.48681640625, 1.304443359375, 0.043182373046875, 1.48974609375
39297, 0.02242211252450943, 0.025076283141970634, -0.029620898887515068, -0.0026200353167951107, -0.0011052577756345272, 0.2700100243091583, -0.004482978023588657, -0.0024193294811993837, 0.4082272946834564, 0.08363212645053864, 0.17040424048900604, 0.06847628951072693, 0.59807266868413, -0.7044954265523131, -7.060686318902256, 9362.0, 30146.0, 35388.0, 9362.0, 8.17190170288086, 0.9683279991149902, 0.5459831357002258, 3.6398329734802246, -0.006407415494322777, -0.026990652084350586, 1.0313163995742798, -0.038902170956134796, -0.11127853393554688, 1.48681640625, 1.304443359375, 0.043182373046875, 1.48974609375
39307, 0.01989314891397953, 0.027442658320069313, -0.04519599676132202, -0.0026200353167951107, -0.0011052577756345272, 0.2700100243091583, -0.004482978023588657, -0.0024193294811993837, 0.4082272946834564, 0.0835973396897316, 0.17040811479091644, 0.06846654415130615, 0.5968814186253825, -0.7254643569935979, -7.0550736608410265, 9362.0, 30146.0, 35388.0, 9362.0, 8.17190170288086, 0.08886613696813583, 0.3059673011302948, 3.98252272605896, -0.006407415494322777, -0.026990652084350586, 1.0313163995742798, -0.038902170956134796, -0.11127853393554688, 1.48681640625, 1.304443359375, 0.043182373046875, 1.48974609375
39387, 0.01642834208905697, 0.029054762795567513, -0.04266807809472084, -0.0033491316717118025, -0.0015132541302591562, 0.3346595764160156, -0.005236596800386906, -0.0030040808487683535, 0.4538773000240326, 0.08358342945575714, 0.1704057902097702, 0.0684395506978035, 0.6119783449733245, -0.7179975261386176, -7.042732832076981, 9362.0, 30146.0, 35388.0, 9362.0, 8.17190170288086, -0.026003487408161163, 1.1051105260849, 6.838655471801758, -0.013143421150743961, -0.026916608214378357, 1.0300339460372925, -0.04687648266553879, -0.04855918884277344, 1.491943359375, 1.304443359375, 0.043182373046875, 1.48974609375
39417, 0.01651676930487156, 0.022079546004533768, -0.03696804493665695, -0.0033491316717118025, -0.0015132541302591562, 0.3346595764160156, -0.005236596800386906, -0.0030040808487683535, 0.4538773000240326, 0.08362183719873428, 0.17039987444877625, 0.06849762797355652, 0.6054427840268, -0.7046005537403346, -7.056536214040247, 9362.0, 30146.0, 35388.0, 9362.0, 8.17190170288086, 0.17907990515232086, -0.3320685029029846, -5.363388538360596, -0.007878536358475685, -0.02124333195388317, 1.030316710472107, -0.07337655127048492, -0.08439826965332031, 1.489013671875, 1.304443359375, 0.043182373046875, 1.48974609375
39517, 0.017881343141198158, 0.020117957144975662, -0.0602746419608593, -0.0038950052112340927, -0.0018293459434062243, 0.3815709054470062, -0.0056540099903941154, -0.003313512774184346, 0.4845586121082306, 0.08362530916929245, 0.1703995168209076, 0.06849238276481628, 0.5984811706620315, -0.7102540554563745, -7.066523642166234, 9362.0, 30146.0, 35388.0, 9362.0, 8.17190170288086, -0.8989334106445312, -0.2092735767364502, 2.445270538330078, -0.009370743297040462, -0.0355120487511158, 1.0328534841537476, -0.05271067097783089, -0.04855918884277344, 1.491943359375, 1.304443359375, 0.043182373046875, 1.48974609375
39527, 0.02065371163189411, 0.01757507584989071, -0.04224107414484024, -0.0038950052112340927, -0.0018293459434062243, 0.3815709054470062, -0.0056540099903941154, -0.003313512774184346, 0.4845586121082306, 0.08358518034219742, 0.17039641737937927, 0.06845664232969284, 0.6004752953335236, -0.7228004131550279, -7.050523085133379, 9362.0, 30146.0, 35388.0, 9362.0, 8.17190170288086, -0.8989334106445312, -0.2092735767364502, 2.445270538330078, -0.004698422737419605, -0.029582466930150986, 1.0319427251815796, -0.05271067097783089, -0.04855918884277344, 1.491943359375, 1.304443359375, 0.043182373046875, 1.48974609375
39537, 0.018917588517069817, 0.019255034625530243, -0.036106668412685394, -0.0038950052112340927, -0.0018293459434062243, 0.3815709054470062, -0.0056540099903941154, -0.003313512774184346, 0.4845586121082306, 0.08361465483903885, 0.17038705945014954, 0.06847986578941345, 0.6006997259846847, -0.6972487624876464, -7.056490298517529, 9362.0, 30146.0, 35388.0, 9362.0, 8.17190170288086, 1.1450464725494385, -0.04233452305197716, 1.0549956560134888, -0.004698422737419605, -0.029582466930150986, 1.0319427251815796, -0.05271067097783089, -0.04855918884277344, 1.491943359375, 1.304443359375, 0.043182373046875, 1.48974609375
39547, 0.018255064263939857, 0.02258346974849701, -0.05207182094454765, -0.0038950052112340927, -0.0018293459434062243, 0.3815709054470062, -0.0056540099903941154, -0.003313512774184346, 0.4845586121082306, 0.08358165621757507, 0.17040085792541504, 0.0684397742152214, 0.5972501632922508, -0.7190258520875261, -7.039431277250641, 9362.0, 30146.0, 35388.0, 9362.0, 8.17190170288086, 0.34502413868904114, 1.0826873779296875, 4.814350128173828, -0.007942634634673595, -0.021756896749138832, 1.0298453569412231, -0.05271067097783089, -0.04855918884277344, 1.491943359375, 1.304443359375, 0.043182373046875, 1.48974609375
39557, 0.022239970043301582, 0.019677940756082535, -0.05802817642688751, -0.0038950052112340927, -0.0018293459434062243, 0.3815709054470062, -0.0056540099903941154, -0.003313512774184346, 0.4845586121082306, 0.08359075337648392, 0.17041394114494324, 0.06845802068710327, 0.597319304968786, -0.7114624373220693, -7.051773919794521, 9362.0, 30146.0, 35388.0, 9362.0, 8.17190170288086, 0.34502413868904114, 1.0826873779296875, 4.814350128173828, -0.006209041923284531, -0.02597428299486637, 1.0300161838531494, -0.05271067097783089, -0.04855918884277344, 1.491943359375, 1.304443359375, 0.043182373046875, 1.48974609375
39637, 0.019808387383818626, 0.016156965866684914, -0.05484895408153534, -0.004781689029186964, -0.0023635271936655045, 0.4577230215072632, -0.006152427289634943, -0.003831312293186784, 0.5312249064445496, 0.08359268307685852, 0.1704072505235672, 0.06846869736909866, 0.5909272563811908, -0.721881139282317, -7.047822068795763, 9362.0, 30146.0, 35388.0, 9362.0, 8.17190170288086, -0.8164984583854675, 0.042980123311281204, 2.1290180683135986, -0.00704808346927166, -0.023836413398385048, 1.0330146551132202, -0.08312469720840454, -0.07543754577636719, 1.48974609375, 1.304443359375, 0.043182373046875, 1.48974609375
39647, 0.02407079190015793, 0.01445745024830103, -0.043175552040338516, -0.004781689029186964, -0.0023635271936655045, 0.4577230215072632, -0.006152427289634943, -0.003831312293186784, 0.5312249064445496, 0.08363119512796402, 0.17039236426353455, 0.06847992539405823, 0.5968473303823644, -0.7118612702815312, -7.0624158590280395, 9362.0, 30146.0, 35388.0, 9362.0, 8.17190170288086, -0.31696438789367676, -0.8703213334083557, -6.383639812469482, -0.00704808346927166, -0.023836413398385048, 1.0330146551132202, -0.08312469720840454, -0.07543754577636719, 1.48974609375, 1.304443359375, 0.043182373046875, 1.48974609375
39657, 0.0209447480738163, 0.016744637861847878, -0.03126438334584236, -0.004781689029186964, -0.0023635271936655045, 0.4577230215072632, -0.006152427289634943, -0.003831312293186784, 0.5312249064445496, 0.08361279219388962, 0.17039962112903595, 0.06849977374076843, 0.5996259681880136, -0.7094388705669132, -7.0650220227431495, 9362.0, 30146.0, 35388.0, 9362.0, 8.17190170288086, -0.31696438789367676, -0.8703213334083557, -6.383639812469482, -0.010845308192074299, -0.026735175400972366, 1.0307108163833618, -0.08312469720840454, -0.07543754577636719, 1.48974609375, 1.304443359375, 0.043182373046875, 1.48974609375
39677, 0.020021803677082062, 0.01895379088819027, -0.05569165199995041, -0.005030007101595402, -0.00251957681030035, 0.4792112410068512, -0.006264119409024715, -0.003977031446993351, 0.5433160066604614, 0.08363506942987442, 0.17039228975772858, 0.06847390532493591, 0.6048096389603659, -0.7035103099645994, -7.057895121557588, 9362.0, 30146.0, 35388.0, 9362.0, 8.17190170288086, -0.7359143495559692, -0.12278297543525696, 1.5532382726669312, -0.009597168304026127, -0.020602179691195488, 1.0309513807296753, -0.06754733622074127, -0.030637741088867188, 1.493408203125, 1.304443359375, 0.043182373046875, 1.48974609375
39717, 0.021908117458224297, 0.020172223448753357, -0.05851772800087929, -0.005283139180392027, -0.0026814534794539213, 0.5011874437332153, -0.006393827963620424, -0.004120382480323315, 0.5556052923202515, 0.0836128368973732, 0.17040124535560608, 0.06845749914646149, 0.6043762865293466, -0.7027753332321538, -7.063333759279041, 9362.0, 30146.0, 35388.0, 9362.0, 8.17190170288086, -1.0548310279846191, -0.2863582968711853, 0.043553780764341354, -0.0066854143515229225, -0.022754911333322525, 1.030278205871582, -0.05005638673901558, -0.0037593841552734375, 1.49560546875, 1.29638671875, 0.0542755126953125, 1.48974609375
39727, 0.023717546835541725, 0.01659916713833809, -0.05069580674171448, -0.005347257945686579, -0.0027228270191699266, 0.5067588090896606, -0.006429917179048061, -0.004154451657086611, 0.558663010597229, 0.08363090455532074, 0.17040888965129852, 0.06847114115953445, 0.5995610712181496, -0.7024242374132825, -7.062602378351393, 9362.0, 30146.0, 35388.0, 9362.0, 8.17190170288086, 0.40291064977645874, -0.47829097509384155, -5.525074481964111, -0.0066854143515229225, -0.022754911333322525, 1.030278205871582, -0.05609471723437309, -0.03959846496582031, 1.49267578125, 1.29638671875, 0.0542755126953125, 1.48974609375
39737, 0.02190430834889412, 0.01774887554347515, -0.03442836552858353, -0.005347257945686579, -0.0027228270191699266, 0.5067588090896606, -0.006429917179048061, -0.004154451657086611, 0.558663010597229, 0.08361895382404327, 0.1704057902097702, 0.06846050173044205, 0.6004210562239946, -0.7097401354436954, -7.055765767413668, 9362.0, 30146.0, 35388.0, 9362.0, 8.17190170288086, 0.5978846549987793, 0.3785764276981354, -0.11445870250463486, -0.0066854143515229225, -0.022754911333322525, 1.030278205871582, -0.05949687585234642, -0.12023735046386719, 1.486083984375, 1.29638671875, 0.0542755126953125, 1.48974609375
39767, 0.02455756813287735, 0.0211351215839386, -0.05061383172869682, -0.005476535763591528, -0.002806706354022026, 0.5179939270019531, -0.006494787521660328, -0.004234982188791037, 0.5648439526557922, 0.08358556032180786, 0.1704007387161255, 0.06844109296798706, 0.6006254819685019, -0.723643604676397, -7.045655903835189, 9362.0, 30146.0, 35388.0, 9362.0, 8.17190170288086, -0.03317870944738388, -0.5288762450218201, -7.154489040374756, -0.0067503550089895725, -0.031212981790304184, 1.0317946672439575, -0.04762068763375282, -0.03959846496582031, 1.49267578125, 1.29638671875, 0.0542755126953125, 1.4912109375
39777, 0.02394391968846321, 0.021473608911037445, -0.037939734756946564, -0.005476535763591528, -0.002806706354022026, 0.5179939270019531, -0.006494787521660328, -0.004234982188791037, 0.5648439526557922, 0.08362600207328796, 0.17040230333805084, 0.0684744343161583, 0.6029967613043347, -0.7068499785250992, -7.0632581028193995, 9362.0, 30146.0, 35388.0, 9362.0, 8.17190170288086, -0.03317870944738388, -0.5288762450218201, -7.154489040374756, -0.010568710044026375, -0.024985773488879204, 1.0306910276412964, -0.04762068763375282, -0.03959846496582031, 1.49267578125, 1.29638671875, 0.0542755126953125, 1.4912109375
39787, 0.02221808210015297, 0.0234451275318861, -0.04203790798783302, -0.005476535763591528, -0.002806706354022026, 0.5179939270019531, -0.006494787521660328, -0.004234982188791037, 0.5648439526557922, 0.083590067923069, 0.1704166829586029, 0.06844756752252579, 0.5967030241233435, -0.7196669733584145, -7.046308801052015, 9362.0, 30146.0, 35388.0, 9362.0, 8.17190170288086, -0.03317870944738388, -0.5288762450218201, -7.154489040374756, -0.013501537963747978, -0.024422407150268555, 1.030293583869934, -0.05014285445213318, -0.05751800537109375, 1.4912109375, 1.29638671875, 0.0542755126953125, 1.4912109375
39797, 0.022413713857531548, 0.02473347634077072, -0.0676082894206047, -0.005476535763591528, -0.002806706354022026, 0.5179939270019531, -0.006494787521660328, -0.004234982188791037, 0.5648439526557922, 0.08358190208673477, 0.1704113930463791, 0.0684281438589096, 0.5941694287458218, -0.7151917271649211, -7.05256959302209, 9362.0, 30146.0, 35388.0, 9362.0, 8.17190170288086, -1.09488844871521, -0.4535326063632965, 0.29918742179870605, -0.0018950649537146091, -0.023489071056246758, 1.0322133302688599, -0.035849470645189285, -0.07543754577636719, 1.48974609375, 1.29638671875, 0.0542755126953125, 1.4912109375
39807, 0.024845842272043228, 0.02438156120479107, -0.052387792617082596, -0.005476535763591528, -0.002806706354022026, 0.5179939270019531, -0.006494787521660328, -0.004234982188791037, 0.5648439526557922, 0.08362442255020142, 0.17039546370506287, 0.06847584992647171, 0.5964688305461765, -0.7098985615272113, -7.066912394354714, 9362.0, 30146.0, 35388.0, 9362.0, 8.17190170288086, -0.3142322897911072, -0.7041894197463989, -6.01114559173584, -0.0018950649537146091, -0.023489071056246758, 1.0322133302688599, -0.03476972505450249, -0.07543754577636719, 1.48974609375, 1.29638671875, 0.0542755126953125, 1.4912109375
39817, 0.024478258565068245, 0.022091969847679138, -0.044855747371912, -0.005476535763591528, -0.002806706354022026, 0.5179939270019531, -0.006494787521660328, -0.004234982188791037, 0.5648439526557922, 0.08361700177192688, 0.17039962112903595, 0.06846898049116135, 0.596073616774845, -0.7137910431187322, -7.067144917201467, 9362.0, 30146.0, 35388.0, 9362.0, 8.17190170288086, 1.2344447374343872, 0.06162545084953308, -3.023409366607666, -0.007904456928372383, -0.024890301749110222, 1.0310983657836914, -0.03476972505450249, -0.07543754577636719, 1.48974609375, 1.29638671875, 0.0542755126953125, 1.491943359375
39857, 0.024768218398094177, 0.018354566767811775, -0.03986368328332901, -0.006213469430804253, -0.003296836279332638, 0.5819694995880127, -0.0069131189957261086, -0.0046783252619206905, 0.5986223220825195, 0.0835900753736496, 0.1703983098268509, 0.06843786686658859, 0.5965984245319189, -0.7202901766327727, -7.047915112021816, 9362.0, 30146.0, 35388.0, 9362.0, 8.17190170288086, 1.0071691274642944, 0.04114192724227905, -3.935685873031616, -0.0062726647593081, -0.026511220261454582, 1.0332931280136108, -0.04475255310535431, -0.04855918884277344, 1.491943359375, 1.33154296875, 0.0198516845703125, 1.491943359375
