timeTick, roll, pitch, yaw, stateX, stateY, stateZ, stateVX, stateVY, stateVZ, otX0, otY0, otZ0, otRoll0, otPitch0, otYaw0, left wing, pitch motor, yaw motor, right wing, voltage, roll rate, pitch rate, yaw rate, A_x, A_y, A_z, current, i_raw, v_raw, airflow_voltage, airflow_speed, pot_Pitch
27829, -4.213615894317627, 0.8876398205757141, -3.4889655113220215, 0, 0, 0, 0, 0, 0, 0.09113316982984543, 0.6193736791610718, 0.06709206849336624, 0.4935530753515218, -0.16119139841711672, -3.2651798003049435, 0, 0, 0, 0, 0, 0, 0, 0, 0, 0, 0, 0, 0, 0, 0, 0, 0
27839, -4.21311092376709, 0.8879833221435547, -3.4872848987579346, 4.5270709961187094e-05, -0.0003072656108997762, -6.062477111816406, 0.003990595228970051, -0.027086099609732628, -0.4617471396923065, 0.09112425893545151, 0.6193801760673523, 0.0670803114771843, 0.5040678406272787, -0.15274451895743368, -3.26217630037754, 9362.0, 30146.0, 35388.0, 9362.0, 7.99338960647583, 0.23956239223480225, 0.051171377301216125, -0.10417523235082626, -0.0044596148654818535, -0.02486606314778328, 0.999411940574646, -0.07032451033592224, -0.021678924560546875, 1.494140625, 1.30810546875, 0.0388031005859375, 0
27849, -4.213141918182373, 0.8865842223167419, -3.4895336627960205, 7.980622467584908e-05, -0.0005416953354142606, -6.06709623336792, 0.0029162955470383167, -0.01979987882077694, -0.4620307981967926, 0.09112157672643661, 0.6193751692771912, 0.06706412881612778, 0.5029646476458675, -0.14801385417689517, -3.250680538965947, 9362.0, 30146.0, 35388.0, 9362.0, 8.013224601745605, -0.027150314301252365, 0.3695431649684906, -0.06545548886060715, -0.0032377936877310276, -0.02566814050078392, 0.998483419418335, -0.06994511932134628, -0.07543754577636719, 1.48974609375, 1.318359375, 0.028656005859375, 1.496337890625
27859, -4.213540077209473, 0.886195957660675, -3.4899344444274902, 0.00010359751468058676, -0.0007032876601442695, -6.071718215942383, 0.0018422405701130629, -0.012518552131950855, -0.4623697102069855, 0.09112861007452011, 0.6193714141845703, 0.06708139181137085, 0.49626736517238884, -0.155061379274116, -3.2564204647050468, 9362.0, 30146.0, 35388.0, 9362.0, 7.99338960647583, 0.07427070289850235, -0.09060084819793701, -0.05534571409225464, -0.002851933939382434, -0.02319260686635971, 0.9994802474975586, -0.06978877633810043, 0.04104042053222656, 1.499267578125, 1.3125, 0.034027099609375, 1.494873046875
27869, -4.212794780731201, 0.8868942260742188, -3.4889028072357178, 0.000116664836241398, -0.0007920889183878899, -6.076344013214111, 0.000771273800637573, -0.0052416967228055, -0.4627675414085388, 0.0911216288805008, 0.6193821430206299, 0.06705844402313232, 0.4971843025206314, -0.15259637361873502, -3.253937940767442, 9362.0, 30146.0, 35388.0, 9362.0, 8.013224601745605, -0.015479175373911858, -0.4708292484283447, -0.07546096295118332, -0.0020095850341022015, -0.02352151647210121, 0.9997496604919434, -0.07359234988689423, -0.10231781005859375, 1.487548828125, 1.3212890625, 0.026214599609375, 1.49267578125
27879, -4.212438106536865, 0.8874430060386658, -3.4885103702545166, 0.00011902095138793811, -0.0008080822881311178, -6.080973148345947, -0.0003001790028065443, 0.002043010899797082, -0.46306824684143066, 0.09112103283405304, 0.6193800568580627, 0.06708421558141708, 0.49792031687785315, -0.15599146257076768, -3.262701549724752, 9362.0, 30146.0, 35388.0, 9362.0, 8.013224601745605, -0.14924795925617218, -0.07343372702598572, 0.16635483503341675, -0.002056777011603117, -0.024686122313141823, 1.000916838645935, -0.07731261104345322, -0.05751800537109375, 1.4912109375, 1.32275390625, 0.0251312255859375, 1.491943359375
27889, -4.212527275085449, 0.8878619074821472, -3.4881227016448975, 0.0001106566414819099, -0.0007512422162108123, -6.085605621337891, -0.0013727289624512196, 0.00932501070201397, -0.4633890390396118, 0.09112093597650528, 0.6193854212760925, 0.06708463281393051, 0.5040840159009169, -0.1493737522287404, -3.25501346343978, 9362.0, 30146.0, 35388.0, 9362.0, 8.013224601745605, 0.05746759474277496, -0.04168729484081268, -0.22989584505558014, -0.0008323845104314387, -0.0259709432721138, 1.0019723176956177, -0.07192941755056381, -0.05751800537109375, 1.4912109375, 1.323486328125, 0.024688720703125, 1.494873046875
27899, -4.2130961418151855, 0.8878850936889648, -3.489950180053711, 9.155275620287284e-05, -0.0006215240573510528, -6.090240478515625, -0.0024480971042066813, 0.016618618741631508, -0.4635465145111084, 0.09111688286066055, 0.6193784475326538, 0.06707076728343964, 0.48993557483096, -0.15698474678703178, -3.2635718326955137, 9362.0, 30146.0, 35388.0, 9362.0, 7.99338960647583, 0.10010630637407303, -0.13855595886707306, 0.10070942342281342, -0.00031615447369404137, -0.02516534924507141, 0.9997042417526245, -0.07284723222255707, -0.04855918884277344, 1.491943359375, 1.3212890625, 0.026214599609375, 1.493408203125
27909, -4.213178634643555, 0.8856353163719177, -3.489497184753418, 6.16903489571996e-05, -0.00041886160033755004, -6.094876766204834, -0.0035241516306996346, 0.023913906887173653, -0.4636845886707306, 0.09111922979354858, 0.6193763017654419, 0.06708593666553497, 0.50261133149842, -0.1579814474863781, -3.2565563152724937, 9362.0, 30146.0, 35388.0, 9362.0, 8.013224601745605, 0.12510627508163452, 0.18130998313426971, 0.1293470412492752, 0.0011243927292525768, -0.02588193491101265, 0.9986246228218079, -0.07204046845436096, -0.04855918884277344, 1.491943359375, 1.310302734375, 0.036285400390625, 1.49267578125
27919, -4.213475704193115, 0.8859044909477234, -3.488025665283203, 2.1080835722386837e-05, -0.00014332376304082572, -6.099515438079834, -0.004597821738570929, 0.03119363822042942, -0.4640441834926605, 0.0911216139793396, 0.6193870306015015, 0.06708353012800217, 0.49627345590623956, -0.1580140883236254, -3.2537545123996723, 9362.0, 30146.0, 35388.0, 9362.0, 7.99338960647583, -0.12964247167110443, -0.3972196578979492, -0.08545328676700592, -0.0006563325878232718, -0.024604514241218567, 0.999135434627533, -0.07107735425233841, -0.08439826965332031, 1.489013671875, 1.31689453125, 0.0298919677734375, 1.49560546875
27929, -4.213029861450195, 0.8875492811203003, -3.4877567291259766, -3.024495890713297e-05, 0.0002050006005447358, -6.1041579246521, -0.005667521618306637, 0.03847120329737663, -0.4644315540790558, 0.0911177396774292, 0.6193861961364746, 0.06708096712827682, 0.49355633212523753, -0.14610226991709396, -3.2646725962301546, 9362.0, 30146.0, 35388.0, 9362.0, 8.013224601745605, 0.0586189366877079, 0.12270668894052505, 0.1894938349723816, -0.00012216022878419608, -0.02620147168636322, 1.000636100769043, -0.07065675407648087, -0.05751800537109375, 1.4912109375, 1.326416015625, 0.022705078125, 1.491943359375
27939, -4.213185787200928, 0.8879889249801636, -3.4872372150421143, -9.22736362554133e-05, 0.0006261223461478949, -6.108803749084473, -0.006738242227584124, 0.045753151178359985, -0.4647672176361084, 0.09112037718296051, 0.6193761825561523, 0.0670689269900322, 0.4963286245385542, -0.15375271430866633, -3.2635157748016925, 9362.0, 30146.0, 35388.0, 9362.0, 7.99338960647583, -0.19631554186344147, 0.22153766453266144, 0.21326085925102234, 0.00013863226922694594, -0.026655778288841248, 1.0004141330718994, -0.06758636981248856, -0.01271820068359375, 1.494873046875, 1.326416015625, 0.022705078125, 1.494873046875
27949, -4.2135233879089355, 0.8853071928024292, -3.487196922302246, -0.00016503148071933538, 0.0011201116722077131, -6.113452434539795, -0.007813392207026482, 0.05304471030831337, -0.46496570110321045, 0.0911470577120781, 0.619353711605072, 0.06703812628984451, 0.509499392528111, -0.16999956917791792, -3.253640029299767, 9362.0, 30146.0, 35388.0, 9362.0, 8.013224601745605, 0.09223449230194092, 0.24039804935455322, -0.20284654200077057, -0.0008551475475542247, -0.025227997452020645, 0.9981358051300049, -0.06906025856733322, -0.0037593841552734375, 1.49560546875, 1.31689453125, 0.0298919677734375, 1.494873046875
27959, -4.213712692260742, 0.886520504951477, -3.489560127258301, -0.0002485396689735353, 0.0016869832761585712, -6.118103504180908, -0.008888267911970615, 0.0603296160697937, -0.4652577042579651, 0.09111267328262329, 0.619387149810791, 0.06708050519227982, 0.49570923039335163, -0.15483886170082428, -3.2583503679634664, 9362.0, 30146.0, 35388.0, 9362.0, 7.99338960647583, 0.14534251391887665, -0.09492826461791992, -0.2524394989013672, -0.0006814493681304157, -0.02348870225250721, 0.9984235167503357, -0.06979451328516006, -0.07543754577636719, 1.48974609375, 1.313232421875, 0.0333251953125, 1.49560546875
27969, -4.213281154632568, 0.8877878785133362, -3.4908339977264404, -0.000342765124514699, 0.002326647751033306, -6.122758388519287, -0.009956513531506062, 0.06760329753160477, -0.4657049775123596, 0.09112991392612457, 0.6193699836730957, 0.06709146499633789, 0.49678171218553263, -0.152342791808735, -3.2581161152522617, 9362.0, 30146.0, 35388.0, 9362.0, 7.99338960647583, -0.046467509120702744, -0.30675026774406433, -0.10649517178535461, -0.00023533115745522082, -0.023743828758597374, 0.9999305009841919, -0.06958150863647461, -0.04855918884277344, 1.491943359375, 1.314697265625, 0.0319061279296875, 1.493408203125
27979, -4.214611053466797, 0.8907154202461243, -3.4912052154541016, -0.00044768600491806865, 0.0030390804167836905, -6.127417087554932, -0.011027499102056026, 0.07488323748111725, -0.46607455611228943, 0.0911499559879303, 0.6193522214889526, 0.06703299283981323, 0.5125518871984284, -0.172124560804491, -3.2558490875666313, 9362.0, 30146.0, 35388.0, 9362.0, 8.013224601745605, 0.17397601902484894, -0.4561106264591217, -0.3189689815044403, -0.003083424409851432, -0.026983698830008507, 1.001010775566101, -0.06519171595573425, -0.05751800537109375, 1.4912109375, 1.310302734375, 0.036285400390625, 1.496337890625
27989, -4.214871406555176, 0.8934826254844666, -3.4918954372406006, -0.0005633329856209457, 0.0038243504241108894, -6.132079124450684, -0.012101839296519756, 0.08217077702283859, -0.46633413434028625, 0.09112724661827087, 0.6193801760673523, 0.06707149744033813, 0.499145231604986, -0.14943192912977565, -3.260875306211782, 9362.0, 30146.0, 35388.0, 9362.0, 8.013224601745605, 0.026663372293114662, -0.010904977098107338, 0.05221230536699295, -0.002641459694132209, -0.025313034653663635, 1.0025001764297485, -0.06191542372107506, -0.030637741088867188, 1.493408203125, 1.316162109375, 0.030517578125, 1.496337890625
27999, -4.214759349822998, 0.8942264318466187, -3.492107629776001, -0.0006897537969052792, 0.004682552069425583, -6.136743068695068, -0.013182231225073338, 0.0894695594906807, -0.4664779603481293, 0.09112697839736938, 0.6193455457687378, 0.06698527187108994, 0.45860670157604466, -0.17075444700284947, -3.2763136082408466, 9362.0, 30146.0, 35388.0, 9362.0, 8.013224601745605, -0.01361920591443777, 0.001490421243943274, -0.0412692129611969, -0.0019725081510841846, -0.025640757754445076, 1.0004185438156128, -0.06374325603246689, -0.10231781005859375, 1.487548828125, 1.310302734375, 0.036285400390625, 1.491943359375
28009, -4.215610980987549, 0.8933517336845398, -3.490889549255371, -0.0008270061807706952, 0.005613775923848152, -6.1414079666137695, -0.014268212951719761, 0.09677523374557495, -0.46653908491134644, 0.09112363308668137, 0.6193761825561523, 0.06708814203739166, 0.5016360943278021, -0.15533019851841345, -3.253482779554271, 9362.0, 30146.0, 35388.0, 9362.0, 7.99338960647583, 0.027121756225824356, 0.40761077404022217, 0.2957817614078522, -0.0015019626589491963, -0.026257608085870743, 0.9992972016334534, -0.05951393395662308, -0.04855918884277344, 1.491943359375, 1.316162109375, 0.030517578125, 1.493408203125
28019, -4.216891288757324, 0.8923483490943909, -3.489816188812256, -0.0009751094039529562, 0.00661795400083065, -6.146075248718262, -0.01535259559750557, 0.10406036674976349, -0.46687406301498413, 0.09112642705440521, 0.6193698048591614, 0.06706131994724274, 0.4979021731183009, -0.15537584459536902, -3.2616421581205315, 9362.0, 30146.0, 35388.0, 9362.0, 8.013224601745605, 0.2139960080385208, 0.23761941492557526, -0.1879073530435562, 0.00012967549264431, -0.026078419759869576, 0.9994494318962097, -0.0590214729309082, -0.07543754577636719, 1.48974609375, 1.319091796875, 0.0279998779296875, 1.496337890625
28029, -4.216736793518066, 0.893137514591217, -3.489689588546753, -0.0011340526398271322, 0.007695011794567108, -6.150745391845703, -0.016436178237199783, 0.11135116964578629, -0.46715107560157776, 0.09111622720956802, 0.619388222694397, 0.0670907199382782, 0.4976962705820622, -0.15834664684976474, -3.256738745393802, 9362.0, 30146.0, 35388.0, 9362.0, 8.013224601745605, -0.0077717299573123455, -0.26880303025245667, -0.017876917496323586, 0.0002457749505992979, -0.02578144520521164, 0.9990409016609192, -0.06003005430102348, -0.08439826965332031, 1.489013671875, 1.2890625, 0.0663909912109375, 1.494873046875
28039, -4.217305660247803, 0.8924874067306519, -3.4909346103668213, -0.0013038174947723746, 0.008844949305057526, -6.155418872833252, -0.01751679740846157, 0.11863643676042557, -0.4675303101539612, 0.09114795178174973, 0.61932772397995, 0.06696386635303497, 0.4773776416769921, -0.18796212460264883, -3.2749276834592402, 9362.0, 30146.0, 35388.0, 9362.0, 8.013224601745605, 0.1251046508550644, 0.26289477944374084, -0.16846370697021484, -0.001430224278010428, -0.02650252915918827, 1.0001946687698364, -0.0559074766933918, -0.01271820068359375, 1.494873046875, 1.286865234375, 0.070281982421875, 1.4970703125
28049, -4.215571403503418, 0.8917256593704224, -3.4889678955078125, -0.0014844004763290286, 0.010067773051559925, -6.160095691680908, -0.018599634990096092, 0.1259283870458603, -0.46781793236732483, 0.09112924337387085, 0.619354784488678, 0.06706373393535614, 0.519422489789677, -0.16459211084949743, -3.255370788856837, 9362.0, 30146.0, 35388.0, 9362.0, 7.99338960647583, 0.22859182953834534, 0.014310105703771114, -0.05196813866496086, -0.0008827730198390782, -0.026928018778562546, 1.0000345706939697, -0.058864742517471313, -0.01271820068359375, 1.494873046875, 1.2919921875, 0.0613250732421875, 1.49560546875
28059, -4.214517593383789, 0.8916167616844177, -3.4894907474517822, -0.001675804378464818, 0.011363515630364418, -6.164775371551514, -0.019681399688124657, 0.1332201063632965, -0.4681198298931122, 0.0911288633942604, 0.6193805932998657, 0.06708894670009613, 0.5010155903267747, -0.15683844497618793, -3.2590744803445157, 9362.0, 30146.0, 35388.0, 9362.0, 8.013224601745605, 0.16109992563724518, 0.044748079031705856, -0.10974891483783722, -0.0013620323734357953, -0.026530003175139427, 1.001415729522705, -0.06402710825204849, -0.07543754577636719, 1.48974609375, 1.29052734375, 0.06378173828125, 1.497802734375
28069, -4.215087413787842, 0.8936959505081177, -3.4898526668548584, -0.0018780254758894444, 0.01273218635469675, -6.169457912445068, -0.020762767642736435, 0.140514075756073, -0.4683506190776825, 0.09111770242452621, 0.6193758249282837, 0.0670902207493782, 0.5043661782570473, -0.15049984244006964, -3.250162471752875, 9362.0, 30146.0, 35388.0, 9362.0, 7.99338960647583, -0.010382980108261108, -0.2986767888069153, 0.19601227343082428, -0.000996570335701108, -0.02492648921906948, 0.9984325766563416, -0.06709004938602448, -0.10231781005859375, 1.487548828125, 1.305908203125, 0.0413360595703125, 1.49560546875
28079, -4.214966773986816, 0.8944377303123474, -3.489124059677124, -0.0020910631865262985, 0.014173812232911587, -6.174142360687256, -0.021844718605279922, 0.14781109988689423, -0.46851667761802673, 0.09111963212490082, 0.6193810105323792, 0.06708931177854538, 0.5052291243620761, -0.15086975469395725, -3.2588126028607034, 9362.0, 30146.0, 35388.0, 9362.0, 7.99338960647583, 0.12989771366119385, 0.3042394816875458, 0.10008633136749268, -0.003842773614451289, -0.025646964088082314, 0.9981724619865417, -0.06848175823688507, -0.03959846496582031, 1.49267578125, 1.30517578125, 0.0422515869140625, 1.494873046875
28089, -4.214554786682129, 0.8943451642990112, -3.488905668258667, -0.002314917976036668, 0.015688281506299973, -6.178830146789551, -0.0229263287037611, 0.15508291125297546, -0.46903660893440247, 0.0911359190940857, 0.6193789839744568, 0.06707993894815445, 0.49786476535986635, -0.15218441866960575, -3.2563595411716344, 9362.0, 30146.0, 35388.0, 9362.0, 8.013224601745605, 0.1068248599767685, 0.10237950086593628, -0.048269156366586685, -0.0031610876321792603, -0.02729901857674122, 0.9995095133781433, -0.06726779043674469, -0.021678924560546875, 1.494140625, 1.291259765625, 0.0625457763671875, 1.494873046875
28099, -4.213785171508789, 0.8930841684341431, -3.4899260997772217, -0.002549603348597884, 0.017275521531701088, -6.1835222244262695, -0.02401079423725605, 0.16236495971679688, -0.4694172441959381, 0.09113513678312302, 0.6193419098854065, 0.06697774678468704, 0.4595895515889294, -0.17654087865750512, -3.277930213998966, 9362.0, 30146.0, 35388.0, 9362.0, 7.99338960647583, 0.03448998183012009, 0.10196873545646667, -0.23678310215473175, -0.00183741410728544, -0.024992696940898895, 1.0000088214874268, -0.06443671882152557, -0.05751800537109375, 1.4912109375, 1.304443359375, 0.043182373046875, 1.49853515625
28109, -4.214829444885254, 0.8937568068504333, -3.4895591735839844, -0.002795138396322727, 0.018935613334178925, -6.188217639923096, -0.02509608305990696, 0.16965347528457642, -0.46970251202583313, 0.09111558645963669, 0.6193739771842957, 0.06708956509828568, 0.5015699636288293, -0.15192944592646995, -3.25831690480688, 9362.0, 30146.0, 35388.0, 9362.0, 7.99338960647583, -0.017752496525645256, -0.28844568133354187, 0.12048912793397903, -0.0017490475438535213, -0.023378292098641396, 1.0005249977111816, -0.06726832687854767, -0.030637741088867188, 1.493408203125, 1.30810546875, 0.0388031005859375, 1.49560546875
28119, -4.215459823608398, 0.8945576548576355, -3.4904274940490723, -0.003051517065614462, 0.020668596029281616, -6.192915916442871, -0.02617969736456871, 0.17694294452667236, -0.4699547290802002, 0.09113448113203049, 0.6193414330482483, 0.06699284166097641, 0.4644288700267457, -0.1786268208890931, -3.2843202964091676, 9362.0, 30146.0, 35388.0, 9362.0, 8.013224601745605, -0.20533284544944763, -0.6206893920898438, 0.004334271885454655, -0.0033410333562642336, -0.022582639008760452, 1.0006263256072998, -0.06842166185379028, -0.10231781005859375, 1.487548828125, 1.3037109375, 0.04412841796875, 1.49853515625
28129, -4.216797828674316, 0.8968741297721863, -3.4911558628082275, -0.003318739589303732, 0.0224744975566864, -6.1976165771484375, -0.02726469747722149, 0.18423734605312347, -0.47016626596450806, 0.09111662209033966, 0.6193516850471497, 0.06698881089687347, 0.463621741025681, -0.17726620741910892, -3.285045084158717, 9362.0, 30146.0, 35388.0, 9362.0, 8.013224601745605, 0.03639588877558708, 0.17435643076896667, -0.12468810379505157, -0.003340108087286353, -0.02405416965484619, 0.9990887641906738, -0.06863373517990112, -0.06647872924804688, 1.490478515625, 1.305908203125, 0.0413360595703125, 1.494140625
28159, -4.215514183044434, 0.8946759700775146, -3.493283271789551, -0.004185555037111044, 0.02832951582968235, -6.211737155914307, -0.030522948130965233, 0.20609472692012787, -0.4712437689304352, 0.09111190587282181, 0.619385838508606, 0.06707815825939178, 0.49948452480134636, -0.1529807120585076, -3.259882938673474, 9362.0, 30146.0, 35388.0, 9362.0, 7.99338960647583, 0.21976783871650696, -0.15030398964881897, 0.09744620323181152, -0.001707581919617951, -0.025264061987400055, 1.0017881393432617, -0.06410031765699387, -0.04855918884277344, 1.491943359375, 1.322021484375, 0.0257415771484375, 1.494140625
28169, -4.214870452880859, 0.8953589797019958, -3.492798089981079, -0.004185555037111044, 0.02832951582968235, -6.211737155914307, -0.030522948130965233, 0.20609472692012787, -0.4712437689304352, 0.09112038463354111, 0.6193699836730957, 0.06707505881786346, 0.49828244809499095, -0.15656387735768362, -3.2570601055696358, 9362.0, 30146.0, 35388.0, 9362.0, 7.99338960647583, 0.035461146384477615, -0.3185604214668274, -0.02700403332710266, -0.0010302660521119833, -0.024498488754034042, 1.0001516342163086, -0.060819774866104126, -0.07543754577636719, 1.48974609375, 1.322021484375, 0.0257415771484375, 1.494140625
28209, -4.215933322906494, 0.8921538591384888, -3.4938526153564453, -0.005847517400979996, 0.03954619914293289, -6.235325336456299, -0.035951510071754456, 0.24256832897663116, -0.4723190665245056, 0.09112748503684998, 0.6193757057189941, 0.06708433479070663, 0.5003507146002685, -0.15350083156977234, -3.253642495939686, 9362.0, 30146.0, 35388.0, 9362.0, 7.99338960647583, 0.037880849093198776, -0.29020020365715027, -0.31982311606407166, -0.0031488563399761915, -0.026178304105997086, 0.9984385371208191, -0.0590132400393486, -0.04855918884277344, 1.491943359375, 1.3095703125, 0.037139892578125, 1.494140625
28229, -4.215372085571289, 0.8895626664161682, -3.4964723587036133, -0.006588112562894821, 0.04454326257109642, -6.244778633117676, -0.03810891509056091, 0.2571382522583008, -0.4730285406112671, 0.09113231301307678, 0.6193796396255493, 0.06708972156047821, 0.4987865941023297, -0.1522548022391561, -3.263275705268762, 9362.0, 30146.0, 35388.0, 9362.0, 8.013224601745605, 0.06870562583208084, 0.056812603026628494, 0.23379485309123993, -0.0017808763077482581, -0.026183921843767166, 1.000247836112976, -0.06250660866498947, -0.07543754577636719, 1.48974609375, 1.31982421875, 0.0273590087890625, 1.494140625
28239, -4.215826034545898, 0.8869702816009521, -3.494802236557007, -0.006588112562894821, 0.04454326257109642, -6.244778633117676, -0.03810891509056091, 0.2571382522583008, -0.4730285406112671, 0.09113672375679016, 0.6193581819534302, 0.06706778705120087, 0.5123936510602649, -0.16995617478283975, -3.2517419107142462, 9362.0, 30146.0, 35388.0, 9362.0, 7.99338960647583, -0.2651514410972595, 0.3530224859714508, 0.007200807332992554, -0.0017808763077482581, -0.026183921843767166, 1.000247836112976, -0.06452277302742004, -0.06647872924804688, 1.490478515625, 1.319091796875, 0.0279998779296875, 1.494140625
28309, -4.2160868644714355, 0.881237268447876, -3.490100860595703, -0.007779949344694614, 0.05258557200431824, -6.2589802742004395, -0.041341230273246765, 0.2790219187736511, -0.4736766219139099, 0.09113079309463501, 0.6193590760231018, 0.06705806404352188, 0.5102811175932079, -0.16950944341428453, -3.246559208600604, 9362.0, 30146.0, 35388.0, 9362.0, 7.99338960647583, 0.052180737257003784, 0.20078575611114502, 0.33158808946609497, -0.0022798622958362103, -0.024361884221434593, 1.0008538961410522, -0.07156788557767868, -0.11127853393554688, 1.48681640625, 1.31982421875, 0.0273590087890625, 1.494140625
28319, -4.216198444366455, 0.8836894631385803, -3.490327835083008, -0.007779949344694614, 0.05258557200431824, -6.2589802742004395, -0.041341230273246765, 0.2790219187736511, -0.4736766219139099, 0.09112393856048584, 0.6193802356719971, 0.06706766784191132, 0.4944430701277785, -0.1464653434244383, -3.2596182086813483, 9362.0, 30146.0, 35388.0, 9362.0, 7.99338960647583, 0.1154850497841835, -0.3759459853172302, -0.42181676626205444, -0.0022798622958362103, -0.024361884221434593, 1.0008538961410522, -0.06795629858970642, -0.04855918884277344, 1.491943359375, 1.31982421875, 0.0273590087890625, 1.494140625
28329, -4.2148356437683105, 0.88416987657547, -3.4927291870117188, -0.010935192927718163, 0.07390126585960388, -6.2922282218933105, -0.04879781976342201, 0.3300148546695709, -0.4760304391384125, 0.09111636132001877, 0.6193497180938721, 0.06699415296316147, 0.4633234659067464, -0.17605414520303952, -3.271739365785969, 9362.0, 30146.0, 35388.0, 9362.0, 7.99338960647583, 0.1154850497841835, -0.3759459853172302, -0.42181676626205444, -0.0022798622958362103, -0.024361884221434593, 1.0008538961410522, -0.0692833811044693, -0.07543754577636719, 1.48974609375, 1.31982421875, 0.0273590087890625, 1.494140625
28399, -4.212246894836426, 0.8871718645095825, -3.4928395748138428, -0.012972571887075901, 0.08768496662378311, -6.311291694641113, -0.053076982498168945, 0.3591617941856384, -0.4771713614463806, 0.09112910181283951, 0.6193773746490479, 0.06706667691469193, 0.5029781671938283, -0.1518868745036741, -3.2543497482782024, 9362.0, 30146.0, 35388.0, 9362.0, 7.99338960647583, 0.1154850497841835, -0.3759459853172302, -0.42181676626205444, -0.004126101732254028, -0.025079479441046715, 0.9999364614486694, -0.06422068923711777, -0.03959846496582031, 1.49267578125, 1.31396484375, 0.0325469970703125, 1.494140625
28419, -4.212687015533447, 0.8848696947097778, -3.4944097995758057, -0.012972571887075901, 0.08768496662378311, -6.311291694641113, -0.053076982498168945, 0.3591617941856384, -0.4771713614463806, 0.09113515913486481, 0.6193543076515198, 0.06705732643604279, 0.5134797944079814, -0.17076960834785382, -3.258907576227099, 9362.0, 30146.0, 35388.0, 9362.0, 7.99338960647583, 0.1154850497841835, -0.3759459853172302, -0.42181676626205444, -0.003963333088904619, -0.024523461237549782, 1.0008002519607544, -0.06852278858423233, -0.07543754577636719, 1.48974609375, 1.308837890625, 0.0379486083984375, 1.494140625
28429, -4.212425231933594, 0.8829125165939331, -3.4933159351348877, -0.012972571887075901, 0.08768496662378311, -6.311291694641113, -0.053076982498168945, 0.3591617941856384, -0.4771713614463806, 0.09111034870147705, 0.6193747520446777, 0.06708262860774994, 0.489053523083056, -0.1522752671900207, -3.2576973175699986, 9362.0, 30146.0, 35388.0, 9362.0, 7.99338960647583, 0.1154850497841835, -0.3759459853172302, -0.42181676626205444, -0.0016062225913628936, -0.026156477630138397, 1.0002022981643677, -0.07028909027576447, -0.08439826965332031, 1.489013671875, 1.308837890625, 0.0379486083984375, 1.494140625
28439, -4.211630821228027, 0.8819525837898254, -3.493612289428711, -0.016951771453022957, 0.11461226642131805, -6.344744682312012, -0.06060243770480156, 0.41017669439315796, -0.47882264852523804, 0.09114111959934235, 0.619318425655365, 0.06696730852127075, 0.48148432448205725, -0.18340242844197974, -3.2762868147156805, 9362.0, 30146.0, 35388.0, 9362.0, 7.99338960647583, 0.1154850497841835, -0.3759459853172302, -0.42181676626205444, 0.0012241192162036896, -0.027382709085941315, 0.9989494681358337, -0.07028909027576447, -0.08439826965332031, 1.489013671875, 1.308837890625, 0.0379486083984375, 1.494140625
28519, -4.2117180824279785, 0.8874966502189636, -3.494661808013916, -0.01881776563823223, 0.12724530696868896, -6.359121799468994, -0.06379630416631699, 0.4320226311683655, -0.4796884059906006, 0.0911438837647438, 0.6193541884422302, 0.06705351918935776, 0.5164973976821733, -0.1707128088731622, -3.247797463104566, 9362.0, 30146.0, 35388.0, 9362.0, 7.99338960647583, 0.10977505147457123, 0.15780891478061676, 0.001175555633381009, -0.00038448828854598105, -0.023379947990179062, 0.9976325035095215, -0.07318804413080215, -0.09335899353027344, 1.48828125, 1.31689453125, 0.0298919677734375, 1.494140625
28549, -4.208925724029541, 0.8899222016334534, -3.4955289363861084, -0.024262545630335808, 0.16413728892803192, -6.397590637207031, -0.07233436405658722, 0.4902533292770386, -0.48236367106437683, 0.09112861752510071, 0.6193884015083313, 0.0670565664768219, 0.5000129900018516, -0.15039979976771178, -3.2627369473754007, 9362.0, 30146.0, 35388.0, 9362.0, 7.99338960647583, 0.049841661006212234, -0.13732236623764038, -0.27494508028030396, -0.0007221765699796379, -0.02727193757891655, 0.9989234805107117, -0.06953690201044083, -0.09335899353027344, 1.48828125, 1.31396484375, 0.0325469970703125, 1.494140625
28559, -4.2090020179748535, 0.8906866312026978, -3.495866298675537, -0.024262545630335808, 0.16413728892803192, -6.397590637207031, -0.07233436405658722, 0.4902533292770386, -0.48236367106437683, 0.09111905097961426, 0.6193787455558777, 0.0670638456940651, 0.4981331845622404, -0.14620884891422747, -3.2559510185686213, 9362.0, 30146.0, 35388.0, 9362.0, 8.013224601745605, 0.049841661006212234, -0.13732236623764038, -0.27494508028030396, -0.0009686104021966457, -0.02716171368956566, 0.9998953938484192, -0.0680742859840393, -0.08439826965332031, 1.489013671875, 1.31396484375, 0.0325469970703125, 1.494140625
28619, -4.208680629730225, 0.8923454284667969, -3.5000016689300537, -0.028013786301016808, 0.18955914676189423, -6.421753406524658, -0.0777222067117691, 0.5266319513320923, -0.4839985966682434, 0.0911184549331665, 0.6193824410438538, 0.06706863641738892, 0.5049900070725687, -0.15396437961709353, -3.2527836401930394, 9362.0, 30146.0, 35388.0, 9362.0, 7.99338960647583, 0.1472434103488922, 0.08157958835363388, -0.1837901473045349, -0.001221639453433454, -0.026394762098789215, 0.999088704586029, -0.07106461375951767, -0.030637741088867188, 1.493408203125, 1.298583984375, 0.051055908203125, 1.494140625
28679, -4.20719051361084, 0.894188642501831, -3.5048558712005615, -0.028013786301016808, 0.18955914676189423, -6.421753406524658, -0.0777222067117691, 0.5266319513320923, -0.4839985966682434, 0.09114367514848709, 0.6193656921386719, 0.06706419587135315, 0.5152294175768827, -0.16581694139225078, -3.2565991669240812, 9362.0, 30146.0, 35388.0, 9362.0, 8.013224601745605, 0.0012548924423754215, 0.4939226806163788, 0.04177800193428993, -0.0029602372087538242, -0.027424000203609467, 0.9972850680351257, -0.07535304874181747, -0.06647872924804688, 1.490478515625, 1.30517578125, 0.0422515869140625, 1.494140625
28689, -4.208302974700928, 0.8937234878540039, -3.504227876663208, -0.028013786301016808, 0.18955914676189423, -6.421753406524658, -0.0777222067117691, 0.5266319513320923, -0.4839985966682434, 0.09111616015434265, 0.6193892359733582, 0.0670781061053276, 0.5008442098208782, -0.14740251164408846, -3.2602779172336978, 9362.0, 30146.0, 35388.0, 9362.0, 7.99338960647583, -0.3032374680042267, -0.1673634648323059, -0.23797383904457092, -0.0029602372087538242, -0.027424000203609467, 0.9972850680351257, -0.07774816453456879, -0.11127853393554688, 1.48681640625, 1.30517578125, 0.0422515869140625, 1.494140625
28699, -4.2087321281433105, 0.8928578495979309, -3.5053696632385254, -0.028013786301016808, 0.18955914676189423, -6.421753406524658, -0.0777222067117691, 0.5266319513320923, -0.4839985966682434, 0.09114193916320801, 0.6193593740463257, 0.06704787909984589, 0.516426344138719, -0.16868742707617912, -3.256053785622492, 9362.0, 30146.0, 35388.0, 9362.0, 7.99338960647583, -0.3032374680042267, -0.1673634648323059, -0.23797383904457092, -0.0017197587294504046, -0.02617878094315529, 1.0001949071884155, -0.07729402929544449, -0.10231781005859375, 1.487548828125, 1.30517578125, 0.0422515869140625, 1.494140625
28749, -4.21052360534668, 0.8863050937652588, -3.505704879760742, -0.04088747873902321, 0.2767358422279358, -6.4947509765625, -0.09391161799430847, 0.6357619166374207, -0.4888063669204712, 0.091145820915699, 0.6193216443061829, 0.06696708500385284, 0.4773909235044839, -0.196700116746797, -3.275834751089562, 9362.0, 30146.0, 35388.0, 9362.0, 7.99338960647583, 0.09593302011489868, 0.37077224254608154, -0.013905861414968967, -0.002172942506149411, -0.023190539330244064, 1.0012843608856201, -0.08969444036483765, -0.03959846496582031, 1.49267578125, 1.31982421875, 0.0273590087890625, 1.494140625
28759, -4.210836410522461, 0.8872448205947876, -3.50494122505188, -0.04088747873902321, 0.2767358422279358, -6.4947509765625, -0.09391161799430847, 0.6357619166374207, -0.4888063669204712, 0.091130331158638, 0.6193379163742065, 0.06700856238603592, 0.4582240339772555, -0.17817713105503685, -3.2827949982598223, 9362.0, 30146.0, 35388.0, 9362.0, 7.99338960647583, -0.02972409501671791, -0.18992945551872253, 0.1906621754169464, -0.002172942506149411, -0.023190539330244064, 1.0012843608856201, -0.08969444036483765, -0.03959846496582031, 1.49267578125, 1.3154296875, 0.03118896484375, 1.494140625
28779, -4.21169376373291, 0.8905338644981384, -3.5034587383270264, -0.04375315457582474, 0.29613640904426575, -6.509427547454834, -0.09712819755077362, 0.657593846321106, -0.48981261253356934, 0.09115094691514969, 0.6193645596504211, 0.06708267331123352, 0.5139555432660228, -0.15995846978853479, -3.262939367951526, 9362.0, 30146.0, 35388.0, 9362.0, 7.99338960647583, -0.02972409501671791, -0.18992945551872253, 0.1906621754169464, -0.0018336978973820806, -0.026582792401313782, 1.000261664390564, -0.07979445904493332, -0.07543754577636719, 1.48974609375, 1.310302734375, 0.036285400390625, 1.494140625
28799, -4.2106781005859375, 0.8881708979606628, -3.5039451122283936, -0.04375315457582474, 0.29613640904426575, -6.509427547454834, -0.09712819755077362, 0.657593846321106, -0.48981261253356934, 0.09112910181283951, 0.6193795800209045, 0.06706537306308746, 0.49973598068021047, -0.15196682632449665, -3.257866619945827, 9362.0, 30146.0, 35388.0, 9362.0, 7.99338960647583, -0.048872385174036026, -0.21101078391075134, 0.08235837519168854, -0.003911654930561781, -0.027829818427562714, 1.0003514289855957, -0.07601418346166611, -0.01271820068359375, 1.494873046875, 1.302978515625, 0.0450897216796875, 1.494140625
28819, -4.210575103759766, 0.8864117860794067, -3.5036773681640625, -0.047724418342113495, 0.3230225443840027, -6.529045581817627, -0.10143118351697922, 0.6867116093635559, -0.491107702255249, 0.09114018082618713, 0.6193878650665283, 0.06709572672843933, 0.4980874432544237, -0.1513019738041521, -3.261028012012567, 9362.0, 30146.0, 35388.0, 9362.0, 7.99338960647583, -0.048872385174036026, -0.21101078391075134, 0.08235837519168854, -0.003302923170849681, -0.025575371459126472, 0.9975178837776184, -0.07553180307149887, -0.03959846496582031, 1.49267578125, 1.302978515625, 0.0450897216796875, 1.494140625
28849, -4.208769798278809, 0.8801538348197937, -3.499534845352173, -0.05081554874777794, 0.34395110607147217, -6.543797016143799, -0.10464105755090714, 0.7085390090942383, -0.49215948581695557, 0.09112750738859177, 0.6193762421607971, 0.0670972391963005, 0.5018698981162624, -0.15500699648109162, -3.2554965129716407, 9362.0, 30146.0, 35388.0, 9362.0, 7.99338960647583, 0.07957670092582703, 0.020573459565639496, 0.04426921531558037, -0.003302923170849681, -0.025575371459126472, 0.9975178837776184, -0.0746583566069603, -0.07543754577636719, 1.48974609375, 1.32275390625, 0.0251312255859375, 1.494140625
28869, -4.209920406341553, 0.8831846117973328, -3.502711534500122, -0.05081554874777794, 0.34395110607147217, -6.543797016143799, -0.10464105755090714, 0.7085390090942383, -0.49215948581695557, 0.09113245457410812, 0.6193805932998657, 0.06708331406116486, 0.4945579940219938, -0.15945011923702168, -3.259269847800426, 9362.0, 30146.0, 35388.0, 9362.0, 8.013224601745605, 0.07957670092582703, 0.020573459565639496, 0.04426921531558037, -0.004219100344926119, -0.025674346834421158, 0.9974020719528198, -0.07679380476474762, -0.04855918884277344, 1.491943359375, 1.2919921875, 0.0613250732421875, 1.494140625
28889, -4.211501598358154, 0.8811159729957581, -3.501246452331543, -0.05081554874777794, 0.34395110607147217, -6.543797016143799, -0.10464105755090714, 0.7085390090942383, -0.49215948581695557, 0.09112619608640671, 0.619378924369812, 0.06710144877433777, 0.501582587618883, -0.16528181828957145, -3.2532307637999898, 9362.0, 30146.0, 35388.0, 9362.0, 7.99338960647583, 0.07957670092582703, 0.020573459565639496, 0.04426921531558037, -0.002876335522159934, -0.025560716167092323, 0.9988490343093872, -0.07679380476474762, -0.04855918884277344, 1.491943359375, 1.310302734375, 0.036285400390625, 1.494140625
28899, -4.212430477142334, 0.880050003528595, -3.500622272491455, -0.05081554874777794, 0.34395110607147217, -6.543797016143799, -0.10464105755090714, 0.7085390090942383, -0.49215948581695557, 0.0911153182387352, 0.6193922758102417, 0.06710996478796005, 0.4940440878841337, -0.15986523312446366, -3.2622082424396077, 9362.0, 30146.0, 35388.0, 9362.0, 8.013224601745605, 0.07957670092582703, 0.020573459565639496, 0.04426921531558037, -0.002876335522159934, -0.025560716167092323, 0.9988490343093872, -0.07535524666309357, -0.06647872924804688, 1.490478515625, 1.310302734375, 0.036285400390625, 1.494140625
28909, -4.212104320526123, 0.881064772605896, -3.5012402534484863, -0.05081554874777794, 0.34395110607147217, -6.543797016143799, -0.10464105755090714, 0.7085390090942383, -0.49215948581695557, 0.09113703668117523, 0.619359016418457, 0.06700807809829712, 0.4606992574103777, -0.17301604842162988, -3.2864480123985236, 9362.0, 30146.0, 35388.0, 9362.0, 8.013224601745605, 0.07957670092582703, 0.020573459565639496, 0.04426921531558037, -0.002876335522159934, -0.025560716167092323, 0.9988490343093872, -0.07769614458084106, -0.11127853393554688, 1.48681640625, 1.310302734375, 0.036285400390625, 1.494140625
28929, -4.212121486663818, 0.8804402351379395, -3.5018086433410645, -0.05952644720673561, 0.40296104550361633, -6.583296298980713, -0.11313171684741974, 0.7667402029037476, -0.49501413106918335, 0.09114999324083328, 0.6193626523017883, 0.06705492734909058, 0.5078999697336107, -0.16354224557906605, -3.25241670465935, 9362.0, 30146.0, 35388.0, 9362.0, 7.99338960647583, 0.07957670092582703, 0.020573459565639496, 0.04426921531558037, -0.002876335522159934, -0.025560716167092323, 0.9988490343093872, -0.07638471573591232, -0.03959846496582031, 1.49267578125, 1.323486328125, 0.024688720703125, 1.494140625
28959, -4.214219093322754, 0.8775970339775085, -3.5009605884552, -0.06296814978122711, 0.4262913167476654, -6.598155975341797, -0.1163155734539032, 0.788606584072113, -0.4956798553466797, 0.09111404418945312, 0.6193956732749939, 0.06709819287061691, 0.49737608414467926, -0.15676005748076705, -3.260594620378849, 9362.0, 30146.0, 35388.0, 9362.0, 8.013224601745605, -0.007444698829203844, 0.022634321823716164, 0.1390245109796524, -0.002876335522159934, -0.025560716167092323, 0.9988490343093872, -0.07354646176099777, -0.06647872924804688, 1.490478515625, 1.30517578125, 0.0422515869140625, 1.494140625
28989, -4.214497089385986, 0.8798882365226746, -3.4992294311523438, -0.06296814978122711, 0.4262913167476654, -6.598155975341797, -0.1163155734539032, 0.788606584072113, -0.4956798553466797, 0.09111464023590088, 0.6193519830703735, 0.06698271632194519, 0.456870909745414, -0.17981543028329838, -3.2657371994496085, 9362.0, 30146.0, 35388.0, 9362.0, 7.99338960647583, -0.007444698829203844, 0.022634321823716164, 0.1390245109796524, -0.002876335522159934, -0.025560716167092323, 0.9988490343093872, -0.07252321392297745, -0.05751800537109375, 1.4912109375, 1.3154296875, 0.03118896484375, 1.494140625
29009, -4.213332653045654, 0.8782438635826111, -3.497814655303955, -0.0689159631729126, 0.46663185954093933, -6.622983932495117, -0.12160061299800873, 0.8250207901000977, -0.49733686447143555, 0.0911320298910141, 0.6193535327911377, 0.06702391803264618, 0.4579314914534281, -0.17473631540974566, -3.2743817483292323, 9362.0, 30146.0, 35388.0, 9362.0, 7.99338960647583, -0.007444698829203844, 0.022634321823716164, 0.1390245109796524, -0.001489930902607739, -0.025287484750151634, 0.9999587535858154, -0.07252321392297745, -0.05751800537109375, 1.4912109375, 1.3154296875, 0.03118896484375, 1.494140625
29019, -4.212146282196045, 0.8798155188560486, -3.4977569580078125, -0.0689159631729126, 0.46663185954093933, -6.622983932495117, -0.12160061299800873, 0.8250207901000977, -0.49733686447143555, 0.09112898260354996, 0.6193361878395081, 0.06699900329113007, 0.4641586745154072, -0.17497474931059287, -3.2845408248914776, 9362.0, 30146.0, 35388.0, 9362.0, 7.99338960647583, -0.007444698829203844, 0.022634321823716164, 0.1390245109796524, -0.001489930902607739, -0.025287484750151634, 0.9999587535858154, -0.07541415095329285, -0.11127853393554688, 1.48681640625, 1.3154296875, 0.03118896484375, 1.494140625
29029, -4.211940288543701, 0.8796477913856506, -3.4967000484466553, -0.0689159631729126, 0.46663185954093933, -6.622983932495117, -0.12160061299800873, 0.8250207901000977, -0.49733686447143555, 0.09112606197595596, 0.6193389296531677, 0.06698714196681976, 0.46108974621240556, -0.17065497131869733, -3.27343782090927, 9362.0, 30146.0, 35388.0, 9362.0, 8.013224601745605, -0.007444698829203844, 0.022634321823716164, 0.1390245109796524, -0.0020484530832618475, -0.02390405163168907, 1.0015276670455933, -0.07541415095329285, -0.11127853393554688, 1.48681640625, 1.3154296875, 0.03118896484375, 1.494140625
29039, -4.213451385498047, 0.877413272857666, -3.495847702026367, -0.0689159631729126, 0.46663185954093933, -6.622983932495117, -0.12160061299800873, 0.8250207901000977, -0.49733686447143555, 0.09111673384904861, 0.619340717792511, 0.06699959933757782, 0.4622969537610525, -0.17963167526221469, -3.2809246362647815, 9362.0, 30146.0, 35388.0, 9362.0, 8.013224601745605, -0.007444698829203844, 0.022634321823716164, 0.1390245109796524, -0.0020484530832618475, -0.02390405163168907, 1.0015276670455933, -0.07231687009334564, -0.05751800537109375, 1.4912109375, 1.3154296875, 0.03118896484375, 1.494140625
29099, -4.211455821990967, 0.8741732239723206, -3.4977192878723145, -0.08028823882341385, 0.5438342094421387, -6.6678571701049805, -0.13109543919563293, 0.8905647397041321, -0.5000849366188049, 0.09112557023763657, 0.6193855404853821, 0.06708943098783493, 0.5023616026625489, -0.15483530880484864, -3.2602592896309313, 9362.0, 30146.0, 35388.0, 9362.0, 7.99338960647583, -0.007444698829203844, 0.022634321823716164, 0.1390245109796524, -0.004029122181236744, -0.025647273287177086, 1.001311182975769, -0.07331500202417374, -0.11127853393554688, 1.48681640625, 1.32275390625, 0.0251312255859375, 1.494140625
29109, -4.212517261505127, 0.8769111037254333, -3.500270366668701, -0.08028823882341385, 0.5438342094421387, -6.6678571701049805, -0.13109543919563293, 0.8905647397041321, -0.5000849366188049, 0.09112527221441269, 0.6193528771400452, 0.06697826087474823, 0.45752925011782836, -0.18127957040312026, -3.274798077990544, 9362.0, 30146.0, 35388.0, 9362.0, 7.99338960647583, -0.14768390357494354, -0.46353498101234436, -0.0024391633924096823, -0.004029122181236744, -0.025647273287177086, 1.001311182975769, -0.07255024462938309, -0.06647872924804688, 1.490478515625, 1.32275390625, 0.0251312255859375, 1.494140625
29139, -4.21429967880249, 0.8786647915840149, -3.4981400966644287, -0.08028823882341385, 0.5438342094421387, -6.6678571701049805, -0.13109543919563293, 0.8905647397041321, -0.5000849366188049, 0.0911426842212677, 0.6193607449531555, 0.06707078963518143, 0.5158115321355166, -0.16654631950788712, -3.25061475083702, 9362.0, 30146.0, 35388.0, 9362.0, 7.99338960647583, -0.14768390357494354, -0.46353498101234436, -0.0024391633924096823, -0.002597864717245102, -0.024234965443611145, 1.0010608434677124, -0.07255024462938309, -0.06647872924804688, 1.490478515625, 1.302978515625, 0.0450897216796875, 1.494140625
29159, -4.213779449462891, 0.883059561252594, -3.501424789428711, -0.08834363520145416, 0.5985795855522156, -6.697904109954834, -0.13742677867412567, 0.934285581111908, -0.5015043020248413, 0.09111598879098892, 0.6193455457687378, 0.06699299067258835, 0.4668481495146126, -0.17196561951902822, -3.2691363928442962, 9362.0, 30146.0, 35388.0, 9362.0, 7.99338960647583, -0.16824959218502045, -0.14897385239601135, -0.09788522869348526, -0.002597864717245102, -0.024234965443611145, 1.0010608434677124, -0.07441597431898117, -0.05751800537109375, 1.4912109375, 1.324951171875, 0.0236663818359375, 1.494140625
29169, -4.213654041290283, 0.8825185894966125, -3.5022425651550293, -0.08834363520145416, 0.5985795855522156, -6.697904109954834, -0.13742677867412567, 0.934285581111908, -0.5015043020248413, 0.0911330133676529, 0.619372546672821, 0.06706961244344711, 0.512647385686721, -0.16228307004669773, -3.256736265575347, 9362.0, 30146.0, 35388.0, 9362.0, 8.013224601745605, -0.16824959218502045, -0.14897385239601135, -0.09788522869348526, -0.002597864717245102, -0.024234965443611145, 1.0010608434677124, -0.07509113848209381, -0.08439826965332031, 1.489013671875, 1.324951171875, 0.0236663818359375, 1.494140625
29239, -4.212002754211426, 0.888817548751831, -3.5053181648254395, -0.09967851638793945, 0.6756541132926941, -6.738115310668945, -0.1459500640630722, 0.9925661683082581, -0.5038696527481079, 0.09112657606601715, 0.6193807721138, 0.06711282581090927, 0.4947725038280985, -0.15635817398495533, -3.2567180504011812, 9362.0, 30146.0, 35388.0, 9362.0, 7.99338960647583, 0.013703590258955956, -0.2162536233663559, -0.17041227221488953, -0.0009839280974119902, -0.026303745806217194, 1.000091791152954, -0.07116612046957016, -0.08439826965332031, 1.489013671875, 1.320556640625, 0.02685546875, 1.494140625
29249, -4.211854457855225, 0.8882125616073608, -3.5050182342529297, -0.09967851638793945, 0.6756541132926941, -6.738115310668945, -0.1459500640630722, 0.9925661683082581, -0.5038696527481079, 0.09112685918807983, 0.6193904876708984, 0.0671171247959137, 0.4972377968893594, -0.16082775814479078, -3.250614189889596, 9362.0, 30146.0, 35388.0, 9362.0, 8.013224601745605, -0.05733374506235123, 0.017977681010961533, -0.1599780023097992, -0.0009839280974119902, -0.026303745806217194, 1.000091791152954, -0.06997165083885193, -0.07543754577636719, 1.48974609375, 1.320556640625, 0.02685546875, 1.494140625
29269, -4.2108941078186035, 0.8889521956443787, -3.5062620639801025, -0.09967851638793945, 0.6756541132926941, -6.738115310668945, -0.1459500640630722, 0.9925661683082581, -0.5038696527481079, 0.09111888706684113, 0.6193383932113647, 0.0670018419623375, 0.46524207110141325, -0.17846132781221513, -3.27878334781908, 9362.0, 30146.0, 35388.0, 9362.0, 7.99338960647583, -0.05733374506235123, 0.017977681010961533, -0.1599780023097992, -0.0006693722098134458, -0.024582523852586746, 1.0003386735916138, -0.07088296115398407, -0.07543754577636719, 1.48974609375, 1.31689453125, 0.0298919677734375, 1.494140625
29299, -4.209867000579834, 0.8874940276145935, -3.5103940963745117, -0.10862867534160614, 0.7365191578865051, -6.768397808074951, -0.15238800644874573, 1.0362615585327148, -0.5056172609329224, 0.09111528098583221, 0.6193414926528931, 0.06699815392494202, 0.4656516182812755, -0.18432526794561, -3.280638905207637, 9362.0, 30146.0, 35388.0, 9362.0, 8.013224601745605, -0.05733374506235123, 0.017977681010961533, -0.1599780023097992, -0.0006693722098134458, -0.024582523852586746, 1.0003386735916138, -0.07262417674064636, -0.07543754577636719, 1.48974609375, 1.31689453125, 0.0298919677734375, 1.494140625
29349, -4.206386089324951, 0.8891589045524597, -3.5123674869537354, -0.11480989307165146, 0.7785519361495972, -6.788646221160889, -0.1566717028617859, 1.0653716325759888, -0.5068274140357971, 0.09111886471509933, 0.6193763613700867, 0.06707951426506042, 0.5041434619996062, -0.1587812336957768, -3.255654178787742, 9362.0, 30146.0, 35388.0, 9362.0, 7.99338960647583, -0.05733374506235123, 0.017977681010961533, -0.1599780023097992, -0.0013129489962011576, -0.02401859313249588, 1.0019689798355103, -0.0740286186337471, -0.03959846496582031, 1.49267578125, 1.3154296875, 0.03118896484375, 1.494140625
29369, -4.206832408905029, 0.8863335847854614, -3.512233257293701, -0.11955844610929489, 0.8108403086662292, -6.803866386413574, -0.15989899635314941, 1.0872000455856323, -0.5076788663864136, 0.09112758934497833, 0.6193978190422058, 0.06709183007478714, 0.503166439509034, -0.1513962237717692, -3.2528248053301048, 9362.0, 30146.0, 35388.0, 9362.0, 8.013224601745605, -0.05733374506235123, 0.017977681010961533, -0.1599780023097992, -0.0016022112686187029, -0.025543687865138054, 1.0016504526138306, -0.0740286186337471, -0.03959846496582031, 1.49267578125, 1.3154296875, 0.03118896484375, 1.494140625
29379, -4.207379341125488, 0.8823307156562805, -3.5115439891815186, -0.11955844610929489, 0.8108403086662292, -6.803866386413574, -0.15989899635314941, 1.0872000455856323, -0.5076788663864136, 0.09112390130758286, 0.6193845272064209, 0.0671013593673706, 0.49632365070743556, -0.15735316854991765, -3.2583757049341484, 9362.0, 30146.0, 35388.0, 9362.0, 8.013224601745605, -0.05733374506235123, 0.017977681010961533, -0.1599780023097992, -0.001756459940224886, -0.02548174001276493, 0.9993340969085693, -0.0740286186337471, -0.03959846496582031, 1.49267578125, 1.308837890625, 0.0379486083984375, 1.494140625
29389, -4.207441329956055, 0.8816537261009216, -3.5118396282196045, -0.11955844610929489, 0.8108403086662292, -6.803866386413574, -0.15989899635314941, 1.0872000455856323, -0.5076788663864136, 0.09112425893545151, 0.6193346381187439, 0.06698697060346603, 0.46220826962103695, -0.17533491772269372, -3.270062150152396, 9362.0, 30146.0, 35388.0, 9362.0, 7.99338960647583, -0.05733374506235123, 0.017977681010961533, -0.1599780023097992, -0.002187032951042056, -0.02648906037211418, 1.001158356666565, -0.06912196427583694, -0.07543754577636719, 1.48974609375, 1.308837890625, 0.0379486083984375, 1.494140625
29399, -4.206258296966553, 0.8824537992477417, -3.512660503387451, -0.11955844610929489, 0.8108403086662292, -6.803866386413574, -0.15989899635314941, 1.0872000455856323, -0.5076788663864136, 0.09111779183149338, 0.6193767189979553, 0.06709452718496323, 0.4974528483254565, -0.15271565747409, -3.262323166607504, 9362.0, 30146.0, 35388.0, 9362.0, 8.013224601745605, -0.05733374506235123, 0.017977681010961533, -0.1599780023097992, -0.0020313826389610767, -0.025899400934576988, 1.001412272453308, -0.06912196427583694, -0.07543754577636719, 1.48974609375, 1.308837890625, 0.0379486083984375, 1.494140625
29409, -4.206169128417969, 0.8801016211509705, -3.512010335922241, -0.12603993713855743, 0.8549108505249023, -6.824188709259033, -0.16416694223880768, 1.1163251399993896, -0.5084927678108215, 0.09112846106290817, 0.6193548440933228, 0.06699783354997635, 0.46386654851040365, -0.17790162920761077, -3.2835546365912243, 9362.0, 30146.0, 35388.0, 9362.0, 8.013224601745605, -0.05733374506235123, 0.017977681010961533, -0.1599780023097992, -0.002242002170532942, -0.02785409800708294, 1.0010614395141602, -0.112481988966465, -0.10231781005859375, 1.487548828125, 1.308837890625, 0.0379486083984375, 1.494140625
29489, -4.203934669494629, 0.8792558312416077, -3.510232448577881, -0.1326916366815567, 0.9001463651657104, -6.844542503356934, -0.16841845214366913, 1.1454331874847412, -0.5094162821769714, 0.09113388508558273, 0.6193838715553284, 0.06708791106939316, 0.49631316420095317, -0.15725662061657886, -3.2538379104239077, 9362.0, 30146.0, 35388.0, 9362.0, 8.013224601745605, 0.07563911378383636, 0.24980807304382324, 0.04455077275633812, -0.002393109258264303, -0.025463350117206573, 0.9984432458877563, -0.07659196108579636, -0.1291980743408203, 1.4853515625, 1.322021484375, 0.0257415771484375, 1.494140625
29499, -4.204222202301025, 0.8774886727333069, -3.5091564655303955, -0.1326916366815567, 0.9001463651657104, -6.844542503356934, -0.16841845214366913, 1.1454331874847412, -0.5094162821769714, 0.09112221747636795, 0.6193483471870422, 0.06701046228408813, 0.4567396823296318, -0.176294556751742, -3.2839255131036684, 9362.0, 30146.0, 35388.0, 9362.0, 8.013224601745605, 0.07563911378383636, 0.24980807304382324, 0.04455077275633812, -0.0009344325517304242, -0.024525120854377747, 0.9996603727340698, -0.07659196108579636, -0.1291980743408203, 1.4853515625, 1.322021484375, 0.0257415771484375, 1.494140625
29509, -4.204151630401611, 0.8807904124259949, -3.5095531940460205, -0.1326916366815567, 0.9001463651657104, -6.844542503356934, -0.16841845214366913, 1.1454331874847412, -0.5094162821769714, 0.09112203121185303, 0.6193745136260986, 0.06711353361606598, 0.5059236157852693, -0.15588013552348912, -3.2586067228757267, 9362.0, 30146.0, 35388.0, 9362.0, 7.99338960647583, 0.07563911378383636, 0.24980807304382324, 0.04455077275633812, -0.001309729996137321, -0.024887116625905037, 1.0006468296051025, -0.07659196108579636, -0.1291980743408203, 1.4853515625, 1.322021484375, 0.0257415771484375, 1.494140625
29519, -4.204638957977295, 0.8829393982887268, -3.5109798908233643, -0.1326916366815567, 0.9001463651657104, -6.844542503356934, -0.16841845214366913, 1.1454331874847412, -0.5094162821769714, 0.09113399684429169, 0.6193708777427673, 0.06706468760967255, 0.5131221158217112, -0.1661402460859449, -3.2520446439565025, 9362.0, 30146.0, 35388.0, 9362.0, 8.013224601745605, 0.07563911378383636, 0.24980807304382324, 0.04455077275633812, -0.001309729996137321, -0.024887116625905037, 1.0006468296051025, -0.08085423707962036, -0.12023735046386719, 1.486083984375, 1.322021484375, 0.0257415771484375, 1.494140625
29539, -4.203843116760254, 0.8803290724754333, -3.509323835372925, -0.14827987551689148, 1.0061806440353394, -6.890497207641602, -0.17797933518886566, 1.2108875513076782, -0.5117098093032837, 0.09113184362649918, 0.6193808317184448, 0.06706978380680084, 0.5133451937561435, -0.17415175926640813, -3.269852265891737, 9362.0, 30146.0, 35388.0, 9362.0, 8.013224601745605, 0.045086491852998734, 0.28176456689834595, 0.10693359375, -0.001309729996137321, -0.024887116625905037, 1.0006468296051025, -0.0778840035200119, -0.04855918884277344, 1.491943359375, 1.322021484375, 0.0257415771484375, 1.494140625
29579, -4.205566883087158, 0.8858099579811096, -3.507866621017456, -0.15548397600650787, 1.0551975965499878, -6.910989761352539, -0.1822311282157898, 1.2399616241455078, -0.5128965973854065, 0.09113561362028122, 0.6193479895591736, 0.06700614094734192, 0.4624940111398871, -0.17620506760695775, -3.280675603772436, 9362.0, 30146.0, 35388.0, 9362.0, 8.013224601745605, 0.045086491852998734, 0.28176456689834595, 0.10693359375, -0.00315357674844563, -0.025719251483678818, 0.9996342658996582, -0.07582905888557434, -0.06647872924804688, 1.490478515625, 1.30224609375, 0.0460052490234375, 1.494140625
29599, -4.205309867858887, 0.8888078331947327, -3.507394313812256, -0.15548397600650787, 1.0551975965499878, -6.910989761352539, -0.1822311282157898, 1.2399616241455078, -0.5128965973854065, 0.0911262109875679, 0.6193781495094299, 0.06708667427301407, 0.4934934769608724, -0.15147167622941993, -3.258773886590631, 9362.0, 30146.0, 35388.0, 9362.0, 7.99338960647583, 0.0795445367693901, -0.2722320854663849, 0.03621595725417137, -0.0011281335027888417, -0.02529461495578289, 0.9993461966514587, -0.08071567118167877, -0.12023735046386719, 1.486083984375, 1.320556640625, 0.02685546875, 1.494140625
29609, -4.204792499542236, 0.8892357349395752, -3.5079267024993896, -0.15548397600650787, 1.0551975965499878, -6.910989761352539, -0.1822311282157898, 1.2399616241455078, -0.5128965973854065, 0.09114085137844086, 0.6193627715110779, 0.0670725479722023, 0.5178726310903699, -0.16597217067320003, -3.2547467267931847, 9362.0, 30146.0, 35388.0, 9362.0, 7.99338960647583, 0.0795445367693901, -0.2722320854663849, 0.03621595725417137, -0.0011281335027888417, -0.02529461495578289, 0.9993461966514587, -0.08054963499307632, -0.05751800537109375, 1.4912109375, 1.320556640625, 0.02685546875, 1.494140625
29619, -4.2050299644470215, 0.8888005018234253, -3.508084297180176, -0.15548397600650787, 1.0551975965499878, -6.910989761352539, -0.1822311282157898, 1.2399616241455078, -0.5128965973854065, 0.09113150089979172, 0.619390606880188, 0.06712371110916138, 0.49298842038801716, -0.15736945653540602, -3.2483499321049645, 9362.0, 30146.0, 35388.0, 9362.0, 7.99338960647583, 0.0795445367693901, -0.2722320854663849, 0.03621595725417137, 0.0001386739604640752, -0.028872866183519363, 1.0001648664474487, -0.08054963499307632, -0.05751800537109375, 1.4912109375, 1.320556640625, 0.02685546875, 1.494140625
29629, -4.203708648681641, 0.8883081078529358, -3.5083136558532715, -0.15548397600650787, 1.0551975965499878, -6.910989761352539, -0.1822311282157898, 1.2399616241455078, -0.5128965973854065, 0.0911288931965828, 0.6193233132362366, 0.06700689345598221, 0.4800706801887271, -0.19053927773569512, -3.274293026088028, 9362.0, 30146.0, 35388.0, 9362.0, 7.99338960647583, 0.0795445367693901, -0.2722320854663849, 0.03621595725417137, -0.0002535251260269433, -0.02635347470641136, 1.000625729560852, -0.08054963499307632, -0.05751800537109375, 1.4912109375, 1.320556640625, 0.02685546875, 1.494140625
29639, -4.204046726226807, 0.8864027857780457, -3.5083160400390625, -0.15548397600650787, 1.0551975965499878, -6.910989761352539, -0.1822311282157898, 1.2399616241455078, -0.5128965973854065, 0.09113884717226028, 0.6193611025810242, 0.06705925613641739, 0.5165054884488481, -0.16723897688760303, -3.2532818046260177, 9362.0, 30146.0, 35388.0, 9362.0, 8.013224601745605, 0.0795445367693901, -0.2722320854663849, 0.03621595725417137, -0.0002535251260269433, -0.02635347470641136, 1.000625729560852, -0.07423418015241623, -0.021678924560546875, 1.494140625, 1.320556640625, 0.02685546875, 1.494140625
29649, -4.203164100646973, 0.8873028755187988, -3.5084118843078613, -0.15548397600650787, 1.0551975965499878, -6.910989761352539, -0.1822311282157898, 1.2399616241455078, -0.5128965973854065, 0.09111678600311279, 0.6193706393241882, 0.06708851456642151, 0.5021456899879821, -0.1518936358144174, -3.255596090852989, 9362.0, 30146.0, 35388.0, 9362.0, 8.013224601745605, 0.0795445367693901, -0.2722320854663849, 0.03621595725417137, -0.0002535251260269433, -0.02635347470641136, 1.000625729560852, -0.07317161560058594, -0.06647872924804688, 1.490478515625, 1.320556640625, 0.02685546875, 1.494140625
29719, -4.201815605163574, 0.8881696462631226, -3.507420301437378, -0.18204666674137115, 1.235916018486023, -6.983097553253174, -0.19725428521633148, 1.341727614402771, -0.5169777870178223, 0.09113927185535431, 0.6193522214889526, 0.06707296520471573, 0.5143947593415799, -0.16353268857486114, -3.2465454852556803, 9362.0, 30146.0, 35388.0, 9362.0, 7.99338960647583, 0.004132870584726334, -0.13460831344127655, 0.24419207870960236, -0.0019202141556888819, -0.027880128473043442, 0.9992905855178833, -0.07165186107158661, -0.05751800537109375, 1.4912109375, 1.317626953125, 0.0291900634765625, 1.494140625
29729, -4.2008466720581055, 0.8890187740325928, -3.5070037841796875, -0.18204666674137115, 1.235916018486023, -6.983097553253174, -0.19725428521633148, 1.341727614402771, -0.5169777870178223, 0.09111383557319641, 0.6193808317184448, 0.06711383163928986, 0.4920993055178533, -0.15243070801463432, -3.2604878094713854, 9362.0, 30146.0, 35388.0, 9362.0, 7.99338960647583, -0.2448968142271042, 0.0775100365281105, -0.05361339822411537, -0.0019202141556888819, -0.027880128473043442, 0.9992905855178833, -0.0717340037226677, -0.06647872924804688, 1.490478515625, 1.317626953125, 0.0291900634765625, 1.494140625
29739, -4.202228546142578, 0.8894056081771851, -3.5055088996887207, -0.18204666674137115, 1.235916018486023, -6.983097553253174, -0.19725428521633148, 1.341727614402771, -0.5169777870178223, 0.09114345908164978, 0.6193650960922241, 0.06706221401691437, 0.5084491475659147, -0.16604927789930457, -3.265262213961125, 9362.0, 30146.0, 35388.0, 9362.0, 8.013224601745605, -0.2448968142271042, 0.0775100365281105, -0.05361339822411537, -0.0019202141556888819, -0.027880128473043442, 0.9992905855178833, -0.06955037266016006, -0.12023735046386719, 1.486083984375, 1.317626953125, 0.0291900634765625, 1.494140625
29749, -4.202939033508301, 0.8910527229309082, -3.507636547088623, -0.18204666674137115, 1.235916018486023, -6.983097553253174, -0.19725428521633148, 1.341727614402771, -0.5169777870178223, 0.0911356508731842, 0.6193922758102417, 0.06709994375705719, 0.49823986083970234, -0.15684009256187892, -3.268932281541884, 9362.0, 30146.0, 35388.0, 9362.0, 7.99338960647583, -0.2448968142271042, 0.0775100365281105, -0.05361339822411537, -0.0019202141556888819, -0.027880128473043442, 0.9992905855178833, -0.0705302283167839, -0.10231781005859375, 1.487548828125, 1.317626953125, 0.0291900634765625, 1.494140625
