timeTick, roll, pitch, yaw, stateX, stateY, stateZ, stateVX, stateVY, stateVZ, otX0, otY0, otZ0, otRoll0, otPitch0, otYaw0, left wing, pitch motor, yaw motor, right wing, voltage, roll rate, pitch rate, yaw rate, A_x, A_y, A_z, current, i_raw, v_raw, airflow_voltage, airflow_speed, pot_Pitch
46554, -0.9100143313407898, 0.925670325756073, -0.9843475818634033, 0, 0, 0, 0, 0, 0, 0, 0, 0, 0, 0, 0, 0, 0, 0, 0, 0, 0, 0, 0, 0, 0, 0, 0, 0, 0, 0, 0, 0
46564, -0.9094021916389465, 0.9276211857795715, -0.98622065782547, -15.817066192626953, 18.605636596679688, -11.45819091796875, -2.2145934104919434, 2.4777069091796875, -0.48708799481391907, 0, 0, 0, 0, 0, 0, 9362.0, 30146.0, 35388.0, 9362.0, 8.390083312988281, 0.03015964664518833, -0.2039438784122467, -0.2642400562763214, 0.00968005321919918, -0.03734823316335678, 1.0009574890136719, 0, 0, 0, 0, 0, 0
46574, -0.9098219275474548, 0.9286325573921204, -0.9870228171348572, -15.83922004699707, 18.630420684814453, -11.463061332702637, -2.2161526679992676, 2.4792938232421875, -0.48699283599853516, 0, 0, 0, 0, 0, 0, 9362.0, 30146.0, 35388.0, 9362.0, 8.390083312988281, 0.20628993213176727, -0.2822149991989136, -0.1910320371389389, 0.011041761375963688, -0.0396784171462059, 1.0001927614212036, -0.07351621985435486, -0.05751800537109375, 1.4912109375, 1.311767578125, 0.0348052978515625, 1.49267578125
46584, -0.9087583422660828, 0.9293100237846375, -0.9864817261695862, -15.86138916015625, 18.655221939086914, -11.467930793762207, -2.217715263366699, 2.480879306793213, -0.4869266748428345, 0, 0, 0, 0, 0, 0, 9362.0, 30146.0, 35388.0, 9362.0, 8.390083312988281, -0.004610014613717794, 0.06034686416387558, -0.1901462972164154, 0.009483026340603828, -0.03850214555859566, 0.9999547004699707, -0.0735568106174469, -0.11127853393554688, 1.48681640625, 1.322021484375, 0.0257415771484375, 1.494873046875
46594, -0.9084046483039856, 0.9285149574279785, -0.9870498776435852, -15.883574485778809, 18.680038452148438, -11.472800254821777, -2.2192790508270264, 2.4824655055999756, -0.4868701994419098, 0, 0, 0, 0, 0, 0, 9362.0, 30146.0, 35388.0, 9362.0, 8.390083312988281, 0.07054746150970459, -0.15129318833351135, -0.13024218380451202, 0.010596825741231441, -0.03589851036667824, 1.0001721382141113, -0.07959043234586716, -0.07543754577636719, 1.48974609375, 1.30224609375, 0.0460052490234375, 1.49267578125
46604, -0.908343493938446, 0.9298728108406067, -0.9881561994552612, -15.90577507019043, 18.704870223999023, -11.477669715881348, -2.220842123031616, 2.4840474128723145, -0.48696234822273254, 0, 0, 0, 0, 0, 0, 9362.0, 30146.0, 35388.0, 9362.0, 8.390083312988281, -0.13950097560882568, 0.03759922832250595, 0.2567192018032074, 0.009856321848928928, -0.036050744354724884, 0.9998061656951904, -0.08090215176343918, -0.08439826965332031, 1.489013671875, 1.317626953125, 0.0291900634765625, 1.493408203125
46614, -0.9089992046356201, 0.9290846586227417, -0.9878576993942261, -15.927990913391113, 18.729719161987305, -11.482539176940918, -2.222404956817627, 2.4856302738189697, -0.48695939779281616, 0, 0, 0, 0, 0, 0, 9362.0, 30146.0, 35388.0, 9362.0, 8.390083312988281, 0.05811063572764397, 0.10890865325927734, -0.0662764236330986, 0.008742354810237885, -0.03876117244362831, 1.0002940893173218, -0.0810244083404541, -0.11127853393554688, 1.48681640625, 1.31396484375, 0.0325469970703125, 1.4970703125
46624, -0.9083715677261353, 0.9268355965614319, -0.9890034198760986, -15.950222969055176, 18.75458335876465, -11.487408638000488, -2.2239694595336914, 2.4872124195098877, -0.48700428009033203, 0, 0, 0, 0, 0, 0, 9362.0, 30146.0, 35388.0, 9362.0, 8.390083312988281, -0.15411335229873657, -0.12439574301242828, -0.07674304395914078, 0.008453872986137867, -0.039109911769628525, 0.9980388879776001, -0.0812249407172203, -0.01271820068359375, 1.494873046875, 1.324951171875, 0.0236663818359375, 1.4970703125
46634, -0.9081681370735168, 0.9259846806526184, -0.9883401393890381, -15.9724702835083, 18.779462814331055, -11.492279052734375, -2.2255327701568604, 2.4887962341308594, -0.4870036542415619, 0, 0, 0, 0, 0, 0, 9362.0, 30146.0, 35388.0, 9362.0, 8.390083312988281, -0.12082283198833466, 0.08042839914560318, 0.2748927175998688, 0.009068043902516365, -0.038573216646909714, 0.9986923933029175, -0.08158881962299347, -0.13815879821777344, 1.484619140625, 1.310302734375, 0.036285400390625, 1.493408203125
46644, -0.9083274006843567, 0.9246543049812317, -0.9866920709609985, -15.994733810424805, 18.804359436035156, -11.497149467468262, -2.227090835571289, 2.4903767108917236, -0.487160325050354, 0, 0, 0, 0, 0, 0, 9362.0, 30146.0, 35388.0, 9362.0, 8.390083312988281, -0.23919059336185455, -0.12115447223186493, -0.26344364881515503, 0.009192658588290215, -0.0357857421040535, 0.9987022280693054, -0.08178859949111938, -0.09335899353027344, 1.48828125, 1.3212890625, 0.026214599609375, 1.493408203125
46654, -0.90925532579422, 0.9258102178573608, -0.9887640476226807, -16.017011642456055, 18.82927131652832, -11.502021789550781, -2.2286458015441895, 2.491955280303955, -0.4873706102371216, 0, 0, 0, 0, 0, 0, 9362.0, 30146.0, 35388.0, 9362.0, 8.390083312988281, -0.10080728679895401, -0.20295166969299316, 0.1698962152004242, 0.009474974125623703, -0.037800468504428864, 0.9980586171150208, -0.08209487795829773, -0.030637741088867188, 1.493408203125, 1.320556640625, 0.02685546875, 1.49267578125
46664, -0.9096860289573669, 0.9279183149337769, -0.9882099628448486, -16.039306640625, 18.854198455810547, -11.506896018981934, -2.2301998138427734, 2.4935357570648193, -0.48750820755958557, 0, 0, 0, 0, 0, 0, 9362.0, 30146.0, 35388.0, 9362.0, 8.390083312988281, -0.2713100016117096, -0.14116144180297852, 0.048368390649557114, 0.010815901681780815, -0.035327013581991196, 0.9976373314857483, -0.08434933423995972, -0.09335899353027344, 1.48828125, 1.317626953125, 0.0291900634765625, 1.49267578125
46674, -0.9112206101417542, 0.9291097521781921, -0.9884713292121887, -16.061616897583008, 18.879140853881836, -11.511772155761719, -2.2317545413970947, 2.4951164722442627, -0.4877190589904785, 0, 0, 0, 0, 0, 0, 9362.0, 30146.0, 35388.0, 9362.0, 8.390083312988281, 0.10106965154409409, 0.10229356586933136, 0.2591451108455658, 0.010357886552810669, -0.034389108419418335, 0.9997522830963135, -0.08094434440135956, -0.01271820068359375, 1.494873046875, 1.3154296875, 0.03118896484375, 1.494140625
46684, -0.9105499982833862, 0.9285758137702942, -0.9865492582321167, -16.083942413330078, 18.90410041809082, -11.516650199890137, -2.2333126068115234, 2.496697425842285, -0.4879652261734009, 0, 0, 0, 0, 0, 0, 9362.0, 30146.0, 35388.0, 9362.0, 8.390083312988281, 0.11065550148487091, 0.06558185815811157, 0.2897080183029175, 0.00905411783605814, -0.03462640196084976, 0.9994393587112427, -0.07919728010892868, -0.01271820068359375, 1.494873046875, 1.3125, 0.034027099609375, 1.5
46694, -0.9110487699508667, 0.929418683052063, -0.9854149222373962, -16.10628318786621, 18.929075241088867, -11.521530151367188, -2.2348744869232178, 2.4982833862304688, -0.48808231949806213, 0, 0, 0, 0, 0, 0, 9362.0, 30146.0, 35388.0, 9362.0, 8.390083312988281, 0.12951476871967316, -0.32948487997055054, 0.04203629866242409, 0.009553411044180393, -0.036549873650074005, 0.9997587203979492, -0.07513554394245148, -0.06647872924804688, 1.490478515625, 1.31982421875, 0.0273590087890625, 1.490478515625
46704, -0.9110733270645142, 0.9330876469612122, -0.98641437292099, -16.128639221191406, 18.954065322875977, -11.526411056518555, -2.236436605453491, 2.499868869781494, -0.4881412386894226, 0, 0, 0, 0, 0, 0, 9362.0, 30146.0, 35388.0, 9362.0, 8.370248794555664, -0.108446404337883, 0.16722360253334045, 0.09878844022750854, 0.008195583708584309, -0.037107814103364944, 0.9982973337173462, -0.07486015558242798, -0.05751800537109375, 1.4912109375, 1.31103515625, 0.0355682373046875, 1.496337890625
46714, -0.9114293456077576, 0.9332900047302246, -0.9860889911651611, -16.151010513305664, 18.97907257080078, -11.531292915344238, -2.237999677658081, 2.501455307006836, -0.488211452960968, 0, 0, 0, 0, 0, 0, 9362.0, 30146.0, 35388.0, 9362.0, 8.370248794555664, -0.2275678515434265, 0.21002791821956635, 0.13119086623191833, 0.007733992766588926, -0.035061366856098175, 0.9988245368003845, -0.07508561760187149, -0.06647872924804688, 1.490478515625, 1.308837890625, 0.0379486083984375, 1.4912109375
46724, -0.9125143885612488, 0.9337244629859924, -0.9865117073059082, -16.173398971557617, 19.00409507751465, -11.536175727844238, -2.239567995071411, 2.503040075302124, -0.48836520314216614, 0, 0, 0, 0, 0, 0, 9362.0, 30146.0, 35388.0, 9362.0, 8.390083312988281, 0.0005010078893974423, 0.018445953726768494, -0.1507963240146637, 0.009535460732877254, -0.03776996582746506, 0.997899055480957, -0.07521573454141617, -0.10231781005859375, 1.487548828125, 1.311767578125, 0.0348052978515625, 1.494873046875
46734, -0.9126794934272766, 0.9349384307861328, -0.9873732924461365, -16.195802688598633, 19.029132843017578, -11.541060447692871, -2.241136312484741, 2.5046253204345703, -0.4885420501232147, 0, 0, 0, 0, 0, 0, 9362.0, 30146.0, 35388.0, 9362.0, 8.390083312988281, 0.10633256286382675, -0.016579220071434975, -0.2865357995033264, 0.00868919212371111, -0.03824034705758095, 0.998354434967041, -0.07272102683782578, -0.08439826965332031, 1.489013671875, 1.306640625, 0.040557861328125, 1.49853515625
46744, -0.9117868542671204, 0.935591995716095, -0.9883303642272949, -16.21822166442871, 19.054187774658203, -11.545947074890137, -2.2427048683166504, 2.5062122344970703, -0.48875075578689575, 0, 0, 0, 0, 0, 0, 9362.0, 30146.0, 35388.0, 9362.0, 8.390083312988281, -0.1070857048034668, 0.3510069251060486, 0.1273496001958847, 0.008566020056605339, -0.03715900331735611, 1.0008543729782104, -0.0722760409116745, -0.04855918884277344, 1.491943359375, 1.3271484375, 0.022308349609375, 1.493408203125
46754, -0.9120548367500305, 0.9338337779045105, -0.9868967533111572, -16.24065589904785, 19.07925796508789, -11.550835609436035, -2.2442753314971924, 2.5077991485595703, -0.48894521594047546, 0, 0, 0, 0, 0, 0, 9362.0, 30146.0, 35388.0, 9362.0, 8.390083312988281, -0.32820630073547363, -0.009749144315719604, -0.05329924821853638, 0.009091842919588089, -0.03756159543991089, 0.9983844757080078, -0.07308775186538696, -0.06647872924804688, 1.490478515625, 1.313232421875, 0.0333251953125, 1.494140625
46764, -0.9133538603782654, 0.9330294132232666, -0.9870039820671082, -16.263107299804688, 19.10434341430664, -11.55572509765625, -2.245849847793579, 2.5093882083892822, -0.48894959688186646, 0, 0, 0, 0, 0, 0, 9362.0, 30146.0, 35388.0, 9362.0, 8.390083312988281, -0.003945393022149801, 0.07571623474359512, -0.18511296808719635, 0.008425219915807247, -0.03838706016540527, 0.998528778553009, -0.07566685229539871, -0.08439826965332031, 1.489013671875, 1.323486328125, 0.024688720703125, 1.494873046875
46774, -0.9130775928497314, 0.9322473406791687, -0.9878323674201965, -16.285573959350586, 19.129446029663086, -11.560615539550781, -2.247420310974121, 2.5109755992889404, -0.4890618622303009, 0, 0, 0, 0, 0, 0, 9362.0, 30146.0, 35388.0, 9362.0, 8.390083312988281, -0.06873670965433121, -0.06228167563676834, -0.08894915878772736, 0.008552414365112782, -0.03767282888293266, 0.9974777102470398, -0.0706818550825119, -0.05751800537109375, 1.4912109375, 1.305908203125, 0.0413360595703125, 1.49560546875
46784, -0.9139572978019714, 0.9329184293746948, -0.9880419969558716, -16.308055877685547, 19.154563903808594, -11.565506935119629, -2.2489876747131348, 2.512564182281494, -0.48924684524536133, 0, 0, 0, 0, 0, 0, 9362.0, 30146.0, 35388.0, 9362.0, 8.390083312988281, -0.04873056337237358, 0.20032280683517456, 0.08393247425556183, 0.009513637982308865, -0.039250630885362625, 0.998965859413147, -0.0722329318523407, -0.06647872924804688, 1.490478515625, 1.29638671875, 0.0542755126953125, 1.49267578125
46794, -0.9142234325408936, 0.9301247596740723, -0.9880905151367188, -16.33055305480957, 19.179697036743164, -11.570401191711426, -2.25055193901062, 2.514150619506836, -0.48953768610954285, 0, 0, 0, 0, 0, 0, 9362.0, 30146.0, 35388.0, 9362.0, 8.390083312988281, 0.11282023787498474, 0.42523783445358276, 0.14670106768608093, 0.009447766467928886, -0.03840635344386101, 0.9993908405303955, -0.07915226370096207, -0.10231781005859375, 1.487548828125, 1.2861328125, 0.0716094970703125, 1.494873046875
46804, -0.913529098033905, 0.926688551902771, -0.9881771802902222, -16.353065490722656, 19.20484733581543, -11.575297355651855, -2.252120018005371, 2.5157408714294434, -0.48967060446739197, 0, 0, 0, 0, 0, 0, 9362.0, 30146.0, 35388.0, 9362.0, 8.390083312988281, -0.05068879574537277, -0.4146776497364044, -0.1557786762714386, 0.00916073564440012, -0.036513958126306534, 1.000097632408142, -0.08311743289232254, -0.12023735046386719, 1.486083984375, 1.28759765625, 0.068939208984375, 1.496337890625
46814, -0.9136242866516113, 0.9293680191040039, -0.9901286363601685, -16.375595092773438, 19.230012893676758, -11.580194473266602, -2.2536845207214355, 2.5173325538635254, -0.4897438883781433, 0, 0, 0, 0, 0, 0, 9362.0, 30146.0, 35388.0, 9362.0, 8.390083312988281, 0.2415008395910263, 0.16806739568710327, 0.3489077687263489, 0.009777341037988663, -0.038284704089164734, 0.9996379613876343, -0.08238890767097473, -0.030637741088867188, 1.493408203125, 1.3212890625, 0.026214599609375, 1.491943359375
46824, -0.9126551747322083, 0.9281814694404602, -0.987755537033081, -16.39813995361328, 19.25519371032715, -11.585092544555664, -2.2552428245544434, 2.518923282623291, -0.4898063838481903, 0, 0, 0, 0, 0, 0, 9362.0, 30146.0, 35388.0, 9362.0, 8.390083312988281, -0.057960618287324905, -0.5125752687454224, -0.1315259039402008, 0.009869439527392387, -0.03863479197025299, 1.0006693601608276, -0.07973292469978333, -0.10231781005859375, 1.487548828125, 1.29931640625, 0.0500640869140625, 1.496337890625
46834, -0.9125236868858337, 0.9302656054496765, -0.9888397455215454, -16.420700073242188, 19.280391693115234, -11.589990615844727, -2.2568061351776123, 2.5205140113830566, -0.4898682236671448, 0, 0, 0, 0, 0, 0, 9362.0, 30146.0, 35388.0, 9362.0, 8.390083312988281, 0.03329203277826309, -0.12882840633392334, -0.13174022734165192, 0.01108593586832285, -0.037981800734996796, 0.9982165098190308, -0.08047867566347122, -0.05751800537109375, 1.4912109375, 1.282470703125, 0.0786590576171875, 1.49267578125
46844, -0.9126222133636475, 0.9311761856079102, -0.9892545342445374, -16.443275451660156, 19.305604934692383, -11.594889640808105, -2.2583677768707275, 2.522104024887085, -0.48987287282943726, 0, 0, 0, 0, 0, 0, 9362.0, 30146.0, 35388.0, 9362.0, 8.390083312988281, -0.19846302270889282, -0.109603151679039, -0.10326328128576279, 0.008451800793409348, -0.03561999648809433, 0.998431384563446, -0.08246803283691406, -0.05751800537109375, 1.4912109375, 1.288330078125, 0.0676116943359375, 1.49267578125
46854, -0.9144325852394104, 0.931850254535675, -0.9896244406700134, -16.465866088867188, 19.330833435058594, -11.599788665771484, -2.259931802749634, 2.5236918926239014, -0.49001380801200867, 0, 0, 0, 0, 0, 0, 9362.0, 30146.0, 35388.0, 9362.0, 8.390083312988281, 0.08973880112171173, -0.08487042039632797, 0.19463331997394562, 0.007122160866856575, -0.03663093224167824, 1.0008736848831177, -0.08392572402954102, -0.1291980743408203, 1.4853515625, 1.29052734375, 0.06378173828125, 1.491943359375
46864, -0.9142585396766663, 0.9320310354232788, -0.9889159202575684, -16.488473892211914, 19.3560791015625, -11.604689598083496, -2.2614951133728027, 2.5252785682678223, -0.4902297258377075, 0, 0, 0, 0, 0, 0, 9362.0, 30146.0, 35388.0, 9362.0, 8.390083312988281, 0.057432834059000015, 0.020268619060516357, 0.07731448858976364, 0.007472096011042595, -0.037998493760824203, 1.0001994371414185, -0.08743306994438171, -0.06647872924804688, 1.490478515625, 1.289794921875, 0.065032958984375, 1.490478515625
46874, -0.9140732884407043, 0.9319507479667664, -0.988692581653595, -16.511096954345703, 19.38134002685547, -11.60959243774414, -2.2630631923675537, 2.5268714427948, -0.4902540147304535, 0, 0, 0, 0, 0, 0, 9362.0, 30146.0, 35388.0, 9362.0, 8.390083312988281, 0.11335383355617523, 0.49553078413009644, 0.07406280189752579, 0.007720717694610357, -0.03741982951760292, 1.0007466077804565, -0.08624615520238876, -0.030637741088867188, 1.493408203125, 1.304443359375, 0.043182373046875, 1.496337890625
46884, -0.9140219688415527, 0.9285122156143188, -0.9873029589653015, -16.533735275268555, 19.4066162109375, -11.614495277404785, -2.2646327018737793, 2.5284652709960938, -0.49021995067596436, 0, 0, 0, 0, 0, 0, 9362.0, 30146.0, 35388.0, 9362.0, 8.390083312988281, 0.09532426297664642, -0.03236807510256767, -0.31477946043014526, 0.008535929955542088, -0.03530512750148773, 0.999733567237854, -0.08383525907993317, -0.030637741088867188, 1.493408203125, 1.31689453125, 0.0298919677734375, 1.4912109375
46894, -0.9133853316307068, 0.9295294880867004, -0.9895290732383728, -16.55638885498047, 19.431909561157227, -11.619397163391113, -2.2662017345428467, 2.5300586223602295, -0.49018505215644836, 0, 0, 0, 0, 0, 0, 9362.0, 30146.0, 35388.0, 9362.0, 8.390083312988281, 0.025951772928237915, 0.04622853174805641, -0.008765295147895813, 0.010066029615700245, -0.03523717448115349, 1.0001115798950195, -0.07920105755329132, -0.06647872924804688, 1.490478515625, 1.3154296875, 0.03118896484375, 1.493408203125
46904, -0.9132936000823975, 0.9292691946029663, -0.989710807800293, -16.579059600830078, 19.457218170166016, -11.624299049377441, -2.26776385307312, 2.5316505432128906, -0.49019917845726013, 0, 0, 0, 0, 0, 0, 9362.0, 30146.0, 35388.0, 9362.0, 8.390083312988281, -0.09881924837827682, 0.08354859054088593, 0.018242638558149338, 0.008791600354015827, -0.035218678414821625, 1.0002108812332153, -0.08188731968402863, -0.04855918884277344, 1.491943359375, 1.31982421875, 0.0273590087890625, 1.491943359375
46914, -0.9141285419464111, 0.9279754757881165, -0.9895076155662537, -16.60174560546875, 19.482542037963867, -11.62920093536377, -2.269329071044922, 2.5332424640655518, -0.4901842176914215, 0, 0, 0, 0, 0, 0, 9362.0, 30146.0, 35388.0, 9362.0, 8.390083312988281, -0.01263429969549179, -0.09086078405380249, 0.06776563823223114, 0.008755401708185673, -0.03695351257920265, 0.9983270764350891, -0.07997260242700577, -0.05751800537109375, 1.4912109375, 1.313232421875, 0.0333251953125, 1.4912109375
46944, -0.913220226764679, 0.9310863018035889, -0.9922918677330017, -16.66989517211914, 19.558610916137695, -11.643909454345703, -2.2740120887756348, 2.5380125045776367, -0.49049854278564453, 0, 0, 0, 0, 0, 0, 9362.0, 30146.0, 35388.0, 9362.0, 8.390083312988281, -0.12345308810472488, -0.3553290069103241, 0.11665361374616623, 0.010829069651663303, -0.035989098250865936, 1.0000280141830444, -0.07997260242700577, -0.05751800537109375, 1.4912109375, 1.313232421875, 0.0333251953125, 1.4912109375
46974, -0.9140206575393677, 0.9308395981788635, -0.9907224178314209, -16.73818588256836, 19.634822845458984, -11.658624649047852, -2.278707981109619, 2.542785406112671, -0.4906761944293976, 0, 0, 0, 0, 0, 0, 9362.0, 30146.0, 35388.0, 9362.0, 8.390083312988281, -0.10544008016586304, 0.1548870950937271, 0.1290542036294937, 0.008233222179114819, -0.03833385556936264, 0.9975151419639587, -0.07997260242700577, -0.05751800537109375, 1.4912109375, 1.313232421875, 0.0333251953125, 1.4970703125
46984, -0.9142214059829712, 0.9294860363006592, -0.99042147397995, -16.7609806060791, 19.660259246826172, -11.663533210754395, -2.2802681922912598, 2.544372797012329, -0.4910302460193634, 0, 0, 0, 0, 0, 0, 9362.0, 30146.0, 35388.0, 9362.0, 8.390083312988281, 0.09063152223825455, 0.11842222511768341, 0.05943318083882332, 0.007224143948405981, -0.03784937411546707, 0.999758243560791, -0.07997260242700577, -0.05751800537109375, 1.4912109375, 1.313232421875, 0.0333251953125, 1.4970703125
46994, -0.9135953783988953, 0.9288836121559143, -0.990689218044281, -16.783790588378906, 19.685710906982422, -11.66844367980957, -2.281832456588745, 2.5459632873535156, -0.49114856123924255, 0, 0, 0, 0, 0, 0, 9362.0, 30146.0, 35388.0, 9362.0, 8.390083312988281, 0.09063152223825455, 0.11842222511768341, 0.05943318083882332, 0.00879043247550726, -0.03866535425186157, 1.0016168355941772, -0.07997260242700577, -0.05751800537109375, 1.4912109375, 1.313232421875, 0.0333251953125, 1.496337890625
47004, -0.9132406115531921, 0.9284871220588684, -0.9909581542015076, -16.806615829467773, 19.711177825927734, -11.673355102539062, -2.283395767211914, 2.5475552082061768, -0.49121031165122986, 0, 0, 0, 0, 0, 0, 9362.0, 30146.0, 35388.0, 9362.0, 8.390083312988281, 0.09063152223825455, 0.11842222511768341, 0.05943318083882332, 0.008713110350072384, -0.03728916868567467, 1.00069260597229, -0.07997260242700577, -0.05751800537109375, 1.4912109375, 1.313232421875, 0.0333251953125, 1.491943359375
47014, -0.9123687148094177, 0.9260342121124268, -0.9914958477020264, -16.829458236694336, 19.736661911010742, -11.678266525268555, -2.2849607467651367, 2.5491487979888916, -0.49111559987068176, 0, 0, 0, 0, 0, 0, 9362.0, 30146.0, 35388.0, 9362.0, 8.390083312988281, -0.011557111516594887, 0.2841314375400543, -0.10852091759443283, 0.007574103772640228, -0.03552915155887604, 0.9998868703842163, -0.07997260242700577, -0.05751800537109375, 1.4912109375, 1.313232421875, 0.0333251953125, 1.493408203125
47024, -0.9127360582351685, 0.9239338040351868, -0.9924414753913879, -16.85231590270996, 19.762161254882812, -11.68317699432373, -2.2865242958068848, 2.5507404804229736, -0.49105265736579895, 0, 0, 0, 0, 0, 0, 9362.0, 30146.0, 35388.0, 9362.0, 8.390083312988281, -0.011557111516594887, 0.2841314375400543, -0.10852091759443283, 0.010751127265393734, -0.03603486716747284, 1.0013974905014038, -0.07997260242700577, -0.05751800537109375, 1.4912109375, 1.313232421875, 0.0333251953125, 1.49560546875
47054, -0.9121395945549011, 0.9251293540000916, -0.9905472993850708, -16.92098045349121, 19.838754653930664, -11.697907447814941, -2.29119610786438, 2.5555126667022705, -0.4908822774887085, 0, 0, 0, 0, 0, 0, 9362.0, 30146.0, 35388.0, 9362.0, 8.390083312988281, -0.3469310402870178, 0.18032614886760712, 0.25337401032447815, 0.00892635341733694, -0.03799693286418915, 0.9983320832252502, -0.07997260242700577, -0.05751800537109375, 1.4912109375, 1.313232421875, 0.0333251953125, 1.496337890625
47064, -0.9126070141792297, 0.9293134808540344, -0.9915581345558167, -16.94390106201172, 19.864316940307617, -11.702816009521484, -2.2927544116973877, 2.5570991039276123, -0.4909041225910187, 0, 0, 0, 0, 0, 0, 9362.0, 30146.0, 35388.0, 9362.0, 8.390083312988281, -0.3469310402870178, 0.18032614886760712, 0.25337401032447815, 0.008285805583000183, -0.036480315029621124, 0.9976230263710022, -0.07997260242700577, -0.05751800537109375, 1.4912109375, 1.313232421875, 0.0333251953125, 1.493408203125
47074, -0.91221684217453, 0.9299608469009399, -0.9890923500061035, -16.96683692932129, 19.889896392822266, -11.707725524902344, -2.2943084239959717, 2.558685779571533, -0.49105244874954224, 0, 0, 0, 0, 0, 0, 9362.0, 30146.0, 35388.0, 9362.0, 8.390083312988281, -0.3469310402870178, 0.18032614886760712, 0.25337401032447815, 0.0071158758364617825, -0.03866638243198395, 0.9988372325897217, -0.07997260242700577, -0.05751800537109375, 1.4912109375, 1.313232421875, 0.0333251953125, 1.49267578125
47084, -0.912741482257843, 0.9289126396179199, -0.9902053475379944, -16.989788055419922, 19.915491104125977, -11.712636947631836, -2.2958686351776123, 2.5602715015411377, -0.4912978708744049, 0, 0, 0, 0, 0, 0, 9362.0, 30146.0, 35388.0, 9362.0, 8.390083312988281, -0.09838849306106567, -0.3346432149410248, -0.07707235217094421, 0.0071158758364617825, -0.03866638243198395, 0.9988372325897217, -0.07997260242700577, -0.05751800537109375, 1.4912109375, 1.313232421875, 0.0333251953125, 1.49267578125
47104, -0.9139885306358337, 0.9277753829956055, -0.990565836429596, -17.035736083984375, 19.96672821044922, -11.722467422485352, -2.29899001121521, 2.5634443759918213, -0.4917553961277008, 0, 0, 0, 0, 0, 0, 9362.0, 30146.0, 35388.0, 9362.0, 8.390083312988281, 0.05120973289012909, 0.16246174275875092, -0.04567543417215347, 0.01130628027021885, -0.037605900317430496, 1.0004231929779053, -0.07997260242700577, -0.05751800537109375, 1.4912109375, 1.313232421875, 0.0333251953125, 1.49267578125
47124, -0.9126955270767212, 0.9263343214988708, -0.9921300411224365, -17.08174705505371, 20.018028259277344, -11.732306480407715, -2.3021106719970703, 2.5666239261627197, -0.4920642673969269, 0, 0, 0, 0, 0, 0, 9362.0, 30146.0, 35388.0, 9362.0, 8.390083312988281, -0.013734562322497368, 0.1958249807357788, 0.2392704337835312, 0.008743287064135075, -0.03672756254673004, 1.0001028776168823, -0.07997260242700577, -0.05751800537109375, 1.4912109375, 1.313232421875, 0.0333251953125, 1.49267578125
47134, -0.9127321243286133, 0.9252011775970459, -0.9906662702560425, -17.10477638244629, 20.043703079223633, -11.737226486206055, -2.3036696910858154, 2.5682153701782227, -0.49202099442481995, 0, 0, 0, 0, 0, 0, 9362.0, 30146.0, 35388.0, 9362.0, 8.390083312988281, -0.013734562322497368, 0.1958249807357788, 0.2392704337835312, 0.007395205087959766, -0.03545556217432022, 1.0014392137527466, -0.07997260242700577, -0.05751800537109375, 1.4912109375, 1.313232421875, 0.0333251953125, 1.494873046875
47154, -0.9135693311691284, 0.9221436977386475, -0.9891814589500427, -17.150880813598633, 20.0950984954834, -11.747066497802734, -2.3067872524261475, 2.571397066116333, -0.49194175004959106, 0, 0, 0, 0, 0, 0, 9362.0, 30146.0, 35388.0, 9362.0, 8.390083312988281, -0.013734562322497368, 0.1958249807357788, 0.2392704337835312, 0.009771275334060192, -0.038284022361040115, 0.9989387392997742, -0.07997260242700577, -0.05751800537109375, 1.4912109375, 1.289794921875, 0.065032958984375, 1.493408203125
47164, -0.9134097099304199, 0.920716404914856, -0.9873511791229248, -17.1739559173584, 20.120820999145508, -11.751985549926758, -2.308345079421997, 2.572988510131836, -0.49183157086372375, 0, 0, 0, 0, 0, 0, 9362.0, 30146.0, 35388.0, 9362.0, 8.390083312988281, 0.2153712809085846, 0.03620005026459694, -0.011898700147867203, 0.009771275334060192, -0.038284022361040115, 0.9989387392997742, -0.07997260242700577, -0.05751800537109375, 1.4912109375, 1.289794921875, 0.065032958984375, 1.493408203125
47184, -0.9122177958488464, 0.9207572340965271, -0.9887377023696899, -17.22015380859375, 20.172311782836914, -11.761824607849121, -2.3114421367645264, 2.576166868209839, -0.49211257696151733, 0, 0, 0, 0, 0, 0, 9362.0, 30146.0, 35388.0, 9362.0, 8.390083312988281, -0.095475934445858, 0.0006662548403255641, -0.039103180170059204, 0.008998886682093143, -0.037029929459095, 0.9996050000190735, -0.07910344004631042, -0.05751800537109375, 1.4912109375, 1.289794921875, 0.065032958984375, 1.493408203125
47244, -0.9117103815078735, 0.9165152907371521, -0.9875735640525818, -17.359119415283203, 20.327167510986328, -11.791364669799805, -2.3207297325134277, 2.5857059955596924, -0.49220040440559387, 0, 0, 0, 0, 0, 0, 9362.0, 30146.0, 35388.0, 9362.0, 8.390083312988281, -0.1385965794324875, -0.062026094645261765, 0.10573726147413254, 0.008555500768125057, -0.036086294800043106, 0.9996126890182495, -0.07910344004631042, -0.05751800537109375, 1.4912109375, 1.289794921875, 0.065032958984375, 1.490478515625
47284, -0.9110884070396423, 0.9135359525680542, -0.9808571338653564, -17.452072143554688, 20.430723190307617, -11.811052322387695, -2.326897382736206, 2.592052936553955, -0.49232161045074463, 0, 0, 0, 0, 0, 0, 9362.0, 30146.0, 35388.0, 9362.0, 8.390083312988281, -0.03393777459859848, 0.25007256865501404, 0.06464366614818573, 0.008403271436691284, -0.038759563118219376, 0.9981905817985535, -0.07910344004631042, -0.05751800537109375, 1.4912109375, 1.289794921875, 0.065032958984375, 1.496337890625
47304, -0.9123643636703491, 0.9100462198257446, -0.979337215423584, -17.498641967773438, 20.482595443725586, -11.820900917053223, -2.3299739360809326, 2.595221757888794, -0.49261122941970825, 0, 0, 0, 0, 0, 0, 9362.0, 30146.0, 35388.0, 9362.0, 8.390083312988281, 0.20528556406497955, -0.346353143453598, -0.2074953317642212, 0.006761078257113695, -0.03697860613465309, 0.999597430229187, -0.07910344004631042, -0.05751800537109375, 1.4912109375, 1.289794921875, 0.065032958984375, 1.494140625
47354, -0.9122848510742188, 0.9160889387130737, -0.9814808368682861, -17.615333557128906, 20.61255645751953, -11.845541000366211, -2.3376481533050537, 2.6031599044799805, -0.49293023347854614, 0, 0, 0, 0, 0, 0, 9362.0, 30146.0, 35388.0, 9362.0, 8.390083312988281, -0.009999683126807213, -0.11021488904953003, 0.14739954471588135, 0.008842906914651394, -0.03742115944623947, 0.9975081086158752, -0.08796491473913193, -0.11127853393554688, 1.48681640625, 1.305908203125, 0.0413360595703125, 1.493408203125
47374, -0.911956250667572, 0.918208658695221, -0.9818020462989807, -17.66211700439453, 20.66465187072754, -11.855403900146484, -2.34072208404541, 2.606330156326294, -0.49339818954467773, 0, 0, 0, 0, 0, 0, 9362.0, 30146.0, 35388.0, 9362.0, 8.390083312988281, -0.009999683126807213, -0.11021488904953003, 0.14739954471588135, 0.008249660022556782, -0.03552723303437233, 0.9998928308486938, -0.08796491473913193, -0.11127853393554688, 1.48681640625, 1.305908203125, 0.0413360595703125, 1.491943359375
47384, -0.9117687344551086, 0.9210189580917358, -0.9820266962051392, -17.685531616210938, 20.690723419189453, -11.860339164733887, -2.342264175415039, 2.607915163040161, -0.4935806691646576, 0, 0, 0, 0, 0, 0, 9362.0, 30146.0, 35388.0, 9362.0, 8.390083312988281, -0.009999683126807213, -0.11021488904953003, 0.14739954471588135, 0.008471548557281494, -0.03834657371044159, 1.0002896785736084, -0.08796491473913193, -0.11127853393554688, 1.48681640625, 1.305908203125, 0.0413360595703125, 1.496337890625
47394, -0.9123287200927734, 0.9240612387657166, -0.9824234247207642, -17.708961486816406, 20.71681022644043, -11.865275382995605, -2.34380841255188, 2.6095023155212402, -0.4936574399471283, 0, 0, 0, 0, 0, 0, 9362.0, 30146.0, 35388.0, 9362.0, 8.390083312988281, -0.009999683126807213, -0.11021488904953003, 0.14739954471588135, 0.009501460008323193, -0.0418846495449543, 0.9983825087547302, -0.08796491473913193, -0.11127853393554688, 1.48681640625, 1.305908203125, 0.0413360595703125, 1.49267578125
47424, -0.9116266965866089, 0.9176564812660217, -0.9804485440254211, -17.779346466064453, 20.795166015625, -11.880086898803711, -2.3484625816345215, 2.6142654418945312, -0.4938812255859375, 0, 0, 0, 0, 0, 0, 9362.0, 30146.0, 35388.0, 9362.0, 8.390083312988281, -0.030687807127833366, 0.22433167695999146, -0.05732428655028343, 0.007844447158277035, -0.03748364746570587, 0.999627411365509, -0.08796491473913193, -0.11127853393554688, 1.48681640625, 1.305908203125, 0.0413360595703125, 1.491943359375
47434, -0.9116929769515991, 0.9155356884002686, -0.9805171489715576, -17.779346466064453, 20.795166015625, -11.880086898803711, -2.3484625816345215, 2.6142654418945312, -0.4938812255859375, 0, 0, 0, 0, 0, 0, 9362.0, 30146.0, 35388.0, 9362.0, 8.390083312988281, -0.015977753326296806, -0.3730247914791107, -0.26833516359329224, 0.01011674664914608, -0.03682713210582733, 0.9977684020996094, -0.08796491473913193, -0.11127853393554688, 1.48681640625, 1.305908203125, 0.0413360595703125, 1.491943359375
47474, -0.9123323559761047, 0.9185891151428223, -0.982965886592865, -17.873409271240234, 20.89986228942871, -11.899847984313965, -2.354635715484619, 2.6206107139587402, -0.4943162500858307, 0, 0, 0, 0, 0, 0, 9362.0, 30146.0, 35388.0, 9362.0, 8.390083312988281, 0.0903104767203331, -0.008027391508221626, -0.12080040574073792, 0.007817753590643406, -0.039437536150217056, 1.0003799200057983, -0.08796491473913193, -0.11127853393554688, 1.48681640625, 1.2890625, 0.0663909912109375, 1.4970703125
47484, -0.9121146202087402, 0.9181832671165466, -0.9828364253044128, -17.873409271240234, 20.89986228942871, -11.899847984313965, -2.354635715484619, 2.6206107139587402, -0.4943162500858307, 0, 0, 0, 0, 0, 0, 9362.0, 30146.0, 35388.0, 9362.0, 8.390083312988281, 0.0903104767203331, -0.008027391508221626, -0.12080040574073792, 0.008252020925283432, -0.0376836434006691, 0.9975103139877319, -0.08796491473913193, -0.11127853393554688, 1.48681640625, 1.2890625, 0.0663909912109375, 1.493408203125
47514, -0.9127954244613647, 0.9220032095909119, -0.9831754565238953, -17.991331100463867, 21.031091690063477, -11.924574851989746, -2.3623499870300293, 2.6285481452941895, -0.49488502740859985, 0, 0, 0, 0, 0, 0, 9362.0, 30146.0, 35388.0, 9362.0, 8.390083312988281, -0.059359110891819, -0.2596201002597809, -0.2816638946533203, 0.00880085676908493, -0.03872452676296234, 0.9999107718467712, -0.08796491473913193, -0.11127853393554688, 1.48681640625, 1.2890625, 0.0663909912109375, 1.491943359375
47524, -0.9115973114967346, 0.9211377501487732, -0.9828477501869202, -18.014963150024414, 21.057384490966797, -11.929522514343262, -2.3639004230499268, 2.6301403045654297, -0.4946962296962738, 0, 0, 0, 0, 0, 0, 9362.0, 30146.0, 35388.0, 9362.0, 8.390083312988281, -0.059359110891819, -0.2596201002597809, -0.2816638946533203, 0.009637583047151566, -0.03682655096054077, 0.9987714886665344, -0.08796491473913193, -0.11127853393554688, 1.48681640625, 1.2890625, 0.0663909912109375, 1.491943359375
47534, -0.9112040400505066, 0.9217349290847778, -0.9839545488357544, -18.038610458374023, 21.083694458007812, -11.934469223022461, -2.3654534816741943, 2.6317317485809326, -0.49462395906448364, 0, 0, 0, 0, 0, 0, 9362.0, 30146.0, 35388.0, 9362.0, 8.390083312988281, -0.059359110891819, -0.2596201002597809, -0.2816638946533203, 0.008875914849340916, -0.03692422807216644, 0.9969570636749268, -0.08796491473913193, -0.11127853393554688, 1.48681640625, 1.2890625, 0.0663909912109375, 1.497802734375
47574, -0.9138285517692566, 0.9209874868392944, -0.9862083792686462, -18.133352279663086, 21.189090728759766, -11.954273223876953, -2.3716392517089844, 2.6380670070648193, -0.49562832713127136, 0, 0, 0, 0, 0, 0, 9362.0, 30146.0, 35388.0, 9362.0, 8.390083312988281, -0.03166911378502846, 0.11675312370061874, -0.004870337434113026, 0.009146125055849552, -0.03510259464383125, 1.0002779960632324, -0.08796491473913193, -0.11127853393554688, 1.48681640625, 1.2890625, 0.0663909912109375, 1.496337890625
47654, -0.9154053926467896, 0.9243676662445068, -0.9892297983169556, -18.323579788208008, 21.400646209716797, -11.993938446044922, -2.3840529918670654, 2.6507937908172607, -0.4960997700691223, 0, 0, 0, 0, 0, 0, 9362.0, 30146.0, 35388.0, 9362.0, 8.390083312988281, 0.04749855771660805, 0.05366688594222069, 0.18639548122882843, 0.009430678561329842, -0.03862084448337555, 1.0015488862991333, -0.08796491473913193, -0.11127853393554688, 1.48681640625, 1.2890625, 0.0663909912109375, 1.496337890625
47664, -0.913770854473114, 0.9249684810638428, -0.9878773093223572, -18.347427368164062, 21.427162170410156, -11.998899459838867, -2.385607957839966, 2.6523873805999756, -0.4961704611778259, 0, 0, 0, 0, 0, 0, 9362.0, 30146.0, 35388.0, 9362.0, 8.390083312988281, -0.12858152389526367, -0.25663796067237854, -0.07740693539381027, 0.009430678561329842, -0.03862084448337555, 1.0015488862991333, -0.08796491473913193, -0.11127853393554688, 1.48681640625, 1.2890625, 0.0663909912109375, 1.496337890625
47674, -0.9139494895935059, 0.9267693161964417, -0.9889944791793823, -18.371292114257812, 21.453693389892578, -12.003860473632812, -2.3871653079986572, 2.6539835929870605, -0.49607712030410767, 0, 0, 0, 0, 0, 0, 9362.0, 30146.0, 35388.0, 9362.0, 8.390083312988281, -0.12858152389526367, -0.25663796067237854, -0.07740693539381027, 0.010736972093582153, -0.037546683102846146, 0.9979386329650879, -0.08796491473913193, -0.11127853393554688, 1.48681640625, 1.2890625, 0.0663909912109375, 1.4912109375
47684, -0.9125896096229553, 0.9256428480148315, -0.9899497628211975, -18.371292114257812, 21.453693389892578, -12.003860473632812, -2.3871653079986572, 2.6539835929870605, -0.49607712030410767, 0, 0, 0, 0, 0, 0, 9362.0, 30146.0, 35388.0, 9362.0, 8.390083312988281, -0.12858152389526367, -0.25663796067237854, -0.07740693539381027, 0.00890436302870512, -0.037645671516656876, 1.0000988245010376, -0.08796491473913193, -0.11127853393554688, 1.48681640625, 1.2890625, 0.0663909912109375, 1.493408203125
47694, -0.9125710725784302, 0.9254693388938904, -0.988275945186615, -18.4190673828125, 21.506805419921875, -12.01378345489502, -2.390277624130249, 2.6571640968322754, -0.49629807472229004, 0, 0, 0, 0, 0, 0, 9362.0, 30146.0, 35388.0, 9362.0, 8.390083312988281, -0.12858152389526367, -0.25663796067237854, -0.07740693539381027, 0.007121794391423464, -0.03658296912908554, 0.999736487865448, -0.08796491473913193, -0.11127853393554688, 1.48681640625, 1.2890625, 0.0663909912109375, 1.49560546875
47724, -0.9110500812530518, 0.9305475950241089, -0.9926832914352417, -18.4908447265625, 21.586591720581055, -12.028674125671387, -2.3949520587921143, 2.6619327068328857, -0.4964148700237274, 0, 0, 0, 0, 0, 0, 9362.0, 30146.0, 35388.0, 9362.0, 8.390083312988281, 0.046739816665649414, -0.26041677594184875, -0.09287971258163452, 0.009337391704320908, -0.038585301488637924, 0.9980694055557251, -0.08796491473913193, -0.11127853393554688, 1.48681640625, 1.302978515625, 0.0450897216796875, 1.496337890625
47734, -0.9116067290306091, 0.9291453957557678, -0.9903770685195923, -18.514802932739258, 21.613218307495117, -12.033638000488281, -2.396517753601074, 2.663522720336914, -0.4962977170944214, 0, 0, 0, 0, 0, 0, 9362.0, 30146.0, 35388.0, 9362.0, 8.390083312988281, 0.057504329830408096, 0.17006130516529083, -0.14592696726322174, 0.009337391704320908, -0.038585301488637924, 0.9980694055557251, -0.08796491473913193, -0.11127853393554688, 1.48681640625, 1.302978515625, 0.0450897216796875, 1.496337890625
47754, -0.9116795063018799, 0.9297512173652649, -0.9918767213821411, -18.56276512145996, 21.666521072387695, -12.043567657470703, -2.399641275405884, 2.6666927337646484, -0.4967014491558075, 0, 0, 0, 0, 0, 0, 9362.0, 30146.0, 35388.0, 9362.0, 8.390083312988281, 0.10029241442680359, 0.22974595427513123, -0.16140033304691315, 0.008910960517823696, -0.03553634136915207, 1.000325083732605, -0.08796491473913193, -0.11127853393554688, 1.48681640625, 1.31103515625, 0.0355682373046875, 1.494873046875
47764, -0.9112065434455872, 0.9282989501953125, -0.9936760067939758, -18.586769104003906, 21.693195343017578, -12.048535346984863, -2.401200771331787, 2.6682794094085693, -0.4967881739139557, 0, 0, 0, 0, 0, 0, 9362.0, 30146.0, 35388.0, 9362.0, 8.390083312988281, 0.10029241442680359, 0.22974595427513123, -0.16140033304691315, 0.008081690408289433, -0.035330016165971756, 0.9981484413146973, -0.08796491473913193, -0.11127853393554688, 1.48681640625, 1.31103515625, 0.0355682373046875, 1.493408203125
47784, -0.9114953279495239, 0.9281836152076721, -0.9960966110229492, -18.634824752807617, 21.746593475341797, -12.0584716796875, -2.4043264389038086, 2.6714541912078857, -0.4969038665294647, 0, 0, 0, 0, 0, 0, 9362.0, 30146.0, 35388.0, 9362.0, 8.390083312988281, 0.055586617439985275, -0.24540433287620544, 0.048108454793691635, 0.010630556382238865, -0.03690529987215996, 0.9993168115615845, -0.08796491473913193, -0.11127853393554688, 1.48681640625, 1.31103515625, 0.0355682373046875, 1.49267578125
47814, -0.9118779897689819, 0.9317614436149597, -0.9920302033424377, -18.7070255279541, 21.82680892944336, -12.073382377624512, -2.409011125564575, 2.6762142181396484, -0.4970576763153076, 0, 0, 0, 0, 0, 0, 9362.0, 30146.0, 35388.0, 9362.0, 8.390083312988281, 0.14654560387134552, -0.21496662497520447, -0.0034674822818487883, 0.007206673733890057, -0.037553682923316956, 0.9970168471336365, -0.08796491473913193, -0.11127853393554688, 1.48681640625, 1.31103515625, 0.0355682373046875, 1.494873046875
47824, -0.9113812446594238, 0.9329406023025513, -0.9910238981246948, -18.731122970581055, 21.853578567504883, -12.078352928161621, -2.410574197769165, 2.677802562713623, -0.49708789587020874, 0, 0, 0, 0, 0, 0, 9362.0, 30146.0, 35388.0, 9362.0, 8.390083312988281, 0.14654560387134552, -0.21496662497520447, -0.0034674822818487883, 0.007896983064711094, -0.038671113550662994, 0.9972173571586609, -0.08796491473913193, -0.11127853393554688, 1.48681640625, 1.31103515625, 0.0355682373046875, 1.491943359375
47844, -0.9097811579704285, 0.9271638989448547, -0.9910383820533752, -18.77936553955078, 21.907167434692383, -12.088300704956055, -2.413703441619873, 2.6809699535369873, -0.4976610243320465, 0, 0, 0, 0, 0, 0, 9362.0, 30146.0, 35388.0, 9362.0, 8.390083312988281, -0.15674740076065063, -0.10353037714958191, 0.11190113425254822, 0.01110372506082058, -0.03580143675208092, 1.0004596710205078, -0.08796491473913193, -0.11127853393554688, 1.48681640625, 1.31103515625, 0.0355682373046875, 1.49560546875
47864, -0.9104012846946716, 0.9306364059448242, -0.9910104274749756, -18.82767105102539, 21.960817337036133, -12.09825611114502, -2.41682505607605, 2.6841394901275635, -0.4977898597717285, 0, 0, 0, 0, 0, 0, 9362.0, 30146.0, 35388.0, 9362.0, 8.390083312988281, -0.027247721329331398, 0.305261492729187, 0.01773809641599655, 0.009359331801533699, -0.037358853965997696, 0.9999878406524658, -0.08796491473913193, -0.11127853393554688, 1.48681640625, 1.31103515625, 0.0355682373046875, 1.491943359375
47874, -0.9094802737236023, 0.9291037321090698, -0.9906159043312073, -18.85184669494629, 21.987667083740234, -12.10323429107666, -2.4183897972106934, 2.6857268810272217, -0.4977641701698303, 0, 0, 0, 0, 0, 0, 9362.0, 30146.0, 35388.0, 9362.0, 8.370248794555664, 0.0734703540802002, -0.16432058811187744, 0.0872991755604744, 0.008570794016122818, -0.036944519728422165, 1.0003005266189575, -0.08796491473913193, -0.11127853393554688, 1.48681640625, 1.31103515625, 0.0355682373046875, 1.491943359375
47904, -0.9101648330688477, 0.9280253052711487, -0.9861061573028564, -18.924468994140625, 22.068309783935547, -12.118165969848633, -2.423084259033203, 2.6904795169830322, -0.497783899307251, 0, 0, 0, 0, 0, 0, 9362.0, 30146.0, 35388.0, 9362.0, 8.390083312988281, 0.012247190810739994, 0.04209001734852791, -0.03189465403556824, 0.008319253101944923, -0.03780941292643547, 0.9982514977455139, -0.08796491473913193, -0.11127853393554688, 1.48681640625, 1.28466796875, 0.07440185546875, 1.493408203125
47914, -0.9103702306747437, 0.9268401861190796, -0.9864176511764526, -18.948707580566406, 22.09522247314453, -12.123144149780273, -2.4246463775634766, 2.6920628547668457, -0.49776342511177063, 0, 0, 0, 0, 0, 0, 9362.0, 30146.0, 35388.0, 9362.0, 8.390083312988281, 0.20015506446361542, -0.11548297107219696, -0.12799225747585297, 0.01009778119623661, -0.036127619445323944, 0.9996288418769836, -0.08796491473913193, -0.11127853393554688, 1.48681640625, 1.3212890625, 0.026214599609375, 1.4912109375
47924, -0.9093603491783142, 0.926646888256073, -0.9869756102561951, -18.97296142578125, 22.122150421142578, -12.128122329711914, -2.426205635070801, 2.693645477294922, -0.49794846773147583, 0, 0, 0, 0, 0, 0, 9362.0, 30146.0, 35388.0, 9362.0, 8.390083312988281, 0.1025862991809845, 0.06183427572250366, 0.1862030029296875, 0.009998206980526447, -0.0376645065844059, 0.9985926151275635, -0.07622122764587402, -0.10231781005859375, 1.487548828125, 1.3154296875, 0.03118896484375, 1.4912109375
47934, -0.9092159271240234, 0.9258790612220764, -0.9853690266609192, -18.997230529785156, 22.14909553527832, -12.133102416992188, -2.427764415740967, 2.695230484008789, -0.4980238974094391, 0, 0, 0, 0, 0, 0, 9362.0, 30146.0, 35388.0, 9362.0, 8.390083312988281, -0.024903323501348495, 0.29633474349975586, 0.26741936802864075, 0.010192157700657845, -0.03684631735086441, 0.9987978339195251, -0.07622122764587402, -0.10231781005859375, 1.487548828125, 1.323486328125, 0.024688720703125, 1.493408203125
47944, -0.9091727137565613, 0.9231005311012268, -0.982471227645874, -19.021516799926758, 22.176055908203125, -12.138083457946777, -2.4293222427368164, 2.6968131065368652, -0.4981441795825958, 0, 0, 0, 0, 0, 0, 9362.0, 30146.0, 35388.0, 9362.0, 8.390083312988281, 0.2482902705669403, -0.48542484641075134, -0.31326013803482056, 0.009161555208265781, -0.03706837445497513, 1.0007190704345703, -0.07622122764587402, -0.10231781005859375, 1.487548828125, 1.323486328125, 0.024688720703125, 1.493408203125
47954, -0.9081447720527649, 0.9260073304176331, -0.9850741624832153, -19.045818328857422, 22.203031539916992, -12.143065452575684, -2.430877923965454, 2.6983935832977295, -0.49833357334136963, 0, 0, 0, 0, 0, 0, 9362.0, 30146.0, 35388.0, 9362.0, 8.390083312988281, 0.01845579780638218, -0.2830893099308014, -0.028735237196087837, 0.009161555208265781, -0.03706837445497513, 1.0007190704345703, -0.07916422933340073, -0.08439826965332031, 1.489013671875, 1.31396484375, 0.0325469970703125, 1.494140625
47964, -0.908522367477417, 0.9283856153488159, -0.9865543842315674, -19.07013511657715, 22.230024337768555, -12.148048400878906, -2.432431221008301, 2.6999776363372803, -0.49834880232810974, 0, 0, 0, 0, 0, 0, 9362.0, 30146.0, 35388.0, 9362.0, 8.390083312988281, -0.042006541043519974, -0.43834981322288513, -0.10256052762269974, 0.009543163701891899, -0.03720303624868393, 0.999241828918457, -0.07916422933340073, -0.08439826965332031, 1.489013671875, 1.311767578125, 0.0348052978515625, 1.49560546875
47974, -0.9083520174026489, 0.9301978349685669, -0.9876723289489746, -19.094467163085938, 22.25703239440918, -12.153031349182129, -2.433990955352783, 2.701561212539673, -0.49825403094291687, 0, 0, 0, 0, 0, 0, 9362.0, 30146.0, 35388.0, 9362.0, 8.390083312988281, -0.04860479384660721, 0.11763181537389755, 0.2767333686351776, 0.008272120729088783, -0.03836856409907341, 1.000771403312683, -0.07916422933340073, -0.08439826965332031, 1.489013671875, 1.311767578125, 0.0348052978515625, 1.49560546875
47984, -0.9087530970573425, 0.9293896555900574, -0.9865285754203796, -19.11881446838379, 22.284055709838867, -12.158014297485352, -2.4355528354644775, 2.70314359664917, -0.4982970654964447, 0, 0, 0, 0, 0, 0, 9362.0, 30146.0, 35388.0, 9362.0, 8.390083312988281, -0.04860479384660721, 0.11763181537389755, 0.2767333686351776, 0.008727509528398514, -0.036551814526319504, 0.9994744658470154, -0.07916422933340073, -0.08439826965332031, 1.489013671875, 1.311767578125, 0.0348052978515625, 1.49560546875
47994, -0.907860279083252, 0.9293079376220703, -0.989215075969696, -19.143177032470703, 22.311094284057617, -12.162997245788574, -2.4371187686920166, 2.704726219177246, -0.4983142912387848, 0, 0, 0, 0, 0, 0, 9362.0, 30146.0, 35388.0, 9362.0, 8.390083312988281, -0.04860479384660721, 0.11763181537389755, 0.2767333686351776, 0.008714759722352028, -0.03786120563745499, 0.9996253252029419, -0.07916422933340073, -0.08439826965332031, 1.489013671875, 1.311767578125, 0.0348052978515625, 1.493408203125
48004, -0.9082087278366089, 0.9299789667129517, -0.9901493191719055, -19.167556762695312, 22.338150024414062, -12.167980194091797, -2.4386820793151855, 2.7063090801239014, -0.49834662675857544, 0, 0, 0, 0, 0, 0, 9362.0, 30146.0, 35388.0, 9362.0, 8.390083312988281, -0.04860479384660721, 0.11763181537389755, 0.2767333686351776, 0.0052985502406954765, -0.038196250796318054, 0.99992436170578, -0.07916422933340073, -0.08439826965332031, 1.489013671875, 1.311767578125, 0.0348052978515625, 1.49560546875
48064, -0.9048165678977966, 0.9334352612495422, -0.9908781051635742, -19.314159393310547, 22.500812530517578, -12.197903633117676, -2.448075771331787, 2.7157797813415527, -0.49907737970352173, 0, 0, 0, 0, 0, 0, 9362.0, 30146.0, 35388.0, 9362.0, 8.390083312988281, -0.02810109220445156, -0.12459471076726913, 0.017472343519330025, 0.009225738234817982, -0.03570245951414108, 0.9997491836547852, -0.07916422933340073, -0.08439826965332031, 1.489013671875, 1.311767578125, 0.0348052978515625, 1.49560546875
48094, -0.9046217799186707, 0.9352335333824158, -0.9893320202827454, -19.387672424316406, 22.58235740661621, -12.21287727355957, -2.452791929244995, 2.720508337020874, -0.4992143213748932, 0, 0, 0, 0, 0, 0, 9362.0, 30146.0, 35388.0, 9362.0, 8.390083312988281, -0.10975099354982376, 0.042359400540590286, 0.0632324069738388, 0.008792582899332047, -0.03553847223520279, 1.0001764297485352, -0.07916422933340073, -0.08439826965332031, 1.489013671875, 1.3095703125, 0.037139892578125, 1.496337890625
48104, -0.9058053493499756, 0.9363724589347839, -0.9884841442108154, -19.412208557128906, 22.609569549560547, -12.217869758605957, -2.4543659687042236, 2.7220849990844727, -0.49921056628227234, 0, 0, 0, 0, 0, 0, 9362.0, 30146.0, 35388.0, 9362.0, 8.390083312988281, -0.10975099354982376, 0.042359400540590286, 0.0632324069738388, 0.009011970832943916, -0.03346335515379906, 1.0000170469284058, -0.07916422933340073, -0.08439826965332031, 1.489013671875, 1.3095703125, 0.037139892578125, 1.496337890625
48124, -0.9051468372344971, 0.9349554181098938, -0.9897371530532837, -19.461326599121094, 22.664043426513672, -12.22785472869873, -2.4575161933898926, 2.7252397537231445, -0.49926304817199707, 0, 0, 0, 0, 0, 0, 9362.0, 30146.0, 35388.0, 9362.0, 8.390083312988281, 0.10866767913103104, 0.03309382125735283, 0.1581605225801468, 0.009489325806498528, -0.03633398935198784, 1.0003716945648193, -0.07916422933340073, -0.08439826965332031, 1.489013671875, 1.3095703125, 0.037139892578125, 1.493408203125
48134, -0.9045350551605225, 0.934827983379364, -0.9907045960426331, -19.485910415649414, 22.691303253173828, -12.232848167419434, -2.4590892791748047, 2.726814031600952, -0.49941855669021606, 0, 0, 0, 0, 0, 0, 9362.0, 30146.0, 35388.0, 9362.0, 8.390083312988281, 0.10866767913103104, 0.03309382125735283, 0.1581605225801468, 0.009355754591524601, -0.03633716329932213, 0.9999656081199646, -0.07916422933340073, -0.08439826965332031, 1.489013671875, 1.3095703125, 0.037139892578125, 1.496337890625
48144, -0.9039742350578308, 0.9352332353591919, -0.9907909035682678, -19.510509490966797, 22.718578338623047, -12.237842559814453, -2.4606621265411377, 2.7283904552459717, -0.49947914481163025, 0, 0, 0, 0, 0, 0, 9362.0, 30146.0, 35388.0, 9362.0, 8.390083312988281, 0.10866767913103104, 0.03309382125735283, 0.1581605225801468, 0.009518650360405445, -0.03608201444149017, 0.9991730451583862, -0.07916422933340073, -0.08439826965332031, 1.489013671875, 1.3095703125, 0.037139892578125, 1.496337890625
48164, -0.9013153314590454, 0.9329867362976074, -0.989969789981842, -19.55975341796875, 22.773178100585938, -12.247833251953125, -2.4638092517852783, 2.7315409183502197, -0.4995839297771454, 0, 0, 0, 0, 0, 0, 9362.0, 30146.0, 35388.0, 9362.0, 8.390083312988281, -0.06564824283123016, -0.11325512081384659, 0.355407178401947, 0.010234247893095016, -0.03576422482728958, 0.9997697472572327, -0.07916422933340073, -0.08439826965332031, 1.489013671875, 1.3095703125, 0.037139892578125, 1.49267578125
48174, -0.9017196893692017, 0.9341633319854736, -0.9888373017311096, -19.584400177001953, 22.800500869750977, -12.252829551696777, -2.465376377105713, 2.7331111431121826, -0.4996858537197113, 0, 0, 0, 0, 0, 0, 9362.0, 30146.0, 35388.0, 9362.0, 8.390083312988281, -0.06564824283123016, -0.11325512081384659, 0.355407178401947, 0.012384103611111641, -0.037020664662122726, 1.0021967887878418, -0.07916422933340073, -0.08439826965332031, 1.489013671875, 1.3095703125, 0.037139892578125, 1.494873046875
48184, -0.9015116095542908, 0.9350680112838745, -0.9889242649078369, -19.60906219482422, 22.827838897705078, -12.25782585144043, -2.466949462890625, 2.734684467315674, -0.49951988458633423, 0, 0, 0, 0, 0, 0, 9362.0, 30146.0, 35388.0, 9362.0, 8.390083312988281, -0.06564824283123016, -0.11325512081384659, 0.355407178401947, 0.011289508081972599, -0.037714987993240356, 1.0012468099594116, -0.07916422933340073, -0.08439826965332031, 1.489013671875, 1.3095703125, 0.037139892578125, 1.4970703125
48194, -0.9009000658988953, 0.9363338351249695, -0.9903143048286438, -19.633739471435547, 22.855194091796875, -12.26282024383545, -2.4685261249542236, 2.736259937286377, -0.49930039048194885, 0, 0, 0, 0, 0, 0, 9362.0, 30146.0, 35388.0, 9362.0, 8.390083312988281, -0.06564824283123016, -0.11325512081384659, 0.355407178401947, 0.00966622494161129, -0.036776311695575714, 0.9985828399658203, -0.07916422933340073, -0.08439826965332031, 1.489013671875, 1.3095703125, 0.037139892578125, 1.5
48204, -0.9014862179756165, 0.9375851154327393, -0.9909624457359314, -19.658432006835938, 22.882564544677734, -12.267812728881836, -2.470102071762085, 2.737833023071289, -0.4991799294948578, 0, 0, 0, 0, 0, 0, 9362.0, 30146.0, 35388.0, 9362.0, 8.390083312988281, 0.06900710612535477, 0.0007564139668829739, -0.1613112837076187, 0.00966622494161129, -0.036776311695575714, 0.9985828399658203, -0.07916422933340073, -0.08439826965332031, 1.489013671875, 1.3095703125, 0.037139892578125, 1.4970703125
48214, -0.9016020894050598, 0.9376823902130127, -0.9915540814399719, -19.683141708374023, 22.909950256347656, -12.272805213928223, -2.4716765880584717, 2.739401340484619, -0.4993045926094055, 0, 0, 0, 0, 0, 0, 9362.0, 30146.0, 35388.0, 9362.0, 8.390083312988281, -0.03545452281832695, -0.03486603498458862, -0.12311773002147675, 0.00966622494161129, -0.036776311695575714, 0.9985828399658203, -0.07916422933340073, -0.08439826965332031, 1.489013671875, 1.3095703125, 0.037139892578125, 1.49560546875
48224, -0.9012521505355835, 0.9380354881286621, -0.9924830794334412, -19.707866668701172, 22.93735122680664, -12.277798652648926, -2.4732542037963867, 2.7409720420837402, -0.49934569001197815, 0, 0, 0, 0, 0, 0, 9362.0, 30146.0, 35388.0, 9362.0, 8.390083312988281, -0.03545452281832695, -0.03486603498458862, -0.12311773002147675, 0.01063353382050991, -0.036452945321798325, 1.001565933227539, -0.07916422933340073, -0.08439826965332031, 1.489013671875, 1.3095703125, 0.037139892578125, 1.49560546875
48234, -0.9014260172843933, 0.9410374760627747, -0.9942366480827332, -19.732606887817383, 22.96476936340332, -12.282791137695312, -2.4748361110687256, 2.742546558380127, -0.49916455149650574, 0, 0, 0, 0, 0, 0, 9362.0, 30146.0, 35388.0, 9362.0, 8.390083312988281, -0.03545452281832695, -0.03486603498458862, -0.12311773002147675, 0.010684601962566376, -0.03740404173731804, 0.99850994348526, -0.07916422933340073, -0.08439826965332031, 1.489013671875, 1.3095703125, 0.037139892578125, 1.49560546875
48264, -0.9028637409210205, 0.9394588470458984, -0.993080735206604, -19.83172607421875, 23.074596405029297, -12.302754402160645, -2.481160879135132, 2.7488315105438232, -0.49927541613578796, 0, 0, 0, 0, 0, 0, 9362.0, 30146.0, 35388.0, 9362.0, 8.390083312988281, -0.219769686460495, 0.04388726130127907, 0.15479163825511932, 0.007990812882781029, -0.03766833618283272, 0.998304545879364, -0.07916422933340073, -0.08439826965332031, 1.489013671875, 1.3095703125, 0.037139892578125, 1.49267578125
48274, -0.9036687612533569, 0.9418986439704895, -0.9915474653244019, -19.83172607421875, 23.074596405029297, -12.302754402160645, -2.481160879135132, 2.7488315105438232, -0.49927541613578796, 0, 0, 0, 0, 0, 0, 9362.0, 30146.0, 35388.0, 9362.0, 8.390083312988281, -0.219769686460495, 0.04388726130127907, 0.15479163825511932, 0.009141603484749794, -0.03793638199567795, 1.0005351305007935, -0.07916422933340073, -0.08439826965332031, 1.489013671875, 1.3095703125, 0.037139892578125, 1.49560546875
48324, -0.9025462865829468, 0.9411565661430359, -0.9921610355377197, -19.980880737304688, 23.239809036254883, -12.332728385925293, -2.4906580448150635, 2.7582662105560303, -0.49995097517967224, 0, 0, 0, 0, 0, 0, 9362.0, 30146.0, 35388.0, 9362.0, 8.390083312988281, 0.0992920994758606, -0.013179225847125053, 0.10794099420309067, 0.009054668247699738, -0.03715603053569794, 0.9984361529350281, -0.07789473980665207, -0.09335899353027344, 1.48828125, 1.3095703125, 0.037139892578125, 1.4912109375
48364, -0.9037888050079346, 0.9414605498313904, -0.9919030666351318, -20.08063316345215, 23.350265502929688, -12.352733612060547, -2.4970006942749023, 2.764557123184204, -0.500115692615509, 0, 0, 0, 0, 0, 0, 9362.0, 30146.0, 35388.0, 9362.0, 8.390083312988281, 0.0527079701423645, -0.11141924560070038, -0.009929846040904522, 0.009301808662712574, -0.03620583564043045, 0.9996302127838135, -0.07789473980665207, -0.09335899353027344, 1.48828125, 1.3095703125, 0.037139892578125, 1.493408203125
48374, -0.903844952583313, 0.9424878358840942, -0.991924524307251, -20.08063316345215, 23.350265502929688, -12.352733612060547, -2.4970006942749023, 2.764557123184204, -0.500115692615509, 0, 0, 0, 0, 0, 0, 9362.0, 30146.0, 35388.0, 9362.0, 8.390083312988281, 0.0527079701423645, -0.11141924560070038, -0.009929846040904522, 0.008984029293060303, -0.03764363378286362, 1.0000724792480469, -0.07789473980665207, -0.09335899353027344, 1.48828125, 1.3095703125, 0.037139892578125, 1.493408203125
48384, -0.9025218486785889, 0.9404228925704956, -0.9900680184364319, -20.130605697631836, 23.405588150024414, -12.362737655639648, -2.500171661376953, 2.767707347869873, -0.5001735091209412, 0, 0, 0, 0, 0, 0, 9362.0, 30146.0, 35388.0, 9362.0, 8.390083312988281, 0.0527079701423645, -0.11141924560070038, -0.009929846040904522, 0.007407469674944878, -0.03764700889587402, 0.9998114705085754, -0.07789473980665207, -0.09335899353027344, 1.48828125, 1.3095703125, 0.037139892578125, 1.4912109375
48394, -0.9016515016555786, 0.9394941926002502, -0.9888103604316711, -20.130605697631836, 23.405588150024414, -12.362737655639648, -2.500171661376953, 2.767707347869873, -0.5001735091209412, 0, 0, 0, 0, 0, 0, 9362.0, 30146.0, 35388.0, 9362.0, 8.390083312988281, 0.0527079701423645, -0.11141924560070038, -0.009929846040904522, 0.008588936179876328, -0.03796492516994476, 0.9997214078903198, -0.07789473980665207, -0.09335899353027344, 1.48828125, 1.3095703125, 0.037139892578125, 1.491943359375
48404, -0.9022119045257568, 0.9403898119926453, -0.9868124723434448, -20.180641174316406, 23.460973739624023, -12.372742652893066, -2.503335475921631, 2.770850419998169, -0.5002706050872803, 0, 0, 0, 0, 0, 0, 9362.0, 30146.0, 35388.0, 9362.0, 8.390083312988281, 0.0527079701423645, -0.11141924560070038, -0.009929846040904522, 0.00879359245300293, -0.03632964566349983, 1.0004481077194214, -0.07789473980665207, -0.09335899353027344, 1.48828125, 1.3095703125, 0.037139892578125, 1.49267578125
48414, -0.9025052785873413, 0.940845787525177, -0.9853308200836182, -20.180641174316406, 23.460973739624023, -12.372742652893066, -2.503335475921631, 2.770850419998169, -0.5002706050872803, 0, 0, 0, 0, 0, 0, 9362.0, 30146.0, 35388.0, 9362.0, 8.390083312988281, 0.0527079701423645, -0.11141924560070038, -0.009929846040904522, 0.00718709547072649, -0.037123903632164, 0.9987897276878357, -0.07789473980665207, -0.09335899353027344, 1.48828125, 1.3095703125, 0.037139892578125, 1.5
48434, -0.9008634686470032, 0.9434815049171448, -0.9855061769485474, -20.23073959350586, 23.516422271728516, -12.382749557495117, -2.5065009593963623, 2.773993492126465, -0.5004099607467651, 0, 0, 0, 0, 0, 0, 9362.0, 30146.0, 35388.0, 9362.0, 8.390083312988281, -0.027710694819688797, -0.015332016162574291, 0.20370234549045563, 0.00864210445433855, -0.03679458051919937, 0.9961280822753906, -0.07789473980665207, -0.09335899353027344, 1.48828125, 1.3095703125, 0.037139892578125, 1.496337890625
48444, -0.9004470705986023, 0.9449950456619263, -0.9849783182144165, -20.280900955200195, 23.57193374633789, -12.392765045166016, -2.509664535522461, 2.7771244049072266, -0.5012226104736328, 0, 0, 0, 0, 0, 0, 9362.0, 30146.0, 35388.0, 9362.0, 8.390083312988281, -0.21270884573459625, 0.08519861102104187, 0.12671414017677307, 0.008710753172636032, -0.03611490875482559, 0.99852454662323, -0.07789473980665207, -0.09335899353027344, 1.48828125, 1.3095703125, 0.037139892578125, 1.496337890625
