timeTick, roll, pitch, yaw, stateX, stateY, stateZ, stateVX, stateVY, stateVZ, otX0, otY0, otZ0, otRoll0, otPitch0, otYaw0, left wing, pitch motor, yaw motor, right wing, voltage, roll rate, pitch rate, yaw rate, A_x, A_y, A_z, current, i_raw, v_raw, airflow_voltage, airflow_speed, pot_Pitch
29994, 0.0, 0.0, 0.0, 0, 0, 0, 0, 0, 0, 0.07096251845359802, 1.0496973991394043, 0.06672117859125137, 0.10022556761195285, 0.22378246877937613, -1.619943640667665, 0, 0, 0, 0, 0, 0, 0, 0, 0, 0, 0, 0, 0, 0, 0, 0, 0
30004, -0.0011348446132615209, -0.0014616346452385187, -0.0048798262141644955, 0.0, 0.0, 1.4995166566222906e-05, 7.651131284092116e-08, 5.939446268143911e-08, 0.0029990230686962605, 0.07095618546009064, 1.0496916770935059, 0.06670279055833817, 0.10313781244426268, 0.2341938025991226, -1.622191741551575, 9362.0, 30146.0, 35388.0, 9362.0, 8.390083312988281, -0.18469968438148499, 0.47137251496315, 2.0743491649627686, 0.004311576951295137, -0.036585669964551926, 1.031064510345459, -0.032789766788482666, -0.05751800537109375, 1.4912109375, 0, 0, 0
30014, -0.0007684765732847154, -0.0024649391416460276, -0.013443589210510254, 1.3663328246593665e-08, 1.060661514173944e-08, 6.0058257076889277e-05, 2.70924465439748e-06, 2.0422564830369083e-06, 0.006013999693095684, 0.07096550613641739, 1.0496972799301147, 0.06669166684150696, 0.10459434452447477, 0.23380759701257148, -1.6205679896358196, 9362.0, 30146.0, 35388.0, 9362.0, 8.390083312988281, -1.2533036470413208, 0.08100249618291855, -6.129088401794434, 0.007300885394215584, -0.03289490565657616, 1.0323688983917236, -0.04818563163280487, -0.14711761474609375, 1.48388671875, 1.34326171875, 0.01605224609375, 1.493408203125
30024, -0.002418816788122058, -0.0035612534265965223, -0.029315371066331863, 6.253005579992532e-08, 3.78119722199699e-08, 0.00013578811194747686, 7.124165222194279e-06, 3.4874117318395292e-06, 0.00913237314671278, 0.07098162919282913, 1.0497065782546997, 0.06669749319553375, 0.10746333310265496, 0.26820404903421036, -1.5710314520959414, 9362.0, 30146.0, 35388.0, 9362.0, 8.370248794555664, -0.053100284188985825, 0.24578742682933807, -8.265265464782715, -0.007243719883263111, -0.047011349350214005, 1.0302270650863647, -0.054746031761169434, -0.10231781005859375, 1.487548828125, 1.32861328125, 0.0214385986328125, 1.4912109375
30034, -0.0004090877191629261, -0.004698346368968487, -0.022991495206952095, 1.652017544984119e-07, 9.400996248132287e-08, 0.0002421023673377931, 1.346914632449625e-05, 7.64767719374504e-06, 0.012130854651331902, 0.07095660269260406, 1.0497310161590576, 0.06673264503479004, 0.095037386604236, 0.23824455220020013, -1.610956198281538, 9362.0, 30146.0, 35388.0, 9362.0, 8.390083312988281, 0.8170781135559082, -0.20700028538703918, 0.14847882091999054, -0.0038158006500452757, -0.04281400144100189, 1.0295989513397217, -0.05847683921456337, -0.01271820068359375, 1.494873046875, 1.32568359375, 0.0232086181640625, 1.497802734375
30044, 0.0015051085501909256, -0.0056892456486821175, -0.005757041275501251, 3.412830267279787e-07, 1.7407381847078796e-07, 0.00037763622822239995, 2.17960277950624e-05, 8.27249459689483e-06, 0.014976298436522484, 0.07099607586860657, 1.0496883392333984, 0.0666196197271347, 0.1103861429341043, 0.25393627885387104, -1.5788660433104136, 9362.0, 30146.0, 35388.0, 9362.0, 8.370248794555664, 0.25474175810813904, 0.21198664605617523, 4.081149578094482, -0.005955433938652277, -0.04009753838181496, 1.0278000831604004, -0.039373163133859634, -0.04855918884277344, 1.491943359375, 1.330078125, 0.0206298828125, 1.490478515625
30054, -0.00041894993046298623, -0.009521661326289177, 0.0022150231525301933, 6.093711704124871e-07, 2.435319288451865e-07, 0.0005417437641881406, 3.2013900636229664e-05, 5.716799932997674e-06, 0.017845608294010162, 0.0709548369050026, 1.049696683883667, 0.06667482852935791, 0.09642597246020841, 0.22998107634677467, -1.626104224737409, 9362.0, 30146.0, 35388.0, 9362.0, 8.390083312988281, 0.22078920900821686, -0.19725301861763, 8.812615394592285, 0.0025051538832485676, -0.03696044906973839, 1.0289613008499146, -0.04410277307033539, -0.07543754577636719, 1.48974609375, 1.330078125, 0.0206298828125, 1.49267578125
30064, -0.0001808608358260244, -0.009701518341898918, 0.009977949783205986, 1.0134180001841742e-06, 3.043950869141554e-07, 0.0007346079801209271, 4.8804417019709945e-05, 6.4461291913175955e-06, 0.02072764001786709, 0.07094419002532959, 1.0497297048568726, 0.0667303279042244, 0.09765654830633794, 0.24109216575726578, -1.6050372705785698, 9362.0, 30146.0, 35388.0, 9362.0, 8.370248794555664, -0.8520806431770325, 0.1285034418106079, -2.4473354816436768, 0.009477730840444565, -0.034504666924476624, 1.0309840440750122, -0.05745314434170723, -0.05751800537109375, 1.4912109375, 1.317626953125, 0.0291900634765625, 1.49267578125
30074, -0.0026827731635421515, -0.010501593351364136, -0.019655859097838402, 1.586931375641143e-06, 3.70464618981714e-07, 0.0009561535553075373, 6.593807484023273e-05, 6.8836143327644095e-06, 0.023581862449645996, 0.07094302773475647, 1.0496914386749268, 0.06671159714460373, 0.0981138890500742, 0.22983740630701277, -1.619182379164533, 9362.0, 30146.0, 35388.0, 9362.0, 8.390083312988281, -0.8217806220054626, -0.20223385095596313, -10.833650588989258, -0.00015836540842428803, -0.04052164405584335, 1.029959797859192, -0.06797196716070175, -0.05751800537109375, 1.4912109375, 1.3095703125, 0.037139892578125, 1.49560546875
30084, -0.000895565957762301, -0.009632556699216366, -0.02546999789774418, 2.338905233045807e-06, 4.6292100819300686e-07, 0.0012066063936799765, 8.441277896054089e-05, 1.1514495781739242e-05, 0.026509100571274757, 0.07095172256231308, 1.0496916770935059, 0.0666881799697876, 0.10016455524663868, 0.23120736169735778, -1.621023219853374, 9362.0, 30146.0, 35388.0, 9362.0, 8.370248794555664, 0.6565088033676147, 0.19956380128860474, -3.9224185943603516, -0.008169041015207767, -0.04326920211315155, 1.0303480625152588, -0.07108507305383682, 0.0052013397216796875, 1.496337890625, 1.304443359375, 0.043182373046875, 1.4912109375
30094, 0.0020640373695641756, -0.01094102207571268, -0.009723314084112644, 3.267947704443941e-06, 5.859226348547963e-07, 0.0014862596290186048, 0.00010146156273549423, 1.2939973203174304e-05, 0.02942192554473877, 0.07097475230693817, 1.049699068069458, 0.06668754667043686, 0.103917770791551, 0.27432380048421123, -1.5952286588324927, 9362.0, 30146.0, 35388.0, 9362.0, 8.370248794555664, 0.7226371765136719, 0.3283132016658783, 6.0279765129089355, -0.00790251512080431, -0.039444949477910995, 1.028781771659851, -0.05680539831519127, -0.09335899353027344, 1.48828125, 1.33154296875, 0.0198516845703125, 1.4912109375
30104, 0.0016258108662441373, -0.012781888246536255, 0.00797128677368164, 4.378956873551942e-06, 6.971206403250108e-07, 0.0017947875894606113, 0.00012083342880941927, 9.32733564695809e-06, 0.03228406235575676, 0.07095731049776077, 1.049728274345398, 0.06672870367765427, 0.09817831062612968, 0.2442088870374448, -1.6105840760701349, 9362.0, 30146.0, 35388.0, 9362.0, 8.390083312988281, 0.31191200017929077, -0.2608034610748291, 8.660746574401855, -0.0008464451530016959, -0.03967556357383728, 1.0272783041000366, -0.030988801270723343, -0.030637741088867188, 1.493408203125, 1.3330078125, 0.0191650390625, 1.493408203125
30114, 0.00125189742539078, -0.012098299339413643, 0.01236649788916111, 5.699927896785084e-06, 7.760829703329364e-07, 0.0021320213563740253, 0.0001433266734238714, 6.485644917120226e-06, 0.03516308590769768, 0.07099823653697968, 1.0496734380722046, 0.0666419044137001, 0.10939936728177206, 0.25334852604555635, -1.5841478209481838, 9362.0, 30146.0, 35388.0, 9362.0, 8.370248794555664, -0.5466887950897217, 0.3169096112251282, 2.6962320804595947, 0.006664421409368515, -0.03659176081418991, 1.0310395956039429, -0.045198068022727966, -0.12023735046386719, 1.486083984375, 1.3447265625, 0.0158538818359375, 1.49267578125
30124, -0.0011030929163098335, -0.013298260979354382, -0.006743164733052254, 7.239837032102514e-06, 8.299276146317425e-07, 0.0024981838651001453, 0.00016471509297844023, 4.395728865347337e-06, 0.03806981444358826, 0.07094600796699524, 1.0497241020202637, 0.06670968979597092, 0.09565777124558812, 0.23095171024678507, -1.6157738193234144, 9362.0, 30146.0, 35388.0, 9362.0, 8.370248794555664, -0.7461981177330017, 0.12608908116817474, -3.7687911987304688, 0.0008569787023589015, -0.03696301206946373, 1.0297480821609497, -0.05333460494875908, -0.04855918884277344, 1.491943359375, 1.348388671875, 0.0154571533203125, 1.49560546875
30134, -3.064031625399366e-05, -0.011437569744884968, -0.01325002871453762, 9.00427949090954e-06, 8.836003075884946e-07, 0.00289372680708766, 0.000188077159691602, 6.280534762481693e-06, 0.041039157658815384, 0.0709647461771965, 1.0497022867202759, 0.06668471544981003, 0.10717626031678798, 0.22788938760911037, -1.616486971329937, 9362.0, 30146.0, 35388.0, 9362.0, 8.390083312988281, -0.6372848153114319, -0.2763906717300415, -6.441835880279541, 0.003710131160914898, -0.036050863564014435, 1.031087875366211, -0.06155044212937355, -0.07543754577636719, 1.48974609375, 1.3388671875, 0.017120361328125, 1.5
30144, -0.00021199898037593812, -0.010993332602083683, -0.01956990174949169, 1.0985877452185377e-05, 9.466524488743744e-07, 0.0033187021035701036, 0.0002082199207507074, 6.336889782687649e-06, 0.04395628720521927, 0.07110821455717087, 1.049628734588623, 0.06641989201307297, 0.05147087907418293, 0.352680423927751, -1.6225107158212801, 9362.0, 30146.0, 35388.0, 9362.0, 8.370248794555664, 0.18901483714580536, 0.2362121045589447, -5.640867710113525, -0.004791433922946453, -0.04336875304579735, 1.0324522256851196, -0.07024228572845459, -0.10231781005859375, 1.487548828125, 1.333740234375, 0.0189361572265625, 1.503662109375
30154, 0.001743282307870686, -0.012419184669852257, -0.013345643877983093, 1.3165175914764404e-05, 1.0118607178810635e-06, 0.0037738303653895855, 0.00022771712974645197, 6.600569577130955e-06, 0.04706979915499687, 0.07093645632266998, 1.049727439880371, 0.06672673672437668, 0.09682836374268164, 0.23181223023252073, -1.60588455071323, 9362.0, 30146.0, 35388.0, 9362.0, 8.390083312988281, 1.0428924560546875, -0.49575090408325195, 3.9341068267822266, -0.011114465072751045, -0.04046257212758064, 1.0252372026443481, -0.07845821976661682, -0.11127853393554688, 1.48681640625, 1.335205078125, 0.018280029296875, 1.49267578125
30164, 0.0035598515532910824, -0.010904883034527302, 0.005616458598524332, 1.5551693650195375e-05, 1.0624914921208983e-06, 0.004258514381945133, 0.0002495133667252958, 3.444347612457932e-06, 0.04986738786101341, 0.0710655078291893, 1.0496827363967896, 0.0665084570646286, 0.025139850423468994, 0.34579187492033725, -1.6482657464866972, 9362.0, 30146.0, 35388.0, 9362.0, 8.370248794555664, 0.39999547600746155, -0.37110865116119385, 9.583784103393555, -0.00019654394418466836, -0.03879966959357262, 1.0274620056152344, -0.06535888463258743, -0.030637741088867188, 1.493408203125, 1.329345703125, 0.02105712890625, 1.491943359375
30174, 0.00140454585198313, -0.008666790090501308, 0.0066980053670704365, 1.8142720364267007e-05, 1.0656412996468134e-06, 0.004770511761307716, 0.0002685882500372827, -2.713821913857828e-06, 0.05253244936466217, 0.07095887511968613, 1.0496915578842163, 0.066680409014225, 0.10606658698923617, 0.226630029295535, -1.6237008873317387, 9362.0, 30146.0, 35388.0, 9362.0, 8.390083312988281, -0.7406104207038879, 0.34241166710853577, 2.0574374198913574, 0.005661234725266695, -0.03830916807055473, 1.0320570468902588, -0.04426722228527069, 0.10376167297363281, 1.50439453125, 1.335205078125, 0.018280029296875, 1.496337890625
30184, -0.0008812049054540694, -0.009391646832227707, -0.012021885253489017, 2.09050667763222e-05, 1.0261204579364858e-06, 0.0053108264692127705, 0.0002839178778231144, -5.075671197118936e-06, 0.05553090199828148, 0.07103124260902405, 1.0496299266815186, 0.06638854742050171, 0.047309441859317236, 0.29631215530400823, -1.689310120052156, 9362.0, 30146.0, 35388.0, 9362.0, 8.390083312988281, -1.1145806312561035, 0.18276022374629974, -7.7983198165893555, 0.005284656770527363, -0.036815181374549866, 1.0294305086135864, -0.03794122114777565, -0.05751800537109375, 1.4912109375, 1.3388671875, 0.017120361328125, 1.497802734375
30194, -0.00039404479321092367, -0.01060806680470705, -0.027342159301042557, 2.382708407822065e-05, 9.831187526287977e-07, 0.005880998447537422, 0.0003005491162184626, -3.5542257137421984e-06, 0.05850384384393692, 0.07094431668519974, 1.049729585647583, 0.0667261928319931, 0.09944242157702608, 0.24094833206095245, -1.6116156735999243, 9362.0, 30146.0, 35388.0, 9362.0, 8.390083312988281, 0.0285799503326416, -0.36234810948371887, -8.726510047912598, -0.005466383416205645, -0.04170772060751915, 1.0296132564544678, -0.03650464490056038, -0.021678924560546875, 1.494140625, 1.320556640625, 0.02685546875, 1.496337890625
30204, 0.0009361146949231625, -0.0100953858345747, -0.020130116492509842, 2.692600537557155e-05, 9.510023346592789e-07, 0.00648015271872282, 0.00031920953188091516, -2.9321806778170867e-06, 0.061327408999204636, 0.07110708206892014, 1.0496305227279663, 0.06639429926872253, 0.05196278068039222, 0.35740907086392326, -1.624326002352905, 9362.0, 30146.0, 35388.0, 9362.0, 8.370248794555664, 0.6490041613578796, -0.22807443141937256, 1.2106088399887085, -0.008656572550535202, -0.04747001454234123, 1.0326142311096191, -0.04842672869563103, -0.05751800537109375, 1.4912109375, 1.329345703125, 0.02105712890625, 1.49853515625
30214, 0.0028060791082680225, -0.0082154655829072, -0.0016426839865744114, 3.0207194868125953e-05, 9.133875664701918e-07, 0.007108588237315416, 0.00033692902070470154, -4.683623956225347e-06, 0.06436007469892502, 0.07111174613237381, 1.0496528148651123, 0.06643323600292206, 0.045778387049727955, 0.3716261051529841, -1.6055531466603905, 9362.0, 30146.0, 35388.0, 9362.0, 8.370248794555664, 0.7752211093902588, -0.16591760516166687, 5.058508396148682, -0.006786340847611427, -0.04677923023700714, 1.0285145044326782, -0.0593130886554718, -0.12023735046386719, 1.486083984375, 1.335205078125, 0.018280029296875, 1.49560546875
30224, 0.003786340355873108, -0.007993929088115692, 0.0029241270385682583, 3.364896838320419e-05, 8.417915182690194e-07, 0.007767203263938427, 0.0003514144627843052, -9.685774784884416e-06, 0.06736332178115845, 0.07111095637083054, 1.0496478080749512, 0.06641275435686111, 0.0531643890213721, 0.35955110838733617, -1.6179121689347769, 9362.0, 30146.0, 35388.0, 9362.0, 8.370248794555664, 0.4351668357849121, 0.10341250896453857, 7.683725357055664, -0.0017078971723094583, -0.04396585747599602, 1.0308806896209717, -0.06689248234033585, -0.13815879821777344, 1.484619140625, 1.329345703125, 0.02105712890625, 1.4912109375
30234, 0.0031920995097607374, -0.008994778618216515, 0.00723434379324317, 3.723366171470843e-05, 7.115222615539096e-07, 0.008455981500446796, 0.00036557778366841376, -1.633564716030378e-05, 0.0703926533460617, 0.07091061770915985, 1.049674391746521, 0.0665707066655159, 0.12164836541618013, 0.197601961800558, -1.654410417631566, 9362.0, 30146.0, 35388.0, 9362.0, 8.370248794555664, -0.7656453847885132, -0.13352933526039124, 1.156525731086731, 0.006807227618992329, -0.03422050550580025, 1.0311214923858643, -0.07448665797710419, -0.05751800537109375, 1.4912109375, 1.343994140625, 0.015899658203125, 1.49560546875
30244, -0.00044988846639171243, -0.008212001994252205, -0.008423782885074615, 4.09688291256316e-05, 5.20003482051834e-07, 0.009175079874694347, 0.0003814119263552129, -2.177977148676291e-05, 0.07342734932899475, 0.07106337696313858, 1.0496455430984497, 0.06646429747343063, 0.03489432088165073, 0.3310059844006048, -1.6657028560835234, 9362.0, 30146.0, 35388.0, 9362.0, 8.370248794555664, -1.2602754831314087, 0.22567087411880493, -8.402619361877441, 0.006661701947450638, -0.03722316771745682, 1.03065025806427, -0.053865645080804825, 0.06792068481445312, 1.50146484375, 1.35205078125, 0.015380859375, 1.4912109375
30264, 0.0014166620094329119, -0.00980815663933754, -0.014700175262987614, 4.889770207228139e-05, 1.023606586159076e-07, 0.010702534578740597, 0.0004125344567000866, -1.9884997527697124e-05, 0.07932216674089432, 0.0709524154663086, 1.0496962070465088, 0.06666002422571182, 0.0979337698131067, 0.23188534665183624, -1.6284590138358277, 9362.0, 30146.0, 35388.0, 9362.0, 8.390083312988281, 0.21509772539138794, 0.10227104276418686, -6.96906852722168, -0.008889836259186268, -0.04284602776169777, 1.0279316902160645, -0.03174978867173195, 0.03208160400390625, 1.49853515625, 1.333740234375, 0.0189361572265625, 1.493408203125
30274, 0.0032010036520659924, -0.011403877288103104, 0.0004243752919137478, 5.310937194735743e-05, -1.0898061475472787e-07, 0.011509560979902744, 0.000429876905400306, -2.2464932044385932e-05, 0.0820835754275322, 0.07095367461442947, 1.049695611000061, 0.06666416674852371, 0.10179362644667904, 0.23058578085831982, -1.6230596006527211, 9362.0, 30146.0, 35388.0, 9362.0, 8.390083312988281, 0.21509772539138794, 0.10227104276418686, -6.96906852722168, -0.0064920950680971146, -0.041032444685697556, 1.0290610790252686, -0.03174978867173195, 0.03208160400390625, 1.49853515625, 1.333740234375, 0.0189361572265625, 1.493408203125
30284, 0.0010753879323601723, -0.010268151760101318, 0.016197117045521736, 5.7508659665472806e-05, -3.618443429331819e-07, 0.012344928458333015, 0.0004499251954257488, -2.7994308766210452e-05, 0.08499027043581009, 0.07107189297676086, 1.0496416091918945, 0.06644924730062485, 0.032248290848583896, 0.325432126599452, -1.6670234303641593, 9362.0, 30146.0, 35388.0, 9362.0, 8.370248794555664, 0.21509772539138794, 0.10227104276418686, -6.96906852722168, 0.0056150685995817184, -0.0357896089553833, 1.0305780172348022, -0.03174978867173195, 0.03208160400390625, 1.49853515625, 1.333740234375, 0.0189361572265625, 1.493408203125
30294, -0.0008887105504982173, -0.012666769325733185, -0.0020027828868478537, 6.209850107552484e-05, -6.512492518595536e-07, 0.013209815137088299, 0.0004681679420173168, -2.978919837914873e-05, 0.08798737823963165, 0.07094642519950867, 1.0497288703918457, 0.06673212349414825, 0.09414445211484156, 0.23617406125023876, -1.616302049352982, 9362.0, 30146.0, 35388.0, 9362.0, 8.390083312988281, 0.21509772539138794, 0.10227104276418686, -6.96906852722168, 0.0056150685995817184, -0.0357896089553833, 1.0305780172348022, -0.06615258008241653, -0.1291980743408203, 1.4853515625, 1.333740234375, 0.0189361572265625, 1.493408203125
30314, -0.0001585947466082871, -0.014454520307481289, -0.02057621069252491, 7.190319593064487e-05, -1.2169073215773096e-06, 0.015026403591036797, 0.0005119250854477286, -2.6912928660749458e-05, 0.09359975904226303, 0.0709046795964241, 1.0496935844421387, 0.06665068119764328, 0.1148450444663942, 0.2037676625752738, -1.650030220847869, 9362.0, 30146.0, 35388.0, 9362.0, 8.390083312988281, 0.2724553644657135, 0.09505447000265121, -3.3607594966888428, 0.0056150685995817184, -0.0357896089553833, 1.0305780172348022, -0.07146216928958893, -0.10231781005859375, 1.487548828125, 1.333740234375, 0.0189361572265625, 1.493408203125
30324, 0.0016744181048125029, -0.017617981880903244, -0.00810249987989664, 7.190319593064487e-05, -1.2169073215773096e-06, 0.015026403591036797, 0.0005119250854477286, -2.6912928660749458e-05, 0.09359975904226303, 0.07107245177030563, 1.0496783256530762, 0.06651673465967178, 0.02683308431455022, 0.35065304054205626, -1.6466095305983155, 9362.0, 30146.0, 35388.0, 9362.0, 8.390083312988281, 0.5722551345825195, 0.07354430109262466, -0.7710287570953369, 0.0056150685995817184, -0.0357896089553833, 1.0305780172348022, -0.07146216928958893, -0.10231781005859375, 1.487548828125, 1.333740234375, 0.0189361572265625, 1.493408203125
30334, 0.0013574096374213696, -0.020564107224345207, -0.009516827762126923, 7.190319593064487e-05, -1.2169073215773096e-06, 0.015026403591036797, 0.0005119250854477286, -2.6912928660749458e-05, 0.09359975904226303, 0.07098222523927689, 1.0496883392333984, 0.06660632789134979, 0.11643812713712409, 0.2532051679663425, -1.5821401195916291, 9362.0, 30146.0, 35388.0, 9362.0, 8.390083312988281, 0.7362709641456604, -0.09193495661020279, 5.309130668640137, 0.0056150685995817184, -0.0357896089553833, 1.0305780172348022, -0.07146216928958893, -0.10231781005859375, 1.487548828125, 1.333740234375, 0.0189361572265625, 1.493408203125
30434, -0.0003296745999250561, -0.012786141596734524, -0.03091462142765522, 0.00013934849994257092, -4.554219685815042e-06, 0.025785023346543312, 0.0008348501869477332, -4.205156801617704e-05, 0.12167156487703323, 0.0709480419754982, 1.0497283935546875, 0.06674794852733612, 0.09483715322722366, 0.2409165857463904, -1.6061131084842886, 9362.0, 30146.0, 35388.0, 9362.0, 8.390083312988281, 0.34327784180641174, -0.2729349434375763, -7.783386707305908, -0.006401387508958578, -0.045027296990156174, 1.0300379991531372, -0.010157858952879906, -0.12023735046386719, 1.486083984375, 1.341064453125, 0.01654052734375, 1.493408203125
30464, 0.002704780548810959, -0.012163816951215267, 0.0036169630475342274, 0.00018419651314616203, -6.725826551701175e-06, 0.03222055360674858, 0.0009498237632215023, -5.005481216358021e-05, 0.13571693003177643, 0.07098831981420517, 1.0496983528137207, 0.06663236767053604, 0.11620996130010072, 0.2582942798516683, -1.5829751534715106, 9362.0, 30146.0, 35388.0, 9362.0, 8.390083312988281, 0.42275750637054443, 0.4331957697868347, 7.860520362854004, -0.003831954440101981, -0.041767630726099014, 1.0282347202301025, -0.010157858952879906, -0.12023735046386719, 1.486083984375, 1.341064453125, 0.01654052734375, 1.493408203125
30514, 0.0027895874809473753, -0.01445347536355257, -0.006889987271279097, 0.0002346188121009618, -9.622393918107264e-06, 0.03937429189682007, 0.0010685691377148032, -6.211972504388541e-05, 0.15056373178958893, 0.07091372460126877, 1.0497279167175293, 0.06671912223100662, 0.08696193780831246, 0.2376602834974335, -1.6238899403360822, 9362.0, 30146.0, 35388.0, 9362.0, 8.390083312988281, 0.9505605101585388, -0.3002338409423828, 6.712562084197998, -0.004229417536407709, -0.044564370065927505, 1.0270596742630005, -0.04143349081277847, -0.05751800537109375, 1.4912109375, 1.336669921875, 0.0177764892578125, 1.493408203125
30524, 0.004444859456270933, -0.013107484206557274, 0.0033624828793108463, 0.00024543170002289116, -1.026815425575478e-05, 0.04089362919330597, 0.0010939425555989146, -6.710660818498582e-05, 0.15330377221107483, 0.07094230502843857, 1.0497267246246338, 0.06673409044742584, 0.10088712413324037, 0.24496758919352146, -1.6205447926970675, 9362.0, 30146.0, 35388.0, 9362.0, 8.390083312988281, 0.9505605101585388, -0.3002338409423828, 6.712562084197998, -0.002702946774661541, -0.038850847631692886, 1.0257794857025146, -0.04143349081277847, -0.05751800537109375, 1.4912109375, 1.336669921875, 0.0177764892578125, 1.493408203125
30534, 0.002996536437422037, -0.015400031581521034, -0.004333737306296825, 0.00024543170002289116, -1.026815425575478e-05, 0.04089362919330597, 0.0010939425555989146, -6.710660818498582e-05, 0.15330377221107483, 0.07107116281986237, 1.0496575832366943, 0.06643296778202057, 0.029938297052934715, 0.33756912533524996, -1.6613972395914594, 9362.0, 30146.0, 35388.0, 9362.0, 8.390083312988281, -0.10829109698534012, 0.34160441160202026, 5.433146953582764, -0.002702946774661541, -0.038850847631692886, 1.0257794857025146, -0.051656562834978104, 0.15752029418945312, 1.5087890625, 1.336669921875, 0.0177764892578125, 1.493408203125
30544, 0.002333720214664936, -0.0161741990596056, 0.0004449689877219498, 0.00024543170002289116, -1.026815425575478e-05, 0.04089362919330597, 0.0010939425555989146, -6.710660818498582e-05, 0.15330377221107483, 0.07093216478824615, 1.0497387647628784, 0.06671620160341263, 0.0994807134129199, 0.24037055947042063, -1.6054079762199875, 9362.0, 30146.0, 35388.0, 9362.0, 8.390083312988281, -1.1035643815994263, 0.33687105774879456, -1.5351223945617676, 0.0068396274000406265, -0.034101180732250214, 1.030712366104126, -0.051656562834978104, 0.15752029418945312, 1.5087890625, 1.336669921875, 0.0177764892578125, 1.493408203125
30554, -0.00046604807721450925, -0.017690051347017288, -0.01819031313061714, 0.0002793781168293208, -1.2574846550705843e-05, 0.04561575502157211, 0.0011728783138096333, -8.407999848714098e-05, 0.1617758721113205, 0.07095010578632355, 1.0497053861618042, 0.06667879223823547, 0.09816562551189473, 0.2272377487445283, -1.6238545137548308, 9362.0, 30146.0, 35388.0, 9362.0, 8.390083312988281, -0.8305345773696899, -0.026579556986689568, -9.20296859741211, 0.001163141569122672, -0.042594995349645615, 1.0289030075073242, -0.051656562834978104, 0.15752029418945312, 1.5087890625, 1.336669921875, 0.0177764892578125, 1.493408203125
30564, 0.000462569878436625, -0.017514795064926147, -0.03120875358581543, 0.0002912626077886671, -1.341159349976806e-05, 0.047247376292943954, 0.0012040151050314307, -8.332139259437099e-05, 0.1645488739013672, 0.07098431140184402, 1.0496907234191895, 0.06660725921392441, 0.11434914989142865, 0.2560764936525288, -1.585077533184636, 9362.0, 30146.0, 35388.0, 9362.0, 8.390083312988281, 0.8883633017539978, -0.10559448599815369, -4.2575578689575195, 0.001163141569122672, -0.042594995349645615, 1.0289030075073242, -0.051656562834978104, 0.15752029418945312, 1.5087890625, 1.336669921875, 0.0177764892578125, 1.493408203125
30574, 0.0042098890990018845, -0.017415368929505348, -0.015129448845982552, 0.0003034572000615299, -1.4248969819163904e-05, 0.048907555639743805, 0.0012348946183919907, -8.433715993305668e-05, 0.16748736798763275, 0.0709756463766098, 1.049719214439392, 0.06665738672018051, 0.11476712445381193, 0.27287665841160447, -1.5757499632986876, 9362.0, 30146.0, 35388.0, 9362.0, 8.390083312988281, 0.8626778721809387, -0.15801869332790375, 3.060424566268921, -0.006360494066029787, -0.044154372066259384, 1.0310676097869873, -0.051656562834978104, 0.15752029418945312, 1.5087890625, 1.336669921875, 0.0177764892578125, 1.493408203125
30584, 0.003338037757202983, -0.017481066286563873, -0.005847173742949963, 0.0003034572000615299, -1.4248969819163904e-05, 0.048907555639743805, 0.0012348946183919907, -8.433715993305668e-05, 0.16748736798763275, 0.07094089686870575, 1.0497345924377441, 0.06671173125505447, 0.10019832294622935, 0.24143280569185777, -1.6147967773003453, 9362.0, 30146.0, 35388.0, 9362.0, 8.390083312988281, 0.5329659581184387, 0.5474040508270264, 4.16008186340332, -0.003244867082685232, -0.044042252004146576, 1.0294731855392456, -0.051656562834978104, 0.15752029418945312, 1.5087890625, 1.336669921875, 0.0177764892578125, 1.493408203125
30614, 0.0015554470010101795, -0.02126588299870491, -0.016424208879470825, 0.0003553747956175357, -1.8144633941119537e-05, 0.055847082287073135, 0.0013647787272930145, -0.00010866837692447007, 0.17940281331539154, 0.07098904997110367, 1.0496784448623657, 0.06659519672393799, 0.11419895389382685, 0.26002973968519427, -1.5840413033181997, 9362.0, 30146.0, 35388.0, 9362.0, 8.370248794555664, -1.1868702173233032, 0.253347247838974, -7.720736980438232, 0.00011078026000177488, -0.03941067308187485, 1.0305033922195435, -0.06475434452295303, -0.07543754577636719, 1.48974609375, 1.336669921875, 0.0177764892578125, 1.493408203125
30634, 0.0048989467322826385, -0.019484516233205795, -0.022195836529135704, 0.0003834267263300717, -2.0374098312458955e-05, 0.05949357524514198, 0.0014408992137759924, -0.0001145305359386839, 0.18525443971157074, 0.0710732489824295, 1.0496606826782227, 0.06645629554986954, 0.027454195424299138, 0.3286848781222318, -1.6583157740186514, 9362.0, 30146.0, 35388.0, 9362.0, 8.390083312988281, -1.1868702173233032, 0.253347247838974, -7.720736980438232, -0.004653870593756437, -0.0435979925096035, 1.0294004678726196, -0.038788314908742905, -0.05751800537109375, 1.4912109375, 1.336669921875, 0.0177764892578125, 1.493408203125
30674, 0.0043828459456563, -0.022360259667038918, -0.025235606357455254, 0.00041293707909062505, -2.283824869664386e-05, 0.06325691193342209, 0.0015106885693967342, -0.0001319569710176438, 0.19094708561897278, 0.07095742225646973, 1.0497300624847412, 0.06671390682458878, 0.08968898438418355, 0.23997709169773884, -1.6121730602195086, 9362.0, 30146.0, 35388.0, 9362.0, 8.390083312988281, -0.5708288550376892, -0.5869914293289185, -5.504833221435547, -0.004653870593756437, -0.0435979925096035, 1.0294004678726196, -0.06639010459184647, 0.0052013397216796875, 1.496337890625, 1.336669921875, 0.0177764892578125, 1.493408203125
30694, 0.004146632272750139, -0.016414061188697815, -0.031048834323883057, 0.00047643083962611854, -2.8797714549000375e-05, 0.07112158834934235, 0.0016604156699031591, -0.0001645310694584623, 0.20222227275371552, 0.07092837244272232, 1.0497578382492065, 0.0667261853814125, 0.08597051878645373, 0.2576899677141, -1.6137110545780686, 9362.0, 30146.0, 35388.0, 9362.0, 8.390083312988281, 0.7576965689659119, -0.4165166914463043, 1.0218943357467651, -0.004653870593756437, -0.0435979925096035, 1.0294004678726196, -0.06639010459184647, 0.0052013397216796875, 1.496337890625, 1.336669921875, 0.0177764892578125, 1.493408203125
30704, 0.005731573328375816, -0.015056085772812366, -0.01419868879020214, 0.00047643083962611854, -2.8797714549000375e-05, 0.07112158834934235, 0.0016604156699031591, -0.0001645310694584623, 0.20222227275371552, 0.07094092667102814, 1.0497263669967651, 0.06669710576534271, 0.09958886609434005, 0.23959532201178035, -1.6154498507090211, 9362.0, 30146.0, 35388.0, 9362.0, 8.370248794555664, 0.6869722604751587, -0.05367378517985344, 8.637234687805176, -0.004653870593756437, -0.0435979925096035, 1.0294004678726196, -0.06639010459184647, 0.0052013397216796875, 1.496337890625, 1.336669921875, 0.0177764892578125, 1.493408203125
30764, 0.008431917987763882, -0.018504394218325615, -0.012376884929835796, 0.0005993618979118764, -4.2155090341111645e-05, 0.08600226789712906, 0.001853777328506112, -0.00021542367176152766, 0.22291496396064758, 0.07101524621248245, 1.0496549606323242, 0.06642840057611465, 0.03767883800298209, 0.32133666600788047, -1.6897247587830246, 9362.0, 30146.0, 35388.0, 9362.0, 8.370248794555664, 0.37482762336730957, -0.008832872845232487, -4.894554138183594, -0.00265686446800828, -0.0359010323882103, 1.0282615423202515, -0.06639010459184647, 0.0052013397216796875, 1.496337890625, 1.336669921875, 0.0177764892578125, 1.493408203125
30794, 0.0056212469935417175, -0.01532193273305893, -0.04213729873299599, 0.000656400341540575, -4.9195012252312154e-05, 0.09282142668962479, 0.0019484731601551175, -0.0002506628807168454, 0.2317756861448288, 0.07099182903766632, 1.0497006177902222, 0.0665983110666275, 0.1133440122283509, 0.25017811763925124, -1.5837986236553456, 9362.0, 30146.0, 35388.0, 9362.0, 8.370248794555664, -0.3734864592552185, -0.5250299572944641, -7.764201641082764, -0.00265686446800828, -0.0359010323882103, 1.0282615423202515, -0.05964650958776474, -0.030637741088867188, 1.493408203125, 1.336669921875, 0.0177764892578125, 1.493408203125
30804, 0.006696369498968124, -0.014185723848640919, -0.036077968776226044, 0.000656400341540575, -4.9195012252312154e-05, 0.09282142668962479, 0.0019484731601551175, -0.0002506628807168454, 0.2317756861448288, 0.07093986868858337, 1.0497101545333862, 0.0666578859090805, 0.1030868789847841, 0.23423501966306048, -1.6203145940221975, 9362.0, 30146.0, 35388.0, 9362.0, 8.370248794555664, 0.3184283673763275, 0.016174161806702614, -3.243408679962158, -0.00265686446800828, -0.0359010323882103, 1.0282615423202515, -0.05964650958776474, -0.030637741088867188, 1.493408203125, 1.336669921875, 0.0177764892578125, 1.493408203125
30814, 0.006068587768822908, -0.013937564566731453, -0.030065186321735382, 0.000656400341540575, -4.9195012252312154e-05, 0.09282142668962479, 0.0019484731601551175, -0.0002506628807168454, 0.2317756861448288, 0.07094402611255646, 1.0497021675109863, 0.06666877865791321, 0.10017209506094421, 0.22560496194040525, -1.6256926042972457, 9362.0, 30146.0, 35388.0, 9362.0, 8.370248794555664, 0.6288249492645264, -0.27542608976364136, 3.5638914108276367, -0.00265686446800828, -0.0359010323882103, 1.0282615423202515, -0.05964650958776474, -0.030637741088867188, 1.493408203125, 1.336669921875, 0.0177764892578125, 1.493408203125
30824, 0.006622307002544403, -0.011195155791938305, -0.018653953447937965, 0.0007160269888117909, -5.719502951251343e-05, 0.09990851581096649, 0.002024869667366147, -0.00028318018303252757, 0.2406361997127533, 0.07090308517217636, 1.0496846437454224, 0.06659162789583206, 0.12098063137526886, 0.1852953043755008, -1.6571150364021132, 9362.0, 30146.0, 35388.0, 9362.0, 8.370248794555664, 0.6404111385345459, -0.34315061569213867, 10.452027320861816, -0.005773613229393959, -0.03858910873532295, 1.031505823135376, -0.05964650958776474, -0.030637741088867188, 1.493408203125, 1.336669921875, 0.0177764892578125, 1.493408203125
30834, 0.005695683881640434, -0.008568855002522469, -0.007160314824432135, 0.0007363745826296508, -6.008538184687495e-05, 0.10233067721128464, 0.0020445091649889946, -0.0002948342589661479, 0.24379651248455048, 0.07090368121862411, 1.0496840476989746, 0.06658877432346344, 0.1191257838229295, 0.19041376457408887, -1.6459644972534047, 9362.0, 30146.0, 35388.0, 9362.0, 8.370248794555664, -0.7878720760345459, 0.6970656514167786, 1.3428817987442017, -0.005773613229393959, -0.03858910873532295, 1.031505823135376, -0.05964650958776474, -0.030637741088867188, 1.493408203125, 1.336669921875, 0.0177764892578125, 1.493408203125
30844, 0.002858032239601016, -0.013444260694086552, -0.03222566470503807, 0.0007568953442387283, -6.308404408628121e-05, 0.10478422045707703, 0.002059903461486101, -0.0003047460922971368, 0.2469133585691452, 0.07093995064496994, 1.0497386455535889, 0.06672993302345276, 0.09100775834128223, 0.23819326382752593, -1.6165216136963207, 9362.0, 30146.0, 35388.0, 9362.0, 8.390083312988281, -0.9027714133262634, -0.0031364276073873043, -6.335198402404785, -0.005773613229393959, -0.03858910873532295, 1.031505823135376, -0.05964650958776474, -0.030637741088867188, 1.493408203125, 1.336669921875, 0.0177764892578125, 1.493408203125
30904, 0.005653738044202328, -0.013296817429363728, -0.038392044603824615, 0.0008846786804497242, -8.308874384965748e-05, 0.12013125419616699, 0.0022024151403456926, -0.0003709450247697532, 0.26438209414482117, 0.07107588648796082, 1.0496690273284912, 0.06645428389310837, 0.03399223184110914, 0.333293022616715, -1.6643731606615335, 9362.0, 30146.0, 35388.0, 9362.0, 8.390083312988281, -0.6568503975868225, -0.02149377577006817, -6.4858012199401855, 0.0012292565079405904, -0.03293678164482117, 1.0337687730789185, -0.046809468418359756, 0.09480094909667969, 1.503662109375, 1.336669921875, 0.0177764892578125, 1.493408203125
30914, 0.00621085474267602, -0.013790537603199482, -0.03690718859434128, 0.000906820350792259, -8.684826025273651e-05, 0.12279112637042999, 0.002225947566330433, -0.0003809882909990847, 0.26759234070777893, 0.07092159241437912, 1.0497316122055054, 0.06673738360404968, 0.09788756297164437, 0.24067111846545686, -1.6166335391525832, 9362.0, 30146.0, 35388.0, 9362.0, 8.390083312988281, -0.09407000988721848, 0.11195234209299088, -6.11740255355835, -0.0063616991974413395, -0.04224512353539467, 1.0299955606460571, -0.06305132061243057, -0.09335899353027344, 1.48828125, 1.336669921875, 0.0177764892578125, 1.493408203125
30934, 0.009423412382602692, -0.016129881143569946, -0.01817537657916546, 0.0009518315200693905, -9.468883945373818e-05, 0.12820202112197876, 0.00227576051838696, -0.00040331805939786136, 0.2733028531074524, 0.07091119885444641, 1.049718976020813, 0.06672289967536926, 0.08870717661688962, 0.23747422409394403, -1.6330109320089006, 9362.0, 30146.0, 35388.0, 9362.0, 8.370248794555664, 0.8524957895278931, 0.07812348753213882, 9.659125328063965, -0.003727170405909419, -0.03791201487183571, 1.0299183130264282, -0.06768643856048584, -0.07543754577636719, 1.48974609375, 1.336669921875, 0.0177764892578125, 1.493408203125
31044, 0.013147427700459957, -0.015760211274027824, -0.01501550804823637, 0.0011184855829924345, -0.000126681276015006, 0.1480758786201477, 0.0024953484535217285, -0.0005177310667932034, 0.29432451725006104, 0.07093687355518341, 1.0497021675109863, 0.06666500121355057, 0.09519621390760404, 0.2353467216912577, -1.6229687092906457, 9362.0, 30146.0, 35388.0, 9362.0, 8.390083312988281, 0.8870331645011902, -0.16847974061965942, 5.991252422332764, 0.0007289806962944567, -0.040824003517627716, 1.0275336503982544, -0.07772132754325867, -0.03959846496582031, 1.49267578125, 1.336669921875, 0.0177764892578125, 1.493408203125
31174, 0.011134195141494274, -0.02548002265393734, -0.02881418541073799, 0.0015916217816993594, -0.00024321168893948197, 0.20221684873104095, 0.0031001674942672253, -0.0008624687325209379, 0.3428298234939575, 0.07092218846082687, 1.0496916770935059, 0.0666615217924118, 0.10106521929955213, 0.2172801684565968, -1.6244972896954322, 9362.0, 30146.0, 35388.0, 9362.0, 8.390083312988281, -0.8699173331260681, 0.35836151242256165, -10.29343318939209, 0.006284275557845831, -0.03691568225622177, 1.0320110321044922, -0.031462617218494415, -0.08439826965332031, 1.489013671875, 1.336669921875, 0.0177764892578125, 1.493408203125
31234, 0.011120155453681946, -0.03802838549017906, -0.03516263887286186, 0.0017865801928564906, -0.00029876164626330137, 0.22330676019191742, 0.0034199769143015146, -0.0009900631848722696, 0.3602277636528015, 0.07093289494514465, 1.049691915512085, 0.06665550172328949, 0.1032271850329128, 0.2222829184375712, -1.6241857206552794, 9362.0, 30146.0, 35388.0, 9362.0, 8.390083312988281, -0.870097279548645, 0.28496748208999634, -2.8603036403656006, 0.0012917887652292848, -0.04069173336029053, 1.0319921970367432, -0.0534859374165535, -0.10231781005859375, 1.487548828125, 1.336669921875, 0.0177764892578125, 1.496337890625
31244, 0.011210596188902855, -0.0378696508705616, -0.04466080665588379, 0.0017865801928564906, -0.00029876164626330137, 0.22330676019191742, 0.0034199769143015146, -0.0009900631848722696, 0.3602277636528015, 0.07098907977342606, 1.0496792793273926, 0.06659629195928574, 0.11772853900558172, 0.2526550565749517, -1.5863165821323113, 9362.0, 30146.0, 35388.0, 9362.0, 8.390083312988281, -0.870097279548645, 0.28496748208999634, -2.8603036403656006, -0.007572768721729517, -0.0462602898478508, 1.028498649597168, -0.0534859374165535, -0.10231781005859375, 1.487548828125, 1.336669921875, 0.0177764892578125, 1.497802734375
31264, 0.014392195269465446, -0.034169651567935944, -0.015404225327074528, 0.0018921972950920463, -0.00032937838113866746, 0.23424679040908813, 0.0036213721614331007, -0.0010545245604589581, 0.3688955307006836, 0.07102606445550919, 1.0496363639831543, 0.06638212502002716, 0.04058349891013724, 0.3035733537448664, -1.688634090795444, 9362.0, 30146.0, 35388.0, 9362.0, 8.390083312988281, 0.4765779674053192, 0.36992892622947693, 8.859374046325684, -0.007572768721729517, -0.0462602898478508, 1.028498649597168, -0.023272918537259102, -0.06647872924804688, 1.490478515625, 1.336669921875, 0.0177764892578125, 1.497802734375
31274, 0.01286171656101942, -0.03731503710150719, -0.01656872220337391, 0.0018921972950920463, -0.00032937838113866746, 0.23424679040908813, 0.0036213721614331007, -0.0010545245604589581, 0.3688955307006836, 0.07094424217939377, 1.0496916770935059, 0.06667280942201614, 0.09825865419427363, 0.22860062645281687, -1.6330116869416027, 9362.0, 30146.0, 35388.0, 9362.0, 8.390083312988281, -0.5260046124458313, 0.39479824900627136, 2.5914793014526367, -0.007572768721729517, -0.0462602898478508, 1.028498649597168, -0.023272918537259102, -0.06647872924804688, 1.490478515625, 1.336669921875, 0.0177764892578125, 1.497802734375
31294, 0.011579297482967377, -0.044530630111694336, -0.04911046102643013, 0.002003696048632264, -0.00036209364770911634, 0.24544425308704376, 0.0038199236150830984, -0.0011237501166760921, 0.37756773829460144, 0.07090868800878525, 1.0496903657913208, 0.06656800210475922, 0.12496333251303005, 0.1915532017697501, -1.6525786787959378, 9362.0, 30146.0, 35388.0, 9362.0, 8.370248794555664, -0.3440118730068207, -0.09240617603063583, -10.802570343017578, -0.007572768721729517, -0.0462602898478508, 1.028498649597168, -0.023272918537259102, -0.06647872924804688, 1.490478515625, 1.336669921875, 0.0177764892578125, 1.497802734375
31314, 0.015556671656668186, -0.04536130651831627, -0.026368260383605957, 0.0020816472824662924, -0.00038499015499837697, 0.25305458903312683, 0.003973663784563541, -0.0011671222746372223, 0.383469820022583, 0.07090738415718079, 1.0496799945831299, 0.06659393757581711, 0.12040103045900521, 0.19349201964283225, -1.6531808800724268, 9362.0, 30146.0, 35388.0, 9362.0, 8.390083312988281, 0.7204752564430237, -0.3546474874019623, 7.065823554992676, -0.007572768721729517, -0.0462602898478508, 1.028498649597168, -0.0695020854473114, -0.12023735046386719, 1.486083984375, 1.336669921875, 0.0177764892578125, 1.497802734375
31324, 0.015285812318325043, -0.04402672499418259, -0.023978067561984062, 0.0020816472824662924, -0.00038499015499837697, 0.25305458903312683, 0.003973663784563541, -0.0011671222746372223, 0.383469820022583, 0.07092821598052979, 1.0496869087219238, 0.06666705757379532, 0.0996522956591777, 0.22521445004571206, -1.6227029110987194, 9362.0, 30146.0, 35388.0, 9362.0, 8.370248794555664, 0.1526317447423935, 0.19985926151275635, 6.0697479248046875, 0.0016621464164927602, -0.040804069489240646, 1.0305887460708618, -0.04839610308408737, -0.04855918884277344, 1.491943359375, 1.336669921875, 0.0177764892578125, 1.497802734375
31334, 0.01471919659525156, -0.04573823884129524, -0.02735399641096592, 0.0021627075038850307, -0.00040887933573685586, 0.26078248023986816, 0.004131296183913946, -0.0012215400347486138, 0.38935336470603943, 0.07088754326105118, 1.0496742725372314, 0.06659186631441116, 0.11980114259450093, 0.19068020027629018, -1.6468351207443004, 9362.0, 30146.0, 35388.0, 9362.0, 8.390083312988281, -0.8193740248680115, 0.14573901891708374, -3.3687143325805664, 0.0016621464164927602, -0.040804069489240646, 1.0305887460708618, -0.0511392243206501, 0.0052013397216796875, 1.496337890625, 1.336669921875, 0.0177764892578125, 1.497802734375
31394, 0.01227601245045662, -0.04367220774292946, -0.043860405683517456, 0.0024246945977211, -0.00048654197598807514, 0.2846650779247284, 0.004597330931574106, -0.001370384357869625, 0.4065539240837097, 0.07093089818954468, 1.0496922731399536, 0.06666340678930283, 0.09940352635460067, 0.22553654538887713, -1.6249146513914816, 9362.0, 30146.0, 35388.0, 9362.0, 8.390083312988281, -0.8870237469673157, 0.3124699294567108, -7.172327518463135, 0.0042362455278635025, -0.0366276279091835, 1.0300540924072266, -0.06562373787164688, -0.05751800537109375, 1.4912109375, 1.336669921875, 0.0177764892578125, 1.49560546875
31404, 0.012757111340761185, -0.04421620070934296, -0.0605681873857975, 0.002471052808687091, -0.0005003543337807059, 0.2887452244758606, 0.0046743364073336124, -0.0013921339996159077, 0.4094749093055725, 0.07092475891113281, 1.0497348308563232, 0.06671537458896637, 0.09834453773095013, 0.23752170089105107, -1.6160270586483076, 9362.0, 30146.0, 35388.0, 9362.0, 8.390083312988281, 0.09693720936775208, -0.06786707043647766, -9.099020004272461, -0.004428416024893522, -0.04089612513780594, 1.0307636260986328, -0.06562373787164688, -0.05751800537109375, 1.4912109375, 1.336669921875, 0.0177764892578125, 1.49560546875
31414, 0.01455688290297985, -0.04578758031129837, -0.060025621205568314, 0.0025181861128658056, -0.0005143886082805693, 0.29285484552383423, 0.004752395208925009, -0.0014148137997835875, 0.4124504029750824, 0.0709310993552208, 1.049689769744873, 0.06667634099721909, 0.10560035773427957, 0.22665796538143468, -1.6192146853330804, 9362.0, 30146.0, 35388.0, 9362.0, 8.390083312988281, 1.21260404586792, -0.20311397314071655, 1.5569171905517578, -0.014846865087747574, -0.045169807970523834, 1.0296673774719238, -0.05786292999982834, -0.11127853393554688, 1.48681640625, 1.336669921875, 0.0177764892578125, 1.49560546875
31424, 0.017843931913375854, -0.04532290995121002, -0.03985334560275078, 0.0025661136023700237, -0.00052866549231112, 0.2969939112663269, 0.004833073355257511, -0.0014406994450837374, 0.41536203026771545, 0.07090280950069427, 1.0496820211410522, 0.06657598167657852, 0.1205963109740628, 0.1943325126496518, -1.6471156103781541, 9362.0, 30146.0, 35388.0, 9362.0, 8.370248794555664, 0.5687715411186218, -0.4964534342288971, 9.372458457946777, -0.014846865087747574, -0.045169807970523834, 1.0296673774719238, -0.06194353848695755, -0.03959846496582031, 1.49267578125, 1.336669921875, 0.0177764892578125, 1.49560546875
31434, 0.015756899490952492, -0.04518590494990349, -0.02696750871837139, 0.002614844124764204, -0.0005432302132248878, 0.3011626899242401, 0.004913049284368753, -0.0014721221523359418, 0.4183916747570038, 0.07093995809555054, 1.0497006177902222, 0.06666284799575806, 0.09868879619359554, 0.21971390689529358, -1.6324724603337193, 9362.0, 30146.0, 35388.0, 9362.0, 8.370248794555664, 0.0672709196805954, 0.6121996641159058, 5.63011360168457, 0.00516902981325984, -0.040865521878004074, 1.0286365747451782, -0.06194353848695755, -0.03959846496582031, 1.49267578125, 1.336669921875, 0.0177764892578125, 1.49560546875
31444, 0.014292151667177677, -0.04790329188108444, -0.04099434241652489, 0.00266437279060483, -0.0005580905126407743, 0.3053610622882843, 0.004992810543626547, -0.0014998766127973795, 0.42128193378448486, 0.07093936949968338, 1.0497032403945923, 0.0666944831609726, 0.1007638961354692, 0.2245392372229844, -1.6182557128793587, 9362.0, 30146.0, 35388.0, 9362.0, 8.370248794555664, -0.7678711414337158, 0.3725294768810272, -2.219407320022583, 0.006390488240867853, -0.03810407966375351, 1.0318940877914429, -0.06194353848695755, -0.03959846496582031, 1.49267578125, 1.336669921875, 0.0177764892578125, 1.49560546875
31454, 0.014305668883025646, -0.049468427896499634, -0.05272204801440239, 0.0027147233486175537, -0.0005732156569138169, 0.30958881974220276, 0.005077386740595102, -0.001525169936940074, 0.4242716133594513, 0.07093638926744461, 1.0496973991394043, 0.06666009873151779, 0.09614274199859309, 0.21815694133297825, -1.6212771957409289, 9362.0, 30146.0, 35388.0, 9362.0, 8.370248794555664, -0.9643982648849487, -0.4759812355041504, -9.270805358886719, 0.006390488240867853, -0.03810407966375351, 1.0318940877914429, -0.06194353848695755, -0.03959846496582031, 1.49267578125, 1.336669921875, 0.0177764892578125, 1.49560546875
31484, 0.01539694331586361, -0.047350917011499405, -0.03809924051165581, 0.0028708537574857473, -0.0006200689822435379, 0.3224535882472992, 0.00532710924744606, -0.0015990050742402673, 0.43322452902793884, 0.07093146443367004, 1.0496984720230103, 0.06666281074285507, 0.09931596865887969, 0.21907772390576952, -1.6280519388689823, 9362.0, 30146.0, 35388.0, 9362.0, 8.390083312988281, 0.2322130799293518, -0.2461313009262085, -4.533383369445801, -0.005652869585901499, -0.04289465770125389, 1.0309642553329468, -0.04729977622628212, -0.07543754577636719, 1.48974609375, 1.336669921875, 0.0177764892578125, 1.494873046875
31524, 0.01433989591896534, -0.046530019491910934, -0.06197245791554451, 0.003090775804594159, -0.0006860789144411683, 0.34000369906425476, 0.005670453887432814, -0.0016946294344961643, 0.4443577229976654, 0.07091666013002396, 1.04971444606781, 0.06669023633003235, 0.0873232598149509, 0.24167421611952022, -1.6318494848916218, 9362.0, 30146.0, 35388.0, 9362.0, 8.370248794555664, 0.5211010575294495, 0.15353628993034363, -2.5263729095458984, -0.007055187132209539, -0.04462709277868271, 1.0297486782073975, -0.1046728640794754, -0.12023735046386719, 1.486083984375, 1.336669921875, 0.0177764892578125, 1.4970703125
31544, 0.015472703613340855, -0.047086212784051895, -0.02663479372859001, 0.0032058251090347767, -0.0007204900030046701, 0.348947137594223, 0.005834721960127354, -0.0017475944478064775, 0.4500685930252075, 0.07108493894338608, 1.0496461391448975, 0.06639919430017471, 0.04642880913188357, 0.3517485242339262, -1.6282413200773014, 9362.0, 30146.0, 35388.0, 9362.0, 8.390083312988281, 0.13633669912815094, 0.1480957567691803, 9.495016098022461, -0.0005885814898647368, -0.04200945049524307, 1.0291427373886108, -0.09091541916131973, -0.07543754577636719, 1.48974609375, 1.336669921875, 0.0177764892578125, 1.493408203125
31574, 0.012433050200343132, -0.04940908029675484, -0.0663522407412529, 0.0033846229780465364, -0.0007740732980892062, 0.3625825345516205, 0.006087648682296276, -0.0018209544941782951, 0.4589613676071167, 0.07096417248249054, 1.049680233001709, 0.06662407517433167, 0.11443323585150866, 0.2567082868099533, -1.5916633538753924, 9362.0, 30146.0, 35388.0, 9362.0, 8.370248794555664, 0.5135886669158936, -0.109834685921669, -5.86189603805542, -0.00935971550643444, -0.04658744856715202, 1.0316935777664185, -0.08048033714294434, -0.04855918884277344, 1.491943359375, 1.336669921875, 0.0177764892578125, 1.491943359375
31584, 0.015916379168629646, -0.04951257258653641, -0.04704681411385536, 0.003445934969931841, -0.0007923929952085018, 0.36718687415122986, 0.006174765527248383, -0.001843130448833108, 0.4619041085243225, 0.07091784477233887, 1.0497186183929443, 0.06671757996082306, 0.09684459580081359, 0.2429871226496516, -1.6093855585981163, 9362.0, 30146.0, 35388.0, 9362.0, 8.370248794555664, 0.6609458327293396, -0.3130533993244171, 3.3381905555725098, -0.005861788988113403, -0.04240068048238754, 1.0307856798171997, -0.08048033714294434, -0.04855918884277344, 1.491943359375, 1.336669921875, 0.0177764892578125, 1.491943359375
31594, 0.015942048281431198, -0.05049043148756027, -0.03496817871928215, 0.00350811961106956, -0.00081096519716084, 0.37182125449180603, 0.0062622250989079475, -0.001871289685368538, 0.46497148275375366, 0.07090435922145844, 1.0497287511825562, 0.06671174615621567, 0.09144273306248901, 0.2341507677729453, -1.6155386903128632, 9362.0, 30146.0, 35388.0, 9362.0, 8.390083312988281, 0.35026201605796814, 0.06228305771946907, 8.516636848449707, -0.0007042354554869235, -0.04076496139168739, 1.0294759273529053, -0.08048033714294434, -0.04855918884277344, 1.491943359375, 1.336669921875, 0.0177764892578125, 1.491943359375
31614, 0.01403079368174076, -0.053367264568805695, -0.04258707910776138, 0.0036351578310132027, -0.0008489530300721526, 0.38118067383766174, 0.0064427959732711315, -0.0019272953504696488, 0.47094789147377014, 0.07093585282564163, 1.0497016906738281, 0.06664639711380005, 0.10126208611599023, 0.22661063528977365, -1.6188770401635992, 9362.0, 30146.0, 35388.0, 9362.0, 8.370248794555664, -1.00096595287323, -0.0855395644903183, -9.459534645080566, 0.00611321022734046, -0.03840380162000656, 1.032542109489441, -0.060499247163534164, -0.04855918884277344, 1.491943359375, 1.336669921875, 0.0177764892578125, 1.491943359375
31624, 0.013631272129714489, -0.05351358279585838, -0.06159931793808937, 0.0037000568117946386, -0.0008683501509949565, 0.385905385017395, 0.0065369862131774426, -0.0019521438516676426, 0.47399187088012695, 0.0708819106221199, 1.0496716499328613, 0.06658100336790085, 0.11852905301667763, 0.19237246045224765, -1.6609100845266023, 9362.0, 30146.0, 35388.0, 9362.0, 8.390083312988281, 0.045614082366228104, -0.1575906127691269, -6.9237542152404785, -0.003918658476322889, -0.04423067718744278, 1.0304558277130127, -0.060499247163534164, -0.04855918884277344, 1.491943359375, 1.336669921875, 0.0177764892578125, 1.491943359375
31634, 0.0161249041557312, -0.052386168390512466, -0.05128057673573494, 0.0037658987566828728, -0.000887992384377867, 0.39066052436828613, 0.006631367839872837, -0.001976422034204006, 0.477033406496048, 0.07106579095125198, 1.0496549606323242, 0.06643926352262497, 0.030440192572821333, 0.33079252525422476, -1.6670702377957336, 9362.0, 30146.0, 35388.0, 9362.0, 8.390083312988281, 0.6102468371391296, 0.06233071908354759, -0.7424073219299316, -0.007713967468589544, -0.04188017547130585, 1.0288187265396118, -0.060499247163534164, -0.04855918884277344, 1.491943359375, 1.336669921875, 0.0177764892578125, 1.491943359375
31654, 0.01521303504705429, -0.05388021469116211, -0.020690467208623886, 0.003900387790054083, -0.0009280885569751263, 0.4002580940723419, 0.00681912899017334, -0.002032957039773464, 0.48276153206825256, 0.07091829925775528, 1.0497053861618042, 0.06667342036962509, 0.09990573657252094, 0.23358464679085955, -1.6240340783990057, 9362.0, 30146.0, 35388.0, 9362.0, 8.370248794555664, 0.23517142236232758, -0.14905719459056854, 7.534293174743652, -0.007713967468589544, -0.04188017547130585, 1.0288187265396118, -0.041901856660842896, -0.04855918884277344, 1.491943359375, 1.336669921875, 0.0177764892578125, 1.493408203125
31674, 0.012738312594592571, -0.058019593358039856, -0.047223467379808426, 0.004038679413497448, -0.0009692715248093009, 0.4099733233451843, 0.007010974455624819, -0.002084014704450965, 0.4888100028038025, 0.07091967016458511, 1.049728274345398, 0.06671369075775146, 0.09034659520842875, 0.23653615838546216, -1.6160428336779367, 9362.0, 30146.0, 35388.0, 9362.0, 8.370248794555664, -0.6755141615867615, 0.008793354965746403, -5.391580581665039, -0.007713967468589544, -0.04188017547130585, 1.0288187265396118, -0.05820699781179428, -0.07543754577636719, 1.48974609375, 1.336669921875, 0.0177764892578125, 1.493408203125
31684, 0.013810045085847378, -0.05543169006705284, -0.049979861825704575, 0.004038679413497448, -0.0009692715248093009, 0.4099733233451843, 0.007010974455624819, -0.002084014704450965, 0.4888100028038025, 0.07089170813560486, 1.0496939420700073, 0.06658762693405151, 0.12497436833839803, 0.1914878611623294, -1.6599708855491806, 9362.0, 30146.0, 35388.0, 9362.0, 8.370248794555664, -0.20680886507034302, -0.22963963449001312, -6.832337856292725, -0.0012894405517727137, -0.03875035420060158, 1.0294811725616455, -0.05820699781179428, -0.07543754577636719, 1.48974609375, 1.336669921875, 0.0177764892578125, 1.493408203125
31694, 0.013610613532364368, -0.05559802055358887, -0.05671072378754616, 0.004038679413497448, -0.0009692715248093009, 0.4099733233451843, 0.007010974455624819, -0.002084014704450965, 0.4888100028038025, 0.07091476023197174, 1.0497411489486694, 0.0666879191994667, 0.09433584501118063, 0.23434469571640193, -1.6090449172894896, 9362.0, 30146.0, 35388.0, 9362.0, 8.370248794555664, 0.5111821889877319, -0.21582838892936707, -2.1312990188598633, -0.0012894405517727137, -0.03875035420060158, 1.0294811725616455, -0.05820699781179428, -0.07543754577636719, 1.48974609375, 1.336669921875, 0.0177764892578125, 1.493408203125
31714, 0.015543541871011257, -0.056565601378679276, -0.027847088873386383, 0.004327084869146347, -0.0010545395780354738, 0.42975491285324097, 0.007405384909361601, -0.0021840252447873354, 0.5004183650016785, 0.07104048877954483, 1.0496796369552612, 0.06649210304021835, 0.02862071960228406, 0.3380790783764098, -1.6416105970426738, 9362.0, 30146.0, 35388.0, 9362.0, 8.370248794555664, 0.3339135944843292, 0.22755326330661774, 9.273353576660156, 0.00257890485227108, -0.035097189247608185, 1.0288652181625366, -0.037752434611320496, 0.08584022521972656, 1.5029296875, 1.336669921875, 0.0177764892578125, 1.493408203125
31724, 0.014923308975994587, -0.05694044753909111, -0.030579455196857452, 0.004401637241244316, -0.0010765170445665717, 0.4347735643386841, 0.007505093701183796, -0.0022114445455372334, 0.5033093690872192, 0.07090666145086288, 1.0497146844863892, 0.06668157130479813, 0.08712790152671292, 0.2507094975327675, -1.6248764047935025, 9362.0, 30146.0, 35388.0, 9362.0, 8.370248794555664, -1.0617101192474365, 0.3695791959762573, -1.6312751770019531, 0.006493740249425173, -0.03303476795554161, 1.0295888185501099, -0.03393619507551193, -0.07543754577636719, 1.48974609375, 1.336669921875, 0.0177764892578125, 1.493408203125
31734, 0.012359896674752235, -0.05742698162794113, -0.0537634938955307, 0.004477189388126135, -0.0010987631976604462, 0.43982064723968506, 0.007605357561260462, -0.002237692242488265, 0.5061050653457642, 0.07091768831014633, 1.0496984720230103, 0.06664679944515228, 0.09759800469381234, 0.22387415636674746, -1.618502476538981, 9362.0, 30146.0, 35388.0, 9362.0, 8.370248794555664, -0.6579253077507019, -0.10283634811639786, -7.996646404266357, -0.0004866759409196675, -0.03618443012237549, 1.0311839580535889, -0.03988384082913399, -0.03959846496582031, 1.49267578125, 1.34033203125, 0.0166168212890625, 1.493408203125
31754, 0.015767622739076614, -0.059286486357450485, -0.05418555811047554, 0.0046313172206282616, -0.0011439655208960176, 0.45000216364860535, 0.00780714675784111, -0.002283629262819886, 0.5120738744735718, 0.07093459367752075, 1.0496946573257446, 0.06665676087141037, 0.0964627893645151, 0.23114728398795137, -1.6247247999343266, 9362.0, 30146.0, 35388.0, 9362.0, 8.390083312988281, 0.7954947352409363, 0.03534885123372078, 6.659325122833252, -0.01220463402569294, -0.044304657727479935, 1.030144453048706, -0.05340971797704697, -0.12023735046386719, 1.486083984375, 1.330810546875, 0.0203399658203125, 1.493408203125
31764, 0.01659591682255268, -0.06043132767081261, -0.024896807968616486, 0.004709911532700062, -0.0011669413652271032, 0.455137699842453, 0.007911765947937965, -0.002311532385647297, 0.5150363445281982, 0.07092679291963577, 1.0497022867202759, 0.06662388145923615, 0.09598915344779743, 0.22866747351807248, -1.6267304525629158, 9362.0, 30146.0, 35388.0, 9362.0, 8.390083312988281, 0.3280460834503174, -0.08205600082874298, 8.222420692443848, -0.0017510943580418825, -0.03863135725259781, 1.0300074815750122, -0.05340971797704697, -0.12023735046386719, 1.486083984375, 1.330810546875, 0.0203399658203125, 1.49560546875
31844, 0.016118789091706276, -0.06602369248867035, -0.03553704917430878, 0.005377517081797123, -0.0013602576218545437, 0.49729371070861816, 0.00878484733402729, -0.002526272553950548, 0.5387586355209351, 0.0709240511059761, 1.0496938228607178, 0.06661821901798248, 0.10027330170525282, 0.22604821703686184, -1.6287990586773795, 9362.0, 30146.0, 35388.0, 9362.0, 8.370248794555664, -0.05868357792496681, 0.1340748369693756, 6.104860782623291, 0.00478791119530797, -0.04087775945663452, 1.029687762260437, -0.060301922261714935, -0.04855918884277344, 1.491943359375, 1.330810546875, 0.0203399658203125, 1.49560546875
31854, 0.01436749566346407, -0.0677327811717987, -0.05614953488111496, 0.005377517081797123, -0.0013602576218545437, 0.49729371070861816, 0.00878484733402729, -0.002526272553950548, 0.5387586355209351, 0.07092323899269104, 1.049709677696228, 0.06660894304513931, 0.10680201106345712, 0.23052847959868927, -1.626892275144397, 9362.0, 30146.0, 35388.0, 9362.0, 8.390083312988281, -0.4279053807258606, 0.16309383511543274, -9.191794395446777, 0.00478791119530797, -0.04087775945663452, 1.029687762260437, -0.060301922261714935, -0.04855918884277344, 1.491943359375, 1.330810546875, 0.0203399658203125, 1.49560546875
31884, 0.016204340383410454, -0.07197875529527664, -0.024337761104106903, 0.005377517081797123, -0.0013602576218545437, 0.49729371070861816, 0.00878484733402729, -0.002526272553950548, 0.5387586355209351, 0.07092417031526566, 1.0497000217437744, 0.06663994491100311, 0.09864877809228584, 0.22504174159681156, -1.6219647961656778, 9362.0, 30146.0, 35388.0, 9362.0, 8.390083312988281, -0.018987365067005157, -0.09251062572002411, 7.998019695281982, 0.00478791119530797, -0.04087775945663452, 1.029687762260437, -0.06005441024899483, -0.10231781005859375, 1.487548828125, 1.330810546875, 0.0203399658203125, 1.49560546875
