timeTick, roll, pitch, yaw, stateX, stateY, stateZ, stateVX, stateVY, stateVZ, otX0, otY0, otZ0, otRoll0, otPitch0, otYaw0, left wing, pitch motor, yaw motor, right wing, voltage, roll rate, pitch rate, yaw rate, A_x, A_y, A_z, current, i_raw, v_raw, airflow_voltage, airflow_speed, pot_Pitch
31275, 4.3340820411685854e-05, 1.1159236237290315e-05, -0.00043887621723115444, 0, 0, 0, 0, 0, 0, 0, 0, 0, 0, 0, 0, 0, 0, 0, 0, 0, 0, 0, 0, 0, 0, 0, 0, 0, 0, 0, 0, 0
31285, 0.00041739465086720884, -0.0001503198582213372, -0.0005091620841994882, 0.0, 0.0, 1.4584860764443874e-05, -5.68142755064116e-10, -2.206508309399169e-09, 0.002916969358921051, 0, 0, 0, 0, 0, 0, 9362.0, 30146.0, 35388.0, 9362.0, 8.17190170288086, 0.021642537787556648, 0.4034213125705719, 0.3624930679798126, 0.0044252644293010235, -0.03846408426761627, 1.0295283794403076, -0.07673891633749008, -0.10231781005859375, 1.487548828125, 1.298583984375, 0.051055908203125, 0
31295, 0.00033678620820865035, -0.0030421088449656963, -0.0002864581474568695, -1.040338232227711e-10, -4.0403838608149556e-10, 5.821726517751813e-05, -1.2085789258264867e-08, -9.74871738890215e-08, 0.0058099026791751385, 0, 0, 0, 0, 0, 0, 9362.0, 30146.0, 35388.0, 9362.0, 8.17190170288086, -0.09337988495826721, 0.23732563853263855, -0.2652451992034912, 0.0034913101699203253, -0.041847068816423416, 1.0269490480422974, -0.08053112775087357, -0.12023735046386719, 1.486083984375, 1.30224609375, 0.0460052490234375, 1.49560546875
31305, 0.0003434862301219255, -0.0050695971585810184, -0.0003341756819281727, 1.0984643195044441e-09, -5.053581109137895e-09, 0.0001302369055338204, 3.9311751720561006e-07, -8.285041417366301e-07, 0.008594383485615253, 0, 0, 0, 0, 0, 0, 9362.0, 30146.0, 35388.0, 9362.0, 8.17190170288086, -0.04411628469824791, -0.006514137610793114, 0.17219792306423187, 0.0029442410450428724, -0.03981335088610649, 1.029862642288208, -0.07857646048069, -0.06647872924804688, 1.490478515625, 1.305908203125, 0.0413360595703125, 1.489013671875
31315, -0.00041704592877067626, -0.004348752088844776, -0.0010641322005540133, 3.182040231308747e-08, -1.630470691793562e-08, 0.00023026333656162024, 5.850942216056865e-06, -1.4220554476196412e-06, 0.011411301791667938, 0, 0, 0, 0, 0, 0, 9362.0, 30146.0, 35388.0, 9362.0, 8.17190170288086, 0.04308728501200676, -0.332590788602829, -0.18061302602291107, 0.0037428231444209814, -0.03741876035928726, 1.03082275390625, -0.07814203202724457, -0.04855918884277344, 1.491943359375, 1.304443359375, 0.043182373046875, 1.49560546875
31325, 8.132105722324923e-05, -0.006264145020395517, -0.00023103966668713838, 1.3506546281405463e-07, -3.35565424336437e-08, 0.0003594704903662205, 1.4760079466213938e-05, -1.988352778425906e-06, 0.014430531300604343, 0, 0, 0, 0, 0, 0, 9362.0, 30146.0, 35388.0, 9362.0, 8.191736221313477, 0.07239601016044617, -0.026736192405223846, 0.08014778047800064, 0.0031732344068586826, -0.03768711909651756, 1.0332727432250977, -0.07557471841573715, -0.07543754577636719, 1.48974609375, 1.3037109375, 0.04412841796875, 1.489013671875
31335, -0.000754403998143971, -0.005910250823944807, 0.0011779431952163577, 3.2106365210893273e-07, -4.9758483555706334e-08, 0.000519168155733496, 2.2542462829733267e-05, -1.2787049854523502e-06, 0.017509402707219124, 0, 0, 0, 0, 0, 0, 9362.0, 30146.0, 35388.0, 9362.0, 8.191736221313477, -0.2067633867263794, -0.4270966053009033, 0.19333584606647491, 0.004620885942131281, -0.0405668243765831, 1.0316823720932007, -0.06946276128292084, -0.05751800537109375, 1.4912109375, 1.298583984375, 0.051055908203125, 1.493408203125
31345, -0.0010608179727569222, -0.0038636403623968363, 0.0020213190000504255, 6.018433396093315e-07, -6.326437329562395e-08, 0.0007100732182152569, 3.359395486768335e-05, -1.3760759429715108e-06, 0.020672006532549858, 0, 0, 0, 0, 0, 0, 9362.0, 30146.0, 35388.0, 9362.0, 8.17190170288086, -0.0829726979136467, 0.1293272227048874, 0.19920998811721802, 0.005160077475011349, -0.03886079788208008, 1.031132459640503, -0.06904339045286179, 0.014162063598632812, 1.4970703125, 1.301513671875, 0.046966552734375, 1.4912109375
31355, -0.0011486532166600227, -0.002389382803812623, 0.0015672831796109676, 9.89992940958473e-07, -7.03597891060781e-08, 0.0009324338752776384, 4.3924213969148695e-05, -2.612370231247496e-08, 0.023800527676939964, 0, 0, 0, 0, 0, 0, 9362.0, 30146.0, 35388.0, 9362.0, 8.191736221313477, 0.13534700870513916, 0.15164566040039062, -0.3062084913253784, 0.0054578157141804695, -0.03740532696247101, 1.031111240386963, -0.07867680490016937, -0.10231781005859375, 1.487548828125, 1.3037109375, 0.04412841796875, 1.49267578125
31365, -0.0007721104193478823, -0.0037416727282106876, -0.0008134193485602736, 1.4633181990575395e-06, -6.126175122744826e-08, 0.0011853775940835476, 5.0663980800891295e-05, 1.8502529428587877e-06, 0.026788601651787758, 0, 0, 0, 0, 0, 0, 9362.0, 30146.0, 35388.0, 9362.0, 8.191736221313477, -0.052642371505498886, 0.2501635253429413, -0.14994579553604126, 0.006408569868654013, -0.040452416986227036, 1.0314983129501343, -0.07978585362434387, -0.10231781005859375, 1.487548828125, 1.29638671875, 0.0542755126953125, 1.49267578125
31375, 0.0010969062568619847, -0.006019331980496645, -0.0010713436640799046, 1.9910576156689785e-06, -3.261523318087711e-08, 0.0014687253860756755, 5.495698133017868e-05, 3.858566287817666e-06, 0.02988135814666748, 0, 0, 0, 0, 0, 0, 9362.0, 30146.0, 35388.0, 9362.0, 8.191736221313477, 0.0011511511402204633, 0.2127864956855774, 0.2803482711315155, 0.0053892177529633045, -0.0393342524766922, 1.030869483947754, -0.07827886939048767, -0.08439826965332031, 1.489013671875, 1.305908203125, 0.0413360595703125, 1.49560546875
31385, 0.0009473849204368889, -0.0053038205951452255, 0.0014534458750858903, 2.5736524094099877e-06, 1.2784759917394695e-08, 0.0017827425617724657, 6.168282561702654e-05, 5.1222236834291834e-06, 0.03292248025536537, 0, 0, 0, 0, 0, 0, 9362.0, 30146.0, 35388.0, 9362.0, 8.17190170288086, -0.03816071152687073, -0.34418538212776184, -0.024914896115660667, 0.005245963577181101, -0.040272973477840424, 1.0320160388946533, -0.07862220704555511, -0.11127853393554688, 1.48681640625, 1.342529296875, 0.0161895751953125, 1.494873046875
31395, 0.001721752225421369, -0.003970748744904995, 0.001487014931626618, 3.2436369110655505e-06, 5.43193259261443e-08, 0.0021274411119520664, 7.227549212984741e-05, 3.1932406727719354e-06, 0.036017633974552155, 0, 0, 0, 0, 0, 0, 9362.0, 30146.0, 35388.0, 9362.0, 8.17190170288086, 0.012509592808783054, 0.16998060047626495, 0.2322746217250824, 0.005446974653750658, -0.04052567854523659, 1.0301769971847534, -0.0802430734038353, -0.14711761474609375, 1.48388671875, 1.34033203125, 0.0166168212890625, 1.491943359375
31405, 0.0011788191040977836, -0.00532247219234705, 0.0029809914994984865, 4.013243597000837e-06, 7.78841453552559e-08, 0.0025032428093254566, 8.15731764305383e-05, 1.4774975625186926e-06, 0.039143092930316925, 0, 0, 0, 0, 0, 0, 9362.0, 30146.0, 35388.0, 9362.0, 8.17190170288086, 0.09723425656557083, 0.2331729382276535, -0.05238207057118416, 0.006234003696590662, -0.0408463254570961, 1.0285085439682007, -0.08130810409784317, -0.07543754577636719, 1.48974609375, 1.342529296875, 0.0161895751953125, 1.491943359375
31415, 0.0017232622485607862, -0.0047129434533417225, 0.002627213951200247, 4.863953563472023e-06, 7.749341079943406e-08, 0.002908882452175021, 8.863590483088046e-05, -1.528548295937071e-06, 0.041985224932432175, 0, 0, 0, 0, 0, 0, 9362.0, 30146.0, 35388.0, 9362.0, 8.17190170288086, 0.024029608815908432, 0.029932551085948944, 0.02420511469244957, 0.00598117196932435, -0.03967110440135002, 1.0308371782302856, -0.08101753145456314, -0.05751800537109375, 1.4912109375, 1.330810546875, 0.0203399658203125, 1.49560546875
31425, 0.0013965796679258347, -0.004350540228188038, 0.0019046752713620663, 5.79721427129698e-06, 5.1822727442640826e-08, 0.0033431195188313723, 9.798564860830083e-05, -3.6329809063317953e-06, 0.044862594455480576, 0, 0, 0, 0, 0, 0, 9362.0, 30146.0, 35388.0, 9362.0, 8.17190170288086, 0.09773552417755127, -0.3037976026535034, -0.06801367551088333, 0.005775767378509045, -0.042165741324424744, 1.0317524671554565, -0.07850529998540878, -0.10231781005859375, 1.487548828125, 1.338134765625, 0.01727294921875, 1.49267578125
31435, 0.00283827050589025, -0.0036156729329377413, 0.0006864035967737436, 6.818690962973051e-06, 2.7691626769410504e-10, 0.003807217348366976, 0.00010629007738316432, -6.658650363533525e-06, 0.04795735701918602, 0, 0, 0, 0, 0, 0, 9362.0, 30146.0, 35388.0, 9362.0, 8.17190170288086, -0.035062745213508606, -0.01756392978131771, -0.1800559014081955, 0.003630619728937745, -0.039533939212560654, 1.0341594219207764, -0.0798606276512146, -0.08439826965332031, 1.489013671875, 1.33447265625, 0.0186309814453125, 1.48974609375
31445, 0.003271161112934351, -0.004320858977735043, 0.0004140164237469435, 7.920074494904839e-06, -7.866171358728025e-08, 0.004303098656237125, 0.00011394482862669975, -9.211295036948286e-06, 0.05121937021613121, 0, 0, 0, 0, 0, 0, 9362.0, 30146.0, 35388.0, 9362.0, 8.17190170288086, -0.08981355279684067, 0.1363065242767334, 0.009269693866372108, 0.004284474533051252, -0.03966556489467621, 1.032892107963562, -0.0810060054063797, -0.1291980743408203, 1.4853515625, 1.336669921875, 0.0177764892578125, 1.48974609375
31455, 0.00323967426083982, -0.0029147875029593706, -0.000685923034325242, 9.091520041693002e-06, -1.9589126054597727e-07, 0.004831825383007526, 0.00012038486602250487, -1.4259618183132261e-05, 0.05452635884284973, 0, 0, 0, 0, 0, 0, 9362.0, 30146.0, 35388.0, 9362.0, 8.17190170288086, 0.11716842651367188, -0.3878953158855438, -0.2346930056810379, 0.003582606790587306, -0.04028454050421715, 1.0317668914794922, -0.079477958381176, -0.14711761474609375, 1.48388671875, 1.327880859375, 0.0218353271484375, 1.491943359375
31465, 0.0034660398960113525, -0.0016708193579688668, 0.00011109107435913756, 1.033355056279106e-05, -3.6739288589160424e-07, 0.005392884835600853, 0.0001279435819014907, -2.0039129594806582e-05, 0.05768595263361931, 0, 0, 0, 0, 0, 0, 9362.0, 30146.0, 35388.0, 9362.0, 8.191736221313477, 0.08712760359048843, 0.15622484683990479, -0.06950706988573074, 0.0034419384319335222, -0.037571586668491364, 1.0306745767593384, -0.08372308313846588, -0.11127853393554688, 1.48681640625, 1.326416015625, 0.022705078125, 1.49267578125
31475, 0.0038495513144880533, -0.0007683641160838306, -0.0011575898388400674, 1.1638711839623284e-05, -5.963780722595402e-07, 0.005984940566122532, 0.00013302286970429122, -2.5769832063815556e-05, 0.06072564050555229, 0, 0, 0, 0, 0, 0, 9362.0, 30146.0, 35388.0, 9362.0, 8.17190170288086, 0.027079273015260696, 0.016836533322930336, 0.10621321946382523, 0.005572516471147537, -0.03952571377158165, 1.033085823059082, -0.08587980270385742, -0.06647872924804688, 1.490478515625, 1.330810546875, 0.0203399658203125, 1.48681640625
31485, 0.0040609464049339294, -0.002981720492243767, 0.0015041097067296505, 1.2983695341972634e-05, -8.846841410559136e-07, 0.006607662886381149, 0.00013592498726211488, -3.191216092091054e-05, 0.06381923705339432, 0, 0, 0, 0, 0, 0, 9362.0, 30146.0, 35388.0, 9362.0, 8.17190170288086, -0.030718587338924408, -0.08048152923583984, 0.07759255170822144, 0.005943846423178911, -0.04024965316057205, 1.0308425426483154, -0.08265530318021774, -0.10231781005859375, 1.487548828125, 1.3271484375, 0.022308349609375, 1.49267578125
31495, 0.003719675587490201, -0.0039692223072052, 0.002559111686423421, 1.434973455616273e-05, -1.2378253586575738e-06, 0.007261693011969328, 0.00013740552822127938, -3.8727757782908157e-05, 0.06698714941740036, 0, 0, 0, 0, 0, 0, 9362.0, 30146.0, 35388.0, 9362.0, 8.17190170288086, 0.06456326693296432, 0.16602247953414917, -0.012765049934387207, 0.0034800353460013866, -0.03883320838212967, 1.0302211046218872, -0.0847950354218483, -0.09335899353027344, 1.48828125, 1.324951171875, 0.0236663818359375, 1.48974609375
31505, 0.004532926250249147, -0.0039429618045687675, 0.002327859401702881, 1.575009446241893e-05, -1.6609265003353357e-06, 0.007946508936583996, 0.00014271809777710587, -4.587459625327028e-05, 0.06997636705636978, 0, 0, 0, 0, 0, 0, 9362.0, 30146.0, 35388.0, 9362.0, 8.17190170288086, 0.038478683680295944, -0.18778972327709198, -0.1190178245306015, 0.0038953041657805443, -0.04112178459763527, 1.0316153764724731, -0.0840524360537529, -0.07543754577636719, 1.48974609375, 1.3359375, 0.01806640625, 1.491943359375
31515, 0.005401786882430315, -0.0016828612424433231, 0.001324268290773034, 1.721229637041688e-05, -2.1524890598811908e-06, 0.008661284111440182, 0.00014972095959819853, -5.24805327586364e-05, 0.07297911494970322, 0, 0, 0, 0, 0, 0, 9362.0, 30146.0, 35388.0, 9362.0, 8.17190170288086, 0.03579187020659447, 0.22126199305057526, -0.11208080500364304, 0.0052742743864655495, -0.04147404432296753, 1.0320935249328613, -0.0848492980003357, -0.06647872924804688, 1.490478515625, 1.330078125, 0.0206298828125, 1.494873046875
31525, 0.005855047609657049, -0.004132150672376156, 0.0006519160815514624, 1.874433655757457e-05, -2.7173337002750486e-06, 0.009406686760485172, 0.00015656395407859236, -6.053588003851473e-05, 0.07610182464122772, 0, 0, 0, 0, 0, 0, 9362.0, 30146.0, 35388.0, 9362.0, 8.17190170288086, 0.10921789705753326, -0.005063866730779409, 0.07694496214389801, 0.004668827634304762, -0.03908664360642433, 1.0320630073547363, -0.08211109787225723, -0.04855918884277344, 1.491943359375, 1.3330078125, 0.0191650390625, 1.490478515625
31535, 0.006633513141423464, -0.0054952423088252544, 0.0012144912034273148, 2.032485463132616e-05, -3.370445710970671e-06, 0.010183718055486679, 0.0001596763322595507, -7.011185516603291e-05, 0.07930482923984528, 0, 0, 0, 0, 0, 0, 9362.0, 30146.0, 35388.0, 9362.0, 8.17190170288086, 0.062166135758161545, 0.20021353662014008, -0.13337555527687073, 0.00524968933314085, -0.03966479003429413, 1.0313063859939575, -0.08088790625333786, -0.030637741088867188, 1.493408203125, 1.3388671875, 0.017120361328125, 1.49560546875
31545, 0.006419704295694828, -0.004287345334887505, -0.0006251947488635778, 2.195810156990774e-05, -4.123257895116694e-06, 0.010992126539349556, 0.0001670461060712114, -8.049218013184145e-05, 0.08237727731466293, 0, 0, 0, 0, 0, 0, 9362.0, 30146.0, 35388.0, 9362.0, 8.191736221313477, -0.12178945541381836, -0.07247569411993027, 0.04699770361185074, 0.00474789272993803, -0.039238035678863525, 1.0321857929229736, -0.07902040332555771, -0.05751800537109375, 1.4912109375, 1.330810546875, 0.0203399658203125, 1.491943359375
31555, 0.007185405120253563, -0.002728621941059828, 0.00017213418323080987, 2.3677102944930084e-05, -4.9867717279994395e-06, 0.011831486597657204, 0.00017668808868620545, -9.219931234838441e-05, 0.08549521863460541, 0, 0, 0, 0, 0, 0, 9362.0, 30146.0, 35388.0, 9362.0, 8.17190170288086, 0.0331975482404232, 0.009355755522847176, -0.034129541367292404, 0.006001558620482683, -0.038066621869802475, 1.029491662979126, -0.07751718163490295, -0.04855918884277344, 1.491943359375, 1.338134765625, 0.01727294921875, 1.491943359375
31565, 0.006737897638231516, -0.003945494070649147, 0.0011048363521695137, 2.5481842385488562e-05, -5.96545442022034e-06, 0.012701889500021935, 0.00018417600949760526, -0.00010357838618801907, 0.08858567476272583, 0, 0, 0, 0, 0, 0, 9362.0, 30146.0, 35388.0, 9362.0, 8.17190170288086, -0.02503003552556038, -0.10525520890951157, 0.0984901413321495, 0.004132743924856186, -0.03930305689573288, 1.0288432836532593, -0.07592665404081345, -0.04855918884277344, 1.491943359375, 1.32861328125, 0.0214385986328125, 1.490478515625
31575, 0.007019677199423313, -0.005625084508210421, 0.0016692684730514884, 2.7347639843355864e-05, -7.0645342020725366e-06, 0.01360196154564619, 0.00018904385797213763, -0.0001162152984761633, 0.09142912924289703, 0, 0, 0, 0, 0, 0, 9362.0, 30146.0, 35388.0, 9362.0, 8.17190170288086, -0.154350146651268, 0.0868387371301651, 0.08520599454641342, 0.0042722211219370365, -0.039318449795246124, 1.0284053087234497, -0.07778016477823257, -0.1291980743408203, 1.4853515625, 1.330810546875, 0.0203399658203125, 1.493408203125
31585, 0.006860284134745598, -0.005690467543900013, 0.001085133058950305, 2.9272800020407885e-05, -8.285981493827421e-06, 0.014529969543218613, 0.0001960688387043774, -0.00012808760220650584, 0.09417281299829483, 0, 0, 0, 0, 0, 0, 9362.0, 30146.0, 35388.0, 9362.0, 8.191736221313477, -0.01993895135819912, 0.08284753561019897, -0.2545664310455322, 0.0026407737750560045, -0.04007157310843468, 1.0304750204086304, -0.07409612834453583, -0.030637741088867188, 1.493408203125, 1.3330078125, 0.0191650390625, 1.4912109375
31605, 0.0080940593034029, -0.006459197495132685, 0.0019455468282103539, 3.339317481731996e-05, -1.1093807188444771e-05, 0.016472097486257553, 0.00021605081565212458, -0.00015264376997947693, 0.1000901311635971, 0, 0, 0, 0, 0, 0, 9362.0, 30146.0, 35388.0, 9362.0, 8.191736221313477, -0.011497274972498417, -0.05655538663268089, 0.2643273174762726, 0.004285035654902458, -0.04077933728694916, 1.0312867164611816, -0.07648267596960068, -0.06647872924804688, 1.490478515625, 1.3330078125, 0.0191650390625, 1.489013671875
31615, 0.007620412856340408, -0.007404301315546036, 0.0019148803548887372, 3.339317481731996e-05, -1.1093807188444771e-05, 0.016472097486257553, 0.00021605081565212458, -0.00015264376997947693, 0.1000901311635971, 0, 0, 0, 0, 0, 0, 9362.0, 30146.0, 35388.0, 9362.0, 8.191736221313477, -0.026578664779663086, -0.09844285994768143, -0.19581015408039093, 0.004285035654902458, -0.04077933728694916, 1.0312867164611816, -0.07264559715986252, -0.021678924560546875, 1.494140625, 1.3330078125, 0.0191650390625, 1.489013671875
31625, 0.008317622356116772, -0.0079090166836977, 0.0025758789852261543, 3.339317481731996e-05, -1.1093807188444771e-05, 0.016472097486257553, 0.00021605081565212458, -0.00015264376997947693, 0.1000901311635971, 0, 0, 0, 0, 0, 0, 9362.0, 30146.0, 35388.0, 9362.0, 8.17190170288086, -0.007963345386087894, -0.008111034519970417, 0.15258216857910156, 0.004285035654902458, -0.04077933728694916, 1.0312867164611816, -0.07289610058069229, -0.08439826965332031, 1.489013671875, 1.3330078125, 0.0191650390625, 1.489013671875
31635, 0.0074151018634438515, -0.008836173452436924, 0.0034054387360811234, 3.339317481731996e-05, -1.1093807188444771e-05, 0.016472097486257553, 0.00021605081565212458, -0.00015264376997947693, 0.1000901311635971, 0, 0, 0, 0, 0, 0, 9362.0, 30146.0, 35388.0, 9362.0, 8.191736221313477, -0.10620708763599396, 0.09203517436981201, 0.03948647528886795, 0.004285035654902458, -0.04077933728694916, 1.0312867164611816, -0.07334966957569122, -0.07543754577636719, 1.48974609375, 1.3330078125, 0.0191650390625, 1.489013671875
31645, 0.007861745543777943, -0.01036818791180849, 0.0033228753600269556, 3.339317481731996e-05, -1.1093807188444771e-05, 0.016472097486257553, 0.00021605081565212458, -0.00015264376997947693, 0.1000901311635971, 0, 0, 0, 0, 0, 0, 9362.0, 30146.0, 35388.0, 9362.0, 8.17190170288086, 0.012230989523231983, 0.01723315939307213, 0.029843993484973907, 0.004285035654902458, -0.04077933728694916, 1.0312867164611816, -0.07259122282266617, -0.06647872924804688, 1.490478515625, 1.3330078125, 0.0191650390625, 1.489013671875
31665, 0.010201876983046532, -0.012212013825774193, 0.0021876029204577208, 3.339317481731996e-05, -1.1093807188444771e-05, 0.016472097486257553, 0.00021605081565212458, -0.00015264376997947693, 0.1000901311635971, 0, 0, 0, 0, 0, 0, 9362.0, 30146.0, 35388.0, 9362.0, 8.191736221313477, 0.011822130531072617, 0.1581466943025589, 0.12789461016654968, 0.003719239728525281, -0.041531432420015335, 1.0309998989105225, -0.07251647114753723, -0.06647872924804688, 1.490478515625, 1.307373046875, 0.039581298828125, 1.489013671875
31695, 0.011364074423909187, -0.008975297212600708, -0.00041326534119434655, 5.8472291129874066e-05, -3.069848753511906e-05, 0.026697197929024696, 0.0003589123080018908, -0.0002905283763539046, 0.12723331153392792, 0, 0, 0, 0, 0, 0, 9362.0, 30146.0, 35388.0, 9362.0, 8.191736221313477, 0.30559712648391724, -0.10202629864215851, -0.016173625364899635, 0.0036588148213922977, -0.040544360876083374, 1.0302759408950806, -0.07380503416061401, -0.15607833862304688, 1.483154296875, 1.333740234375, 0.0189361572265625, 1.489013671875
31735, 0.011491017416119576, -0.012953483499586582, 0.0007988867582753301, 7.418761379085481e-05, -4.3920725147472695e-05, 0.03202922269701958, 0.0004301822045817971, -0.00037469793460331857, 0.13955429196357727, 0, 0, 0, 0, 0, 0, 9362.0, 30146.0, 35388.0, 9362.0, 8.17190170288086, -0.05679403990507126, -0.12102769315242767, 0.1479395031929016, 0.004592229146510363, -0.03911668434739113, 1.0333224534988403, -0.06976550072431564, -0.030637741088867188, 1.493408203125, 1.330810546875, 0.0203399658203125, 1.489013671875
31745, 0.011837458238005638, -0.014649097807705402, 0.001386623946018517, 7.418761379085481e-05, -4.3920725147472695e-05, 0.03202922269701958, 0.0004301822045817971, -0.00037469793460331857, 0.13955429196357727, 0, 0, 0, 0, 0, 0, 9362.0, 30146.0, 35388.0, 9362.0, 8.17190170288086, 0.01869049482047558, 0.21526814997196198, -0.09180878847837448, 0.004592229146510363, -0.03911668434739113, 1.0333224534988403, -0.0677853599190712, -0.021678924560546875, 1.494140625, 1.330810546875, 0.0203399658203125, 1.489013671875
31755, 0.012517483904957771, -0.013584333471953869, 0.0007351856911554933, 7.418761379085481e-05, -4.3920725147472695e-05, 0.03202922269701958, 0.0004301822045817971, -0.00037469793460331857, 0.13955429196357727, 0, 0, 0, 0, 0, 0, 9362.0, 30146.0, 35388.0, 9362.0, 8.17190170288086, 0.01869049482047558, 0.21526814997196198, -0.09180878847837448, 0.004980301950126886, -0.04039911553263664, 1.032139778137207, -0.0677853599190712, -0.021678924560546875, 1.494140625, 1.327880859375, 0.0218353271484375, 1.489013671875
31775, 0.013784762471914291, -0.01340517494827509, -0.001110547105781734, 9.326700819656253e-05, -6.056158963474445e-05, 0.037858422845602036, 0.0005255999276414514, -0.0004586681316141039, 0.15192534029483795, 0, 0, 0, 0, 0, 0, 9362.0, 30146.0, 35388.0, 9362.0, 8.17190170288086, 0.20395836234092712, 0.08466756343841553, -0.08961866050958633, 0.0066704703494906425, -0.04055792838335037, 1.0327847003936768, -0.0677853599190712, -0.021678924560546875, 1.494140625, 1.333740234375, 0.0189361572265625, 1.489013671875
31805, 0.01410606037825346, -0.015809057280421257, 0.0034967330284416676, 0.00010427744564367458, -7.019589247647673e-05, 0.04096045345067978, 0.0005747817340306938, -0.000505693897139281, 0.15828612446784973, 0, 0, 0, 0, 0, 0, 9362.0, 30146.0, 35388.0, 9362.0, 8.17190170288086, 0.1866007149219513, 0.18831251561641693, 0.16587673127651215, 0.0066704703494906425, -0.04055792838335037, 1.0327847003936768, -0.0767669677734375, -0.10231781005859375, 1.487548828125, 1.324951171875, 0.0236663818359375, 1.489013671875
31815, 0.015493713319301605, -0.01645817421376705, 0.0031194943003356457, 0.00010427744564367458, -7.019589247647673e-05, 0.04096045345067978, 0.0005747817340306938, -0.000505693897139281, 0.15828612446784973, 0, 0, 0, 0, 0, 0, 9362.0, 30146.0, 35388.0, 9362.0, 8.17190170288086, 0.09617443382740021, 0.13400591909885406, 0.05483352020382881, 0.0066704703494906425, -0.04055792838335037, 1.0327847003936768, -0.07769420742988586, -0.06647872924804688, 1.490478515625, 1.324951171875, 0.0236663818359375, 1.489013671875
31825, 0.015851911157369614, -0.01644529029726982, 0.004046774934977293, 0.00010427744564367458, -7.019589247647673e-05, 0.04096045345067978, 0.0005747817340306938, -0.000505693897139281, 0.15828612446784973, 0, 0, 0, 0, 0, 0, 9362.0, 30146.0, 35388.0, 9362.0, 8.17190170288086, 0.14954480528831482, -0.10708276927471161, 0.0276664886623621, 0.0066704703494906425, -0.04055792838335037, 1.0327847003936768, -0.08227667957544327, -0.14711761474609375, 1.48388671875, 1.324951171875, 0.0236663818359375, 1.489013671875
31835, 0.01772635243833065, -0.017530955374240875, 0.004320312757045031, 0.00010427744564367458, -7.019589247647673e-05, 0.04096045345067978, 0.0005747817340306938, -0.000505693897139281, 0.15828612446784973, 0, 0, 0, 0, 0, 0, 9362.0, 30146.0, 35388.0, 9362.0, 8.17190170288086, -0.127282053232193, 0.12062055617570877, 0.12717267870903015, 0.0066704703494906425, -0.04055792838335037, 1.0327847003936768, -0.08174917101860046, -0.07543754577636719, 1.48974609375, 1.324951171875, 0.0236663818359375, 1.489013671875
31855, 0.01645144447684288, -0.019261294975876808, 0.004783477168530226, 0.00014391080185305327, -0.00010519567877054214, 0.05102631449699402, 0.0007486919057555497, -0.0006677035707980394, 0.17673949897289276, 0, 0, 0, 0, 0, 0, 9362.0, 30146.0, 35388.0, 9362.0, 8.191736221313477, 0.02224729396402836, 0.24856317043304443, 0.07840724289417267, 0.005552686285227537, -0.04104357585310936, 1.0332800149917603, -0.08174917101860046, -0.07543754577636719, 1.48974609375, 1.33154296875, 0.0198516845703125, 1.489013671875
31865, 0.01599973440170288, -0.020716195926070213, 0.0058020660653710365, 0.00014391080185305327, -0.00010519567877054214, 0.05102631449699402, 0.0007486919057555497, -0.0006677035707980394, 0.17673949897289276, 0, 0, 0, 0, 0, 0, 9362.0, 30146.0, 35388.0, 9362.0, 8.17190170288086, -0.06833583861589432, -0.02827470190823078, 0.1747841238975525, 0.005552686285227537, -0.04104357585310936, 1.0332800149917603, -0.08487430959939957, -0.06647872924804688, 1.490478515625, 1.33154296875, 0.0198516845703125, 1.489013671875
31885, 0.0168226957321167, -0.02230379730463028, 0.007391100749373436, 0.0001678923872532323, -0.00012653305020648986, 0.05647062510251999, 0.0008525606244802475, -0.0007542104576714337, 0.1862366646528244, 0, 0, 0, 0, 0, 0, 9362.0, 30146.0, 35388.0, 9362.0, 8.17190170288086, -0.06760954856872559, 0.1508089154958725, -0.0835663229227066, 0.005155068356543779, -0.04131188616156578, 1.0313416719436646, -0.08185814321041107, -0.09335899353027344, 1.48828125, 1.32275390625, 0.0251312255859375, 1.489013671875
31895, 0.016425108537077904, -0.02374412678182125, 0.007175805512815714, 0.0001678923872532323, -0.00012653305020648986, 0.05647062510251999, 0.0008525606244802475, -0.0007542104576714337, 0.1862366646528244, 0, 0, 0, 0, 0, 0, 9362.0, 30146.0, 35388.0, 9362.0, 8.17190170288086, -0.15874004364013672, 0.22464442253112793, 0.07578093558549881, 0.005155068356543779, -0.04131188616156578, 1.0313416719436646, -0.08056685328483582, -0.03959846496582031, 1.49267578125, 1.32275390625, 0.0251312255859375, 1.489013671875
31905, 0.016092725098133087, -0.023296818137168884, 0.006532285362482071, 0.0001678923872532323, -0.00012653305020648986, 0.05647062510251999, 0.0008525606244802475, -0.0007542104576714337, 0.1862366646528244, 0, 0, 0, 0, 0, 0, 9362.0, 30146.0, 35388.0, 9362.0, 8.191736221313477, 0.009096764959394932, -0.36578354239463806, -0.32303711771965027, 0.005071042571216822, -0.040997788310050964, 1.030929446220398, -0.08056685328483582, -0.03959846496582031, 1.49267578125, 1.33154296875, 0.0198516845703125, 1.489013671875
31915, 0.015547210350632668, -0.022587783634662628, 0.005647061858326197, 0.0001678923872532323, -0.00012653305020648986, 0.05647062510251999, 0.0008525606244802475, -0.0007542104576714337, 0.1862366646528244, 0, 0, 0, 0, 0, 0, 9362.0, 30146.0, 35388.0, 9362.0, 8.191736221313477, -0.022839052602648735, -0.21181230247020721, -0.19246545433998108, 0.005071042571216822, -0.040997788310050964, 1.030929446220398, -0.08007480204105377, -0.030637741088867188, 1.493408203125, 1.33154296875, 0.0198516845703125, 1.489013671875
31925, 0.01466380339115858, -0.022495143115520477, 0.005309763830155134, 0.00020516756922006607, -0.000159032890223898, 0.06416495889425278, 0.001013656728900969, -0.0008701760089024901, 0.19846880435943604, 0, 0, 0, 0, 0, 0, 9362.0, 30146.0, 35388.0, 9362.0, 8.191736221313477, -0.20818045735359192, 0.0016701879212632775, 0.10330641269683838, 0.005071042571216822, -0.040997788310050964, 1.030929446220398, -0.07867767661809921, -0.04855918884277344, 1.491943359375, 1.33154296875, 0.0198516845703125, 1.489013671875
31935, 0.014086917974054813, -0.02156802825629711, 0.006681747268885374, 0.00021550327073782682, -0.00016787169442977756, 0.06616425514221191, 0.0010534804314374924, -0.0008975394885055721, 0.20139040052890778, 0, 0, 0, 0, 0, 0, 9362.0, 30146.0, 35388.0, 9362.0, 8.17190170288086, 0.07259736955165863, -0.41024574637413025, 0.14058296382427216, 0.002740811090916395, -0.03949173912405968, 1.031482219696045, -0.07880694419145584, -0.08439826965332031, 1.489013671875, 1.33154296875, 0.0198516845703125, 1.489013671875
31945, 0.012212999165058136, -0.022352097555994987, 0.009005755186080933, 0.00021550327073782682, -0.00016787169442977756, 0.06616425514221191, 0.0010534804314374924, -0.0008975394885055721, 0.20139040052890778, 0, 0, 0, 0, 0, 0, 9362.0, 30146.0, 35388.0, 9362.0, 8.17190170288086, -0.16708829998970032, 0.37795329093933105, 0.10370317846536636, 0.002740811090916395, -0.03949173912405968, 1.031482219696045, -0.0806339830160141, -0.030637741088867188, 1.493408203125, 1.33154296875, 0.0198516845703125, 1.489013671875
31975, 0.01473777461796999, -0.024348873645067215, 0.00901346281170845, 0.0002607781207188964, -0.00020573775691445917, 0.0744670033454895, 0.0012111584655940533, -0.0009929791558533907, 0.21378424763679504, 0, 0, 0, 0, 0, 0, 9362.0, 30146.0, 35388.0, 9362.0, 8.17190170288086, 0.08441955596208572, -0.21400313079357147, -0.21500222384929657, 0.003968634642660618, -0.04113049805164337, 1.0317111015319824, -0.07997061312198639, -0.030637741088867188, 1.493408203125, 1.32568359375, 0.0232086181640625, 1.489013671875
32005, 0.014784946106374264, -0.024653570726513863, 0.012001000344753265, 0.0002859008382074535, -0.0002261188201373443, 0.07880409806966782, 0.001299855182878673, -0.0010451424168422818, 0.2199932038784027, 0, 0, 0, 0, 0, 0, 9362.0, 30146.0, 35388.0, 9362.0, 8.17190170288086, -0.10140713304281235, -0.24119862914085388, 0.061885494738817215, 0.004697439260780811, -0.03901452571153641, 1.0323905944824219, -0.07997061312198639, -0.030637741088867188, 1.493408203125, 1.33447265625, 0.0186309814453125, 1.489013671875
32025, 0.015771692618727684, -0.023934381082654, 0.010918205603957176, 0.00032686968916095793, -0.00025871017714962363, 0.08554363250732422, 0.0014304155483841896, -0.0011268634116277099, 0.22932569682598114, 0, 0, 0, 0, 0, 0, 9362.0, 30146.0, 35388.0, 9362.0, 8.191736221313477, 0.048029471188783646, 0.4831882417201996, 0.17202720046043396, 0.005384297575801611, -0.03906241059303284, 1.0314372777938843, -0.07430586218833923, -0.03959846496582031, 1.49267578125, 1.341064453125, 0.01654052734375, 1.489013671875
32035, 0.014852388761937618, -0.025842254981398582, 0.01161941047757864, 0.00032686968916095793, -0.00025871017714962363, 0.08554363250732422, 0.0014304155483841896, -0.0011268634116277099, 0.22932569682598114, 0, 0, 0, 0, 0, 0, 9362.0, 30146.0, 35388.0, 9362.0, 8.17190170288086, -0.07815615087747574, -0.05652128532528877, 0.06974899023771286, 0.0060204751789569855, -0.0407576709985733, 1.0304375886917114, -0.07198306173086166, -0.04855918884277344, 1.491943359375, 1.341064453125, 0.01654052734375, 1.489013671875
32045, 0.014873660169541836, -0.02523990534245968, 0.009627231396734715, 0.00035627803299576044, -0.00028177941567264497, 0.09019135683774948, 0.0015120460884645581, -0.0011808461276814342, 0.2354191392660141, 0, 0, 0, 0, 0, 0, 9362.0, 30146.0, 35388.0, 9362.0, 8.191736221313477, -0.06851736456155777, -0.13221712410449982, -0.00764557346701622, 0.005300298798829317, -0.03871080279350281, 1.032491683959961, -0.07017626613378525, -0.05751800537109375, 1.4912109375, 1.341064453125, 0.01654052734375, 1.489013671875
32135, 0.016872597858309746, -0.028525980189442635, 0.01770928129553795, 0.0005111828213557601, -0.0003989151446148753, 0.11262425780296326, 0.0019384274492040277, -0.001427920418791473, 0.26293283700942993, 0, 0, 0, 0, 0, 0, 9362.0, 30146.0, 35388.0, 9362.0, 8.17190170288086, -0.1426224708557129, 0.24123287200927734, 0.42588603496551514, 0.005268163047730923, -0.04088909924030304, 1.031991958618164, -0.07989396154880524, -0.07543754577636719, 1.48974609375, 1.34033203125, 0.0166168212890625, 1.489013671875
32195, 0.0166228786110878, -0.029934175312519073, 0.017728066071867943, 0.0006367026944644749, -0.0004900163621641695, 0.1289408653974533, 0.0022459563333541155, -0.0016099214553833008, 0.28084251284599304, 0, 0, 0, 0, 0, 0, 9362.0, 30146.0, 35388.0, 9362.0, 8.17190170288086, -0.171662375330925, -0.02925826981663704, 0.2666066288948059, 0.006162086967378855, -0.04068794846534729, 1.030370831489563, -0.08480092138051987, -0.06647872924804688, 1.490478515625, 1.333740234375, 0.0189361572265625, 1.489013671875
32205, 0.01657877117395401, -0.029175208881497383, 0.01647268235683441, 0.0006367026944644749, -0.0004900163621641695, 0.1289408653974533, 0.0022459563333541155, -0.0016099214553833008, 0.28084251284599304, 0, 0, 0, 0, 0, 0, 9362.0, 30146.0, 35388.0, 9362.0, 8.191736221313477, 0.22562408447265625, -0.15938939154148102, -0.19462916254997253, 0.005251972004771233, -0.042221549898386, 1.0331146717071533, -0.08480092138051987, -0.06647872924804688, 1.490478515625, 1.34326171875, 0.01605224609375, 1.489013671875
32235, 0.01705116592347622, -0.027065575122833252, 0.01353653334081173, 0.0007306900806725025, -0.0005568178021349013, 0.14042316377162933, 0.002451814478263259, -0.0017303378554061055, 0.29334113001823425, 0, 0, 0, 0, 0, 0, 9362.0, 30146.0, 35388.0, 9362.0, 8.17190170288086, -0.18307141959667206, 0.10302484035491943, -0.08672510087490082, 0.004536790307611227, -0.03906925767660141, 1.0301604270935059, -0.07624173909425735, -0.03959846496582031, 1.49267578125, 1.33447265625, 0.0186309814453125, 1.489013671875
32255, 0.01706044003367424, -0.02925490215420723, 0.014206544496119022, 0.0007806873181834817, -0.0005920330295339227, 0.14634981751441956, 0.0025477095041424036, -0.0017909150337800384, 0.299319863319397, 0, 0, 0, 0, 0, 0, 9362.0, 30146.0, 35388.0, 9362.0, 8.191736221313477, 0.11244428902864456, 0.14024236798286438, 0.2864520847797394, 0.005167981144040823, -0.038105908781290054, 1.0323386192321777, -0.07624173909425735, -0.03959846496582031, 1.49267578125, 1.32861328125, 0.0214385986328125, 1.489013671875
32265, 0.0179520882666111, -0.02920650690793991, 0.017037659883499146, 0.0007806873181834817, -0.0005920330295339227, 0.14634981751441956, 0.0025477095041424036, -0.0017909150337800384, 0.299319863319397, 0, 0, 0, 0, 0, 0, 9362.0, 30146.0, 35388.0, 9362.0, 8.17190170288086, 0.11244428902864456, 0.14024236798286438, 0.2864520847797394, 0.004233500454574823, -0.04213479161262512, 1.0308036804199219, -0.07624173909425735, -0.03959846496582031, 1.49267578125, 1.335205078125, 0.018280029296875, 1.489013671875
32275, 0.0186721533536911, -0.030252773314714432, 0.017136136069893837, 0.0007806873181834817, -0.0005920330295339227, 0.14634981751441956, 0.0025477095041424036, -0.0017909150337800384, 0.299319863319397, 0, 0, 0, 0, 0, 0, 9362.0, 30146.0, 35388.0, 9362.0, 8.191736221313477, 0.11244428902864456, 0.14024236798286438, 0.2864520847797394, 0.0040396288968622684, -0.040792256593704224, 1.0277119874954224, -0.08457975834608078, -0.08439826965332031, 1.489013671875, 1.335205078125, 0.018280029296875, 1.489013671875
32315, 0.020550066605210304, -0.02588227577507496, 0.017782453447580338, 0.0009426056640222669, -0.0007050946587696671, 0.16485069692134857, 0.0028457236476242542, -0.001985229318961501, 0.31729698181152344, 0, 0, 0, 0, 0, 0, 9362.0, 30146.0, 35388.0, 9362.0, 8.191736221313477, -0.006894113961607218, 0.28669941425323486, 2.7806451320648193, 0.0029385159723460674, -0.036948151886463165, 1.0314812660217285, -0.06231667101383209, -0.1291980743408203, 1.4853515625, 1.32861328125, 0.0214385986328125, 1.489013671875
32325, 0.020900463685393333, -0.029476746916770935, 0.01948828436434269, 0.0009426056640222669, -0.0007050946587696671, 0.16485069692134857, 0.0028457236476242542, -0.001985229318961501, 0.31729698181152344, 0, 0, 0, 0, 0, 0, 9362.0, 30146.0, 35388.0, 9362.0, 8.17190170288086, -0.09066396206617355, 0.19412635266780853, -0.9357123374938965, 0.0042898161336779594, -0.03757414594292641, 1.032715082168579, -0.06709027290344238, -0.10231781005859375, 1.487548828125, 1.32861328125, 0.0214385986328125, 1.489013671875
32335, 0.021630937233567238, -0.031519174575805664, 0.02605084702372551, 0.0009426056640222669, -0.0007050946587696671, 0.16485069692134857, 0.0028457236476242542, -0.001985229318961501, 0.31729698181152344, 0, 0, 0, 0, 0, 0, 9362.0, 30146.0, 35388.0, 9362.0, 8.17190170288086, 0.27902114391326904, 0.24084560573101044, -0.7191835641860962, 0.0042898161336779594, -0.03757414594292641, 1.032715082168579, -0.06580208241939545, -0.10231781005859375, 1.487548828125, 1.32861328125, 0.0214385986328125, 1.489013671875
32345, 0.022199371829628944, -0.03096199221909046, 0.023513158783316612, 0.0009426056640222669, -0.0007050946587696671, 0.16485069692134857, 0.0028457236476242542, -0.001985229318961501, 0.31729698181152344, 0, 0, 0, 0, 0, 0, 9362.0, 30146.0, 35388.0, 9362.0, 8.17190170288086, 0.07819900661706924, -0.375160276889801, 0.2171189785003662, 0.0042898161336779594, -0.03757414594292641, 1.032715082168579, -0.06783981621265411, -0.06647872924804688, 1.490478515625, 1.32861328125, 0.0214385986328125, 1.489013671875
32355, 0.02338859625160694, -0.0289787407964468, 0.0185585655272007, 0.0009426056640222669, -0.0007050946587696671, 0.16485069692134857, 0.0028457236476242542, -0.001985229318961501, 0.31729698181152344, 0, 0, 0, 0, 0, 0, 9362.0, 30146.0, 35388.0, 9362.0, 8.17190170288086, 0.07819900661706924, -0.375160276889801, 0.2171189785003662, 0.0042898161336779594, -0.03757414594292641, 1.032715082168579, -0.06971798837184906, -0.07543754577636719, 1.48974609375, 1.32861328125, 0.0214385986328125, 1.489013671875
32395, 0.023687899112701416, -0.024242857471108437, 0.018604988232254982, 0.0011539559345692396, -0.0008531281491741538, 0.18783394992351532, 0.003197432728484273, -0.0022521582432091236, 0.33950740098953247, 0, 0, 0, 0, 0, 0, 9362.0, 30146.0, 35388.0, 9362.0, 8.191736221313477, 0.05917273461818695, -0.08933430165052414, -0.0123457545414567, 0.002188184065744281, -0.042707014828920364, 1.0310660600662231, -0.07642075419425964, -0.07543754577636719, 1.48974609375, 1.34033203125, 0.0166168212890625, 1.489013671875
32405, 0.023424366489052773, -0.023992490023374557, 0.018689634278416634, 0.0011539559345692396, -0.0008531281491741538, 0.18783394992351532, 0.003197432728484273, -0.0022521582432091236, 0.33950740098953247, 0, 0, 0, 0, 0, 0, 9362.0, 30146.0, 35388.0, 9362.0, 8.191736221313477, -0.028820449486374855, -0.0005969755002297461, -0.2085230052471161, 0.002188184065744281, -0.042707014828920364, 1.0310660600662231, -0.07975061237812042, -0.06647872924804688, 1.490478515625, 1.34033203125, 0.0166168212890625, 1.489013671875
32495, 0.027351243421435356, -0.0252631027251482, 0.01734180375933647, 0.0014957735547795892, -0.001099804532714188, 0.22331947088241577, 0.0036259153857827187, -0.0027011213824152946, 0.3703768253326416, 0, 0, 0, 0, 0, 0, 9362.0, 30146.0, 35388.0, 9362.0, 8.191736221313477, 0.0042136600241065025, -0.11922316253185272, 0.022414233535528183, 0.004686277359724045, -0.03722650185227394, 1.0303776264190674, -0.08300410211086273, -0.07543754577636719, 1.48974609375, 1.341064453125, 0.01654052734375, 1.489013671875
32555, 0.02567628212273121, -0.025526678189635277, 0.018905673176050186, 0.0017602676525712013, -0.0013009204994887114, 0.24999941885471344, 0.003941035363823175, -0.0030392154585570097, 0.3916027843952179, 0, 0, 0, 0, 0, 0, 9362.0, 30146.0, 35388.0, 9362.0, 8.17190170288086, 0.011487474665045738, -0.2217785269021988, -0.12369544804096222, 0.002616692101582885, -0.040457721799612045, 1.0315032005310059, -0.07220319658517838, -0.06647872924804688, 1.490478515625, 1.34033203125, 0.0166168212890625, 1.489013671875
32575, 0.02615559846162796, -0.02384187839925289, 0.019471485167741776, 0.0018399906111881137, -0.0013626246945932508, 0.2578933537006378, 0.004031204618513584, -0.003130790777504444, 0.39781448245048523, 0, 0, 0, 0, 0, 0, 9362.0, 30146.0, 35388.0, 9362.0, 8.191736221313477, -0.135346919298172, -0.1395723819732666, -0.07155368477106094, 0.004079562146216631, -0.04061371833086014, 1.030322551727295, -0.07220319658517838, -0.06647872924804688, 1.490478515625, 1.336669921875, 0.0177764892578125, 1.489013671875
32595, 0.025269996374845505, -0.025147896260023117, 0.021604061126708984, 0.0019214710919186473, -0.0014261631295084953, 0.26590996980667114, 0.004116341937333345, -0.0032229633070528507, 0.4037693440914154, 0, 0, 0, 0, 0, 0, 9362.0, 30146.0, 35388.0, 9362.0, 8.17190170288086, -0.025181712582707405, 0.10024083405733109, -0.0736520066857338, 0.004079562146216631, -0.04061371833086014, 1.030322551727295, -0.07423131912946701, -0.06647872924804688, 1.490478515625, 1.33740234375, 0.0175323486328125, 1.489013671875
32625, 0.024638582020998, -0.025194257497787476, 0.022738229483366013, 0.002046917099505663, -0.001524844323284924, 0.27815988659858704, 0.0042472886852920055, -0.0033561824820935726, 0.4128938317298889, 0, 0, 0, 0, 0, 0, 9362.0, 30146.0, 35388.0, 9362.0, 8.191736221313477, -0.18053917586803436, 0.08879723399877548, 0.03616686165332794, 0.005158999469131231, -0.039731819182634354, 1.0300434827804565, -0.07131364941596985, -0.05751800537109375, 1.4912109375, 1.3271484375, 0.022308349609375, 1.489013671875
32635, 0.025498751550912857, -0.02730391174554825, 0.024885747581720352, 0.002046917099505663, -0.001524844323284924, 0.27815988659858704, 0.0042472886852920055, -0.0033561824820935726, 0.4128938317298889, 0, 0, 0, 0, 0, 0, 9362.0, 30146.0, 35388.0, 9362.0, 8.17190170288086, -0.02799369767308235, 0.15738016366958618, 0.26471906900405884, 0.005158999469131231, -0.039731819182634354, 1.0300434827804565, -0.07311126589775085, -0.07543754577636719, 1.48974609375, 1.3271484375, 0.022308349609375, 1.489013671875
32685, 0.023541681468486786, -0.031004885211586952, 0.0285771694034338, 0.002309969859197736, -0.0017342056380584836, 0.3034951686859131, 0.004526895936578512, -0.003621220588684082, 0.431988924741745, 0, 0, 0, 0, 0, 0, 9362.0, 30146.0, 35388.0, 9362.0, 8.17190170288086, -0.1482238620519638, 0.2771558463573456, 0.02726762555539608, 0.004281453788280487, -0.04038327932357788, 1.0312085151672363, -0.0801573097705841, -0.07543754577636719, 1.48974609375, 1.3330078125, 0.0191650390625, 1.4912109375
32715, 0.025180213153362274, -0.033459559082984924, 0.0285748653113842, 0.0024015558883547783, -0.0018074712716042995, 0.31219592690467834, 0.004633373115211725, -0.0037049558013677597, 0.4381210207939148, 0, 0, 0, 0, 0, 0, 9362.0, 30146.0, 35388.0, 9362.0, 8.191736221313477, 0.04558723419904709, 0.16528262197971344, 0.025965511798858643, 0.004438800737261772, -0.03906625881791115, 1.0323104858398438, -0.07712244242429733, -0.06647872924804688, 1.490478515625, 1.3388671875, 0.017120361328125, 1.4912109375
32725, 0.02433033101260662, -0.03371454402804375, 0.030186809599399567, 0.0024015558883547783, -0.0018074712716042995, 0.31219592690467834, 0.004633373115211725, -0.0037049558013677597, 0.4381210207939148, 0, 0, 0, 0, 0, 0, 9362.0, 30146.0, 35388.0, 9362.0, 8.191736221313477, 0.04558723419904709, 0.16528262197971344, 0.025965511798858643, 0.00443108007311821, -0.03980409353971481, 1.031212568283081, -0.07936621457338333, -0.11127853393554688, 1.48681640625, 1.3388671875, 0.017120361328125, 1.4912109375
32765, 0.02201305516064167, -0.03802726790308952, 0.03237542137503624, 0.002640515798702836, -0.0019980010110884905, 0.33449238538742065, 0.004930117633193731, -0.003917514346539974, 0.45335662364959717, 0, 0, 0, 0, 0, 0, 9362.0, 30146.0, 35388.0, 9362.0, 8.17190170288086, 0.08716491609811783, 0.02107010781764984, -0.31112420558929443, 0.004430452361702919, -0.03853049501776695, 1.0326011180877686, -0.07629647105932236, -0.11127853393554688, 1.48681640625, 1.304443359375, 0.043182373046875, 1.4912109375
32775, 0.023133600130677223, -0.0397014357149601, 0.031981248408555984, 0.002640515798702836, -0.0019980010110884905, 0.33449238538742065, 0.004930117633193731, -0.003917514346539974, 0.45335662364959717, 0, 0, 0, 0, 0, 0, 9362.0, 30146.0, 35388.0, 9362.0, 8.191736221313477, -0.13468673825263977, 0.4729972779750824, 0.07280516624450684, 0.004430452361702919, -0.03853049501776695, 1.0326011180877686, -0.07696428894996643, -0.10231781005859375, 1.487548828125, 1.304443359375, 0.043182373046875, 1.4912109375
32785, 0.022474762052297592, -0.03873535245656967, 0.03254818916320801, 0.002640515798702836, -0.0019980010110884905, 0.33449238538742065, 0.004930117633193731, -0.003917514346539974, 0.45335662364959717, 0, 0, 0, 0, 0, 0, 9362.0, 30146.0, 35388.0, 9362.0, 8.17190170288086, -0.08705472946166992, -0.03817610442638397, 0.15301914513111115, 0.004430452361702919, -0.03853049501776695, 1.0326011180877686, -0.07398423552513123, -0.05751800537109375, 1.4912109375, 1.304443359375, 0.043182373046875, 1.4912109375
32795, 0.022538527846336365, -0.041163865476846695, 0.03406296297907829, 0.002640515798702836, -0.0019980010110884905, 0.33449238538742065, 0.004930117633193731, -0.003917514346539974, 0.45335662364959717, 0, 0, 0, 0, 0, 0, 9362.0, 30146.0, 35388.0, 9362.0, 8.17190170288086, -0.0656188353896141, 0.14709244668483734, 0.04992474988102913, 0.004430452361702919, -0.03853049501776695, 1.0326011180877686, -0.07424106448888779, -0.030637741088867188, 1.493408203125, 1.304443359375, 0.043182373046875, 1.4912109375
32835, 0.024320464581251144, -0.04304858297109604, 0.03212418034672737, 0.0030564703047275543, -0.0023242952302098274, 0.37176939845085144, 0.005490362178534269, -0.004237670451402664, 0.4783961772918701, 0, 0, 0, 0, 0, 0, 9362.0, 30146.0, 35388.0, 9362.0, 8.17190170288086, 0.01876273937523365, 0.07635094970464706, -0.08526178449392319, 0.004038241226226091, -0.041144728660583496, 1.0331053733825684, -0.0677446648478508, -0.021678924560546875, 1.494140625, 1.32568359375, 0.0232086181640625, 1.4912109375
32865, 0.0245487242937088, -0.04037504270672798, 0.030511939898133278, 0.003224549349397421, -0.0024533187970519066, 0.38626372814178467, 0.005715095438063145, -0.0043649314902722836, 0.4879358410835266, 0, 0, 0, 0, 0, 0, 9362.0, 30146.0, 35388.0, 9362.0, 8.191736221313477, 0.1763191968202591, -0.17854593694210052, -0.39494040608406067, 0.004402537830173969, -0.03758096694946289, 1.0307713747024536, -0.06773880124092102, -0.05751800537109375, 1.4912109375, 1.343994140625, 0.015899658203125, 1.4912109375
32885, 0.025082523003220558, -0.039059657603502274, 0.028562579303979874, 0.003340289695188403, -0.0025414861738681793, 0.3960832357406616, 0.005858468823134899, -0.004451740067452192, 0.4939822852611542, 0, 0, 0, 0, 0, 0, 9362.0, 30146.0, 35388.0, 9362.0, 8.191736221313477, 0.10140115767717361, -0.28825896978378296, 0.13638615608215332, 0.005788413807749748, -0.03736501932144165, 1.0308284759521484, -0.06808149814605713, -0.06647872924804688, 1.490478515625, 1.330810546875, 0.0203399658203125, 1.4912109375
32905, 0.02549528144299984, -0.039307400584220886, 0.02723204344511032, 0.0034588610287755728, -0.0026314102578908205, 0.4060244858264923, 0.005997834261506796, -0.004540525376796722, 0.5001431107521057, 0, 0, 0, 0, 0, 0, 9362.0, 30146.0, 35388.0, 9362.0, 8.191736221313477, 0.0459408201277256, 0.32015979290008545, 0.4805288016796112, 0.005003053694963455, -0.04050228372216225, 1.0314632654190063, -0.07493436336517334, -0.13815879821777344, 1.484619140625, 1.307373046875, 0.039581298828125, 1.4912109375
32915, 0.024903731420636177, -0.03944484144449234, 0.02846354804933071, 0.0034588610287755728, -0.0026314102578908205, 0.4060244858264923, 0.005997834261506796, -0.004540525376796722, 0.5001431107521057, 0, 0, 0, 0, 0, 0, 9362.0, 30146.0, 35388.0, 9362.0, 8.17190170288086, 0.05086401849985123, -0.11596253514289856, 0.18484041094779968, 0.005003053694963455, -0.04050228372216225, 1.0314632654190063, -0.07493436336517334, -0.13815879821777344, 1.484619140625, 1.33740234375, 0.0175323486328125, 1.4912109375
32945, 0.02457597851753235, -0.044103506952524185, 0.030197294428944588, 0.0037042538169771433, -0.002816569060087204, 0.42627808451652527, 0.006276824977248907, -0.004716684576123953, 0.5127002596855164, 0, 0, 0, 0, 0, 0, 9362.0, 30146.0, 35388.0, 9362.0, 8.191736221313477, 0.1468242108821869, -0.000830993871204555, 0.11695202440023422, 0.003230149857699871, -0.04020526260137558, 1.032238483428955, -0.07776252180337906, -0.06647872924804688, 1.490478515625, 1.33740234375, 0.0175323486328125, 1.4912109375
32955, 0.02527649514377117, -0.03961760178208351, 0.030124017968773842, 0.0037042538169771433, -0.002816569060087204, 0.42627808451652527, 0.006276824977248907, -0.004716684576123953, 0.5127002596855164, 0, 0, 0, 0, 0, 0, 9362.0, 30146.0, 35388.0, 9362.0, 8.17190170288086, -0.10578545182943344, -0.021710529923439026, 0.2154749184846878, 0.003230149857699871, -0.04020526260137558, 1.032238483428955, -0.07587889581918716, -0.030637741088867188, 1.493408203125, 1.33740234375, 0.0175323486328125, 1.4912109375
32975, 0.024901021271944046, -0.03994853422045708, 0.03079303912818432, 0.003895941423252225, -0.0029599873814731836, 0.4418044686317444, 0.006499194540083408, -0.004846461117267609, 0.5222957134246826, 0, 0, 0, 0, 0, 0, 9362.0, 30146.0, 35388.0, 9362.0, 8.17190170288086, -0.1791253238916397, 0.1537996232509613, -0.02642703987658024, 0.004258548375219107, -0.04014221951365471, 1.0297513008117676, -0.07023166865110397, -0.11127853393554688, 1.48681640625, 1.336669921875, 0.0177764892578125, 1.4912109375
32985, 0.02452808991074562, -0.04101208224892616, 0.03201228380203247, 0.00396127812564373, -0.003008670639246702, 0.44704219698905945, 0.006568150129169226, -0.004890216048806906, 0.5252525806427002, 0, 0, 0, 0, 0, 0, 9362.0, 30146.0, 35388.0, 9362.0, 8.191736221313477, 0.029942963272333145, 0.17062586545944214, 0.34521907567977905, 0.005142644979059696, -0.039750389754772186, 1.0291502475738525, -0.06777910888195038, -0.07543754577636719, 1.48974609375, 1.336669921875, 0.0177764892578125, 1.4912109375
32995, 0.0238786693662405, -0.0435500368475914, 0.03542101010680199, 0.0040273116901516914, -0.0030577918514609337, 0.4523087441921234, 0.0066385818645358086, -0.004934013355523348, 0.5280592441558838, 0, 0, 0, 0, 0, 0, 9362.0, 30146.0, 35388.0, 9362.0, 8.191736221313477, -0.24007251858711243, 0.16537557542324066, 0.3483459949493408, 0.003547470550984144, -0.04011815786361694, 1.03251051902771, -0.06827127933502197, -0.04855918884277344, 1.491943359375, 1.346923828125, 0.015472412109375, 1.4912109375
33005, 0.022863617166876793, -0.044740162789821625, 0.036332570016384125, 0.0040273116901516914, -0.0030577918514609337, 0.4523087441921234, 0.0066385818645358086, -0.004934013355523348, 0.5280592441558838, 0, 0, 0, 0, 0, 0, 9362.0, 30146.0, 35388.0, 9362.0, 8.17190170288086, -0.03251224383711815, 0.04181334748864174, -0.20832158625125885, 0.004608110524713993, -0.038953471928834915, 1.0297011137008667, -0.07082898914813995, -0.12023735046386719, 1.486083984375, 1.3388671875, 0.017120361328125, 1.4912109375
33015, 0.022380629554390907, -0.04455714672803879, 0.034358732402324677, 0.0040273116901516914, -0.0030577918514609337, 0.4523087441921234, 0.0066385818645358086, -0.004934013355523348, 0.5280592441558838, 0, 0, 0, 0, 0, 0, 9362.0, 30146.0, 35388.0, 9362.0, 8.191736221313477, -0.08041165769100189, -0.09290917217731476, 0.06904245913028717, 0.005720051936805248, -0.04102715477347374, 1.0291064977645874, -0.06875679641962051, -0.01271820068359375, 1.494873046875, 1.333740234375, 0.0189361572265625, 1.494873046875
33025, 0.021777037531137466, -0.04459292069077492, 0.034639112651348114, 0.004229831509292126, -0.0032077254727482796, 0.4682873785495758, 0.00686699477955699, -0.00505951838567853, 0.5370526909828186, 0, 0, 0, 0, 0, 0, 9362.0, 30146.0, 35388.0, 9362.0, 8.191736221313477, 0.1502927988767624, 0.36262640357017517, 0.1322176605463028, 0.004212549887597561, -0.04017132520675659, 1.0307601690292358, -0.06972472369670868, -0.10231781005859375, 1.487548828125, 1.330078125, 0.0206298828125, 1.494873046875
33035, 0.022222625091671944, -0.046718645840883255, 0.03518752008676529, 0.004298894666135311, -0.003258517710492015, 0.4736727178096771, 0.006945612374693155, -0.005098914727568626, 0.5400131344795227, 0, 0, 0, 0, 0, 0, 9362.0, 30146.0, 35388.0, 9362.0, 8.191736221313477, -0.15241359174251556, -0.04865845665335655, -0.03589296713471413, 0.004571513272821903, -0.040093131363391876, 1.029431939125061, -0.07074225693941116, -0.08439826965332031, 1.489013671875, 1.330078125, 0.0206298828125, 1.494873046875
33065, 0.024113716557621956, -0.04161469265818596, 0.031784575432538986, 0.004510862752795219, -0.0034132294822484255, 0.4900062382221222, 0.007185695227235556, -0.005216037388890982, 0.5489256978034973, 0, 0, 0, 0, 0, 0, 9362.0, 30146.0, 35388.0, 9362.0, 8.191736221313477, 0.005876974202692509, 0.2853601574897766, 0.18271896243095398, 0.003853851230815053, -0.04339927062392235, 1.0309014320373535, -0.07444357126951218, -0.03959846496582031, 1.49267578125, 1.336669921875, 0.0177764892578125, 1.494873046875
33075, 0.024205723777413368, -0.04083166643977165, 0.030951641499996185, 0.004510862752795219, -0.0034132294822484255, 0.4900062382221222, 0.007185695227235556, -0.005216037388890982, 0.5489256978034973, 0, 0, 0, 0, 0, 0, 9362.0, 30146.0, 35388.0, 9362.0, 8.191736221313477, 0.021623827517032623, 0.11854273825883865, -0.07203888148069382, 0.003853851230815053, -0.04339927062392235, 1.0309014320373535, -0.078567273914814, -0.09335899353027344, 1.48828125, 1.336669921875, 0.0177764892578125, 1.494873046875
33085, 0.024846334010362625, -0.04370008409023285, 0.02914545312523842, 0.004510862752795219, -0.0034132294822484255, 0.4900062382221222, 0.007185695227235556, -0.005216037388890982, 0.5489256978034973, 0, 0, 0, 0, 0, 0, 9362.0, 30146.0, 35388.0, 9362.0, 8.191736221313477, 0.1925630271434784, 0.4148510694503784, -0.07963280379772186, 0.003853851230815053, -0.04339927062392235, 1.0309014320373535, -0.07850103825330734, -0.04855918884277344, 1.491943359375, 1.336669921875, 0.0177764892578125, 1.494873046875
33095, 0.025892790406942368, -0.046029143035411835, 0.02843804843723774, 0.004510862752795219, -0.0034132294822484255, 0.4900062382221222, 0.007185695227235556, -0.005216037388890982, 0.5489256978034973, 0, 0, 0, 0, 0, 0, 9362.0, 30146.0, 35388.0, 9362.0, 8.17190170288086, 0.17428116500377655, -0.11500521749258041, -0.15602099895477295, 0.003853851230815053, -0.04339927062392235, 1.0309014320373535, -0.08121591806411743, -0.05751800537109375, 1.4912109375, 1.336669921875, 0.0177764892578125, 1.494873046875
33115, 0.02605307847261429, -0.04414054751396179, 0.026073792949318886, 0.004510862752795219, -0.0034132294822484255, 0.4900062382221222, 0.007185695227235556, -0.005216037388890982, 0.5489256978034973, 0, 0, 0, 0, 0, 0, 9362.0, 30146.0, 35388.0, 9362.0, 8.191736221313477, 0.08596964925527573, -0.18233594298362732, -0.16753223538398743, 0.003403324168175459, -0.03948604688048363, 1.0305969715118408, -0.0779821127653122, -0.09335899353027344, 1.48828125, 1.34033203125, 0.0166168212890625, 1.494873046875
33145, 0.026802759617567062, -0.0452052466571331, 0.0269693061709404, 0.005110112950205803, -0.0038444038946181536, 0.534890353679657, 0.0078040133230388165, -0.005569680128246546, 0.57330322265625, 0, 0, 0, 0, 0, 0, 9362.0, 30146.0, 35388.0, 9362.0, 8.17190170288086, 0.009755032137036324, 0.03834320604801178, 0.02676718682050705, 0.005688495934009552, -0.04148275777697563, 1.032057762145996, -0.07636144012212753, -0.01271820068359375, 1.494873046875, 1.345458984375, 0.0156707763671875, 1.494873046875
33205, 0.024750713258981705, -0.03679061681032181, 0.027429385110735893, 0.005510315764695406, -0.004128734581172466, 0.5639473795890808, 0.008198627270758152, -0.005801045801490545, 0.5890285968780518, 0, 0, 0, 0, 0, 0, 9362.0, 30146.0, 35388.0, 9362.0, 8.17190170288086, 0.09441065788269043, -0.025483528152108192, -0.028361720964312553, 0.005688495934009552, -0.04148275777697563, 1.032057762145996, -0.07998848706483841, -0.04855918884277344, 1.491943359375, 1.335205078125, 0.018280029296875, 1.494873046875
33215, 0.02518118917942047, -0.03421587496995926, 0.02668885514140129, 0.005510315764695406, -0.004128734581172466, 0.5639473795890808, 0.008198627270758152, -0.005801045801490545, 0.5890285968780518, 0, 0, 0, 0, 0, 0, 9362.0, 30146.0, 35388.0, 9362.0, 8.191736221313477, 0.009070564061403275, -0.2518530786037445, 0.031856607645750046, 0.005688495934009552, -0.04148275777697563, 1.032057762145996, -0.07915332168340683, -0.09335899353027344, 1.48828125, 1.335205078125, 0.018280029296875, 1.494873046875
33245, 0.02653532102704048, -0.035498347133398056, 0.029692061245441437, 0.00584366312250495, -0.004364353604614735, 0.5877498388290405, 0.008461011573672295, -0.005979076959192753, 0.601150393486023, 0, 0, 0, 0, 0, 0, 9362.0, 30146.0, 35388.0, 9362.0, 8.191736221313477, 0.03425683081150055, 0.10470309853553772, 0.23088686168193817, 0.006877108942717314, -0.03793966770172119, 1.031095266342163, -0.07659738510847092, -0.05751800537109375, 1.4912109375, 1.3359375, 0.01806640625, 1.494873046875
33255, 0.02781694009900093, -0.03493567556142807, 0.030295969918370247, 0.00584366312250495, -0.004364353604614735, 0.5877498388290405, 0.008461011573672295, -0.005979076959192753, 0.601150393486023, 0, 0, 0, 0, 0, 0, 9362.0, 30146.0, 35388.0, 9362.0, 8.17190170288086, 0.07914495468139648, 0.25119486451148987, 0.13525879383087158, 0.006877108942717314, -0.03793966770172119, 1.031095266342163, -0.07734380662441254, -0.07543754577636719, 1.48974609375, 1.3359375, 0.01806640625, 1.494873046875
33265, 0.026995474472641945, -0.03456680476665497, 0.029812710359692574, 0.00584366312250495, -0.004364353604614735, 0.5877498388290405, 0.008461011573672295, -0.005979076959192753, 0.601150393486023, 0, 0, 0, 0, 0, 0, 9362.0, 30146.0, 35388.0, 9362.0, 8.17190170288086, 0.03938347101211548, 0.00115155556704849, -0.03561755642294884, 0.006877108942717314, -0.03793966770172119, 1.031095266342163, -0.07603328675031662, -0.05751800537109375, 1.4912109375, 1.3359375, 0.01806640625, 1.494873046875
33275, 0.02767927572131157, -0.035861361771821976, 0.030009550973773003, 0.00584366312250495, -0.004364353604614735, 0.5877498388290405, 0.008461011573672295, -0.005979076959192753, 0.601150393486023, 0, 0, 0, 0, 0, 0, 9362.0, 30146.0, 35388.0, 9362.0, 8.17190170288086, 0.1265304535627365, -0.11200759559869766, 0.03668736666440964, 0.006877108942717314, -0.03793966770172119, 1.031095266342163, -0.0799204632639885, -0.08439826965332031, 1.489013671875, 1.3359375, 0.01806640625, 1.494873046875
33295, 0.028493717312812805, -0.03480451926589012, 0.030452577397227287, 0.0063627115450799465, -0.004731462337076664, 0.6243593692779541, 0.00883790384978056, -0.006262374576181173, 0.6191846132278442, 0, 0, 0, 0, 0, 0, 9362.0, 30146.0, 35388.0, 9362.0, 8.17190170288086, -0.02486874721944332, -0.12352822721004486, 0.08001460880041122, 0.005701492540538311, -0.039297930896282196, 1.031497597694397, -0.07963142544031143, -0.12023735046386719, 1.486083984375, 1.34326171875, 0.01605224609375, 1.494873046875
33325, 0.030610477551817894, -0.035784341394901276, 0.03155098855495453, 0.006540692411363125, -0.004857721272855997, 0.6368041038513184, 0.008960413746535778, -0.006363258231431246, 0.6253063082695007, 0, 0, 0, 0, 0, 0, 9362.0, 30146.0, 35388.0, 9362.0, 8.17190170288086, 0.12743298709392548, -0.16219982504844666, 0.05496961623430252, 0.0040535712614655495, -0.04071757569909096, 1.0318409204483032, -0.07725716382265091, -0.07543754577636719, 1.48974609375, 1.330078125, 0.0206298828125, 1.494873046875
