timeTick, roll, pitch, yaw, stateX, stateY, stateZ, stateVX, stateVY, stateVZ, otX0, otY0, otZ0, otRoll0, otPitch0, otYaw0, left wing, pitch motor, yaw motor, right wing, voltage, roll rate, pitch rate, yaw rate, A_x, A_y, A_z, current, i_raw, v_raw, airflow_voltage, airflow_speed, pot_Pitch
33390, -0.0013361911987885833, 0.00035990297328680754, 0.002416429342702031, 0, 0, 0, 0, 0, 0, 0, 0, 0, 0, 0, 0, 0, 0, 0, 0, 0, 0, 0, 0, 0, 0, 0, 0, 0, 0, 0, 0, 0
33400, -0.0014513761270791292, 7.82630595494993e-05, 0.0021176678128540516, -3.059195563537287e-09, 9.507406417696984e-09, 6.362958811223507e-05, -5.957067514827941e-07, 1.8632415503816446e-06, 0.006362175568938255, 0, 0, 0, 0, 0, 0, 9362.0, 30146.0, 35388.0, 9362.0, 8.17190170288086, -0.08509377390146255, 0.22479020059108734, -0.06232719123363495, 0, 0, 0, 0, 0, 0, 0, 0, 0
33410, -0.0016750218346714973, -0.0016934163868427277, 0.0002978484844788909, -1.2196697873889661e-08, 3.9945636132188156e-08, 0.00014298956375569105, -1.2163083056293544e-06, 4.230736976751359e-06, 0.009510218165814877, 0, 0, 0, 0, 0, 0, 9362.0, 30146.0, 35388.0, 9362.0, 8.17190170288086, -0.0006755201611667871, 0.24797149002552032, -0.12267454713582993, 0.011098984628915787, -0.025486161932349205, 1.0306028127670288, -0.08307180553674698, -0.07543754577636719, 1.48974609375, 1.295654296875, 0.05548095703125, 1.493408203125
33420, -0.0010981964878737926, -0.004170674365013838, -0.0003317440568935126, -2.5050791663261407e-08, 9.505889408956136e-08, 0.00025312911020591855, -1.2614285651579848e-06, 6.803664746257709e-06, 0.012518099509179592, 0, 0, 0, 0, 0, 0, 9362.0, 30146.0, 35388.0, 9362.0, 8.17190170288086, 0.03558402508497238, 0.07341166585683823, -0.06354017555713654, 0.01382474321871996, -0.026960130780935287, 1.0306801795959473, -0.08040142059326172, -0.030637741088867188, 1.493408203125, 1.2919921875, 0.0613250732421875, 1.48974609375
33430, -0.00022736159735359251, -0.0055288695730268955, -0.002220473950728774, -2.272607524389514e-08, 1.7787239414701617e-07, 0.0003932643448933959, 1.8557228713689256e-06, 9.72889392869547e-06, 0.01550934836268425, 0, 0, 0, 0, 0, 0, 9362.0, 30146.0, 35388.0, 9362.0, 8.17190170288086, 0.1034211590886116, 0.13270053267478943, -0.21108295023441315, 0.013509956188499928, -0.02719411812722683, 1.0306472778320312, -0.07916956394910812, -0.030637741088867188, 1.493408203125, 1.301513671875, 0.046966552734375, 1.490478515625
33440, 0.0010341869201511145, -0.005342039279639721, -0.003758734092116356, 3.263836845235346e-08, 2.8485294478741707e-07, 0.0005635051638819277, 9.28904592001345e-06, 1.162092939921422e-05, 0.01853921078145504, 0, 0, 0, 0, 0, 0, 9362.0, 30146.0, 35388.0, 9362.0, 8.17190170288086, -0.07385340332984924, 0.3340890109539032, 0.04596906900405884, 0.014832035638391972, -0.025789005681872368, 1.0326783657073975, -0.07740309089422226, -0.06647872924804688, 1.490478515625, 1.341064453125, 0.01654052734375, 1.490478515625
33450, -4.474975503399037e-05, -0.007636819966137409, -0.001695561339147389, 1.7440480348795973e-07, 4.0307025983565836e-07, 0.0007648980827070773, 1.9053815776715055e-05, 1.195180811919272e-05, 0.021739764139056206, 0, 0, 0, 0, 0, 0, 9362.0, 30146.0, 35388.0, 9362.0, 8.17190170288086, 0.024251744151115417, -0.17240208387374878, 0.018733790144324303, 0.013495867140591145, -0.023019570857286453, 1.0310614109039307, -0.07628507167100906, -0.07543754577636719, 1.48974609375, 1.3359375, 0.01806640625, 1.490478515625
33460, 0.0005026696599088609, -0.005889084190130234, -0.004072381183505058, 4.1209341361536644e-07, 5.13457109718729e-07, 0.0009975105058401823, 2.860584390873555e-05, 1.0183181984757539e-05, 0.024783119559288025, 0, 0, 0, 0, 0, 0, 9362.0, 30146.0, 35388.0, 9362.0, 8.17190170288086, -0.0027783901896327734, 0.2073356956243515, -0.059086646884679794, 0.011746554635465145, -0.02445119246840477, 1.0315313339233398, -0.07527119666337967, -0.05751800537109375, 1.4912109375, 1.324951171875, 0.0236663818359375, 1.494873046875
33470, 0.00019875138241332024, -0.006803697440773249, -0.00348044466227293, 7.655941089979024e-07, 6.156820973046706e-07, 0.0012608307879418135, 4.199981049168855e-05, 1.0231658052362036e-05, 0.027881333604454994, 0, 0, 0, 0, 0, 0, 9362.0, 30146.0, 35388.0, 9362.0, 8.17190170288086, 0.08628912270069122, 0.03280226141214371, -0.04224904626607895, 0.011605552397668362, -0.024203002452850342, 1.0314708948135376, -0.076521135866642, -0.05751800537109375, 1.4912109375, 1.298583984375, 0.051055908203125, 1.48974609375
33480, 0.0013711820356547832, -0.007373988162726164, -0.004932781215757132, 1.2376103768474422e-06, 7.135548685255344e-07, 0.0015552390832453966, 5.245324791758321e-05, 9.359545401821379e-06, 0.03100072406232357, 0, 0, 0, 0, 0, 0, 9362.0, 30146.0, 35388.0, 9362.0, 8.17190170288086, 0.22418546676635742, 0.36361706256866455, -0.17875798046588898, 0.013210677541792393, -0.02595566213130951, 1.0307241678237915, -0.07252252101898193, -0.05751800537109375, 1.4912109375, 1.295654296875, 0.05548095703125, 1.48974609375
33490, 0.0017829557182267308, -0.01036599650979042, -0.004678972996771336, 1.822163540055044e-06, 8.053933129303914e-07, 0.0018801967380568385, 6.448713975260034e-05, 8.946666639531031e-06, 0.03399118781089783, 0, 0, 0, 0, 0, 0, 9362.0, 30146.0, 35388.0, 9362.0, 8.17190170288086, -0.1862844079732895, 0.0319388173520565, 0.2209758460521698, 0.013602718710899353, -0.026630664244294167, 1.0319265127182007, -0.07392022013664246, -0.05751800537109375, 1.4912109375, 1.294189453125, 0.0578155517578125, 1.490478515625
33500, 0.001642613671720028, -0.009479792788624763, -0.004366047214716673, 2.532193093429669e-06, 8.827381634546327e-07, 0.0022358938585966825, 7.768362411297858e-05, 6.499652045022231e-06, 0.037148620933294296, 0, 0, 0, 0, 0, 0, 9362.0, 30146.0, 35388.0, 9362.0, 8.17190170288086, 0.08020662516355515, -0.21263213455677032, -0.08188871294260025, 0.012051941826939583, -0.025322983041405678, 1.0312471389770508, -0.07289062440395355, -0.07543754577636719, 1.48974609375, 1.2919921875, 0.0613250732421875, 1.48974609375
33510, 0.0008562910370528698, -0.009119975380599499, -0.006111151538789272, 3.4005004181381082e-06, 9.319939522356435e-07, 0.0026224725879728794, 9.593117283657193e-05, 3.359004494996043e-06, 0.04016752541065216, 0, 0, 0, 0, 0, 0, 9362.0, 30146.0, 35388.0, 9362.0, 8.17190170288086, 0.15370547771453857, 0.16251005232334137, -0.044152382761240005, 0.014108405448496342, -0.0237397663295269, 1.0292192697525024, -0.07521145045757294, -0.08439826965332031, 1.489013671875, 1.294921875, 0.0565948486328125, 1.496337890625
33520, 0.0010170701425522566, -0.01285745482891798, -0.005061774048954248, 4.4433618313632905e-06, 9.511003327133949e-07, 0.0030386277940124273, 0.00011262287443969399, 5.015000965613581e-07, 0.04306391254067421, 0, 0, 0, 0, 0, 0, 9362.0, 30146.0, 35388.0, 9362.0, 8.17190170288086, 0.12995733320713043, 0.20759133994579315, -0.12959246337413788, 0.014173496514558792, -0.02555909939110279, 1.0315370559692383, -0.07686936855316162, -0.1291980743408203, 1.4853515625, 1.345458984375, 0.0156707763671875, 1.48974609375
33530, 0.0009582460043020546, -0.014369375072419643, -0.00691025797277689, 5.6501326071156655e-06, 9.485444252277375e-07, 0.0034847722854465246, 0.00012893356324639171, -1.021126649902726e-06, 0.04616536945104599, 0, 0, 0, 0, 0, 0, 9362.0, 30146.0, 35388.0, 9362.0, 8.17190170288086, 0.022509552538394928, -0.014262961223721504, -0.055701225996017456, 0.012736046686768532, -0.02361607365310192, 1.0320022106170654, -0.07546037435531616, -0.10231781005859375, 1.487548828125, 1.32421875, 0.024139404296875, 1.48974609375
33540, 0.0011342011857777834, -0.012562505900859833, -0.007245462853461504, 7.053048648231197e-06, 9.29338455080142e-07, 0.003962069284170866, 0.0001517321215942502, -2.8175770694360835e-06, 0.04929439723491669, 0, 0, 0, 0, 0, 0, 9362.0, 30146.0, 35388.0, 9362.0, 8.17190170288086, 0.0018495693802833557, 0.2174593210220337, -0.20096145570278168, 0.013775027357041836, -0.024580389261245728, 1.0309216976165771, -0.07266470789909363, -0.11127853393554688, 1.48681640625, 1.330810546875, 0.0203399658203125, 1.493408203125
33550, 0.0013050467241555452, -0.014867488294839859, -0.009720559231936932, 8.697150406078435e-06, 8.926928103392129e-07, 0.004470033571124077, 0.00017699343152344227, -4.520918992056977e-06, 0.05229884386062622, 0, 0, 0, 0, 0, 0, 9362.0, 30146.0, 35388.0, 9362.0, 8.17190170288086, 0.02741478756070137, 0.0997578352689743, 0.02363636903464794, 0.016812754794955254, -0.024972248822450638, 1.0288628339767456, -0.07707352191209793, -0.08439826965332031, 1.489013671875, 1.324951171875, 0.0236663818359375, 1.48681640625
33560, 0.0010909324046224356, -0.014846095815300941, -0.00922942440956831, 1.0577749890217092e-05, 8.374781828024425e-07, 0.005007255356758833, 0.00019924089428968728, -6.531427516165422e-06, 0.05514589324593544, 0, 0, 0, 0, 0, 0, 9362.0, 30146.0, 35388.0, 9362.0, 8.17190170288086, -0.09596970677375793, -0.14904862642288208, 0.09881709516048431, 0.012926764786243439, -0.025852499529719353, 1.0309025049209595, -0.075720876455307, -0.030637741088867188, 1.493408203125, 1.335205078125, 0.018280029296875, 1.491943359375
33570, -0.00010482167999725789, -0.016283344477415085, -0.008951479569077492, 1.270142001885688e-05, 7.606195708831365e-07, 0.005574069917201996, 0.00022549201094079763, -8.828595127852168e-06, 0.05821744725108147, 0, 0, 0, 0, 0, 0, 9362.0, 30146.0, 35388.0, 9362.0, 8.17190170288086, -0.07436848431825638, -0.1935451626777649, -0.3818562924861908, 0.012538865208625793, -0.0272181648761034, 1.0345730781555176, -0.07510653883218765, -0.06647872924804688, 1.490478515625, 1.332275390625, 0.019561767578125, 1.491943359375
33580, 4.10095090046525e-05, -0.01581048034131527, -0.010389521718025208, 1.508777859271504e-05, 6.626538606724353e-07, 0.0061730132438242435, 0.0002518639084883034, -1.0694465345295612e-05, 0.06157159432768822, 0, 0, 0, 0, 0, 0, 9362.0, 30146.0, 35388.0, 9362.0, 8.17190170288086, -0.007710984442383051, -0.14394384622573853, -0.1642453670501709, 0.011334679089486599, -0.02545153722167015, 1.0337762832641602, -0.07324568927288055, -0.10231781005859375, 1.487548828125, 1.3359375, 0.01806640625, 1.490478515625
33590, 0.0013533352175727487, -0.01406316552311182, -0.009918131865561008, 1.775050077412743e-05, 5.566142249335826e-07, 0.006805212236940861, 0.00028065350488759577, -1.0522576303628739e-05, 0.06486858427524567, 0, 0, 0, 0, 0, 0, 9362.0, 30146.0, 35388.0, 9362.0, 8.17190170288086, -0.058005474507808685, 0.05374370515346527, 0.20570048689842224, 0.011927371844649315, -0.02470032498240471, 1.0322811603546143, -0.0765371173620224, -0.08439826965332031, 1.489013671875, 1.339599609375, 0.0168914794921875, 1.48974609375
33600, 0.00014443272084463388, -0.014710614457726479, -0.009311762638390064, 2.0696748833870515e-05, 4.510007443059294e-07, 0.007469706702977419, 0.00030849978793412447, -1.0672256394173019e-05, 0.0680306926369667, 0, 0, 0, 0, 0, 0, 9362.0, 30146.0, 35388.0, 9362.0, 8.17190170288086, 0.18452607095241547, 0.08863165229558945, 0.09362590312957764, 0.014075638726353645, -0.02439124882221222, 1.0320812463760376, -0.07512052357196808, -0.05751800537109375, 1.4912109375, 1.3330078125, 0.0191650390625, 1.491943359375
33610, 0.0008082165732048452, -0.014032196253538132, -0.009244396351277828, 2.390601184742991e-05, 3.3229810014745453e-07, 0.00816580094397068, 0.0003333886561449617, -1.3001429579162505e-05, 0.07118852436542511, 0, 0, 0, 0, 0, 0, 9362.0, 30146.0, 35388.0, 9362.0, 8.17190170288086, -0.06515111029148102, -0.3694731891155243, -0.013451474718749523, 0.014360683970153332, -0.028098322451114655, 1.0324605703353882, -0.07610312104225159, -0.030637741088867188, 1.493408203125, 1.341796875, 0.0162811279296875, 1.491943359375
33620, 0.0007151187746785581, -0.010777640156447887, -0.010135113261640072, 2.736985516094137e-05, 2.0098673303436954e-07, 0.008893349207937717, 0.0003593429282773286, -1.3297082659846637e-05, 0.07432156801223755, 0, 0, 0, 0, 0, 0, 9362.0, 30146.0, 35388.0, 9362.0, 8.17190170288086, 0.21031826734542847, 0.05492044612765312, -0.23424597084522247, 0.01420858595520258, -0.026116574183106422, 1.0299689769744873, -0.07841243594884872, -0.030637741088867188, 1.493408203125, 1.327880859375, 0.0218353271484375, 1.490478515625
33630, -4.4267686462262645e-05, -0.011037888936698437, -0.009912406094372272, 3.108705277554691e-05, 6.086725079512689e-08, 0.009651429019868374, 0.00038392748683691025, -1.4722372725373134e-05, 0.07729483395814896, 0, 0, 0, 0, 0, 0, 9362.0, 30146.0, 35388.0, 9362.0, 8.17190170288086, -0.09139463305473328, 0.23134620487689972, 0.0523432120680809, 0.01550988107919693, -0.02442791312932968, 1.0317915678024292, -0.07631522417068481, -0.030637741088867188, 1.493408203125, 1.3359375, 0.01806640625, 1.48828125
33640, -0.0013790690572932363, -0.011120202019810677, -0.010417199693620205, 3.5021526855416596e-05, -9.269007250622963e-08, 0.010439980775117874, 0.0004029816191177815, -1.5947682186379097e-05, 0.08041591942310333, 0, 0, 0, 0, 0, 0, 9362.0, 30146.0, 35388.0, 9362.0, 8.17190170288086, -0.013801148161292076, -0.08758430182933807, -0.04110466316342354, 0.0146933076903224, -0.024808887392282486, 1.0308122634887695, -0.07889849692583084, -0.10231781005859375, 1.487548828125, 1.3447265625, 0.0158538818359375, 1.490478515625
33650, -0.0009019319550134242, -0.01222345419228077, -0.009069032035768032, 3.914876651833765e-05, -2.517930397516466e-07, 0.011259355582296848, 0.0004224710282869637, -1.580222487973515e-05, 0.08345936238765717, 0, 0, 0, 0, 0, 0, 9362.0, 30146.0, 35388.0, 9362.0, 8.17190170288086, -0.032134976238012314, 0.2798459231853485, 0.042504534125328064, 0.013213129714131355, -0.026004165410995483, 1.0305883884429932, -0.07867956906557083, -0.05751800537109375, 1.4912109375, 1.33447265625, 0.0186309814453125, 1.4912109375
33660, -0.0014707570662721992, -0.012321166694164276, -0.007440472021698952, 4.3471576645970345e-05, -3.976673497163574e-07, 0.012108896858990192, 0.0004421488556545228, -1.3397085240285378e-05, 0.08644932508468628, 0, 0, 0, 0, 0, 0, 9362.0, 30146.0, 35388.0, 9362.0, 8.17190170288086, 0.029359806329011917, -0.3370460271835327, 0.10250983387231827, 0.012664546258747578, -0.0258626751601696, 1.0304837226867676, -0.08083615452051163, -0.04855918884277344, 1.491943359375, 1.3388671875, 0.017120361328125, 1.4912109375
33670, -0.0014649081276729703, -0.010621984489262104, -0.00829334370791912, 4.8000925744418055e-05, -5.236965989752207e-07, 0.012988468632102013, 0.00046372623182833195, -1.1778236512327567e-05, 0.08946545422077179, 0, 0, 0, 0, 0, 0, 9362.0, 30146.0, 35388.0, 9362.0, 8.17190170288086, -0.1076139584183693, 0.08883632719516754, -0.02497362345457077, 0.012890775687992573, -0.027023378759622574, 1.0324047803878784, -0.07602302730083466, -0.05751800537109375, 1.4912109375, 1.301513671875, 0.046966552734375, 1.491943359375
33680, -0.00298904487863183, -0.011066784150898457, -0.0084829181432724, 5.274704017210752e-05, -6.284999471972696e-07, 0.013898792676627636, 0.00048540360876359046, -9.18308251129929e-06, 0.09259974211454391, 0, 0, 0, 0, 0, 0, 9362.0, 30146.0, 35388.0, 9362.0, 8.17190170288086, 0.07383882254362106, -0.22365468740463257, -0.10260582715272903, 0.012384140864014626, -0.025850927457213402, 1.031995415687561, -0.07312143594026566, -0.021678924560546875, 1.494140625, 1.294189453125, 0.0578155517578125, 1.4912109375
33690, -0.002433690009638667, -0.011006241664290428, -0.009374343790113926, 5.7694946008268744e-05, -7.073990673234221e-07, 0.014840608462691307, 0.0005042017437517643, -6.512699201266514e-06, 0.09576386213302612, 0, 0, 0, 0, 0, 0, 9362.0, 30146.0, 35388.0, 9362.0, 8.17190170288086, -0.20606335997581482, -0.004863330163061619, -0.10711773484945297, 0.01332031935453415, -0.023003002628684044, 1.0336370468139648, -0.06904205679893494, -0.10231781005859375, 1.487548828125, 1.30078125, 0.048004150390625, 1.48681640625
33700, -0.0017784773372113705, -0.012015005573630333, -0.010094414465129375, 6.283489346969873e-05, -7.460919277946232e-07, 0.015814730897545815, 0.0005237840814515948, -1.2581093642438645e-06, 0.09906089305877686, 0, 0, 0, 0, 0, 0, 9362.0, 30146.0, 35388.0, 9362.0, 8.17190170288086, 0.1433866024017334, 0.07279909402132034, -0.3158951997756958, 0.013372410088777542, -0.024714073166251183, 1.0329828262329102, -0.06723111122846603, -0.07543754577636719, 1.48974609375, 1.32421875, 0.024139404296875, 1.48828125
33710, -0.0020905251149088144, -0.01196357887238264, -0.011916117742657661, 6.817001849412918e-05, -7.371791070909239e-07, 0.01682124100625515, 0.0005432962789200246, 3.004084192070877e-06, 0.10224135220050812, 0, 0, 0, 0, 0, 0, 9362.0, 30146.0, 35388.0, 9362.0, 8.17190170288086, 0.12415342032909393, 0.0537649542093277, -0.27926385402679443, 0.01131371222436428, -0.027264615520834923, 1.0315219163894653, -0.0725090429186821, -0.10231781005859375, 1.487548828125, 1.339599609375, 0.0168914794921875, 1.490478515625
33720, -0.0018684808164834976, -0.012595375999808311, -0.012419933453202248, 7.370913226623088e-05, -6.914448817951779e-07, 0.017859337851405144, 0.0005645236233249307, 6.159155418572482e-06, 0.1053784117102623, 0, 0, 0, 0, 0, 0, 9362.0, 30146.0, 35388.0, 9362.0, 8.17190170288086, -0.06793160736560822, -0.23371455073356628, 0.002900439314544201, 0.013064107857644558, -0.026977941393852234, 1.0323344469070435, -0.07274845987558365, -0.05751800537109375, 1.4912109375, 1.33154296875, 0.0198516845703125, 1.4912109375
33730, -0.0009174674632959068, -0.010579558089375496, -0.013623876497149467, 7.946009282022715e-05, -6.114012194302632e-07, 0.018928948789834976, 0.0005857038777321577, 9.83713471214287e-06, 0.10854417085647583, 0, 0, 0, 0, 0, 0, 9362.0, 30146.0, 35388.0, 9362.0, 8.17190170288086, -0.14162424206733704, 0.0341341458261013, -0.3066660463809967, 0.011244022287428379, -0.0244865994900465, 1.0324828624725342, -0.0746426209807396, -0.030637741088867188, 1.493408203125, 1.336669921875, 0.0177764892578125, 1.490478515625
33740, -0.0005466866423375905, -0.011242260225117207, -0.014660569839179516, 8.542846626369283e-05, -4.965382345289981e-07, 0.02003033459186554, 0.0006078590522520244, 1.3082081750326324e-05, 0.11173343658447266, 0, 0, 0, 0, 0, 0, 9362.0, 30146.0, 35388.0, 9362.0, 8.17190170288086, -0.1553676277399063, 0.35518065094947815, -0.2671320140361786, 0.012410478666424751, -0.02302619256079197, 1.0321005582809448, -0.07407733052968979, -0.06647872924804688, 1.490478515625, 1.343994140625, 0.015899658203125, 1.486083984375
33750, -0.002104024635627866, -0.015413595363497734, -0.013851718977093697, 9.160050103673711e-05, -3.5763648043030116e-07, 0.021163210272789, 0.0006265833508223295, 1.4677833860332612e-05, 0.11484212428331375, 0, 0, 0, 0, 0, 0, 9362.0, 30146.0, 35388.0, 9362.0, 8.17190170288086, -0.06151353940367699, 0.13285088539123535, -0.06103606894612312, 0.014210238121449947, -0.024300936609506607, 1.029959797859192, -0.07168547809123993, -0.07543754577636719, 1.48974609375, 1.343994140625, 0.015899658203125, 1.491943359375
33760, -0.0035254759714007378, -0.01358877681195736, -0.014318963512778282, 9.79654723778367e-05, -2.0606279349522083e-07, 0.02232636883854866, 0.0006466250633820891, 1.5717121641500853e-05, 0.11779002845287323, 0, 0, 0, 0, 0, 0, 9362.0, 30146.0, 35388.0, 9362.0, 8.17190170288086, 0.11581326276063919, -0.12604813277721405, 0.0840846374630928, 0.01242649182677269, -0.024675535038113594, 1.0323351621627808, -0.07239795476198196, -0.05751800537109375, 1.4912109375, 1.33740234375, 0.0175323486328125, 1.48974609375
33780, -0.0027012680657207966, -0.012237166985869408, -0.015207597054541111, 0.00011142577568534762, 1.958838993232348e-07, 0.024745764210820198, 0.0006977998418733478, 2.5649864255683497e-05, 0.12414476275444031, 0, 0, 0, 0, 0, 0, 9362.0, 30146.0, 35388.0, 9362.0, 8.17190170288086, 0.11051947623491287, -0.24126964807510376, 0.13216111063957214, 0.01242649182677269, -0.024675535038113594, 1.0323351621627808, -0.07239795476198196, -0.05751800537109375, 1.4912109375, 1.33154296875, 0.0198516845703125, 1.489013671875
33790, -0.0023692462127655745, -0.014717930927872658, -0.012373315170407295, 0.00011142577568534762, 1.958838993232348e-07, 0.024745764210820198, 0.0006977998418733478, 2.5649864255683497e-05, 0.12414476275444031, 0, 0, 0, 0, 0, 0, 9362.0, 30146.0, 35388.0, 9362.0, 8.17190170288086, 0.045155517756938934, 0.16628491878509521, 0.046014074236154556, 0.01242649182677269, -0.024675535038113594, 1.0323351621627808, -0.07239795476198196, -0.05751800537109375, 1.4912109375, 1.33154296875, 0.0198516845703125, 1.48974609375
33800, -0.0012258852366358042, -0.016692927107214928, -0.012360484339296818, 0.00011142577568534762, 1.958838993232348e-07, 0.024745764210820198, 0.0006977998418733478, 2.5649864255683497e-05, 0.12414476275444031, 0, 0, 0, 0, 0, 0, 9362.0, 30146.0, 35388.0, 9362.0, 8.17190170288086, 0.045155517756938934, 0.16628491878509521, 0.046014074236154556, 0.01242649182677269, -0.024675535038113594, 1.0323351621627808, -0.07239795476198196, -0.05751800537109375, 1.4912109375, 1.29345703125, 0.05889892578125, 1.48974609375
33810, -0.002496484201401472, -0.014587602578103542, -0.013589233160018921, 0.00011142577568534762, 1.958838993232348e-07, 0.024745764210820198, 0.0006977998418733478, 2.5649864255683497e-05, 0.12414476275444031, 0, 0, 0, 0, 0, 0, 9362.0, 30146.0, 35388.0, 9362.0, 8.17190170288086, 0.0937354788184166, -0.4949699640274048, -0.33491528034210205, 0.01242649182677269, -0.024675535038113594, 1.0323351621627808, -0.07239795476198196, -0.05751800537109375, 1.4912109375, 1.291259765625, 0.0625457763671875, 1.493408203125
33830, -0.0029667718335986137, -0.013702420517802238, -0.012890376150608063, 0.00014938900130800903, 1.9638080175354844e-06, 0.031348198652267456, 0.0008248884696513414, 4.470271596801467e-05, 0.1397157609462738, 0, 0, 0, 0, 0, 0, 9362.0, 30146.0, 35388.0, 9362.0, 8.17190170288086, -0.211783766746521, 0.08101308345794678, 0.04389704018831253, 0.01242649182677269, -0.024675535038113594, 1.0323351621627808, -0.07239795476198196, -0.05751800537109375, 1.4912109375, 1.295654296875, 0.05548095703125, 1.4912109375
33840, -0.0015502715250477195, -0.013400357216596603, -0.014236873015761375, 0.0001577488728798926, 2.4301048142660875e-06, 0.032761190086603165, 0.0008471501059830189, 4.860019907937385e-05, 0.1428828090429306, 0, 0, 0, 0, 0, 0, 9362.0, 30146.0, 35388.0, 9362.0, 8.17190170288086, -0.211783766746521, 0.08101308345794678, 0.04389704018831253, 0.01242649182677269, -0.024675535038113594, 1.0323351621627808, -0.07239795476198196, -0.05751800537109375, 1.4912109375, 1.295654296875, 0.05548095703125, 1.4853515625
33850, -0.0007976071792654693, -0.012928218580782413, -0.016249148175120354, 0.00016634140047244728, 2.9422840270854067e-06, 0.034205593168735504, 0.0008713407441973686, 5.375814362196252e-05, 0.14599786698818207, 0, 0, 0, 0, 0, 0, 9362.0, 30146.0, 35388.0, 9362.0, 8.17190170288086, -0.211783766746521, 0.08101308345794678, 0.04389704018831253, 0.01242649182677269, -0.024675535038113594, 1.0323351621627808, -0.07239795476198196, -0.05751800537109375, 1.4912109375, 1.295654296875, 0.05548095703125, 1.489013671875
33860, -0.000353782408637926, -0.013808166608214378, -0.016888970509171486, 0.00017517291416879743, 3.493499207252171e-06, 0.03568003699183464, 0.0008949381299316883, 5.6446082453476265e-05, 0.14889152348041534, 0, 0, 0, 0, 0, 0, 9362.0, 30146.0, 35388.0, 9362.0, 8.17190170288086, 0.1044480949640274, -0.07478699088096619, 0.00247064302675426, 0.01242649182677269, -0.024675535038113594, 1.0323351621627808, -0.07239795476198196, -0.05751800537109375, 1.4912109375, 1.295654296875, 0.05548095703125, 1.4912109375
33870, 2.9967599402880296e-05, -0.013022447936236858, -0.016596786677837372, 0.00017517291416879743, 3.493499207252171e-06, 0.03568003699183464, 0.0008949381299316883, 5.6446082453476265e-05, 0.14889152348041534, 0, 0, 0, 0, 0, 0, 9362.0, 30146.0, 35388.0, 9362.0, 8.17190170288086, 0.1044480949640274, -0.07478699088096619, 0.00247064302675426, 0.01242649182677269, -0.024675535038113594, 1.0323351621627808, -0.07239795476198196, -0.05751800537109375, 1.4912109375, 1.294189453125, 0.0578155517578125, 1.493408203125
33880, 0.00041055562905967236, -0.012594373896718025, -0.01662333309650421, 0.0001935355830937624, 4.646262823371217e-06, 0.03871544077992439, 0.0009421008289791644, 5.841936217620969e-05, 0.15481624007225037, 0, 0, 0, 0, 0, 0, 9362.0, 30146.0, 35388.0, 9362.0, 8.17190170288086, 0.1044480949640274, -0.07478699088096619, 0.00247064302675426, 0.01242649182677269, -0.024675535038113594, 1.0323351621627808, -0.07239795476198196, -0.05751800537109375, 1.4912109375, 1.294189453125, 0.0578155517578125, 1.48828125
33890, 6.639480125159025e-05, -0.013727428391575813, -0.015208786353468895, 0.00020307167142163962, 5.230158421909437e-06, 0.04027945175766945, 0.0009650942520238459, 5.8338693634141237e-05, 0.1579866260290146, 0, 0, 0, 0, 0, 0, 9362.0, 30146.0, 35388.0, 9362.0, 8.17190170288086, 0.2537127137184143, -0.16160409152507782, -0.11785650998353958, 0.01242649182677269, -0.024675535038113594, 1.0323351621627808, -0.07239795476198196, -0.05751800537109375, 1.4912109375, 1.294189453125, 0.0578155517578125, 1.48974609375
33900, 0.0005417187348939478, -0.01236406248062849, -0.01540446002036333, 0.00020307167142163962, 5.230158421909437e-06, 0.04027945175766945, 0.0009650942520238459, 5.8338693634141237e-05, 0.1579866260290146, 0, 0, 0, 0, 0, 0, 9362.0, 30146.0, 35388.0, 9362.0, 8.17190170288086, 0.2537127137184143, -0.16160409152507782, -0.11785650998353958, 0.01242649182677269, -0.024675535038113594, 1.0323351621627808, -0.07239795476198196, -0.05751800537109375, 1.4912109375, 1.29345703125, 0.05889892578125, 1.48974609375
33910, 0.0008722683996893466, -0.00981022510677576, -0.01588434912264347, 0.00020307167142163962, 5.230158421909437e-06, 0.04027945175766945, 0.0009650942520238459, 5.8338693634141237e-05, 0.1579866260290146, 0, 0, 0, 0, 0, 0, 9362.0, 30146.0, 35388.0, 9362.0, 8.17190170288086, 0.2537127137184143, -0.16160409152507782, -0.11785650998353958, 0.01156628131866455, -0.025478221476078033, 1.0313191413879395, -0.07239795476198196, -0.05751800537109375, 1.4912109375, 1.29345703125, 0.05889892578125, 1.491943359375
33920, -0.00020962570852134377, -0.010199052281677723, -0.01486238744109869, 0.0002330536808585748, 6.9554894253087696e-06, 0.045157186686992645, 0.001033254899084568, 5.649668673868291e-05, 0.1671994924545288, 0, 0, 0, 0, 0, 0, 9362.0, 30146.0, 35388.0, 9362.0, 8.17190170288086, 0.11691514402627945, -0.49625149369239807, -0.2127164751291275, 0.01156628131866455, -0.025478221476078033, 1.0313191413879395, -0.07239795476198196, -0.05751800537109375, 1.4912109375, 1.29345703125, 0.05889892578125, 1.494140625
33930, -0.0001394931023241952, -0.008158243261277676, -0.017045915126800537, 0.0002330536808585748, 6.9554894253087696e-06, 0.045157186686992645, 0.001033254899084568, 5.649668673868291e-05, 0.1671994924545288, 0, 0, 0, 0, 0, 0, 9362.0, 30146.0, 35388.0, 9362.0, 8.17190170288086, -0.14996136724948883, 0.06142634525895119, -0.01719147153198719, 0.01156628131866455, -0.025478221476078033, 1.0313191413879395, -0.07239795476198196, -0.05751800537109375, 1.4912109375, 1.295654296875, 0.05548095703125, 1.494140625
33940, 0.00022349813662003726, -0.0076693338342010975, -0.016907287761569023, 0.0002330536808585748, 6.9554894253087696e-06, 0.045157186686992645, 0.001033254899084568, 5.649668673868291e-05, 0.1671994924545288, 0, 0, 0, 0, 0, 0, 9362.0, 30146.0, 35388.0, 9362.0, 8.17190170288086, 0.16540741920471191, 0.06615042686462402, 0.14852741360664368, 0.01156628131866455, -0.025478221476078033, 1.0313191413879395, -0.07239795476198196, -0.05751800537109375, 1.4912109375, 1.288330078125, 0.0676116943359375, 1.48974609375
33950, 0.0007468817639164627, -0.008853227831423283, -0.01757398247718811, 0.0002648255613166839, 8.61957323650131e-06, 0.05030951648950577, 0.0010828559752553701, 5.559348937822506e-05, 0.1762663573026657, 0, 0, 0, 0, 0, 0, 9362.0, 30146.0, 35388.0, 9362.0, 8.17190170288086, 0.16540741920471191, 0.06615042686462402, 0.14852741360664368, 0.01156628131866455, -0.025478221476078033, 1.0313191413879395, -0.07239795476198196, -0.05751800537109375, 1.4912109375, 1.288330078125, 0.0676116943359375, 1.490478515625
33960, 0.0003418868873268366, -0.006290214601904154, -0.01899115741252899, 0.0002757218317128718, 9.173514627036639e-06, 0.05208752304315567, 0.0010964612010866404, 5.516670717042871e-05, 0.1793355643749237, 0, 0, 0, 0, 0, 0, 9362.0, 30146.0, 35388.0, 9362.0, 8.17190170288086, 0.08700108528137207, 0.03457815200090408, 0.14531053602695465, 0.01156628131866455, -0.025478221476078033, 1.0313191413879395, -0.07239795476198196, -0.05751800537109375, 1.4912109375, 1.288330078125, 0.0676116943359375, 1.487548828125
33970, 0.0010265535674989223, -0.0071871220134198666, -0.018202153965830803, 0.0002757218317128718, 9.173514627036639e-06, 0.05208752304315567, 0.0010964612010866404, 5.516670717042871e-05, 0.1793355643749237, 0, 0, 0, 0, 0, 0, 9362.0, 30146.0, 35388.0, 9362.0, 8.17190170288086, 0.08700108528137207, 0.03457815200090408, 0.14531053602695465, 0.01156628131866455, -0.025478221476078033, 1.0313191413879395, -0.07239795476198196, -0.05751800537109375, 1.4912109375, 1.3095703125, 0.037139892578125, 1.491943359375
33980, 0.002031993819400668, -0.006058104336261749, -0.020502593368291855, 0.0002757218317128718, 9.173514627036639e-06, 0.05208752304315567, 0.0010964612010866404, 5.516670717042871e-05, 0.1793355643749237, 0, 0, 0, 0, 0, 0, 9362.0, 30146.0, 35388.0, 9362.0, 8.17190170288086, 0.08700108528137207, 0.03457815200090408, 0.14531053602695465, 0.012347375974059105, -0.02408941462635994, 1.0327050685882568, -0.07239795476198196, -0.05751800537109375, 1.4912109375, 1.298583984375, 0.051055908203125, 1.491943359375
33990, 0.0013801640598103404, -0.008839502930641174, -0.02160465531051159, 0.0002757218317128718, 9.173514627036639e-06, 0.05208752304315567, 0.0010964612010866404, 5.516670717042871e-05, 0.1793355643749237, 0, 0, 0, 0, 0, 0, 9362.0, 30146.0, 35388.0, 9362.0, 8.17190170288086, -0.02246999740600586, 0.032922644168138504, 0.0775572657585144, 0.012347375974059105, -0.02408941462635994, 1.0327050685882568, -0.07239795476198196, -0.05751800537109375, 1.4912109375, 1.34033203125, 0.0166168212890625, 1.493408203125
34000, 0.0007317695417441428, -0.008675726130604744, -0.02224981226027012, 0.00032064568949863315, 1.127271207224112e-05, 0.05951116606593132, 0.001146622933447361, 4.778371294378303e-05, 0.19192075729370117, 0, 0, 0, 0, 0, 0, 9362.0, 30146.0, 35388.0, 9362.0, 8.17190170288086, -0.02246999740600586, 0.032922644168138504, 0.0775572657585144, 0.012347375974059105, -0.02408941462635994, 1.0327050685882568, -0.07239795476198196, -0.05751800537109375, 1.4912109375, 1.34033203125, 0.0166168212890625, 1.48974609375
34010, 0.001123039866797626, -0.007263761479407549, -0.023321621119976044, 0.00032064568949863315, 1.127271207224112e-05, 0.05951116606593132, 0.001146622933447361, 4.778371294378303e-05, 0.19192075729370117, 0, 0, 0, 0, 0, 0, 9362.0, 30146.0, 35388.0, 9362.0, 8.17190170288086, -0.014972676523029804, 0.24483861029148102, -0.07591836154460907, 0.012347375974059105, -0.02408941462635994, 1.0327050685882568, -0.07239795476198196, -0.05751800537109375, 1.4912109375, 1.34033203125, 0.0166168212890625, 1.48974609375
34020, 0.0017276664730161428, -0.00897466391324997, -0.023047296330332756, 0.00032064568949863315, 1.127271207224112e-05, 0.05951116606593132, 0.001146622933447361, 4.778371294378303e-05, 0.19192075729370117, 0, 0, 0, 0, 0, 0, 9362.0, 30146.0, 35388.0, 9362.0, 8.17190170288086, 0.03900111839175224, 0.07407679408788681, -0.3174201548099518, 0.012347375974059105, -0.02408941462635994, 1.0327050685882568, -0.07239795476198196, -0.05751800537109375, 1.4912109375, 1.342529296875, 0.0161895751953125, 1.493408203125
34030, 0.001893185661174357, -0.010452144779264927, -0.02330377697944641, 0.00032064568949863315, 1.127271207224112e-05, 0.05951116606593132, 0.001146622933447361, 4.778371294378303e-05, 0.19192075729370117, 0, 0, 0, 0, 0, 0, 9362.0, 30146.0, 35388.0, 9362.0, 8.17190170288086, 0.03900111839175224, 0.07407679408788681, -0.3174201548099518, 0.012347375974059105, -0.02408941462635994, 1.0327050685882568, -0.07239795476198196, -0.05751800537109375, 1.4912109375, 1.342529296875, 0.0161895751953125, 1.49267578125
34040, 0.0023063765838742256, -0.00873017217963934, -0.022714704275131226, 0.00032064568949863315, 1.127271207224112e-05, 0.05951116606593132, 0.001146622933447361, 4.778371294378303e-05, 0.19192075729370117, 0, 0, 0, 0, 0, 0, 9362.0, 30146.0, 35388.0, 9362.0, 8.17190170288086, -0.19261470437049866, -0.2423555850982666, -0.01260146964341402, 0.012431081384420395, -0.025865670293569565, 1.0322978496551514, -0.07239795476198196, -0.05751800537109375, 1.4912109375, 1.3388671875, 0.017120361328125, 1.489013671875
34050, 0.0017057835357263684, -0.007480136584490538, -0.022276774048805237, 0.00032064568949863315, 1.127271207224112e-05, 0.05951116606593132, 0.001146622933447361, 4.778371294378303e-05, 0.19192075729370117, 0, 0, 0, 0, 0, 0, 9362.0, 30146.0, 35388.0, 9362.0, 8.17190170288086, -0.016955070197582245, -0.20245102047920227, -0.034690145403146744, 0.012431081384420395, -0.025865670293569565, 1.0322978496551514, -0.07239795476198196, -0.05751800537109375, 1.4912109375, 1.33447265625, 0.0186309814453125, 1.493408203125
34060, 0.0020663784816861153, -0.006463681813329458, -0.022505294531583786, 0.00032064568949863315, 1.127271207224112e-05, 0.05951116606593132, 0.001146622933447361, 4.778371294378303e-05, 0.19192075729370117, 0, 0, 0, 0, 0, 0, 9362.0, 30146.0, 35388.0, 9362.0, 8.17190170288086, 0.075555719435215, 0.36316969990730286, -0.20780663192272186, 0.012431081384420395, -0.025865670293569565, 1.0322978496551514, -0.07239795476198196, -0.05751800537109375, 1.4912109375, 1.33447265625, 0.0186309814453125, 1.493408203125
34070, 0.0028407445643097162, -0.008106328547000885, -0.02402920089662075, 0.00032064568949863315, 1.127271207224112e-05, 0.05951116606593132, 0.001146622933447361, 4.778371294378303e-05, 0.19192075729370117, 0, 0, 0, 0, 0, 0, 9362.0, 30146.0, 35388.0, 9362.0, 8.17190170288086, 0.25053369998931885, 0.03379633277654648, -0.06453239172697067, 0.012431081384420395, -0.025865670293569565, 1.0322978496551514, -0.07239795476198196, -0.05751800537109375, 1.4912109375, 1.3447265625, 0.0158538818359375, 1.4912109375
34080, 0.003871656022965908, -0.007713117636740208, -0.023954277858138084, 0.00032064568949863315, 1.127271207224112e-05, 0.05951116606593132, 0.001146622933447361, 4.778371294378303e-05, 0.19192075729370117, 0, 0, 0, 0, 0, 0, 9362.0, 30146.0, 35388.0, 9362.0, 8.17190170288086, -0.15794074535369873, 0.15501834452152252, 0.1592242419719696, 0.012431081384420395, -0.025865670293569565, 1.0322978496551514, -0.07239795476198196, -0.05751800537109375, 1.4912109375, 1.330810546875, 0.0203399658203125, 1.4912109375
34100, 0.0032867088448256254, -0.010225732810795307, -0.02406238205730915, 0.00032064568949863315, 1.127271207224112e-05, 0.05951116606593132, 0.001146622933447361, 4.778371294378303e-05, 0.19192075729370117, 0, 0, 0, 0, 0, 0, 9362.0, 30146.0, 35388.0, 9362.0, 8.17190170288086, 0.04994850978255272, -0.06946932524442673, -0.3373185694217682, 0.012431081384420395, -0.025865670293569565, 1.0322978496551514, -0.07239795476198196, -0.05751800537109375, 1.4912109375, 1.34033203125, 0.0166168212890625, 1.4912109375
34110, 0.002623120555654168, -0.008943220600485802, -0.026322979480028152, 0.00032064568949863315, 1.127271207224112e-05, 0.05951116606593132, 0.001146622933447361, 4.778371294378303e-05, 0.19192075729370117, 0, 0, 0, 0, 0, 0, 9362.0, 30146.0, 35388.0, 9362.0, 8.17190170288086, 0.04994850978255272, -0.06946932524442673, -0.3373185694217682, 0.012431081384420395, -0.025865670293569565, 1.0322978496551514, -0.07239795476198196, -0.05751800537109375, 1.4912109375, 1.34033203125, 0.0166168212890625, 1.490478515625
34120, 0.003247796092182398, -0.0071866074576973915, -0.027740225195884705, 0.0004690279019996524, 1.4775425370316952e-05, 0.08478667587041855, 0.0013279771665111184, -1.904072178149363e-06, 0.22934676706790924, 0, 0, 0, 0, 0, 0, 9362.0, 30146.0, 35388.0, 9362.0, 8.17190170288086, 0.04994850978255272, -0.06946932524442673, -0.3373185694217682, 0.012431081384420395, -0.025865670293569565, 1.0322978496551514, -0.07239795476198196, -0.05751800537109375, 1.4912109375, 1.34033203125, 0.0166168212890625, 1.48974609375
34130, 0.0023992327041924, -0.008435635827481747, -0.029509084299206734, 0.00048238656017929316, 1.4733211173734162e-05, 0.08709501475095749, 0.0013436605222523212, -6.571498488483485e-06, 0.23232117295265198, 0, 0, 0, 0, 0, 0, 9362.0, 30146.0, 35388.0, 9362.0, 8.17190170288086, -0.024902764707803726, 0.27494487166404724, 0.08420981466770172, 0.012431081384420395, -0.025865670293569565, 1.0322978496551514, -0.07239795476198196, -0.05751800537109375, 1.4912109375, 1.32861328125, 0.0214385986328125, 1.494873046875
34140, 0.0019538146443665028, -0.012887058779597282, -0.027426699176430702, 0.00048238656017929316, 1.4733211173734162e-05, 0.08709501475095749, 0.0013436605222523212, -6.571498488483485e-06, 0.23232117295265198, 0, 0, 0, 0, 0, 0, 9362.0, 30146.0, 35388.0, 9362.0, 8.17190170288086, 0.1914413720369339, 0.6587719321250916, 0.08610058575868607, 0.012431081384420395, -0.025865670293569565, 1.0322978496551514, -0.07239795476198196, -0.05751800537109375, 1.4912109375, 1.3447265625, 0.0158538818359375, 1.493408203125
34150, 0.002160238102078438, -0.014524955302476883, -0.026886412873864174, 0.00048238656017929316, 1.4733211173734162e-05, 0.08709501475095749, 0.0013436605222523212, -6.571498488483485e-06, 0.23232117295265198, 0, 0, 0, 0, 0, 0, 9362.0, 30146.0, 35388.0, 9362.0, 8.17190170288086, -0.0741109848022461, -0.4186314046382904, 0.45853978395462036, 0.012431081384420395, -0.025865670293569565, 1.0322978496551514, -0.07239795476198196, -0.05751800537109375, 1.4912109375, 1.305908203125, 0.0413360595703125, 1.49267578125
34160, 0.001270917127840221, -0.01198399905115366, -0.02544485405087471, 0.00048238656017929316, 1.4733211173734162e-05, 0.08709501475095749, 0.0013436605222523212, -6.571498488483485e-06, 0.23232117295265198, 0, 0, 0, 0, 0, 0, 9362.0, 30146.0, 35388.0, 9362.0, 8.17190170288086, -0.18864069879055023, -0.0749746784567833, -0.09930364042520523, 0.012431081384420395, -0.025865670293569565, 1.0322978496551514, -0.07239795476198196, -0.05751800537109375, 1.4912109375, 1.2978515625, 0.05224609375, 1.4912109375
34170, 0.0012716947821900249, -0.012669447809457779, -0.025662407279014587, 0.0005374248139560223, 1.409432752552675e-05, 0.09662475436925888, 0.0014197879936546087, -2.372135713812895e-05, 0.2440924346446991, 0, 0, 0, 0, 0, 0, 9362.0, 30146.0, 35388.0, 9362.0, 8.17190170288086, -0.18864069879055023, -0.0749746784567833, -0.09930364042520523, 0.012431081384420395, -0.025865670293569565, 1.0322978496551514, -0.07239795476198196, -0.05751800537109375, 1.4912109375, 1.2978515625, 0.05224609375, 1.48828125
34180, 0.0011000189697369933, -0.01446427684277296, -0.0248501468449831, 0.0005517284153029323, 1.3845851754012983e-05, 0.09908079355955124, 0.001440974185243249, -2.597396814962849e-05, 0.24711614847183228, 0, 0, 0, 0, 0, 0, 9362.0, 30146.0, 35388.0, 9362.0, 8.17190170288086, -0.18864069879055023, -0.0749746784567833, -0.09930364042520523, 0.012431081384420395, -0.025865670293569565, 1.0322978496551514, -0.07239795476198196, -0.05751800537109375, 1.4912109375, 1.2978515625, 0.05224609375, 1.4912109375
34190, 0.0020438770297914743, -0.015942158177495003, -0.024378152564167976, 0.0005517284153029323, 1.3845851754012983e-05, 0.09908079355955124, 0.001440974185243249, -2.597396814962849e-05, 0.24711614847183228, 0, 0, 0, 0, 0, 0, 9362.0, 30146.0, 35388.0, 9362.0, 8.17190170288086, 0.07723633944988251, -0.17447492480278015, -0.17719405889511108, 0.012431081384420395, -0.025865670293569565, 1.0322978496551514, -0.07239795476198196, -0.05751800537109375, 1.4912109375, 1.2978515625, 0.05224609375, 1.4912109375
34200, 0.003001568140462041, -0.015137002803385258, -0.02502506971359253, 0.0005517284153029323, 1.3845851754012983e-05, 0.09908079355955124, 0.001440974185243249, -2.597396814962849e-05, 0.24711614847183228, 0, 0, 0, 0, 0, 0, 9362.0, 30146.0, 35388.0, 9362.0, 8.17190170288086, 0.07723633944988251, -0.17447492480278015, -0.17719405889511108, 0.012431081384420395, -0.025865670293569565, 1.0322978496551514, -0.07239795476198196, -0.05751800537109375, 1.4912109375, 1.301513671875, 0.046966552734375, 1.493408203125
34210, 0.0015280728694051504, -0.017274852842092514, -0.023142091929912567, 0.0005517284153029323, 1.3845851754012983e-05, 0.09908079355955124, 0.001440974185243249, -2.597396814962849e-05, 0.24711614847183228, 0, 0, 0, 0, 0, 0, 9362.0, 30146.0, 35388.0, 9362.0, 8.17190170288086, -0.15644054114818573, 0.05071434751152992, -0.11507639288902283, 0.012431081384420395, -0.025865670293569565, 1.0322978496551514, -0.08132986724376678, -0.1291980743408203, 1.4853515625, 1.301513671875, 0.046966552734375, 1.494140625
34220, 0.0006137671298347414, -0.017276156693696976, -0.022645559161901474, 0.0005517284153029323, 1.3845851754012983e-05, 0.09908079355955124, 0.001440974185243249, -2.597396814962849e-05, 0.24711614847183228, 0, 0, 0, 0, 0, 0, 9362.0, 30146.0, 35388.0, 9362.0, 8.17190170288086, 0.006900015752762556, -0.36810919642448425, -0.02013460174202919, 0.012431081384420395, -0.025865670293569565, 1.0322978496551514, -0.08132986724376678, -0.1291980743408203, 1.4853515625, 1.326416015625, 0.022705078125, 1.494140625
34230, 0.0009060496231541038, -0.015133598819375038, -0.02306491881608963, 0.0006269419100135565, 1.219215482706204e-05, 0.11182296276092529, 0.0015745348064228892, -4.17889968957752e-05, 0.26256468892097473, 0, 0, 0, 0, 0, 0, 9362.0, 30146.0, 35388.0, 9362.0, 8.17190170288086, -0.23777619004249573, -0.05850467458367348, -0.1692463904619217, 0.012431081384420395, -0.025865670293569565, 1.0322978496551514, -0.08132986724376678, -0.1291980743408203, 1.4853515625, 1.326416015625, 0.022705078125, 1.491943359375
34240, 0.0007097315974533558, -0.014587018638849258, -0.023702383041381836, 0.0006428398774005473, 1.1768782314902637e-05, 0.11446426808834076, 0.00160494155716151, -4.290163633413613e-05, 0.26569682359695435, 0, 0, 0, 0, 0, 0, 9362.0, 30146.0, 35388.0, 9362.0, 8.17190170288086, 0.000156793903443031, -0.1322041153907776, -0.040787626057863235, 0.012431081384420395, -0.025865670293569565, 1.0322978496551514, -0.08132986724376678, -0.1291980743408203, 1.4853515625, 1.326416015625, 0.022705078125, 1.48681640625
34250, 0.0012415585806593299, -0.012912227772176266, -0.02430735155940056, 0.0006590231787413359, 1.1331697351124603e-05, 0.11713757365942001, 0.0016316842520609498, -4.450452615856193e-05, 0.2689652144908905, 0, 0, 0, 0, 0, 0, 9362.0, 30146.0, 35388.0, 9362.0, 8.17190170288086, 0.08376743644475937, 0.37866881489753723, -0.041277553886175156, 0.012431081384420395, -0.025865670293569565, 1.0322978496551514, -0.08132986724376678, -0.1291980743408203, 1.4853515625, 1.326416015625, 0.022705078125, 1.48681640625
34260, 0.0017484177369624376, -0.016060922294855118, -0.02441098541021347, 0.000675469171255827, 1.0880315130634699e-05, 0.11984401196241379, 0.0016574159963056445, -4.5803353714291006e-05, 0.2723229229450226, 0, 0, 0, 0, 0, 0, 9362.0, 30146.0, 35388.0, 9362.0, 8.17190170288086, 0.08376743644475937, 0.37866881489753723, -0.041277553886175156, 0.012431081384420395, -0.025865670293569565, 1.0322978496551514, -0.08132986724376678, -0.1291980743408203, 1.4853515625, 1.326416015625, 0.022705078125, 1.490478515625
34270, 0.0017774332081899047, -0.01893780380487442, -0.024635419249534607, 0.000675469171255827, 1.0880315130634699e-05, 0.11984401196241379, 0.0016574159963056445, -4.5803353714291006e-05, 0.2723229229450226, 0, 0, 0, 0, 0, 0, 9362.0, 30146.0, 35388.0, 9362.0, 8.17190170288086, 0.08376743644475937, 0.37866881489753723, -0.041277553886175156, 0.012431081384420395, -0.025865670293569565, 1.0322978496551514, -0.08132986724376678, -0.1291980743408203, 1.4853515625, 1.341064453125, 0.01654052734375, 1.48974609375
34280, 0.002213632222265005, -0.016781475394964218, -0.02544265240430832, 0.0007091033621691167, 9.915408554661553e-06, 0.12535342574119568, 0.001708901021629572, -5.113466613693163e-05, 0.2785015404224396, 0, 0, 0, 0, 0, 0, 9362.0, 30146.0, 35388.0, 9362.0, 8.17190170288086, 0.08376743644475937, 0.37866881489753723, -0.041277553886175156, 0.012431081384420395, -0.025865670293569565, 1.0322978496551514, -0.08132986724376678, -0.1291980743408203, 1.4853515625, 1.341064453125, 0.01654052734375, 1.48681640625
34290, 0.0011496908264234662, -0.018131351098418236, -0.02514294721186161, 0.0007091033621691167, 9.915408554661553e-06, 0.12535342574119568, 0.001708901021629572, -5.113466613693163e-05, 0.2785015404224396, 0, 0, 0, 0, 0, 0, 9362.0, 30146.0, 35388.0, 9362.0, 8.17190170288086, -0.2313382625579834, 0.13466466963291168, 0.20335854589939117, 0.012435843236744404, -0.02245369181036949, 1.0311720371246338, -0.08132986724376678, -0.1291980743408203, 1.4853515625, 1.341064453125, 0.01654052734375, 1.489013671875
34300, -0.0003274363116361201, -0.015812242403626442, -0.024759313091635704, 0.0007091033621691167, 9.915408554661553e-06, 0.12535342574119568, 0.001708901021629572, -5.113466613693163e-05, 0.2785015404224396, 0, 0, 0, 0, 0, 0, 9362.0, 30146.0, 35388.0, 9362.0, 8.17190170288086, 0.2825523018836975, -0.06973327696323395, -0.039568569511175156, 0.012435843236744404, -0.02245369181036949, 1.0311720371246338, -0.08132986724376678, -0.1291980743408203, 1.4853515625, 1.3388671875, 0.017120361328125, 1.49267578125
34310, 0.0006144011276774108, -0.01509455032646656, -0.025044480338692665, 0.0007091033621691167, 9.915408554661553e-06, 0.12535342574119568, 0.001708901021629572, -5.113466613693163e-05, 0.2785015404224396, 0, 0, 0, 0, 0, 0, 9362.0, 30146.0, 35388.0, 9362.0, 8.17190170288086, -0.02368452586233616, -0.015638133510947227, -0.100773386657238, 0.012435843236744404, -0.02245369181036949, 1.0311720371246338, -0.08132986724376678, -0.1291980743408203, 1.4853515625, 1.32861328125, 0.0214385986328125, 1.4912109375
34320, 0.000378433644073084, -0.01352858915925026, -0.02482595108449459, 0.0007091033621691167, 9.915408554661553e-06, 0.12535342574119568, 0.001708901021629572, -5.113466613693163e-05, 0.2785015404224396, 0, 0, 0, 0, 0, 0, 9362.0, 30146.0, 35388.0, 9362.0, 8.17190170288086, -0.02368452586233616, -0.015638133510947227, -0.100773386657238, 0.012435843236744404, -0.02245369181036949, 1.0311720371246338, -0.08132986724376678, -0.1291980743408203, 1.4853515625, 1.341064453125, 0.01654052734375, 1.4912109375
34330, -6.613891309825704e-05, -0.016983769834041595, -0.026880156248807907, 0.0007091033621691167, 9.915408554661553e-06, 0.12535342574119568, 0.001708901021629572, -5.113466613693163e-05, 0.2785015404224396, 0, 0, 0, 0, 0, 0, 9362.0, 30146.0, 35388.0, 9362.0, 8.17190170288086, 0.1449560821056366, 0.17238780856132507, -0.08067112416028976, 0.012435843236744404, -0.02245369181036949, 1.0311720371246338, -0.08132986724376678, -0.1291980743408203, 1.4853515625, 1.341796875, 0.0162811279296875, 1.4912109375
34340, -0.0004562583926599473, -0.018107203766703606, -0.02727808989584446, 0.0007091033621691167, 9.915408554661553e-06, 0.12535342574119568, 0.001708901021629572, -5.113466613693163e-05, 0.2785015404224396, 0, 0, 0, 0, 0, 0, 9362.0, 30146.0, 35388.0, 9362.0, 8.17190170288086, 0.08515816926956177, -0.003576895920559764, 0.19233480095863342, 0.012435843236744404, -0.02245369181036949, 1.0311720371246338, -0.08132986724376678, -0.1291980743408203, 1.4853515625, 1.34326171875, 0.01605224609375, 1.48974609375
34350, -0.0010596603387966752, -0.018890175968408585, -0.02634083479642868, 0.0007091033621691167, 9.915408554661553e-06, 0.12535342574119568, 0.001708901021629572, -5.113466613693163e-05, 0.2785015404224396, 0, 0, 0, 0, 0, 0, 9362.0, 30146.0, 35388.0, 9362.0, 8.17190170288086, 0.08515816926956177, -0.003576895920559764, 0.19233480095863342, 0.012435843236744404, -0.02245369181036949, 1.0311720371246338, -0.08132986724376678, -0.1291980743408203, 1.4853515625, 1.33154296875, 0.0198516845703125, 1.48974609375
34360, -0.0012359051033854485, -0.02029803954064846, -0.02624831162393093, 0.0008553906227461994, 5.201442036195658e-06, 0.14859400689601898, 0.0019443369237706065, -6.0412276070564985e-05, 0.30276593565940857, 0, 0, 0, 0, 0, 0, 9362.0, 30146.0, 35388.0, 9362.0, 8.17190170288086, -0.10167255997657776, 0.11683174222707748, 0.009460868313908577, 0.012435843236744404, -0.02245369181036949, 1.0311720371246338, -0.08132986724376678, -0.1291980743408203, 1.4853515625, 1.33154296875, 0.0198516845703125, 1.48974609375
34370, -0.002192296553403139, -0.02019457519054413, -0.028655659407377243, 0.0008553906227461994, 5.201442036195658e-06, 0.14859400689601898, 0.0019443369237706065, -6.0412276070564985e-05, 0.30276593565940857, 0, 0, 0, 0, 0, 0, 9362.0, 30146.0, 35388.0, 9362.0, 8.17190170288086, -0.10167255997657776, 0.11683174222707748, 0.009460868313908577, 0.012435843236744404, -0.02245369181036949, 1.0311720371246338, -0.08132986724376678, -0.1291980743408203, 1.4853515625, 1.33154296875, 0.0198516845703125, 1.494873046875
34380, -0.0012997804442420602, -0.021830569952726364, -0.027357513085007668, 0.0008553906227461994, 5.201442036195658e-06, 0.14859400689601898, 0.0019443369237706065, -6.0412276070564985e-05, 0.30276593565940857, 0, 0, 0, 0, 0, 0, 9362.0, 30146.0, 35388.0, 9362.0, 8.17190170288086, 0.13572922348976135, 0.09905217587947845, 0.1709718257188797, 0.013085865415632725, -0.024690920487046242, 1.0311528444290161, -0.08132986724376678, -0.1291980743408203, 1.4853515625, 1.33154296875, 0.0198516845703125, 1.490478515625
34390, -0.0024221164640039206, -0.023518431931734085, -0.025784168392419815, 0.0008553906227461994, 5.201442036195658e-06, 0.14859400689601898, 0.0019443369237706065, -6.0412276070564985e-05, 0.30276593565940857, 0, 0, 0, 0, 0, 0, 9362.0, 30146.0, 35388.0, 9362.0, 8.17190170288086, 0.1329534500837326, 0.1182096004486084, -0.18238571286201477, 0.013085865415632725, -0.024690920487046242, 1.0311528444290161, -0.08132986724376678, -0.1291980743408203, 1.4853515625, 1.342529296875, 0.0161895751953125, 1.491943359375
34400, -0.0017163348384201527, -0.024228965863585472, -0.02674511820077896, 0.0008553906227461994, 5.201442036195658e-06, 0.14859400689601898, 0.0019443369237706065, -6.0412276070564985e-05, 0.30276593565940857, 0, 0, 0, 0, 0, 0, 9362.0, 30146.0, 35388.0, 9362.0, 8.17190170288086, 0.1329534500837326, 0.1182096004486084, -0.18238571286201477, 0.013085865415632725, -0.024690920487046242, 1.0311528444290161, -0.08132986724376678, -0.1291980743408203, 1.4853515625, 1.33740234375, 0.0175323486328125, 1.48974609375
34410, -0.0038197750691324472, -0.02365817502140999, -0.025768643245100975, 0.0008553906227461994, 5.201442036195658e-06, 0.14859400689601898, 0.0019443369237706065, -6.0412276070564985e-05, 0.30276593565940857, 0, 0, 0, 0, 0, 0, 9362.0, 30146.0, 35388.0, 9362.0, 8.17190170288086, 0.1329534500837326, 0.1182096004486084, -0.18238571286201477, 0.013085865415632725, -0.024690920487046242, 1.0311528444290161, -0.08132986724376678, -0.1291980743408203, 1.4853515625, 1.335205078125, 0.018280029296875, 1.4912109375
34420, -0.0041441242210567, -0.025670193135738373, -0.023320306092500687, 0.0009785611182451248, 2.0493312149483245e-06, 0.167327880859375, 0.002172504784539342, -4.282545341993682e-05, 0.3216811716556549, 0, 0, 0, 0, 0, 0, 9362.0, 30146.0, 35388.0, 9362.0, 8.17190170288086, 0.1329534500837326, 0.1182096004486084, -0.18238571286201477, 0.013085865415632725, -0.024690920487046242, 1.0311528444290161, -0.08132986724376678, -0.1291980743408203, 1.4853515625, 1.335205078125, 0.018280029296875, 1.4912109375
34440, -0.0026032140012830496, -0.02909638173878193, -0.024980714544653893, 0.0009785611182451248, 2.0493312149483245e-06, 0.167327880859375, 0.002172504784539342, -4.282545341993682e-05, 0.3216811716556549, 0, 0, 0, 0, 0, 0, 9362.0, 30146.0, 35388.0, 9362.0, 8.17190170288086, 0.1329534500837326, 0.1182096004486084, -0.18238571286201477, 0.012278241105377674, -0.023440435528755188, 1.0309745073318481, -0.08132986724376678, -0.1291980743408203, 1.4853515625, 1.29638671875, 0.0542755126953125, 1.4912109375
34450, -0.00254815467633307, -0.03107183240354061, -0.023554541170597076, 0.0009785611182451248, 2.0493312149483245e-06, 0.167327880859375, 0.002172504784539342, -4.282545341993682e-05, 0.3216811716556549, 0, 0, 0, 0, 0, 0, 9362.0, 30146.0, 35388.0, 9362.0, 8.17190170288086, 0.1329534500837326, 0.1182096004486084, -0.18238571286201477, 0.015384814701974392, -0.024816304445266724, 1.0315353870391846, -0.08132986724376678, -0.1291980743408203, 1.4853515625, 1.29638671875, 0.0542755126953125, 1.491943359375
34460, -0.0025216243229806423, -0.03260623663663864, -0.02363152801990509, 0.001071400591172278, 8.465896144116414e-07, 0.18076898157596588, 0.0023645644541829824, -1.7932394257513806e-05, 0.3340689539909363, 0, 0, 0, 0, 0, 0, 9362.0, 30146.0, 35388.0, 9362.0, 8.17190170288086, 0.1329534500837326, 0.1182096004486084, -0.18238571286201477, 0.015384814701974392, -0.024816304445266724, 1.0315353870391846, -0.08132986724376678, -0.1291980743408203, 1.4853515625, 1.29638671875, 0.0542755126953125, 1.489013671875
34470, -0.0038458590861409903, -0.03268715366721153, -0.02272835746407509, 0.0010953204473480582, 6.896423201396829e-07, 0.18412485718727112, 0.0024194938596338034, -1.3458568901114631e-05, 0.33710503578186035, 0, 0, 0, 0, 0, 0, 9362.0, 30146.0, 35388.0, 9362.0, 8.17190170288086, -0.044589895755052567, -0.009303133003413677, 0.1635861098766327, 0.015384814701974392, -0.024816304445266724, 1.0315353870391846, -0.08132986724376678, -0.1291980743408203, 1.4853515625, 1.29638671875, 0.0542755126953125, 1.48974609375
34480, -0.005458287429064512, -0.03258847817778587, -0.021606948226690292, 0.0010953204473480582, 6.896423201396829e-07, 0.18412485718727112, 0.0024194938596338034, -1.3458568901114631e-05, 0.33710503578186035, 0, 0, 0, 0, 0, 0, 9362.0, 30146.0, 35388.0, 9362.0, 8.17190170288086, -0.044589895755052567, -0.009303133003413677, 0.1635861098766327, 0.015384814701974392, -0.024816304445266724, 1.0315353870391846, -0.08132986724376678, -0.1291980743408203, 1.4853515625, 1.29638671875, 0.0542755126953125, 1.490478515625
34490, -0.003720620647072792, -0.031690582633018494, -0.021593162789940834, 0.0010953204473480582, 6.896423201396829e-07, 0.18412485718727112, 0.0024194938596338034, -1.3458568901114631e-05, 0.33710503578186035, 0, 0, 0, 0, 0, 0, 9362.0, 30146.0, 35388.0, 9362.0, 8.17190170288086, 0.07145968079566956, 0.39777323603630066, -0.014426499605178833, 0.015384814701974392, -0.024816304445266724, 1.0315353870391846, -0.08132986724376678, -0.1291980743408203, 1.4853515625, 1.29638671875, 0.0542755126953125, 1.493408203125
34500, -0.0027844987343996763, -0.03412513807415962, -0.020776722580194473, 0.0010953204473480582, 6.896423201396829e-07, 0.18412485718727112, 0.0024194938596338034, -1.3458568901114631e-05, 0.33710503578186035, 0, 0, 0, 0, 0, 0, 9362.0, 30146.0, 35388.0, 9362.0, 8.17190170288086, 0.011060787364840508, -0.067195363342762, -0.19214318692684174, 0.013692484237253666, -0.0267938319593668, 1.0318968296051025, -0.08132986724376678, -0.1291980743408203, 1.4853515625, 1.34033203125, 0.0166168212890625, 1.48681640625
34510, -0.0025428999215364456, -0.03340250998735428, -0.02187589928507805, 0.0011967025930061936, 6.556718403771811e-07, 0.19785764813423157, 0.0026484897825866938, 1.3931400644651148e-05, 0.34957730770111084, 0, 0, 0, 0, 0, 0, 9362.0, 30146.0, 35388.0, 9362.0, 8.17190170288086, 0.011060787364840508, -0.067195363342762, -0.19214318692684174, 0.013692484237253666, -0.0267938319593668, 1.0318968296051025, -0.08132986724376678, -0.1291980743408203, 1.4853515625, 1.332275390625, 0.019561767578125, 1.48681640625
34530, -0.0017684573540464044, -0.03435260429978371, -0.022196296602487564, 0.0012234890600666404, 8.194809311135032e-07, 0.20136919617652893, 0.0027087596245110035, 1.88159647223074e-05, 0.3527332842350006, 0, 0, 0, 0, 0, 0, 9362.0, 30146.0, 35388.0, 9362.0, 8.17190170288086, 0.14925238490104675, 0.2550155520439148, 0.06338753551244736, 0.013692484237253666, -0.0267938319593668, 1.0318968296051025, -0.08132986724376678, -0.1291980743408203, 1.4853515625, 1.332275390625, 0.019561767578125, 1.49267578125
34550, 0.00038137889350764453, -0.03559568524360657, -0.025555698201060295, 0.0013074163580313325, 1.5813427580724237e-06, 0.2120826691389084, 0.0028875628486275673, 3.1005347409518436e-05, 0.3614535927772522, 0, 0, 0, 0, 0, 0, 9362.0, 30146.0, 35388.0, 9362.0, 8.17190170288086, 0.1383013129234314, 0.030859746038913727, -0.47433972358703613, 0.013692484237253666, -0.0267938319593668, 1.0318968296051025, -0.08132986724376678, -0.1291980743408203, 1.4853515625, 1.329345703125, 0.02105712890625, 1.487548828125
34560, 0.0010422230698168278, -0.03569602966308594, -0.02936697006225586, 0.0013074163580313325, 1.5813427580724237e-06, 0.2120826691389084, 0.0028875628486275673, 3.1005347409518436e-05, 0.3614535927772522, 0, 0, 0, 0, 0, 0, 9362.0, 30146.0, 35388.0, 9362.0, 8.17190170288086, 0.1383013129234314, 0.030859746038913727, -0.47433972358703613, 0.013692484237253666, -0.0267938319593668, 1.0318968296051025, -0.08132986724376678, -0.1291980743408203, 1.4853515625, 1.305908203125, 0.0413360595703125, 1.49267578125
34570, 0.0016718038823455572, -0.03617345169186592, -0.03063581883907318, 0.0013074163580313325, 1.5813427580724237e-06, 0.2120826691389084, 0.0028875628486275673, 3.1005347409518436e-05, 0.3614535927772522, 0, 0, 0, 0, 0, 0, 9362.0, 30146.0, 35388.0, 9362.0, 8.17190170288086, -0.14208818972110748, -0.05027324706315994, -0.12407322973012924, 0.01305009052157402, -0.02688625454902649, 1.0291310548782349, -0.08132986724376678, -0.1291980743408203, 1.4853515625, 1.294189453125, 0.0578155517578125, 1.4912109375
34590, 0.0020007614511996508, -0.039147790521383286, -0.030174752697348595, 0.0013968696584925056, 2.5334852580272127e-06, 0.22305874526500702, 0.0030761039815843105, 3.0037715987418778e-05, 0.37026333808898926, 0, 0, 0, 0, 0, 0, 9362.0, 30146.0, 35388.0, 9362.0, 8.17190170288086, 0.003996275831013918, -0.28903502225875854, 0.14796817302703857, 0.01305009052157402, -0.02688625454902649, 1.0291310548782349, -0.08132986724376678, -0.1291980743408203, 1.4853515625, 1.294189453125, 0.0578155517578125, 1.49267578125
34600, 0.0007076597539708018, -0.03845299035310745, -0.028749100863933563, 0.0013968696584925056, 2.5334852580272127e-06, 0.22305874526500702, 0.0030761039815843105, 3.0037715987418778e-05, 0.37026333808898926, 0, 0, 0, 0, 0, 0, 9362.0, 30146.0, 35388.0, 9362.0, 8.17190170288086, 0.003996275831013918, -0.28903502225875854, 0.14796817302703857, 0.01305009052157402, -0.02688625454902649, 1.0291310548782349, -0.08132986724376678, -0.1291980743408203, 1.4853515625, 1.3388671875, 0.017120361328125, 1.4912109375
34610, 0.0011063739657402039, -0.04023970291018486, -0.02918119728565216, 0.0013968696584925056, 2.5334852580272127e-06, 0.22305874526500702, 0.0030761039815843105, 3.0037715987418778e-05, 0.37026333808898926, 0, 0, 0, 0, 0, 0, 9362.0, 30146.0, 35388.0, 9362.0, 8.17190170288086, 0.03124779835343361, -0.05371417477726936, -0.05256256088614464, 0.01090643648058176, -0.023899171501398087, 1.0320039987564087, -0.08132986724376678, -0.1291980743408203, 1.4853515625, 1.3388671875, 0.017120361328125, 1.494140625
