timeTick, roll, pitch, yaw, stateX, stateY, stateZ, stateVX, stateVY, stateVZ, otX0, otY0, otZ0, otRoll0, otPitch0, otYaw0, left wing, pitch motor, yaw motor, right wing, voltage, roll rate, pitch rate, yaw rate, A_x, A_y, A_z, current, i_raw, v_raw, airflow_voltage, airflow_speed, pot_Pitch
48080, -0.0005625550984404981, -0.00010125648259418085, 0.0003320016840007156, 0, 0, 0, 0, 0, 0, 0.047781363129615784, 0.1580217033624649, 0.06875105202198029, 0.16203478115838688, 0.4485765198250249, -5.012910880116965, 0, 0, 0, 0, 0, 0, 0, 0, 0, 0, 0, 0, 0, 0, 0, 0, 0
48090, -0.001509752357378602, 0.000657430209685117, 0.0004229773476254195, 0.0, 0.0, 1.5047553461045027e-05, 5.31841282125356e-09, 2.9548663960099475e-08, 0.0030095039401203394, 0.047842949628829956, 0.158040389418602, 0.06880155950784683, 0.1681222335497171, 0.429820363396459, -5.017317271468442, 9362.0, 30146.0, 35388.0, 9362.0, 7.9140496253967285, 0.06071099266409874, 0.1096409410238266, 0.14768041670322418, 0.007239602506160736, -0.03441303223371506, 1.0307745933532715, 0, 0, 0, 0, 0, 0
48100, -0.0019428931409493089, 7.057450420688838e-05, 0.0007557735661976039, 9.463164696299486e-10, 5.257656088275553e-09, 6.0034915804862976e-05, 1.4449892660195474e-07, 1.0712271887314273e-06, 0.005988374352455139, 0.04783138260245323, 0.158018097281456, 0.06878881901502609, 0.16584609625620533, 0.4290939928397677, -5.01972445771175, 9362.0, 30146.0, 35388.0, 9362.0, 7.933885097503662, 0.01990850456058979, -0.017638228833675385, -0.16593626141548157, 0.0072881728410720825, -0.03585172817111015, 1.0286686420440674, -0.11313442140817642, -0.07543754577636719, 1.48974609375, 1.310302734375, 0.036285400390625, 1.48974609375
48110, -0.0023258395958691835, -0.0007746310438960791, 0.0009054369293153286, -3.4057934250597555e-09, 2.928235254273659e-08, 0.00013463268987834454, -9.847919955063844e-07, 3.7559545944532147e-06, 0.008931586518883705, 0.04787465184926987, 0.1580132693052292, 0.06876718997955322, 0.170842089492727, 0.4090916801820583, -5.028334808249796, 9362.0, 30146.0, 35388.0, 9362.0, 7.933885097503662, -0.19566959142684937, -0.09674733132123947, -0.13315580785274506, 0.008107340894639492, -0.03808814287185669, 1.0310161113739014, -0.10588160902261734, -0.07543754577636719, 1.48974609375, 1.31396484375, 0.0325469970703125, 1.4912109375
48120, -0.0021396770607680082, 0.001681242254562676, -0.00017113384092226624, -1.3875746773805986e-08, 8.396001049959523e-08, 0.0002382607781328261, -1.0669793937267968e-06, 7.198710136435693e-06, 0.011794432997703552, 0.04779455438256264, 0.15801754593849182, 0.06873590499162674, 0.16828017001991544, 0.4484144081686168, -5.0037868544182915, 9362.0, 30146.0, 35388.0, 9362.0, 7.933885097503662, -0.06859319657087326, -0.24770879745483398, -0.12794332206249237, 0.007574710063636303, -0.036812301725149155, 1.0327430963516235, -0.1012626513838768, -0.06647872924804688, 1.490478515625, 1.317626953125, 0.0291900634765625, 1.494873046875
48130, -0.0027927218470722437, -0.000515403866302222, 0.0006012984085828066, -1.7705746202523187e-08, 1.764847183949314e-07, 0.0003716351930052042, 1.6877581288099464e-07, 1.129617612605216e-05, 0.014880858361721039, 0.04779462888836861, 0.15802648663520813, 0.06875643879175186, 0.16423344958804972, 0.44934763228977204, -5.013765051677496, 9362.0, 30146.0, 35388.0, 9362.0, 7.933885097503662, 0.06728606671094894, -0.17911365628242493, -0.1769525110721588, 0.0058647277764976025, -0.03485650569200516, 1.0320879220962524, -0.09630640596151352, -0.06647872924804688, 1.490478515625, 1.3125, 0.034027099609375, 1.494140625
48140, -0.0028469576500356197, -0.00022171542514115572, 4.733730384032242e-05, -3.087638589249764e-08, 3.083564763528557e-07, 0.000536310370080173, -2.6812915621121647e-06, 1.5114304005692247e-05, 0.018054572865366936, 0.04779726266860962, 0.15801867842674255, 0.06873683631420135, 0.16212312523588213, 0.45149121851966356, -5.016919868070339, 9362.0, 30146.0, 35388.0, 9362.0, 7.933885097503662, -0.1433856338262558, -0.3399638831615448, -0.3058115541934967, 0.00528852129355073, -0.03540991619229317, 1.0309622287750244, -0.09076043218374252, -0.0037593841552734375, 1.49560546875, 1.297119140625, 0.0532379150390625, 1.487548828125
48150, -0.00338012189604342, -0.0003295666538178921, -0.002513726707547903, -5.313634687809099e-08, 4.841711529479653e-07, 0.0007325211772695184, -1.7867118913272861e-06, 2.005158967222087e-05, 0.02118799462914467, 0.0477987565100193, 0.15802930295467377, 0.0687151700258255, 0.16545644504596144, 0.4514950357021803, -5.006755675649326, 9362.0, 30146.0, 35388.0, 9362.0, 7.933885097503662, 0.06612125784158707, 0.4944000542163849, 0.17944839596748352, 0.005208582151681185, -0.03533385694026947, 1.0298587083816528, -0.08906938135623932, -0.11127853393554688, 1.48681640625, 1.286865234375, 0.070281982421875, 1.494140625
48160, -0.0030685157980769873, -0.002343309111893177, -0.001652996172197163, -6.904755878167634e-08, 7.098022933860193e-07, 0.0009593521826900542, -1.3896801647206303e-06, 2.510244848963339e-05, 0.024178605526685715, 0.04783422872424126, 0.15803465247154236, 0.06877462565898895, 0.1660132326133703, 0.4386874360140496, -5.0244623153564145, 9362.0, 30146.0, 35388.0, 9362.0, 7.933885097503662, 0.16701054573059082, -0.29375770688056946, 0.037468072026968, 0.006957165896892548, -0.036174874752759933, 1.0337516069412231, -0.0919567346572876, -0.14711761474609375, 1.48388671875, 1.279541015625, 0.0847015380859375, 1.4912109375
48170, -0.0023636575788259506, -0.0011745407246053219, -0.003591408720239997, -8.003459583960648e-08, 9.906564173434163e-07, 0.0012162774801254272, -7.014069751676288e-07, 3.1051920814206824e-05, 0.027206867933273315, 0.04780218005180359, 0.15802596509456635, 0.06872939318418503, 0.15985847729747324, 0.44740979532463143, -5.011404028704291, 9362.0, 30146.0, 35388.0, 9362.0, 7.933885097503662, 0.21658924221992493, 0.0662308931350708, -0.12254876643419266, 0.006608661264181137, -0.03516217693686485, 1.031853199005127, -0.08927219361066818, -0.07543754577636719, 1.48974609375, 1.27734375, 0.0894012451171875, 1.491943359375
48180, -0.0020748779643326998, 0.0003477247664704919, -0.0034030312672257423, -6.632087945490639e-08, 1.3283165571920108e-06, 0.0015046370681375265, 3.377880602783989e-06, 3.643988384283148e-05, 0.03046542964875698, 0.04779862239956856, 0.15802495181560516, 0.06873679161071777, 0.1642408339840304, 0.45264727989993503, -5.014426246141813, 9362.0, 30146.0, 35388.0, 9362.0, 7.933885097503662, -0.13425830006599426, -0.10593236982822418, -0.21646156907081604, 0.007287244778126478, -0.03391529247164726, 1.0301462411880493, -0.0872870609164238, -0.11127853393554688, 1.48681640625, 1.276611328125, 0.0910186767578125, 1.4912109375
48190, -0.0019345826003700495, 0.0013375207781791687, -0.004778701346367598, -2.216853189906942e-08, 1.7135878351837164e-06, 0.0018247626721858978, 5.3703729463450145e-06, 4.059880302520469e-05, 0.033560093492269516, 0.0477968230843544, 0.1580158770084381, 0.06872957199811935, 0.16002601097134697, 0.445373330287282, -5.01717673946681, 9362.0, 30146.0, 35388.0, 9362.0, 7.933885097503662, -0.06006752327084541, 0.12497225403785706, -0.0017384375678375363, 0.005937651265412569, -0.037047263234853745, 1.0314726829528809, -0.09162938594818115, -0.07543754577636719, 1.48974609375, 1.27294921875, 0.099334716796875, 1.4853515625
48200, -0.0013514714082702994, 0.0008384113316424191, -0.00283299433067441, 2.84684666951307e-08, 2.1378816654760158e-06, 0.0021753571927547455, 4.705319497588789e-06, 4.425264341989532e-05, 0.036559201776981354, 0.04780447483062744, 0.1580217331647873, 0.06876321136951447, 0.1709883306754494, 0.4520300170801477, -5.012440954374231, 9362.0, 30146.0, 35388.0, 9362.0, 7.933885097503662, 0.07974153757095337, 0.10216741263866425, -0.13040420413017273, 0.004234271589666605, -0.03886110335588455, 1.0330042839050293, -0.08948463946580887, -0.11127853393554688, 1.48681640625, 1.279541015625, 0.0847015380859375, 1.490478515625
48210, -0.00115832535084337, -0.0002193646359955892, -0.001754719647578895, 6.370757432705432e-08, 2.597498905743123e-06, 0.0025565926916897297, 2.369628646192723e-06, 4.7638888645451516e-05, 0.03968831151723862, 0.04780802130699158, 0.15801067650318146, 0.06873168051242828, 0.16195516646164407, 0.45159136932676347, -5.005520167662715, 9362.0, 30146.0, 35388.0, 9362.0, 7.933885097503662, 0.12809450924396515, 0.2715453803539276, 0.1378316581249237, 0.005783065687865019, -0.03854396939277649, 1.0319539308547974, -0.0917343869805336, -0.09335899353027344, 1.48828125, 1.27294921875, 0.099334716796875, 1.487548828125
48220, -0.001297551323659718, -0.0005755231250077486, -0.0012532670516520739, 7.99915227389647e-08, 3.085837306571193e-06, 0.0029695630073547363, 9.465036328037968e-07, 5.0017915782518685e-05, 0.042906131595373154, 0.04782871529459953, 0.15802918374538422, 0.06879568099975586, 0.15976758620596995, 0.4338823311637725, -5.027525723081371, 9362.0, 30146.0, 35388.0, 9362.0, 7.933885097503662, 0.04854866862297058, 0.04978498816490173, -0.07111132889986038, 0.007802168373018503, -0.03862147778272629, 1.0329360961914062, -0.0874582827091217, -0.10231781005859375, 1.487548828125, 1.282470703125, 0.0786590576171875, 1.490478515625
48230, -0.0014724854845553637, -5.9420875913929194e-05, 9.853466508502606e-06, 9.139532153312757e-08, 3.5962520996690728e-06, 0.0034144259989261627, 1.3538797247747425e-06, 5.207272624829784e-05, 0.046066880226135254, 0.047848884016275406, 0.15802808105945587, 0.06877477467060089, 0.16073950148315563, 0.4356087290120456, -5.02681545797826, 9362.0, 30146.0, 35388.0, 9362.0, 7.9140496253967285, -0.2715049088001251, -0.2705661952495575, 0.027547072619199753, 0.006936764344573021, -0.032277949154376984, 1.033270001411438, -0.08642678707838058, -0.10231781005859375, 1.487548828125, 1.2744140625, 0.0959014892578125, 1.490478515625
48240, -0.0012865896569564939, -0.001410578959621489, -0.00021087014465592802, 1.1002470046150847e-07, 4.1284556573373266e-06, 0.003891357686370611, 2.3426553070748923e-06, 5.437793879536912e-05, 0.049319833517074585, 0.04780185595154762, 0.1580354869365692, 0.0687568336725235, 0.15750745127562246, 0.44388383265598463, -5.0189033336738, 9362.0, 30146.0, 35388.0, 9362.0, 7.933885097503662, 0.08680123835802078, 0.1350688636302948, 0.05075617879629135, 0.008773385547101498, -0.036393921822309494, 1.0311229228973389, -0.08652544021606445, -0.08439826965332031, 1.489013671875, 1.27587890625, 0.092620849609375, 1.49267578125
48250, -0.0010651408229023218, -0.003475463017821312, -0.0007346405764110386, 1.33976769234323e-07, 4.685257863457082e-06, 0.004400783684104681, 2.524287538108183e-06, 5.697197047993541e-05, 0.052565786987543106, 0.04780244082212448, 0.1580272912979126, 0.06872262805700302, 0.16851501013825823, 0.45294949094224535, -5.017439930419247, 9362.0, 30146.0, 35388.0, 9362.0, 7.933885097503662, 0.04559813812375069, -0.13104631006717682, 0.023826919496059418, 0.0067394510842859745, -0.03420597314834595, 1.0301223993301392, -0.08705324679613113, -0.12023735046386719, 1.486083984375, 1.27734375, 0.0894012451171875, 1.48828125
48260, -0.0014894689666107297, -0.004329867195338011, 0.0023471724707633257, 1.716633875048501e-07, 5.266327207209542e-06, 0.004941386170685291, 5.120744845044101e-06, 5.923037315369584e-05, 0.05555516481399536, 0.047802019864320755, 0.1580268293619156, 0.06873752176761627, 0.15437458637323784, 0.44391365467248534, -5.016419396936532, 9362.0, 30146.0, 35388.0, 9362.0, 7.933885097503662, -0.15552902221679688, -0.0693102478981018, 0.21661359071731567, 0.006602175999432802, -0.03391094505786896, 1.0317217111587524, -0.08593274652957916, -0.08439826965332031, 1.489013671875, 1.286865234375, 0.070281982421875, 1.4912109375
48270, -0.001773873227648437, -0.0025767150800675154, 0.002864070236682892, 2.5352531451972027e-07, 5.868025255040266e-06, 0.0055117979645729065, 1.1295854164927732e-05, 6.113155541243032e-05, 0.058527637273073196, 0.04780105501413345, 0.1580142378807068, 0.06872502714395523, 0.1585178452799565, 0.4519342767976866, -5.011176840692099, 9362.0, 30146.0, 35388.0, 9362.0, 7.933885097503662, -0.03294575214385986, -0.11306411772966385, 0.053474411368370056, 0.008091110736131668, -0.03369775041937828, 1.0329556465148926, -0.08248365670442581, -0.07543754577636719, 1.48974609375, 1.28759765625, 0.068939208984375, 1.494873046875
48280, -0.0017627016641199589, -0.000989423948340118, 0.0019413023255765438, 4.047504376103461e-07, 6.492506145150401e-06, 0.006112949922680855, 1.8852024368243292e-05, 6.378045509336516e-05, 0.06170319393277168, 0.04784568399190903, 0.15803635120391846, 0.06877367943525314, 0.16371086660173745, 0.4253892832537929, -5.02959733217793, 9362.0, 30146.0, 35388.0, 9362.0, 7.933885097503662, 0.1310095340013504, 0.10363831371068954, 0.10079608112573624, 0.00736340181902051, -0.03544546663761139, 1.0322355031967163, -0.0817084014415741, -0.07543754577636719, 1.48974609375, 1.30517578125, 0.0422515869140625, 1.4912109375
48290, -0.0018231705762445927, -0.000781731097958982, 0.0014376953477039933, 6.160528300824808e-07, 7.145996278268285e-06, 0.006746081169694662, 2.3319329557125457e-05, 6.691682210657746e-05, 0.06492343544960022, 0.04780875891447067, 0.1580236554145813, 0.06875203549861908, 0.15701193960841572, 0.44423780467064944, -5.012705120030113, 9362.0, 30146.0, 35388.0, 9362.0, 7.933885097503662, 0.10239846259355545, -0.07836543768644333, -0.27947595715522766, 0.005951222963631153, -0.03782903775572777, 1.0293292999267578, -0.08080652356147766, -0.08439826965332031, 1.489013671875, 1.30810546875, 0.0388031005859375, 1.48681640625
48300, -0.0023265245836228132, -0.0003371747152414173, 0.0015471528749912977, 8.579812629250227e-07, 7.83072755439207e-06, 0.007410681340843439, 2.505524935259018e-05, 7.00326927471906e-05, 0.06799696385860443, 0.04779847338795662, 0.15802110731601715, 0.0687430277466774, 0.15938916820860627, 0.4480174344846546, -5.022002083190938, 9362.0, 30146.0, 35388.0, 9362.0, 7.933885097503662, -0.18701519072055817, 0.03918538615107536, -0.05449661985039711, 0.006850027479231358, -0.034923113882541656, 1.0315814018249512, -0.08226142078638077, -0.030637741088867188, 1.493408203125, 1.283935546875, 0.075897216796875, 1.491943359375
48310, -0.003341483185067773, 0.001302064280025661, 0.001827137777581811, 1.1154256753798109e-06, 8.547129255020991e-06, 0.008105307817459106, 2.6410880309413187e-05, 7.327331695705652e-05, 0.07092878222465515, 0.04784337431192398, 0.1580318659543991, 0.06876976788043976, 0.16842626861642368, 0.4317330379252269, -5.024937417860444, 9362.0, 30146.0, 35388.0, 9362.0, 7.933885097503662, 0.12130583077669144, -0.20535506308078766, 0.20275525748729706, 0.006319053936749697, -0.034999214112758636, 1.033290982246399, -0.08395615965127945, -0.13815879821777344, 1.484619140625, 1.282470703125, 0.0786590576171875, 1.491943359375
48320, -0.0035494097974151373, 0.00025276170345023274, 0.0020653672982007265, 1.3825133464706596e-06, 9.300420970248524e-06, 0.008830389007925987, 2.6916306524071842e-05, 7.74409418227151e-05, 0.07408792525529861, 0.04782578721642494, 0.15801560878753662, 0.06875868141651154, 0.16466049651369213, 0.432410265795113, -5.017304656563216, 9362.0, 30146.0, 35388.0, 9362.0, 7.933885097503662, -0.09260299056768417, -0.38321590423583984, -0.3530820310115814, 0.005354830529540777, -0.038017600774765015, 1.0318015813827515, -0.08588287979364395, -0.10231781005859375, 1.487548828125, 1.28466796875, 0.07440185546875, 1.49267578125
48330, -0.004053005017340183, 0.0026066687423735857, 0.002365255728363991, 1.6401633047280484e-06, 1.0104373359354213e-05, 0.009587344713509083, 2.467252670612652e-05, 8.336121391039342e-05, 0.07730354368686676, 0.04785111919045448, 0.15803678333759308, 0.0687679871916771, 0.16606513953124102, 0.43169873696544414, -5.028806795475033, 9362.0, 30146.0, 35388.0, 9362.0, 7.933885097503662, 0.0786353275179863, -0.1255272924900055, 0.17558510601520538, 0.0056944843381643295, -0.035874150693416595, 1.031455636024475, -0.08428536355495453, -0.06647872924804688, 1.490478515625, 1.282470703125, 0.0786590576171875, 1.4853515625
48340, -0.0038408085238188505, 0.004370111506432295, 0.003629163606092334, 1.884654921013862e-06, 1.0969335562549531e-05, 0.01037594024091959, 2.4097980713122524e-05, 8.965851156972349e-05, 0.08041593432426453, 0.047802019864320755, 0.15802177786827087, 0.06872693449258804, 0.16292066741565697, 0.45480210624882034, -5.006485030297981, 9362.0, 30146.0, 35388.0, 9362.0, 7.933885097503662, -0.01400804053992033, 0.06195266544818878, 0.2564389407634735, 0.007411458529531956, -0.03888244926929474, 1.0297988653182983, -0.08520294725894928, -0.10231781005859375, 1.487548828125, 1.276611328125, 0.0910186767578125, 1.4912109375
48350, -0.0042861890979111195, 0.0032601142302155495, 0.004597506020218134, 2.102626467603841e-06, 1.1901691323146224e-05, 0.011195296421647072, 1.9402688849368133e-05, 9.680141374701634e-05, 0.08345570415258408, 0.04781048744916916, 0.15804319083690643, 0.06873790919780731, 0.16111000007208764, 0.45441805255322265, -5.014686340822386, 9362.0, 30146.0, 35388.0, 9362.0, 7.933885097503662, 0.17316947877407074, -0.11970031261444092, -0.02381243370473385, 0.007411458529531956, -0.03888244926929474, 1.0297988653182983, -0.08254517614841461, -0.07543754577636719, 1.48974609375, 1.283203125, 0.0772247314453125, 1.4912109375
48360, -0.004376673139631748, 0.003680306486785412, 0.005225410219281912, 2.102626467603841e-06, 1.1901691323146224e-05, 0.011195296421647072, 1.9402688849368133e-05, 9.680141374701634e-05, 0.08345570415258408, 0.04785294458270073, 0.15803715586662292, 0.06875475496053696, 0.16437072409809833, 0.4286091482165659, -5.025422168494064, 9362.0, 30146.0, 35388.0, 9362.0, 7.933885097503662, 0.05529867485165596, 0.05320415645837784, 0.09977634251117706, 0.007411458529531956, -0.03888244926929474, 1.0297988653182983, -0.08254517614841461, -0.07543754577636719, 1.48974609375, 1.283203125, 0.0772247314453125, 1.491943359375
48370, -0.0047164917923510075, 0.0037839391734451056, 0.005152034107595682, 2.102626467603841e-06, 1.1901691323146224e-05, 0.011195296421647072, 1.9402688849368133e-05, 9.680141374701634e-05, 0.08345570415258408, 0.047846149653196335, 0.15803128480911255, 0.06878002732992172, 0.16341423863086557, 0.4267084001623971, -5.034732720410865, 9362.0, 30146.0, 35388.0, 9362.0, 7.933885097503662, 0.009468327276408672, 0.1751737743616104, -0.06116617098450661, 0.007411458529531956, -0.03888244926929474, 1.0297988653182983, -0.08254517614841461, -0.07543754577636719, 1.48974609375, 1.283203125, 0.0772247314453125, 1.49267578125
48380, -0.005029730498790741, 0.0011337676551192999, 0.005656317342072725, 2.102626467603841e-06, 1.1901691323146224e-05, 0.011195296421647072, 1.9402688849368133e-05, 9.680141374701634e-05, 0.08345570415258408, 0.04784750938415527, 0.1580311506986618, 0.06876280158758163, 0.16819061790469392, 0.4338086798479708, -5.029796903082105, 9362.0, 30146.0, 35388.0, 9362.0, 7.933885097503662, 0.009468327276408672, 0.1751737743616104, -0.06116617098450661, 0.007411458529531956, -0.03888244926929474, 1.0297988653182983, -0.08254517614841461, -0.07543754577636719, 1.48974609375, 1.283203125, 0.0772247314453125, 1.4853515625
48390, -0.006053695920854807, 0.0037451626267284155, 0.004777085036039352, 2.102626467603841e-06, 1.1901691323146224e-05, 0.011195296421647072, 1.9402688849368133e-05, 9.680141374701634e-05, 0.08345570415258408, 0.0478118434548378, 0.1580417901277542, 0.06873436272144318, 0.16328977613966483, 0.44795204295112967, -5.005085593999858, 9362.0, 30146.0, 35388.0, 9362.0, 7.933885097503662, 0.009468327276408672, 0.1751737743616104, -0.06116617098450661, 0.009023107588291168, -0.03798079118132591, 1.03109872341156, -0.08254517614841461, -0.07543754577636719, 1.48974609375, 1.283203125, 0.0772247314453125, 1.489013671875
48400, -0.006485433783382177, 0.003535489784553647, 0.004884449299424887, 2.102626467603841e-06, 1.1901691323146224e-05, 0.011195296421647072, 1.9402688849368133e-05, 9.680141374701634e-05, 0.08345570415258408, 0.047844432294368744, 0.15803883969783783, 0.06877584755420685, 0.16297606093655798, 0.43719985959344854, -5.021557638238381, 9362.0, 30146.0, 35388.0, 9362.0, 7.933885097503662, -0.11142968386411667, 0.07278849929571152, 0.018185585737228394, 0.007928372360765934, -0.03398456051945686, 1.030319094657898, -0.08254517614841461, -0.07543754577636719, 1.48974609375, 1.283203125, 0.0772247314453125, 1.489013671875
48410, -0.006526363547891378, 0.004761021118611097, 0.004481577314436436, 2.102626467603841e-06, 1.1901691323146224e-05, 0.011195296421647072, 1.9402688849368133e-05, 9.680141374701634e-05, 0.08345570415258408, 0.04780998453497887, 0.15802600979804993, 0.06870473921298981, 0.16917896747631603, 0.4517978932057076, -5.004552236277987, 9362.0, 30146.0, 35388.0, 9362.0, 7.933885097503662, 0.3093949854373932, -0.12258472293615341, 0.08950036019086838, 0.006020820699632168, -0.035310372710227966, 1.0330028533935547, -0.08254517614841461, -0.07543754577636719, 1.48974609375, 1.2802734375, 0.0831756591796875, 1.489013671875
48420, -0.007048509549349546, 0.006729296408593655, 0.005049926228821278, 2.102626467603841e-06, 1.1901691323146224e-05, 0.011195296421647072, 1.9402688849368133e-05, 9.680141374701634e-05, 0.08345570415258408, 0.04780388996005058, 0.15803319215774536, 0.06875090301036835, 0.15829523242610527, 0.44876283255726435, -5.012892848935058, 9362.0, 30146.0, 35388.0, 9362.0, 7.933885097503662, -0.018490230664610863, -0.034660376608371735, 0.18915314972400665, 0.008353332057595253, -0.03774655982851982, 1.0325428247451782, -0.08139695227146149, -0.04855918884277344, 1.491943359375, 1.2802734375, 0.0831756591796875, 1.489013671875
48430, -0.007565291132777929, 0.006013209465891123, 0.005416743457317352, 1.6764111023803707e-06, 2.2258311219047755e-05, 0.01884443126618862, -3.0658371542813256e-05, 0.00016991626762319356, 0.10791651159524918, 0.0478004515171051, 0.1580154299736023, 0.06872832030057907, 0.1595483803649922, 0.4472041654564407, -5.012342720944371, 9362.0, 30146.0, 35388.0, 9362.0, 7.933885097503662, -0.12895852327346802, -0.0388558954000473, 0.012699984014034271, 0.007493282668292522, -0.03630540892481804, 1.0332504510879517, -0.08139695227146149, -0.04855918884277344, 1.491943359375, 1.2802734375, 0.0831756591796875, 1.487548828125
48440, -0.007682024035602808, 0.004463251680135727, 0.00632028141990304, 1.6764111023803707e-06, 2.2258311219047755e-05, 0.01884443126618862, -3.0658371542813256e-05, 0.00016991626762319356, 0.10791651159524918, 0.0478423535823822, 0.15802279114723206, 0.0687483623623848, 0.1629168415489426, 0.42813382710050973, -5.021859862554024, 9362.0, 30146.0, 35388.0, 9362.0, 7.933885097503662, -0.06688691675662994, -0.2631033957004547, -0.07427352666854858, 0.006536198314279318, -0.03757127374410629, 1.0285682678222656, -0.08171828836202621, -0.030637741088867188, 1.493408203125, 1.2802734375, 0.0831756591796875, 1.487548828125
48450, -0.00855796504765749, 0.008204907178878784, 0.003780629253014922, 1.6764111023803707e-06, 2.2258311219047755e-05, 0.01884443126618862, -3.0658371542813256e-05, 0.00016991626762319356, 0.10791651159524918, 0.047807421535253525, 0.15802891552448273, 0.0687510222196579, 0.1647879529473629, 0.4499248883320206, -4.999876072455403, 9362.0, 30146.0, 35388.0, 9362.0, 7.933885097503662, -0.1589871346950531, -0.1784108728170395, 0.06244484335184097, 0.0072862692177295685, -0.036797452718019485, 1.0308412313461304, -0.08171828836202621, -0.030637741088867188, 1.493408203125, 1.2802734375, 0.0831756591796875, 1.493408203125
48460, -0.008863678202033043, 0.007484999019652605, 0.004692371003329754, 2.6199057856501895e-07, 2.7936264814343303e-05, 0.022224340587854385, -6.111699622124434e-05, 0.0002093631192110479, 0.11715362221002579, 0.04787660017609596, 0.15801209211349487, 0.06874145567417145, 0.1722228233404996, 0.41459310154988316, -5.03476725230948, 9362.0, 30146.0, 35388.0, 9362.0, 7.933885097503662, 0.07779568433761597, 0.16116255521774292, 0.1326092928647995, 0.006915390491485596, -0.03658038005232811, 1.029758334159851, -0.08171828836202621, -0.030637741088867188, 1.493408203125, 1.2802734375, 0.0831756591796875, 1.491943359375
48470, -0.008179922588169575, 0.009179959073662758, 0.0022874600253999233, 2.6199057856501895e-07, 2.7936264814343303e-05, 0.022224340587854385, -6.111699622124434e-05, 0.0002093631192110479, 0.11715362221002579, 0.0478174090385437, 0.15803207457065582, 0.06873448938131332, 0.16163495569245598, 0.44941659652351973, -5.008888463772036, 9362.0, 30146.0, 35388.0, 9362.0, 7.933885097503662, -0.003857143223285675, -0.4950619041919708, -0.3189769983291626, 0.006136518903076649, -0.03625039383769035, 1.0305454730987549, -0.08171828836202621, -0.030637741088867188, 1.493408203125, 1.2802734375, 0.0831756591796875, 1.491943359375
48480, -0.008793734945356846, 0.011004305444657803, 0.0021319077350199223, 2.6199057856501895e-07, 2.7936264814343303e-05, 0.022224340587854385, -6.111699622124434e-05, 0.0002093631192110479, 0.11715362221002579, 0.0478459894657135, 0.1580316573381424, 0.06879240274429321, 0.16550703410741005, 0.4324372525123863, -5.023781693749977, 9362.0, 30146.0, 35388.0, 9362.0, 7.933885097503662, 0.11352603882551193, 0.14679551124572754, -0.10664591938257217, 0.0072941225953400135, -0.03513664752244949, 1.0320988893508911, -0.08970223367214203, -0.07543754577636719, 1.48974609375, 1.2802734375, 0.0831756591796875, 1.491943359375
48490, -0.00849737599492073, 0.010262679308652878, 0.00035850837593898177, 2.6199057856501895e-07, 2.7936264814343303e-05, 0.022224340587854385, -6.111699622124434e-05, 0.0002093631192110479, 0.11715362221002579, 0.0478399321436882, 0.15803366899490356, 0.06878026574850082, 0.16099443665841695, 0.4219979614437932, -5.02277856907198, 9362.0, 30146.0, 35388.0, 9362.0, 7.933885097503662, -0.26778170466423035, -0.4406081438064575, -0.16691942512989044, 0.005954338703304529, -0.03794905170798302, 1.031718373298645, -0.09110081195831299, -0.09335899353027344, 1.48828125, 1.2802734375, 0.0831756591796875, 1.491943359375
48500, -0.010605580173432827, 0.011953682638704777, 1.5039301615615841e-05, 2.6199057856501895e-07, 2.7936264814343303e-05, 0.022224340587854385, -6.111699622124434e-05, 0.0002093631192110479, 0.11715362221002579, 0.04784141480922699, 0.15802951157093048, 0.06876511871814728, 0.16420177713881498, 0.4377350623939833, -5.019044692317915, 9362.0, 30146.0, 35388.0, 9362.0, 7.933885097503662, -0.04388817399740219, 0.2203325778245926, 0.10627061873674393, 0.0077513037249445915, -0.041002970188856125, 1.0325274467468262, -0.08953441679477692, -0.06647872924804688, 1.490478515625, 1.2802734375, 0.0831756591796875, 1.48828125
48510, -0.009759676642715931, 0.010631121695041656, 0.0008972904179245234, -4.697262738773134e-06, 4.029993215226568e-05, 0.028457272797822952, -0.0001427619718015194, 0.0002851838944479823, 0.1323355734348297, 0.04780857637524605, 0.158035546541214, 0.06873169541358948, 0.16618740871167106, 0.4566550361707584, -5.008664270540881, 9362.0, 30146.0, 35388.0, 9362.0, 7.9140496253967285, 0.08893429487943649, -0.15797987580299377, -0.2660996913909912, 0.0077513037249445915, -0.041002970188856125, 1.0325274467468262, -0.08953441679477692, -0.06647872924804688, 1.490478515625, 1.2802734375, 0.0831756591796875, 1.48828125
48520, -0.010220996104180813, 0.01192751806229353, -0.0007964383694343269, -6.23060896032257e-06, 4.3245574488537386e-05, 0.029796890914440155, -0.00016383259207941592, 0.0003038961149286479, 0.13558843731880188, 0.047883521765470505, 0.15802305936813354, 0.06875619292259216, 0.16521479790861762, 0.4060900800524223, -5.0334935119452595, 9362.0, 30146.0, 35388.0, 9362.0, 7.933885097503662, -0.01107957772910595, -0.4626944959163666, -0.2387336939573288, 0.007670441176742315, -0.03639742359519005, 1.0327516794204712, -0.08953441679477692, -0.06647872924804688, 1.490478515625, 1.2802734375, 0.0831756591796875, 1.491943359375
48530, -0.009848942048847675, 0.01190674863755703, -0.0007986231939867139, -6.23060896032257e-06, 4.3245574488537386e-05, 0.029796890914440155, -0.00016383259207941592, 0.0003038961149286479, 0.13558843731880188, 0.047806695103645325, 0.15803831815719604, 0.06875448673963547, 0.15557831700329575, 0.4460063497066358, -5.014150512813778, 9362.0, 30146.0, 35388.0, 9362.0, 7.9140496253967285, 0.10087712109088898, 0.22271202504634857, 0.23331035673618317, 0.008048703894019127, -0.036653365939855576, 1.0311002731323242, -0.08953441679477692, -0.06647872924804688, 1.490478515625, 1.2802734375, 0.0831756591796875, 1.491943359375
48540, -0.010144551284611225, 0.011772127822041512, 0.002089162589982152, -9.896006304188631e-06, 4.9673504690872505e-05, 0.03257586434483528, -0.00020383292576298118, 0.00033926672767847776, 0.14220759272575378, 0.04784834012389183, 0.15801982581615448, 0.06877902150154114, 0.163689831582027, 0.430298791399224, -5.021279368131513, 9362.0, 30146.0, 35388.0, 9362.0, 7.9140496253967285, 0.11962473392486572, 0.05893133208155632, 0.0647757276892662, 0.007997075095772743, -0.033592481166124344, 1.0285967588424683, -0.08953441679477692, -0.06647872924804688, 1.490478515625, 1.2802734375, 0.0831756591796875, 1.490478515625
48550, -0.009957540780305862, 0.013666586950421333, 0.0018732938915491104, -9.896006304188631e-06, 4.9673504690872505e-05, 0.03257586434483528, -0.00020383292576298118, 0.00033926672767847776, 0.14220759272575378, 0.04779079183936119, 0.15803521871566772, 0.06873876601457596, 0.16725054099351747, 0.45458495119359554, -5.00804913353768, 9362.0, 30146.0, 35388.0, 9362.0, 7.9140496253967285, -0.3184886872768402, -0.09123426675796509, -0.0033844774588942528, 0.005604411941021681, -0.03256313502788544, 1.0291792154312134, -0.08180535584688187, -0.021678924560546875, 1.494140625, 1.2802734375, 0.0831756591796875, 1.490478515625
48570, -0.009053339250385761, 0.014929099939763546, 0.000681697390973568, -1.4391258446266875e-05, 5.680886170011945e-05, 0.03547830507159233, -0.00024564930936321616, 0.00037450584932230413, 0.1479548215866089, 0.04784315079450607, 0.15803511440753937, 0.06876800209283829, 0.160717544002832, 0.4326963304161495, -5.019807018232922, 9362.0, 30146.0, 35388.0, 9362.0, 7.9140496253967285, 0.003074048785492778, 0.0506628155708313, -0.18537180125713348, 0.006246568169444799, -0.03711766377091408, 1.0294826030731201, -0.08180535584688187, -0.021678924560546875, 1.494140625, 1.2802734375, 0.0831756591796875, 1.490478515625
48580, -0.008179805241525173, 0.015467142686247826, 0.0006464676116593182, -1.4391258446266875e-05, 5.680886170011945e-05, 0.03547830507159233, -0.00024564930936321616, 0.00037450584932230413, 0.1479548215866089, 0.047845181077718735, 0.15804480016231537, 0.06879124045372009, 0.16432367749564752, 0.42929522867697756, -5.026147020509829, 9362.0, 30146.0, 35388.0, 9362.0, 7.9140496253967285, -0.14897626638412476, 0.07374445348978043, 0.06048407405614853, 0.006246568169444799, -0.03711766377091408, 1.0294826030731201, -0.08180535584688187, -0.021678924560546875, 1.494140625, 1.2802734375, 0.0831756591796875, 1.490478515625
48590, -0.008308564312756062, 0.017249085009098053, -0.0013904335210099816, -1.4391258446266875e-05, 5.680886170011945e-05, 0.03547830507159233, -0.00024564930936321616, 0.00037450584932230413, 0.1479548215866089, 0.047849833965301514, 0.15803399682044983, 0.06877840310335159, 0.15622873476371665, 0.43493759758746364, -5.029208640615197, 9362.0, 30146.0, 35388.0, 9362.0, 7.933885097503662, 0.18629948794841766, -0.2778650224208832, -0.2450486421585083, 0.006246568169444799, -0.03711766377091408, 1.0294826030731201, -0.08180535584688187, -0.021678924560546875, 1.494140625, 1.2802734375, 0.0831756591796875, 1.490478515625
48600, -0.008025633171200752, 0.018970394507050514, -0.0029336586594581604, -2.6226072805002332e-05, 7.314456161111593e-05, 0.0416327640414238, -0.00034885123022831976, 0.00043961586197838187, 0.15985576808452606, 0.04780105873942375, 0.15804389119148254, 0.06873758882284164, 0.1660606171013826, 0.44392613734518704, -5.007296088112031, 9362.0, 30146.0, 35388.0, 9362.0, 7.933885097503662, 0.018008777871727943, -0.30150607228279114, -0.27848851680755615, 0.006285218056291342, -0.03816358745098114, 1.0320450067520142, -0.08180535584688187, -0.021678924560546875, 1.494140625, 1.2802734375, 0.0831756591796875, 1.493408203125
48610, -0.007428768090903759, 0.019335485994815826, -0.005227384623140097, -2.6226072805002332e-05, 7.314456161111593e-05, 0.0416327640414238, -0.00034885123022831976, 0.00043961586197838187, 0.15985576808452606, 0.047848038375377655, 0.1580410748720169, 0.0687912255525589, 0.1597268549485228, 0.44083428359567733, -5.031392191600837, 9362.0, 30146.0, 35388.0, 9362.0, 7.9140496253967285, 0.018008777871727943, -0.30150607228279114, -0.27848851680755615, 0.006920328829437494, -0.037898216396570206, 1.0303988456726074, -0.08180535584688187, -0.021678924560546875, 1.494140625, 1.2802734375, 0.0831756591796875, 1.49560546875
48680, -0.009205715730786324, 0.016047975048422813, -0.0036924006417393684, -6.515411951113492e-05, 0.00011345017264829949, 0.05558672547340393, -0.0006109924288466573, 0.0005577526753768325, 0.18451113998889923, 0.047849465161561966, 0.15803873538970947, 0.06879658252000809, 0.16661870312603994, 0.4300373457910496, -5.0241135154343635, 9362.0, 30146.0, 35388.0, 9362.0, 7.933885097503662, 0.11929797381162643, 0.3271559774875641, -0.0838293582201004, 0.007218507584184408, -0.03863443061709404, 1.0313329696655273, -0.08180535584688187, -0.021678924560546875, 1.494140625, 1.2802734375, 0.0831756591796875, 1.49560546875
48690, -0.0097005320712924, 0.01574125327169895, -0.004989173728972673, -6.515411951113492e-05, 0.00011345017264829949, 0.05558672547340393, -0.0006109924288466573, 0.0005577526753768325, 0.18451113998889923, 0.04784874618053436, 0.15802502632141113, 0.06878167390823364, 0.17062122158014856, 0.4267781424426005, -5.01580408731043, 9362.0, 30146.0, 35388.0, 9362.0, 7.933885097503662, -0.1901458203792572, 0.0072343312203884125, -0.01705474965274334, 0.009013052098453045, -0.03774520754814148, 1.0328179597854614, -0.08180535584688187, -0.021678924560546875, 1.494140625, 1.2802734375, 0.0831756591796875, 1.49560546875
48710, -0.010468533262610435, 0.010563241317868233, -0.0030767754651606083, -6.515411951113492e-05, 0.00011345017264829949, 0.05558672547340393, -0.0006109924288466573, 0.0005577526753768325, 0.18451113998889923, 0.047879353165626526, 0.15802183747291565, 0.06877923756837845, 0.17358743342177832, 0.41614291409257476, -5.031027354386812, 9362.0, 30146.0, 35388.0, 9362.0, 7.933885097503662, -0.0662340298295021, -0.0012536910362541676, 0.015484178438782692, 0.007344377227127552, -0.034964144229888916, 1.0335391759872437, -0.08180535584688187, -0.021678924560546875, 1.494140625, 1.2802734375, 0.0831756591796875, 1.494140625
48720, -0.0105538759380579, 0.011932361871004105, -0.004405012354254723, -6.515411951113492e-05, 0.00011345017264829949, 0.05558672547340393, -0.0006109924288466573, 0.0005577526753768325, 0.18451113998889923, 0.0478125736117363, 0.15802845358848572, 0.06873754411935806, 0.16171290682371448, 0.45219945838692865, -5.0012860594906545, 9362.0, 30146.0, 35388.0, 9362.0, 7.933885097503662, -0.13482041656970978, -0.08165484666824341, -0.37629616260528564, 0.008261111564934254, -0.03601967915892601, 1.0317673683166504, -0.08180535584688187, -0.021678924560546875, 1.494140625, 1.2802734375, 0.0831756591796875, 1.494140625
48730, -0.010551951825618744, 0.012437538243830204, -0.005532287526875734, -6.515411951113492e-05, 0.00011345017264829949, 0.05558672547340393, -0.0006109924288466573, 0.0005577526753768325, 0.18451113998889923, 0.047809552401304245, 0.15803304314613342, 0.06873110681772232, 0.16817411150374303, 0.4517905655080199, -5.005712787255071, 9362.0, 30146.0, 35388.0, 9362.0, 7.933885097503662, -0.22884756326675415, -0.3877864181995392, -0.013535373844206333, 0.00916766095906496, -0.035351064056158066, 1.030012845993042, -0.08180535584688187, -0.021678924560546875, 1.494140625, 1.2802734375, 0.0831756591796875, 1.493408203125
48740, -0.01062911655753851, 0.015737034380435944, -0.005196321289986372, -6.515411951113492e-05, 0.00011345017264829949, 0.05558672547340393, -0.0006109924288466573, 0.0005577526753768325, 0.18451113998889923, 0.04780952259898186, 0.15803030133247375, 0.06873548030853271, 0.17008429928852978, 0.4529335650147175, -5.007058196254891, 9362.0, 30146.0, 35388.0, 9362.0, 7.933885097503662, -0.13835488259792328, -0.3172546327114105, -0.07924871146678925, 0.005888018291443586, -0.03411100432276726, 1.0343565940856934, -0.08180535584688187, -0.021678924560546875, 1.494140625, 1.2802734375, 0.0831756591796875, 1.4912109375
48750, -0.011686109006404877, 0.01868583634495735, -0.006559531204402447, -6.515411951113492e-05, 0.00011345017264829949, 0.05558672547340393, -0.0006109924288466573, 0.0005577526753768325, 0.18451113998889923, 0.04781397432088852, 0.15802879631519318, 0.06875146925449371, 0.1629900782943532, 0.45536720471713465, -5.014390086437915, 9362.0, 30146.0, 35388.0, 9362.0, 7.933885097503662, -0.059080224484205246, -0.0035075221676379442, -0.12106125056743622, 0.005888018291443586, -0.03411100432276726, 1.0343565940856934, -0.08180535584688187, -0.021678924560546875, 1.494140625, 1.2802734375, 0.0831756591796875, 1.493408203125
48770, -0.0112087307497859, 0.016570981591939926, -0.003642382100224495, -0.0001308194623561576, 0.00017066506552509964, 0.07348374277353287, -0.0008466598810628057, 0.0007202962879091501, 0.21315330266952515, 0.04781104251742363, 0.1580379158258438, 0.06875432282686234, 0.16283553232562217, 0.4445469529034938, -5.0106730734814375, 9362.0, 30146.0, 35388.0, 9362.0, 7.933885097503662, -0.1935059130191803, -0.034692730754613876, 0.008335049264132977, 0.007612139452248812, -0.03763945773243904, 1.0324070453643799, -0.08180535584688187, -0.021678924560546875, 1.494140625, 1.2802734375, 0.0831756591796875, 1.493408203125
48780, -0.012455468997359276, 0.019230838865041733, -0.004057405050843954, -0.0001308194623561576, 0.00017066506552509964, 0.07348374277353287, -0.0008466598810628057, 0.0007202962879091501, 0.21315330266952515, 0.04784049093723297, 0.1580335646867752, 0.06878971308469772, 0.16350132869745998, 0.43417358663276673, -5.015815277195127, 9362.0, 30146.0, 35388.0, 9362.0, 7.9140496253967285, -0.02341967634856701, 0.07221505790948868, 0.12781372666358948, 0.00708747049793601, -0.03567047789692879, 1.0324558019638062, -0.08180535584688187, -0.021678924560546875, 1.494140625, 1.2802734375, 0.0831756591796875, 1.491943359375
48790, -0.01329886820167303, 0.01655401661992073, -0.0023021516390144825, -0.00014834277681075037, 0.00018546223873272538, 0.07780838012695312, -0.0009056733106262982, 0.0007596630020998418, 0.21938307583332062, 0.047813091427087784, 0.15802881121635437, 0.06874186545610428, 0.1628899490904606, 0.44965319670876625, -5.009547153487991, 9362.0, 30146.0, 35388.0, 9362.0, 7.9140496253967285, -0.02341967634856701, 0.07221505790948868, 0.12781372666358948, 0.005718633998185396, -0.034132152795791626, 1.0320963859558105, -0.08180535584688187, -0.021678924560546875, 1.494140625, 1.2802734375, 0.0831756591796875, 1.49560546875
48800, -0.012986388057470322, 0.015623371116816998, -0.0029995115473866463, -0.00014834277681075037, 0.00018546223873272538, 0.07780838012695312, -0.0009056733106262982, 0.0007596630020998418, 0.21938307583332062, 0.04781604930758476, 0.15803170204162598, 0.06874416023492813, 0.1655439387427878, 0.45026666431590456, -5.00674303156434, 9362.0, 30146.0, 35388.0, 9362.0, 7.9140496253967285, -0.06222965940833092, -0.16893097758293152, -0.3876100182533264, 0.006146853789687157, -0.03558437526226044, 1.0315871238708496, -0.06748900562524796, -0.1291980743408203, 1.4853515625, 1.2802734375, 0.0831756591796875, 1.49560546875
48810, -0.012561996467411518, 0.014935244806110859, -0.006190700456500053, -0.000167110949405469, 0.00020110378682147712, 0.08225959539413452, -0.0009687202400527894, 0.0008052146877162158, 0.22571814060211182, 0.047842398285865784, 0.1580398976802826, 0.06878159940242767, 0.1662020065739549, 0.432070905261412, -5.022593598247667, 9362.0, 30146.0, 35388.0, 9362.0, 7.9140496253967285, -0.06222965940833092, -0.16893097758293152, -0.3876100182533264, 0.006375855766236782, -0.03417469933629036, 1.0330647230148315, -0.06748900562524796, -0.1291980743408203, 1.4853515625, 1.2802734375, 0.0831756591796875, 1.49560546875
48820, -0.01144193671643734, 0.01737024448812008, -0.008034804835915565, -0.00017693622794467956, 0.00020927071454934776, 0.08453267067670822, -0.0009962964104488492, 0.0008281496120616794, 0.22889743745326996, 0.04785224795341492, 0.15803863108158112, 0.0687890499830246, 0.16529264525955675, 0.4363777718448887, -5.023446169557513, 9362.0, 30146.0, 35388.0, 9362.0, 7.9140496253967285, 0.03721379488706589, -0.0358305498957634, -0.1956518143415451, 0.0057883490808308125, -0.03763001784682274, 1.0300991535186768, -0.06748900562524796, -0.1291980743408203, 1.4853515625, 1.2802734375, 0.0831756591796875, 1.491943359375
48830, -0.008989039808511734, 0.015506809577345848, -0.009032906033098698, -0.00018703113892115653, 0.00021766322606708854, 0.08683740347623825, -0.0010228200117126107, 0.0008502908167429268, 0.2320491522550583, 0.04784589633345604, 0.15804056823253632, 0.06879197806119919, 0.1645202319698267, 0.4339981876131844, -5.031527542762684, 9362.0, 30146.0, 35388.0, 9362.0, 7.933885097503662, 0.18563777208328247, -0.04927174746990204, 0.19115608930587769, 0.007831060327589512, -0.03570273518562317, 1.0317832231521606, -0.06748900562524796, -0.1291980743408203, 1.4853515625, 1.2802734375, 0.0831756591796875, 1.491943359375
48840, -0.009175981394946575, 0.01516179833561182, -0.0074503179639577866, -0.0001974125625565648, 0.00022626708960160613, 0.08917286247015, -0.0010533679742366076, 0.0008703561034053564, 0.23504304885864258, 0.04780414327979088, 0.15802301466464996, 0.0687544047832489, 0.16958858400604873, 0.4484570871785536, -5.008085434570516, 9362.0, 30146.0, 35388.0, 9362.0, 7.933885097503662, 0.03962230309844017, -0.20879307389259338, -0.2547009289264679, 0.007442094851285219, -0.035209596157073975, 1.0315101146697998, -0.06748900562524796, -0.1291980743408203, 1.4853515625, 1.2802734375, 0.0831756591796875, 1.496337890625
48850, -0.008855655789375305, 0.01578683778643608, -0.008041509427130222, -0.0001974125625565648, 0.00022626708960160613, 0.08917286247015, -0.0010533679742366076, 0.0008703561034053564, 0.23504304885864258, 0.04784616082906723, 0.15804634988307953, 0.06878834962844849, 0.16633423548987902, 0.4368649973952188, -5.024253604268481, 9362.0, 30146.0, 35388.0, 9362.0, 7.9140496253967285, 0.04343084245920181, 0.18249046802520752, 0.23357199132442474, 0.007073928136378527, -0.0372774638235569, 1.0309550762176514, -0.07427112758159637, -0.07543754577636719, 1.48974609375, 1.2802734375, 0.0831756591796875, 1.496337890625
48860, -0.008283844217658043, 0.013677576556801796, -0.006253907922655344, -0.0001974125625565648, 0.00022626708960160613, 0.08917286247015, -0.0010533679742366076, 0.0008703561034053564, 0.23504304885864258, 0.04779459536075592, 0.15803489089012146, 0.06874143332242966, 0.1615684476910588, 0.4528637549669554, -5.013340479499025, 9362.0, 30146.0, 35388.0, 9362.0, 7.933885097503662, -0.004883053246885538, 0.16003836691379547, 0.14284256100654602, 0.006371119990944862, -0.03686358407139778, 1.0299723148345947, -0.07623488456010818, -0.07543754577636719, 1.48974609375, 1.2802734375, 0.0831756591796875, 1.496337890625
48870, -0.008666036650538445, 0.01425184402614832, -0.005832935683429241, -0.00023023896210361272, 0.00025309601915068924, 0.09636233747005463, -0.0011352779110893607, 0.0009180314955301583, 0.24419213831424713, 0.047844551503658295, 0.15804071724414825, 0.06876697391271591, 0.1624271387159803, 0.42846205818554495, -5.022207274457325, 9362.0, 30146.0, 35388.0, 9362.0, 7.9140496253967285, -0.08281387388706207, 0.2670864164829254, -0.028371306136250496, 0.007248933892697096, -0.03766960650682449, 1.0311182737350464, -0.07623488456010818, -0.07543754577636719, 1.48974609375, 1.2802734375, 0.0831756591796875, 1.496337890625
48930, -0.006764671299606562, 0.006679379381239414, -0.0031924324575811625, -0.00028986416873522103, 0.00030090767540968955, 0.10894087702035904, -0.0012404423905536532, 0.0009929571533575654, 0.25896021723747253, 0.04781516641378403, 0.15802530944347382, 0.06874833256006241, 0.16405839940228725, 0.4576679980953884, -5.005301920885509, 9362.0, 30146.0, 35388.0, 9362.0, 7.933885097503662, 0.07735873758792877, -0.05823025107383728, 0.08858388662338257, 0.007974163629114628, -0.035924993455410004, 1.0313665866851807, -0.07623488456010818, -0.07543754577636719, 1.48974609375, 1.2802734375, 0.0831756591796875, 1.496337890625
48940, -0.006210709922015667, 0.007446243893355131, -0.003768000053241849, -0.00028986416873522103, 0.00030090767540968955, 0.10894087702035904, -0.0012404423905536532, 0.0009929571533575654, 0.25896021723747253, 0.047851402312517166, 0.15804409980773926, 0.06877483427524567, 0.16398633954625572, 0.42943053073534543, -5.016675365936125, 9362.0, 30146.0, 35388.0, 9362.0, 7.933885097503662, -0.11455689370632172, 0.09754925966262817, -0.20093689858913422, 0.005186997354030609, -0.035437047481536865, 1.0324455499649048, -0.07623488456010818, -0.07543754577636719, 1.48974609375, 1.2802734375, 0.0831756591796875, 1.496337890625
48950, -0.005780369974672794, 0.007180533837527037, -0.004140552598983049, -0.00028986416873522103, 0.00030090767540968955, 0.10894087702035904, -0.0012404423905536532, 0.0009929571533575654, 0.25896021723747253, 0.04783811420202255, 0.1580357551574707, 0.06879802793264389, 0.16374287931884435, 0.42790164013092635, -5.022674887621011, 9362.0, 30146.0, 35388.0, 9362.0, 7.933885097503662, -0.001979563618078828, -0.06937969475984573, -0.09090335667133331, 0.006995828356593847, -0.038659628480672836, 1.0321685075759888, -0.07623488456010818, -0.07543754577636719, 1.48974609375, 1.2802734375, 0.0831756591796875, 1.496337890625
48960, -0.006898385006934404, 0.008010022342205048, -0.004795835353434086, -0.00028986416873522103, 0.00030090767540968955, 0.10894087702035904, -0.0012404423905536532, 0.0009929571533575654, 0.25896021723747253, 0.04780963808298111, 0.15803958475589752, 0.06875822693109512, 0.16367912175306387, 0.4474712906203706, -5.005640081730721, 9362.0, 30146.0, 35388.0, 9362.0, 7.933885097503662, -0.20535804331302643, 0.20299267768859863, -0.11066661030054092, 0.0057415165938436985, -0.03504254296422005, 1.0299879312515259, -0.07623488456010818, -0.07543754577636719, 1.48974609375, 1.2802734375, 0.0831756591796875, 1.490478515625
48970, -0.007020608521997929, 0.00696010934188962, -0.0035528286825865507, -0.00028986416873522103, 0.00030090767540968955, 0.10894087702035904, -0.0012404423905536532, 0.0009929571533575654, 0.25896021723747253, 0.04784087836742401, 0.15803484618663788, 0.06876043975353241, 0.16922887058258718, 0.4363095215705073, -5.018093384969481, 9362.0, 30146.0, 35388.0, 9362.0, 7.933885097503662, 0.004556433763355017, 0.08379930257797241, 0.05978231132030487, 0.007894882000982761, -0.03670189157128334, 1.031070590019226, -0.07874314486980438, -0.08439826965332031, 1.489013671875, 1.2802734375, 0.0831756591796875, 1.490478515625
48980, -0.007798715960234404, 0.006290944758802652, -0.0026609846390783787, -0.00028986416873522103, 0.00030090767540968955, 0.10894087702035904, -0.0012404423905536532, 0.0009929571533575654, 0.25896021723747253, 0.04781210049986839, 0.15804146230220795, 0.06876521557569504, 0.16294354124070481, 0.44619198073016264, -5.014913091639185, 9362.0, 30146.0, 35388.0, 9362.0, 7.933885097503662, -0.16062897443771362, -0.3194553852081299, -0.012170935049653053, 0.008342635817825794, -0.036414142698049545, 1.029956340789795, -0.08016742765903473, -0.07543754577636719, 1.48974609375, 1.2802734375, 0.0831756591796875, 1.491943359375
48990, -0.008864541538059711, 0.008158530108630657, -0.0014764516381546855, -0.00037969151162542403, 0.0003732744080480188, 0.127822145819664, -0.0013280902057886124, 0.0010747715132310987, 0.2804434895515442, 0.04787997156381607, 0.15802334249019623, 0.06875506043434143, 0.1671210434230488, 0.4104770034131491, -5.03531231686709, 9362.0, 30146.0, 35388.0, 9362.0, 7.933885097503662, -0.23379363119602203, 0.1311035305261612, 0.3208397626876831, 0.008538832888007164, -0.034239161759614944, 1.0330822467803955, -0.07996614277362823, -0.12023735046386719, 1.486083984375, 1.2802734375, 0.0831756591796875, 1.494873046875
49000, -0.009437087923288345, 0.007371035870164633, -0.00020018361101392657, -0.00037969151162542403, 0.0003732744080480188, 0.127822145819664, -0.0013280902057886124, 0.0010747715132310987, 0.2804434895515442, 0.04785049334168434, 0.15804129838943481, 0.06877757608890533, 0.16320123203260983, 0.4370257104015991, -5.018776959068644, 9362.0, 30146.0, 35388.0, 9362.0, 7.933885097503662, 0.006271784193813801, 0.18942639231681824, 0.3303925395011902, 0.007321700919419527, -0.03520766645669937, 1.0307930707931519, -0.12592269480228424, -0.030637741088867188, 1.493408203125, 1.2802734375, 0.0831756591796875, 1.48828125
49010, -0.009749091230332851, 0.009659870527684689, -0.0003158313047606498, -0.00040649290895089507, 0.0003950551908928901, 0.13349208235740662, -0.0013536696787923574, 0.0011042949045076966, 0.28665363788604736, 0.04785286635160446, 0.1580292284488678, 0.06877028942108154, 0.17168980370068318, 0.4322207728109504, -5.021256600835109, 9362.0, 30146.0, 35388.0, 9362.0, 7.9140496253967285, 0.015126766636967659, -0.12403205037117004, 0.05223153904080391, 0.006217527203261852, -0.03326405584812164, 1.0308334827423096, -0.11606255173683167, -0.12023735046386719, 1.486083984375, 1.2802734375, 0.0831756591796875, 1.4912109375
49020, -0.010083560831844807, 0.010895319283008575, 0.00021970282250549644, -0.0004200946423225105, 0.0004061813815496862, 0.13637356460094452, -0.0013667936436831951, 0.0011209610383957624, 0.28964242339134216, 0.04782554879784584, 0.15803134441375732, 0.0687643438577652, 0.1607736023517159, 0.4565465779577096, -5.00945699265584, 9362.0, 30146.0, 35388.0, 9362.0, 7.9140496253967285, -0.17980018258094788, -0.16296249628067017, -0.17439183592796326, 0.008467626757919788, -0.03766370564699173, 1.0316492319107056, -0.11606255173683167, -0.12023735046386719, 1.486083984375, 1.2802734375, 0.0831756591796875, 1.4912109375
49030, -0.010519376024603844, 0.011177781037986279, 0.0013928759144619107, -0.0004338478611316532, 0.0004174770729150623, 0.13928532600402832, -0.0013839158928021789, 0.0011381927179172635, 0.29270878434181213, 0.047819994390010834, 0.15803946554660797, 0.06873046606779099, 0.16262473711674913, 0.4521419707136545, -5.008511508063475, 9362.0, 30146.0, 35388.0, 9362.0, 7.9140496253967285, -0.23968462646007538, 0.007349410094320774, 0.20909816026687622, 0.007524183485656977, -0.03586050495505333, 1.0328757762908936, -0.11606255173683167, -0.12023735046386719, 1.486083984375, 1.2802734375, 0.0831756591796875, 1.49560546875
49040, -0.012068615294992924, 0.011248649097979069, 0.001705757575109601, -0.0004338478611316532, 0.0004174770729150623, 0.13928532600402832, -0.0013839158928021789, 0.0011381927179172635, 0.29270878434181213, 0.04785751551389694, 0.15804412961006165, 0.06878277659416199, 0.16240320585419732, 0.4327516386504442, -5.018064792353685, 9362.0, 30146.0, 35388.0, 9362.0, 7.9140496253967285, 0.11148065328598022, -0.3194144666194916, -0.24920034408569336, 0.007265095598995686, -0.03575385361909866, 1.0315150022506714, -0.11606255173683167, -0.12023735046386719, 1.486083984375, 1.2802734375, 0.0831756591796875, 1.49560546875
49050, -0.009895708411931992, 0.013853156939148903, -0.0005400424124673009, -0.0004338478611316532, 0.0004174770729150623, 0.13928532600402832, -0.0013839158928021789, 0.0011381927179172635, 0.29270878434181213, 0.047815535217523575, 0.15801849961280823, 0.06874442845582962, 0.16427838527884697, 0.4498930723464696, -5.0121116013343565, 9362.0, 30146.0, 35388.0, 9362.0, 7.9140496253967285, 0.016411766409873962, -0.12803393602371216, -0.17476724088191986, 0.006805613171309233, -0.03587458282709122, 1.030154824256897, -0.11606255173683167, -0.12023735046386719, 1.486083984375, 1.2802734375, 0.0831756591796875, 1.49560546875
49060, -0.01114808302372694, 0.015374669805169106, 6.915878475410864e-05, -0.0004338478611316532, 0.0004174770729150623, 0.13928532600402832, -0.0013839158928021789, 0.0011381927179172635, 0.29270878434181213, 0.04784775525331497, 0.1580379605293274, 0.06879033893346786, 0.16563085148899812, 0.4329726087386234, -5.020620645372509, 9362.0, 30146.0, 35388.0, 9362.0, 7.9140496253967285, -0.0871029645204544, -0.060465261340141296, -0.1046106219291687, 0.007594859227538109, -0.035393789410591125, 1.0328989028930664, -0.11606255173683167, -0.12023735046386719, 1.486083984375, 1.2802734375, 0.0831756591796875, 1.49560546875
49070, -0.011701767332851887, 0.01842348277568817, -0.00043197142076678574, -0.0004338478611316532, 0.0004174770729150623, 0.13928532600402832, -0.0013839158928021789, 0.0011381927179172635, 0.29270878434181213, 0.04781482368707657, 0.15802349150180817, 0.06873615086078644, 0.1633395797201357, 0.446078132149637, -5.009999741833862, 9362.0, 30146.0, 35388.0, 9362.0, 7.9140496253967285, 0.08744847774505615, -0.234772190451622, -0.18040956556797028, 0.006556828506290913, -0.0371953621506691, 1.0308841466903687, -0.11606255173683167, -0.12023735046386719, 1.486083984375, 1.2802734375, 0.0831756591796875, 1.49560546875
49080, -0.011694752611219883, 0.01919110119342804, -0.00047639504191465676, -0.0004338478611316532, 0.0004174770729150623, 0.13928532600402832, -0.0013839158928021789, 0.0011381927179172635, 0.29270878434181213, 0.04781729727983475, 0.15803773701190948, 0.06874136626720428, 0.16364054030178, 0.4527332288617174, -5.007888938075697, 9362.0, 30146.0, 35388.0, 9362.0, 7.9140496253967285, -0.08739162981510162, -0.30658969283103943, 0.025571459904313087, 0.006556828506290913, -0.0371953621506691, 1.0308841466903687, -0.11606255173683167, -0.12023735046386719, 1.486083984375, 1.2802734375, 0.0831756591796875, 1.49560546875
49090, -0.012292951345443726, 0.019844261929392815, -8.033269841689616e-05, -0.0004338478611316532, 0.0004174770729150623, 0.13928532600402832, -0.0013839158928021789, 0.0011381927179172635, 0.29270878434181213, 0.047842394560575485, 0.1580394208431244, 0.0687858909368515, 0.16483966444835377, 0.42843046109362604, -5.025317463456548, 9362.0, 30146.0, 35388.0, 9362.0, 7.9140496253967285, -0.1450183391571045, -0.09129947423934937, 0.11068526655435562, 0.006556828506290913, -0.0371953621506691, 1.0308841466903687, -0.11606255173683167, -0.12023735046386719, 1.486083984375, 1.2802734375, 0.0831756591796875, 1.49560546875
49100, -0.013101893477141857, 0.021058764308691025, 0.0013233410427346826, -0.0004338478611316532, 0.0004174770729150623, 0.13928532600402832, -0.0013839158928021789, 0.0011381927179172635, 0.29270878434181213, 0.04781731963157654, 0.158026322722435, 0.06874505430459976, 0.16140956008435317, 0.4519021130877263, -5.006851780642168, 9362.0, 30146.0, 35388.0, 9362.0, 7.9140496253967285, -0.1477852612733841, -0.14159193634986877, -0.0459677018225193, 0.006556828506290913, -0.0371953621506691, 1.0308841466903687, -0.11606255173683167, -0.12023735046386719, 1.486083984375, 1.319091796875, 0.0279998779296875, 1.49560546875
49120, -0.013855480588972569, 0.02245658077299595, 0.0017871095333248377, -0.0005680945469066501, 0.0005277409800328314, 0.16687799990177155, -0.0016335526015609503, 0.0013193766353651881, 0.3203357756137848, 0.04781525582075119, 0.15803469717502594, 0.0687471330165863, 0.15800183607633733, 0.448171110569092, -5.014151188460592, 9362.0, 30146.0, 35388.0, 9362.0, 7.9140496253967285, -0.07491875439882278, -0.02617744728922844, 0.09228992462158203, 0.007138113956898451, -0.03523160144686699, 1.0313104391098022, -0.11606255173683167, -0.12023735046386719, 1.486083984375, 1.319091796875, 0.0279998779296875, 1.49560546875
49140, -0.013229185715317726, 0.020845292136073112, -0.0006979209720157087, -0.0006015325780026615, 0.0005546085303649306, 0.17334617674350739, -0.0017110889311879873, 0.0013676501112058759, 0.3264826834201813, 0.04785817489027977, 0.15803201496601105, 0.06877722591161728, 0.1629946377724624, 0.4271145959784235, -5.0168237968539335, 9362.0, 30146.0, 35388.0, 9362.0, 7.9140496253967285, 0.0006219958304427564, 0.30654194951057434, -0.0765886977314949, 0.008531873114407063, -0.03390860930085182, 1.0325579643249512, -0.11606255173683167, -0.12023735046386719, 1.486083984375, 1.319091796875, 0.0279998779296875, 1.49560546875
49160, -0.013884107582271099, 0.023417362943291664, -2.4640985429869033e-05, -0.0006015325780026615, 0.0005546085303649306, 0.17334617674350739, -0.0017110889311879873, 0.0013676501112058759, 0.3264826834201813, 0.04785873368382454, 0.15803630650043488, 0.06877872347831726, 0.16737585765533267, 0.4286469122010601, -5.015685926717552, 9362.0, 30146.0, 35388.0, 9362.0, 7.9140496253967285, -0.1328630894422531, 0.1167764812707901, 0.22836686670780182, 0.008904710412025452, -0.036185361444950104, 1.029276967048645, -0.11606255173683167, -0.12023735046386719, 1.486083984375, 1.319091796875, 0.0279998779296875, 1.49560546875
49170, -0.012822103686630726, 0.021250257268548012, 0.0016263049328699708, -0.0006545654032379389, 0.000596677593421191, 0.18328222632408142, -0.0018252035370096564, 0.0014367317780852318, 0.33584094047546387, 0.04782027006149292, 0.15803541243076324, 0.06875687092542648, 0.16133801923440932, 0.4512223485751008, -5.013876974690902, 9362.0, 30146.0, 35388.0, 9362.0, 7.9140496253967285, 0.08040106296539307, -0.09669257700443268, -0.13202893733978271, 0.007985896430909634, -0.03680470958352089, 1.0306023359298706, -0.11606255173683167, -0.12023735046386719, 1.486083984375, 1.319091796875, 0.0279998779296875, 1.49560546875
49180, -0.012555534951388836, 0.02058739960193634, -0.00018055271357297897, -0.0006730239256285131, 0.0006111673428677022, 0.18665531277656555, -0.0018663877854123712, 0.001461159554310143, 0.33877691626548767, 0.0478222630918026, 0.15802687406539917, 0.06873378157615662, 0.16118778509309153, 0.45420704543516877, -5.01294854055022, 9362.0, 30146.0, 35388.0, 9362.0, 7.933885097503662, -0.01601090282201767, -0.04089131951332092, -0.3647920489311218, 0.0073506515473127365, -0.0364120751619339, 1.0288325548171997, -0.11606255173683167, -0.12023735046386719, 1.486083984375, 1.319091796875, 0.0279998779296875, 1.49560546875
49190, -0.012732327915728092, 0.020347218960523605, -0.001007618149742484, -0.0006918751751072705, 0.0006258920184336603, 0.19005778431892395, -0.0019038286991417408, 0.001483757747337222, 0.34171852469444275, 0.04781119525432587, 0.1580340564250946, 0.06871811300516129, 0.16295001534095804, 0.4533860439049988, -5.007173905829362, 9362.0, 30146.0, 35388.0, 9362.0, 7.933885097503662, -0.10646571218967438, -0.2956323027610779, 0.12167409062385559, 0.005952488165348768, -0.03419741615653038, 1.029227614402771, -0.11606255173683167, -0.12023735046386719, 1.486083984375, 1.319091796875, 0.0279998779296875, 1.493408203125
49200, -0.01388538908213377, 0.024109672755002975, -0.0004758492286782712, -0.0007110947626642883, 0.0006408401532098651, 0.19348907470703125, -0.0019400798482820392, 0.0015058827120810747, 0.34454086422920227, 0.04781333729624748, 0.15803296864032745, 0.0687384158372879, 0.16590291624629283, 0.4464099687807277, -5.01013232513757, 9362.0, 30146.0, 35388.0, 9362.0, 7.933885097503662, -0.17079152166843414, 0.31647753715515137, 0.03725326433777809, 0.007577307056635618, -0.03249422460794449, 1.0306183099746704, -0.1769007295370102, -1.9839096069335938, 1.333740234375, 1.319091796875, 0.0279998779296875, 1.48974609375
