timeTick, roll, pitch, yaw, stateX, stateY, stateZ, stateVX, stateVY, stateVZ, otX0, otY0, otZ0, otRoll0, otPitch0, otYaw0, left wing, pitch motor, yaw motor, right wing, voltage, roll rate, pitch rate, yaw rate, A_x, A_y, A_z, current, i_raw, v_raw, airflow_voltage, airflow_speed, pot_Pitch
48795, 0.16476193070411682, -0.054310642182826996, 0.018650759011507034, 0, 0, 0, 0, 0, 0, 0.07897335290908813, 0.5908450484275818, 0.06808613985776901, 0.5268929757670031, -0.6630020517249307, -8.428028900102126, 0, 0, 0, 0, 0, 0, 0, 0, 0, 0, 0, 0, 0, 0, 0, 0, 0
48805, 0.16293136775493622, -0.055220648646354675, 0.016802646219730377, 0.9021226763725281, -1.7195360660552979, 62.62682342529297, 0.11959554255008698, -0.26797863841056824, 6.185258388519287, 0.07894959300756454, 0.5908913016319275, 0.06817096471786499, 0.5306249718773813, -0.6475121157428987, -8.420054315747548, 9362.0, 30146.0, 35388.0, 9362.0, 8.17190170288086, 0, 0, 0, 0, 0, 0, 0, 0, 0, 0, 0, 0
48815, 0.163412943482399, -0.05213402956724167, 0.014607817865908146, 0.9033191204071045, -1.722217321395874, 62.688690185546875, 0.11969143897294998, -0.26826906204223633, 6.188190937042236, 0.07896744459867477, 0.5908625721931458, 0.06811261177062988, 0.5197496904375979, -0.65218951002322, -8.429825380425553, 9362.0, 30146.0, 35388.0, 9362.0, 8.17190170288086, -0.04641656577587128, -0.5389403104782104, -0.187652587890625, -0.00707042682915926, -0.022283775731921196, 1.032405138015747, -0.08479470759630203, -0.08439826965332031, 1.489013671875, 1.300048828125, 0.0489654541015625, 1.497802734375
48825, 0.16517703235149384, -0.05496377870440483, 0.014321551658213139, 0.9045165181159973, -1.7249014377593994, 62.750587463378906, 0.11978897452354431, -0.26855704188346863, 6.191366195678711, 0.078955739736557, 0.5908620357513428, 0.0680990070104599, 0.5155375289148735, -0.6560685803455044, -8.417732804239137, 9362.0, 30146.0, 35388.0, 9362.0, 8.17190170288086, 0.24935320019721985, 0.49403315782546997, 0.04541174694895744, -0.009022790938615799, -0.024547476321458817, 1.0327602624893188, -0.08315051347017288, -0.05751800537109375, 1.4912109375, 1.2978515625, 0.05224609375, 1.494140625
48835, 0.16512727737426758, -0.05476890876889229, 0.014999279752373695, 0.9057148694992065, -1.727588415145874, 62.81251525878906, 0.11988133192062378, -0.26884594559669495, 6.194533824920654, 0.07895702123641968, 0.5909053683280945, 0.06816300004720688, 0.5245633417577786, -0.6434508787140203, -8.423393883518916, 9362.0, 30146.0, 35388.0, 9362.0, 8.17190170288086, -0.1650513857603073, 0.04038399085402489, 0.18747399747371674, -0.010003010742366314, -0.0225117988884449, 1.0294315814971924, -0.08457483351230621, -0.05751800537109375, 1.4912109375, 1.298583984375, 0.051055908203125, 1.494873046875
48845, 0.16639627516269684, -0.05652904510498047, 0.014445316046476364, 0.9069141745567322, -1.7302783727645874, 62.874473571777344, 0.11997831612825394, -0.2691371738910675, 6.197461128234863, 0.07896953821182251, 0.5908648371696472, 0.06808482855558395, 0.5150088634745411, -0.6474182322507431, -8.432570809620314, 9362.0, 30146.0, 35388.0, 9362.0, 8.17190170288086, 0.1913626492023468, 0.1903264969587326, -0.20471173524856567, -0.008387619629502296, -0.021008525043725967, 1.0313605070114136, -0.08564793318510056, -0.08439826965332031, 1.489013671875, 1.2978515625, 0.05224609375, 1.497802734375
48855, 0.16647616028785706, -0.057154808193445206, 0.015191212296485901, 0.9081144332885742, -1.73297119140625, 62.93646240234375, 0.12007516622543335, -0.26942873001098633, 6.200504779815674, 0.07896394282579422, 0.5908570289611816, 0.0681418776512146, 0.5121000471345883, -0.6474597017485166, -8.430264982212197, 9362.0, 30146.0, 35388.0, 9362.0, 8.17190170288086, 0.0390540175139904, 0.056091923266649246, 0.18261946737766266, -0.00681469589471817, -0.02425173856317997, 1.0299580097198486, -0.0854605883359909, -0.09335899353027344, 1.48828125, 1.332275390625, 0.019561767578125, 1.493408203125
48865, 0.16589471697807312, -0.05479352921247482, 0.013974432833492756, 0.9093157052993774, -1.7356669902801514, 62.99848175048828, 0.12017493695020676, -0.2697220742702484, 6.203419208526611, 0.07896307855844498, 0.5908728837966919, 0.06811103969812393, 0.5092151770010799, -0.6495406055835815, -8.426377557522212, 9362.0, 30146.0, 35388.0, 9362.0, 8.17190170288086, -0.025061873719096184, -0.5231538414955139, -0.1026289090514183, -0.0075445231050252914, -0.021426402032375336, 1.029393196105957, -0.0817108228802681, -0.08439826965332031, 1.489013671875, 1.33447265625, 0.0186309814453125, 1.4912109375
48875, 0.1657675951719284, -0.05633062124252319, 0.01551151555031538, 0.9105179309844971, -1.738365650177002, 63.06053161621094, 0.12027564644813538, -0.27001553773880005, 6.206329822540283, 0.07896832376718521, 0.5908614993095398, 0.06811539828777313, 0.5122917227209094, -0.6487426003677683, -8.430157701386202, 9362.0, 30146.0, 35388.0, 9362.0, 8.17190170288086, 0.022992964833974838, 0.3821547031402588, 0.3047933280467987, -0.007276697084307671, -0.023573674261569977, 1.032448649406433, -0.08286039531230927, -0.08439826965332031, 1.489013671875, 1.310302734375, 0.036285400390625, 1.496337890625
48885, 0.1671873927116394, -0.05812341347336769, 0.016417214646935463, 0.9117211699485779, -1.7410672903060913, 63.12261199951172, 0.12037264555692673, -0.2703087031841278, 6.209489822387695, 0.07896818220615387, 0.5908665657043457, 0.0680895671248436, 0.5147695660425836, -0.6466027314525888, -8.427027405781995, 9362.0, 30146.0, 35388.0, 9362.0, 8.17190170288086, 0.3482285439968109, 0.24990889430046082, 0.24596509337425232, -0.006969326175749302, -0.025234531611204147, 1.032494306564331, -0.08370960503816605, -0.03959846496582031, 1.49267578125, 1.342529296875, 0.0161895751953125, 1.4970703125
48895, 0.16759611666202545, -0.058332107961177826, 0.016105638816952705, 0.9129254221916199, -1.7437717914581299, 63.184722900390625, 0.12047237902879715, -0.27060168981552124, 6.212658405303955, 0.07897121459245682, 0.5908561944961548, 0.06810858845710754, 0.5097592306163051, -0.6549560825821459, -8.437444699199458, 9362.0, 30146.0, 35388.0, 9362.0, 8.17190170288086, 0.08884850889444351, 0.11581111699342728, 0.017285237088799477, -0.009468689560890198, -0.02504768595099449, 1.031044602394104, -0.08002820611000061, -0.06647872924804688, 1.490478515625, 1.3271484375, 0.022308349609375, 1.49267578125
48905, 0.16792692244052887, -0.05891698971390724, 0.01461897324770689, 0.914130687713623, -1.7464792728424072, 63.246864318847656, 0.12057504802942276, -0.2708967328071594, 6.2156758308410645, 0.07897316664457321, 0.5908636450767517, 0.06811652332544327, 0.5114226009872582, -0.6497592015433042, -8.432844693136145, 9362.0, 30146.0, 35388.0, 9362.0, 8.17190170288086, 0.11500705778598785, 0.030378956347703934, -0.1430150717496872, -0.009035916067659855, -0.023649068549275398, 1.0288395881652832, -0.08109857887029648, -0.08439826965332031, 1.489013671875, 1.295654296875, 0.05548095703125, 1.494873046875
48915, 0.16719338297843933, -0.05936620011925697, 0.0169257540255785, 0.9153369665145874, -1.7491897344589233, 63.30903625488281, 0.12067794799804688, -0.2711920738220215, 6.218545436859131, 0.0789656937122345, 0.5908594131469727, 0.06810091435909271, 0.512980628105394, -0.6482736639872826, -8.435347624281789, 9362.0, 30146.0, 35388.0, 9362.0, 8.17190170288086, 0.10758800059556961, 0.2651362121105194, 0.3182920813560486, -0.008736679330468178, -0.023321205750107765, 1.0307475328445435, -0.08049850165843964, -0.07543754577636719, 1.48974609375, 1.341064453125, 0.01654052734375, 1.493408203125
48925, 0.16779287159442902, -0.058652132749557495, 0.016009526327252388, 0.9165442585945129, -1.7519031763076782, 63.37123489379883, 0.12078201770782471, -0.2714883089065552, 6.2215399742126465, 0.07897982746362686, 0.5908584594726562, 0.06812242418527603, 0.5106390059243567, -0.6512454048469465, -8.432936780984777, 9362.0, 30146.0, 35388.0, 9362.0, 8.17190170288086, 0.05000985413789749, -0.16592811048030853, -0.09544234722852707, -0.008938245475292206, -0.022932881489396095, 1.0312618017196655, -0.08270606398582458, -0.15607833862304688, 1.483154296875, 1.34619140625, 0.015594482421875, 1.49267578125
48935, 0.16848856210708618, -0.058038000017404556, 0.014616260305047035, 0.9177526235580444, -1.7546194791793823, 63.43346405029297, 0.120886892080307, -0.2717835307121277, 6.224610805511475, 0.07896553725004196, 0.59086012840271, 0.06809686869382858, 0.5159601168099806, -0.6527698370910855, -8.425903259088326, 9362.0, 30146.0, 35388.0, 9362.0, 8.17190170288086, 0.1461533159017563, -0.19063642621040344, -0.1475357711315155, -0.008246095851063728, -0.025628553703427315, 1.0323970317840576, -0.0848749503493309, -0.10231781005859375, 1.487548828125, 1.338134765625, 0.01727294921875, 1.494873046875
48945, 0.16825076937675476, -0.0590796060860157, 0.014514247886836529, 0.9189620018005371, -1.7573387622833252, 63.4957275390625, 0.12099062651395798, -0.2720801830291748, 6.227802276611328, 0.07897012680768967, 0.5908651947975159, 0.0681062713265419, 0.5152200413797571, -0.6493485745280907, -8.425355980487684, 9362.0, 30146.0, 35388.0, 9362.0, 8.17190170288086, -0.09312014281749725, 0.051129572093486786, -0.08625144511461258, -0.0070277112536132336, -0.023229891434311867, 1.0322425365447998, -0.0793471410870552, -0.05751800537109375, 1.4912109375, 1.330078125, 0.0206298828125, 1.48828125
48955, 0.1684565544128418, -0.059438496828079224, 0.013903914950788021, 0.920172393321991, -1.7600610256195068, 63.558021545410156, 0.12109334021806717, -0.27237796783447266, 6.2309699058532715, 0.07896927744150162, 0.590859591960907, 0.06808438152074814, 0.5205796487959244, -0.6512437309110624, -8.427524460056025, 9362.0, 30146.0, 35388.0, 9362.0, 8.17190170288086, -0.0334663949906826, -0.0639190524816513, -0.13815131783485413, -0.008696774952113628, -0.02334625832736492, 1.0319592952728271, -0.07543423771858215, -0.07543754577636719, 1.48974609375, 1.3330078125, 0.0191650390625, 1.49560546875
48965, 0.16874033212661743, -0.0606381818652153, 0.01485625933855772, 0.9213838577270508, -1.7627862691879272, 63.62034606933594, 0.12119781225919724, -0.2726752758026123, 6.234112739562988, 0.0789942666888237, 0.5908499360084534, 0.06806612014770508, 0.5297009979135074, -0.6623124215340397, -8.427539625743439, 9362.0, 30146.0, 35388.0, 9362.0, 8.17190170288086, -0.04282989352941513, 0.044472433626651764, 0.23029859364032745, -0.008030039258301258, -0.025414301082491875, 1.0320854187011719, -0.07964442670345306, -0.15607833862304688, 1.483154296875, 1.345458984375, 0.0156707763671875, 1.493408203125
48975, 0.16784237325191498, -0.06136472895741463, 0.014516585506498814, 0.9225963354110718, -1.7655144929885864, 63.682701110839844, 0.12130298465490341, -0.2729729413986206, 6.237249374389648, 0.07896898686885834, 0.5908606648445129, 0.06810946017503738, 0.5120282445522659, -0.6507855827863125, -8.431746219258752, 9362.0, 30146.0, 35388.0, 9362.0, 8.17190170288086, -0.24721315503120422, 0.18934094905853271, 0.10254604369401932, -0.008336047641932964, -0.022741494700312614, 1.0310763120651245, -0.08199094980955124, -0.03959846496582031, 1.49267578125, 1.333740234375, 0.0189361572265625, 1.49267578125
48985, 0.1681082397699356, -0.05938447639346123, 0.014976655133068562, 0.9238098859786987, -1.7682456970214844, 63.74509048461914, 0.12141010165214539, -0.2732706069946289, 6.240264892578125, 0.07896684110164642, 0.5908545255661011, 0.06811937689781189, 0.5219754146846504, -0.6446089933052406, -8.42783339913918, 9362.0, 30146.0, 35388.0, 9362.0, 8.17190170288086, 0.03933249041438103, -0.29516488313674927, 0.050664354115724564, -0.010300791822373867, -0.021800918504595757, 1.0294311046600342, -0.07976185530424118, -0.12023735046386719, 1.486083984375, 1.33740234375, 0.0175323486328125, 1.49853515625
48995, 0.1682145893573761, -0.05847996845841408, 0.014615333639085293, 0.9250245094299316, -1.770979881286621, 63.8075065612793, 0.12151823192834854, -0.27356642484664917, 6.243141174316406, 0.0789572075009346, 0.5908728241920471, 0.06812393665313721, 0.5144454104774303, -0.6478317706345535, -8.429359688634817, 9362.0, 30146.0, 35388.0, 9362.0, 8.17190170288086, 0.14327968657016754, -0.1840590387582779, -0.20248088240623474, -0.009423329494893551, -0.025014067068696022, 1.0289413928985596, -0.07769369333982468, -0.04855918884277344, 1.491943359375, 1.305908203125, 0.0413360595703125, 1.493408203125
49005, 0.1684621423482895, -0.05712736397981644, 0.01440830621868372, 0.9262402057647705, -1.7737170457839966, 63.86995315551758, 0.12162286788225174, -0.27386248111724854, 6.245962142944336, 0.07894887775182724, 0.5908989310264587, 0.06816016137599945, 0.5237839920566717, -0.6471172822255369, -8.415249273134103, 9362.0, 30146.0, 35388.0, 9362.0, 8.17190170288086, 0.06187127158045769, -0.1424710750579834, 0.015824750065803528, -0.010104781948029995, -0.025263100862503052, 1.030329704284668, -0.07620052993297577, -0.05751800537109375, 1.4912109375, 1.316162109375, 0.030517578125, 1.5
49015, 0.1683926284313202, -0.05622848868370056, 0.015136944130063057, 0.9274569749832153, -1.7764571905136108, 63.93242645263672, 0.12172608077526093, -0.27415934205055237, 6.248980522155762, 0.07896224409341812, 0.5908687114715576, 0.06810319423675537, 0.5166834882666814, -0.6396929795994879, -8.423486706468514, 9362.0, 30146.0, 35388.0, 9362.0, 8.17190170288086, 0.002852789359167218, 0.0220351405441761, 0.2886710464954376, -0.009939056821167469, -0.023053061217069626, 1.0330299139022827, -0.07563549280166626, -0.08439826965332031, 1.489013671875, 1.307373046875, 0.039581298828125, 1.497802734375
49025, 0.16961266100406647, -0.05881451070308685, 0.015486611053347588, 0.9286747574806213, -1.7792003154754639, 63.99493408203125, 0.1218271255493164, -0.2744572162628174, 6.252196788787842, 0.07898411899805069, 0.5908589363098145, 0.0681079551577568, 0.5077650772271182, -0.6473808554269453, -8.433909887695512, 9362.0, 30146.0, 35388.0, 9362.0, 8.17190170288086, 0.08818475902080536, 0.1392909437417984, -0.0017879391089081764, -0.009153967723250389, -0.02164950594305992, 1.0311696529388428, -0.0745551660656929, -0.09335899353027344, 1.48828125, 1.32568359375, 0.0232086181640625, 1.493408203125
49035, 0.17075417935848236, -0.05684414505958557, 0.013857119716703892, 0.9298935532569885, -1.7819464206695557, 64.0574722290039, 0.12192663550376892, -0.2747545838356018, 6.255271911621094, 0.0789724737405777, 0.5908704996109009, 0.06810226291418076, 0.5183364548184253, -0.6560708270542648, -8.422215796961336, 9362.0, 30146.0, 35388.0, 9362.0, 8.17190170288086, 0.03923536837100983, -0.23770788311958313, -0.11363380402326584, -0.010928234085440636, -0.022200562059879303, 1.0299053192138672, -0.07476815581321716, -0.030637741088867188, 1.493408203125, 1.34326171875, 0.01605224609375, 1.49853515625
49045, 0.17055293917655945, -0.05466349050402641, 0.012233315035700798, 0.9311133623123169, -1.7846955060958862, 64.12004089355469, 0.1220303326845169, -0.2750537693500519, 6.2582173347473145, 0.07897675037384033, 0.5908643007278442, 0.06809582561254501, 0.5113332997094265, -0.6571841013423239, -8.43148998673209, 9362.0, 30146.0, 35388.0, 9362.0, 8.17190170288086, -0.04311911389231682, -0.28451642394065857, -0.25348737835884094, -0.009905246086418629, -0.02262156829237938, 1.0289943218231201, -0.07577525824308395, -0.08439826965332031, 1.489013671875, 1.301513671875, 0.046966552734375, 1.49853515625
49055, 0.1704605221748352, -0.05290045216679573, 0.012608161196112633, 0.9323341846466064, -1.7874475717544556, 64.1826400756836, 0.12213043123483658, -0.2753545343875885, 6.261054515838623, 0.07896550744771957, 0.5908818244934082, 0.06811638921499252, 0.5097264170852323, -0.6496822196167216, -8.42939182844603, 9362.0, 30146.0, 35388.0, 9362.0, 8.17190170288086, -0.08420206606388092, -0.25304293632507324, 0.07893010973930359, -0.009109907783567905, -0.024391425773501396, 1.0295113325119019, -0.07759605348110199, -0.07543754577636719, 1.48974609375, 1.2919921875, 0.0613250732421875, 1.49560546875
49065, 0.1706584095954895, -0.0509670116007328, 0.011824709363281727, 0.9335559606552124, -1.7902026176452637, 64.2452621459961, 0.12222674489021301, -0.275655061006546, 6.263919353485107, 0.07897461205720901, 0.5908728837966919, 0.06811445951461792, 0.5179272658208756, -0.6468667715273, -8.423828260355402, 9362.0, 30146.0, 35388.0, 9362.0, 8.17190170288086, -0.07829123735427856, -0.16612236201763153, -0.05715693533420563, -0.00916688796132803, -0.023317262530326843, 1.0297229290008545, -0.07653076201677322, -0.08439826965332031, 1.489013671875, 1.300048828125, 0.0489654541015625, 1.4912109375
49075, 0.17076840996742249, -0.05051477253437042, 0.013208046555519104, 0.9335559606552124, -1.7902026176452637, 64.2452621459961, 0.12222674489021301, -0.275655061006546, 6.263919353485107, 0.07896801829338074, 0.5908694267272949, 0.06811210513114929, 0.5137205514331521, -0.6479516243391572, -8.425877111312149, 9362.0, 30146.0, 35388.0, 9362.0, 8.17190170288086, 0.15936313569545746, -0.09826359152793884, 0.19178462028503418, -0.008836659602820873, -0.023098193109035492, 1.028759241104126, -0.07465280592441559, -0.07543754577636719, 1.48974609375, 1.292724609375, 0.060089111328125, 1.494140625
49085, 0.16962800920009613, -0.05165347456932068, 0.012665667571127415, 0.9360023140907288, -1.7957216501235962, 64.37059783935547, 0.12240985035896301, -0.2762562930583954, 6.269718170166016, 0.07898188382387161, 0.590861976146698, 0.06811540573835373, 0.5153140840125604, -0.6458580452755314, -8.436809277078492, 9362.0, 30146.0, 35388.0, 9362.0, 8.17190170288086, 0.15936313569545746, -0.09826359152793884, 0.19178462028503418, -0.008836659602820873, -0.023098193109035492, 1.028759241104126, -0.07465280592441559, -0.07543754577636719, 1.48974609375, 1.292724609375, 0.060089111328125, 1.494873046875
49095, 0.1686241179704666, -0.05205591022968292, 0.014222593978047371, 0.9372268319129944, -1.7984857559204102, 64.43331146240234, 0.12249911576509476, -0.276557594537735, 6.272729396820068, 0.07897041738033295, 0.5908693075180054, 0.06810922920703888, 0.5163867535646002, -0.6540523524360253, -8.428241067444732, 9362.0, 30146.0, 35388.0, 9362.0, 8.17190170288086, 0.15936313569545746, -0.09826359152793884, 0.19178462028503418, -0.008836659602820873, -0.023098193109035492, 1.028759241104126, -0.07465280592441559, -0.07543754577636719, 1.48974609375, 1.292724609375, 0.060089111328125, 1.496337890625
49105, 0.16843415796756744, -0.04976164922118187, 0.013904052786529064, 0.9372268319129944, -1.7984857559204102, 64.43331146240234, 0.12249911576509476, -0.276557594537735, 6.272729396820068, 0.07897964119911194, 0.5908643007278442, 0.06808777153491974, 0.5118021180354104, -0.6463604767729407, -8.424724259168281, 9362.0, 30146.0, 35388.0, 9362.0, 8.17190170288086, 0.018009591847658157, -0.34702855348587036, -0.08985582739114761, -0.008836659602820873, -0.023098193109035492, 1.028759241104126, -0.16042785346508026, -0.12023735046386719, 1.486083984375, 1.292724609375, 0.060089111328125, 1.493408203125
49115, 0.16839072108268738, -0.04677751660346985, 0.01509017776697874, 0.9372268319129944, -1.7984857559204102, 64.43331146240234, 0.12249911576509476, -0.276557594537735, 6.272729396820068, 0.0789765864610672, 0.5908679962158203, 0.06810694932937622, 0.5163782755424955, -0.654578081709559, -8.432948414155488, 9362.0, 30146.0, 35388.0, 9362.0, 8.17190170288086, 0.018009591847658157, -0.34702855348587036, -0.08985582739114761, -0.009010178968310356, -0.024262282997369766, 1.0295599699020386, -0.16042785346508026, -0.12023735046386719, 1.486083984375, 1.292724609375, 0.060089111328125, 1.496337890625
49135, 0.16835086047649384, -0.047041453421115875, 0.012788582593202591, 0.9372268319129944, -1.7984857559204102, 64.43331146240234, 0.12249911576509476, -0.276557594537735, 6.272729396820068, 0.07897535711526871, 0.5908713936805725, 0.06808532029390335, 0.5143910972189001, -0.647864342491971, -8.42935832662768, 9362.0, 30146.0, 35388.0, 9362.0, 8.17190170288086, 0.018009591847658157, -0.34702855348587036, -0.08985582739114761, -0.00883074477314949, -0.02298761159181595, 1.0300908088684082, -0.11007159948348999, -0.09335899353027344, 1.48828125, 1.3125, 0.034027099609375, 1.491943359375
49215, 0.16948072612285614, -0.047500524669885635, 0.009946114383637905, 0.9519882798194885, -1.8318874835968018, 65.18817901611328, 0.12350311875343323, -0.28014087677001953, 6.308703422546387, 0.07897379249334335, 0.5908728837966919, 0.06809771060943604, 0.5176990456718032, -0.6497586575905814, -8.427968147366295, 9362.0, 30146.0, 35388.0, 9362.0, 8.17190170288086, 0.018009591847658157, -0.34702855348587036, -0.08985582739114761, -0.009582567028701305, -0.02346830628812313, 1.0308746099472046, -0.0817844346165657, -0.06647872924804688, 1.490478515625, 1.32421875, 0.024139404296875, 1.49560546875
49225, 0.1691794991493225, -0.04780938848853111, 0.009833211079239845, 0.9519882798194885, -1.8318874835968018, 65.18817901611328, 0.12350311875343323, -0.28014087677001953, 6.308703422546387, 0.07897761464118958, 0.5908696055412292, 0.06809842586517334, 0.5076495250369853, -0.6513684618747959, -8.432283665179172, 9362.0, 30146.0, 35388.0, 9362.0, 8.17190170288086, 0.03679923713207245, -0.06201918423175812, 0.023697907105088234, -0.009582567028701305, -0.02346830628812313, 1.0308746099472046, -0.08147719502449036, -0.08439826965332031, 1.489013671875, 1.32421875, 0.024139404296875, 1.49560546875
49235, 0.16919782757759094, -0.04884282127022743, 0.009333932772278786, 0.9519882798194885, -1.8318874835968018, 65.18817901611328, 0.12350311875343323, -0.28014087677001953, 6.308703422546387, 0.07897114008665085, 0.5908666253089905, 0.06809713691473007, 0.5146436945748951, -0.6544478026719673, -8.43157687520443, 9362.0, 30146.0, 35388.0, 9362.0, 8.17190170288086, 0.03679923713207245, -0.06201918423175812, 0.023697907105088234, -0.009582567028701305, -0.02346830628812313, 1.0308746099472046, -0.0811428502202034, -0.04855918884277344, 1.491943359375, 1.32421875, 0.024139404296875, 1.493408203125
49245, 0.17021729052066803, -0.048851076513528824, 0.0072325305081903934, 0.9519882798194885, -1.8318874835968018, 65.18817901611328, 0.12350311875343323, -0.28014087677001953, 6.308703422546387, 0.07896246761083603, 0.590872049331665, 0.0681125819683075, 0.516310631244357, -0.6490556520702739, -8.425885814144936, 9362.0, 30146.0, 35388.0, 9362.0, 8.17190170288086, 0.03679923713207245, -0.06201918423175812, 0.023697907105088234, -0.009582567028701305, -0.02346830628812313, 1.0308746099472046, -0.07838913053274155, -0.09335899353027344, 1.48828125, 1.3359375, 0.01806640625, 1.491943359375
49255, 0.17104853689670563, -0.04751686006784439, 0.006214348133653402, 0.9519882798194885, -1.8318874835968018, 65.18817901611328, 0.12350311875343323, -0.28014087677001953, 6.308703422546387, 0.07897675037384033, 0.5908728241920471, 0.06809808313846588, 0.5096136060032955, -0.6444531990070743, -8.431066014366484, 9362.0, 30146.0, 35388.0, 9362.0, 8.17190170288086, 0.03679923713207245, -0.06201918423175812, 0.023697907105088234, -0.009582567028701305, -0.02346830628812313, 1.0308746099472046, -0.08084456622600555, -0.05751800537109375, 1.4912109375, 1.34033203125, 0.0166168212890625, 1.491943359375
49275, 0.1713462918996811, -0.05231921002268791, 0.00873540248721838, 0.9581738114356995, -1.845932126045227, 65.50399780273438, 0.12392516434192657, -0.28163930773735046, 6.324195384979248, 0.07898008078336716, 0.5908593535423279, 0.06810948252677917, 0.5153827829433707, -0.6522062557407367, -8.428452328607856, 9362.0, 30146.0, 35388.0, 9362.0, 8.17190170288086, 0.03679923713207245, -0.06201918423175812, 0.023697907105088234, -0.008186357095837593, -0.022730819880962372, 1.0332785844802856, -0.08084456622600555, -0.05751800537109375, 1.4912109375, 1.34033203125, 0.0166168212890625, 1.493408203125
49305, 0.17118604481220245, -0.0555163249373436, 0.0077236429788172245, 0.9581738114356995, -1.845932126045227, 65.50399780273438, 0.12392516434192657, -0.28163930773735046, 6.324195384979248, 0.07895413041114807, 0.5909056067466736, 0.06815814971923828, 0.5281594603035644, -0.6474654615740292, -8.414592035928345, 9362.0, 30146.0, 35388.0, 9362.0, 8.17190170288086, 0.03679923713207245, -0.06201918423175812, 0.023697907105088234, -0.009544620290398598, -0.024978836998343468, 1.032057523727417, -0.07508734613656998, -0.05751800537109375, 1.4912109375, 1.307373046875, 0.039581298828125, 1.493408203125
49315, 0.1719440221786499, -0.0586223378777504, 0.00732301315292716, 0.9643810987472534, -1.8600519895553589, 65.82060241699219, 0.12437507510185242, -0.2831542193889618, 6.339931011199951, 0.07897055894136429, 0.5908817648887634, 0.06810937076807022, 0.5115783582219982, -0.6530277575027696, -8.433272396715678, 9362.0, 30146.0, 35388.0, 9362.0, 8.17190170288086, 0.03679923713207245, -0.06201918423175812, 0.023697907105088234, -0.009544620290398598, -0.024978836998343468, 1.032057523727417, -0.07508734613656998, -0.05751800537109375, 1.4912109375, 1.30224609375, 0.0460052490234375, 1.497802734375
49325, 0.17225810885429382, -0.05855516716837883, 0.007586883381009102, 0.9656253457069397, -1.8628849983215332, 65.88401794433594, 0.12447343021631241, -0.28345686197280884, 6.343125820159912, 0.07898085564374924, 0.5908458232879639, 0.0680750384926796, 0.5375439128921006, -0.6617107519831791, -8.412682818541114, 9362.0, 30146.0, 35388.0, 9362.0, 8.17190170288086, 0.03679923713207245, -0.06201918423175812, 0.023697907105088234, -0.009544620290398598, -0.024978836998343468, 1.032057523727417, -0.07508734613656998, -0.05751800537109375, 1.4912109375, 1.326416015625, 0.022705078125, 1.49560546875
49335, 0.17347976565361023, -0.05821741372346878, 0.0064219459891319275, 0.9656253457069397, -1.8628849983215332, 65.88401794433594, 0.12447343021631241, -0.28345686197280884, 6.343125820159912, 0.07896476984024048, 0.5908606052398682, 0.06811636686325073, 0.513955544938336, -0.647029951280075, -8.431960855166137, 9362.0, 30146.0, 35388.0, 9362.0, 8.17190170288086, 0.03679923713207245, -0.06201918423175812, 0.023697907105088234, -0.006921516731381416, -0.0242492463439703, 1.030696153640747, -0.07688464969396591, -0.05751800537109375, 1.4912109375, 1.3359375, 0.01806640625, 1.49560546875
49345, 0.17427238821983337, -0.05982100963592529, 0.006953898351639509, 0.9656253457069397, -1.8628849983215332, 65.88401794433594, 0.12447343021631241, -0.28345686197280884, 6.343125820159912, 0.0789799615740776, 0.5908653140068054, 0.06809945404529572, 0.5096666218726656, -0.6560773464156853, -8.436494729175354, 9362.0, 30146.0, 35388.0, 9362.0, 8.17190170288086, 0.03679923713207245, -0.06201918423175812, 0.023697907105088234, -0.00774227362126112, -0.02417110465466976, 1.0295789241790771, -0.08111245185136795, -0.11127853393554688, 1.48681640625, 1.3359375, 0.01806640625, 1.494873046875
49355, 0.17456161975860596, -0.06208084523677826, 0.007048321887850761, 0.9656253457069397, -1.8628849983215332, 65.88401794433594, 0.12447343021631241, -0.28345686197280884, 6.343125820159912, 0.07897728681564331, 0.5908647179603577, 0.06809399276971817, 0.5108350721161896, -0.6530046891541872, -8.433880734536423, 9362.0, 30146.0, 35388.0, 9362.0, 8.17190170288086, 0.03679923713207245, -0.06201918423175812, 0.023697907105088234, -0.010291563346982002, -0.023729762062430382, 1.0294805765151978, -0.08111245185136795, -0.11127853393554688, 1.48681640625, 1.3359375, 0.01806640625, 1.493408203125
49365, 0.17364558577537537, -0.06403429061174393, 0.008663992397487164, 0.9656253457069397, -1.8628849983215332, 65.88401794433594, 0.12447343021631241, -0.28345686197280884, 6.343125820159912, 0.07897208631038666, 0.5908656120300293, 0.0680822804570198, 0.5120722390332675, -0.6402682568007094, -8.436059422776426, 9362.0, 30146.0, 35388.0, 9362.0, 8.17190170288086, 0.03679923713207245, -0.06201918423175812, 0.023697907105088234, -0.009120452217757702, -0.02497771941125393, 1.0291635990142822, -0.08147286623716354, -0.07543754577636719, 1.48974609375, 1.3359375, 0.01806640625, 1.497802734375
49375, 0.1734604686498642, -0.06488332897424698, 0.008616366423666477, 0.9656253457069397, -1.8628849983215332, 65.88401794433594, 0.12447343021631241, -0.28345686197280884, 6.343125820159912, 0.07896492630243301, 0.5908828973770142, 0.06810832768678665, 0.5101067534795083, -0.6516297076023534, -8.427370332887723, 9362.0, 30146.0, 35388.0, 9362.0, 8.17190170288086, 0.03679923713207245, -0.06201918423175812, 0.023697907105088234, -0.009120452217757702, -0.02497771941125393, 1.0291635990142822, -0.08147286623716354, -0.07543754577636719, 1.48974609375, 1.3359375, 0.01806640625, 1.494873046875
49385, 0.17357081174850464, -0.06720047444105148, 0.009775561280548573, 0.9656253457069397, -1.8628849983215332, 65.88401794433594, 0.12447343021631241, -0.28345686197280884, 6.343125820159912, 0.07896650582551956, 0.5908755660057068, 0.06812165677547455, 0.5171271090165677, -0.6499433871573217, -8.424738062122923, 9362.0, 30146.0, 35388.0, 9362.0, 8.17190170288086, 0.03679923713207245, -0.06201918423175812, 0.023697907105088234, -0.009120452217757702, -0.02497771941125393, 1.0291635990142822, -0.08093626797199249, -0.05751800537109375, 1.4912109375, 1.339599609375, 0.0168914794921875, 1.4970703125
49395, 0.17385508120059967, -0.06819280982017517, 0.009774834848940372, 0.9743642210960388, -1.8828017711639404, 66.3287582397461, 0.12522576749324799, -0.2855971157550812, 6.363736152648926, 0.07895182073116302, 0.590898871421814, 0.06816216558218002, 0.5279040306088009, -0.6504429829283254, -8.420994600344939, 9362.0, 30146.0, 35388.0, 9362.0, 8.17190170288086, 0.03679923713207245, -0.06201918423175812, 0.023697907105088234, -0.009120452217757702, -0.02497771941125393, 1.0291635990142822, -0.08093626797199249, -0.05751800537109375, 1.4912109375, 1.339599609375, 0.0168914794921875, 1.4970703125
49405, 0.17342500388622284, -0.06581742316484451, 0.010778111405670643, 0.9756170511245728, -1.8856592178344727, 66.39241027832031, 0.12534454464912415, -0.2859036326408386, 6.366809368133545, 0.07896717637777328, 0.5908587574958801, 0.06809375435113907, 0.5150856651033406, -0.6471026698050935, -8.427761770996506, 9362.0, 30146.0, 35388.0, 9362.0, 8.17190170288086, 0.03679923713207245, -0.06201918423175812, 0.023697907105088234, -0.009120452217757702, -0.02497771941125393, 1.0291635990142822, -0.08093626797199249, -0.05751800537109375, 1.4912109375, 1.339599609375, 0.0168914794921875, 1.49267578125
49415, 0.17331619560718536, -0.06617370992898941, 0.00982371624559164, 0.9756170511245728, -1.8856592178344727, 66.39241027832031, 0.12534454464912415, -0.2859036326408386, 6.366809368133545, 0.07894375920295715, 0.5909035801887512, 0.06817498058080673, 0.5245245376907889, -0.652166898566179, -8.416302124208654, 9362.0, 30146.0, 35388.0, 9362.0, 8.17190170288086, 0.03679923713207245, -0.06201918423175812, 0.023697907105088234, -0.007735847495496273, -0.02375073917210102, 1.0308796167373657, -0.08093626797199249, -0.05751800537109375, 1.4912109375, 1.310302734375, 0.036285400390625, 1.49267578125
49435, 0.17510516941547394, -0.06583961844444275, 0.008033949881792068, 0.9781262874603271, -1.891383409500122, 66.51980590820312, 0.12558120489120483, -0.28651684522628784, 6.372978687286377, 0.07896804809570312, 0.5908755660057068, 0.0680893287062645, 0.5142812730173683, -0.6419629433111993, -8.4301969855096, 9362.0, 30146.0, 35388.0, 9362.0, 8.17190170288086, 0.03679923713207245, -0.06201918423175812, 0.023697907105088234, -0.007209059316664934, -0.024566324427723885, 1.0308682918548584, -0.0794968530535698, -0.05751800537109375, 1.4912109375, 1.302978515625, 0.0450897216796875, 1.494873046875
49445, 0.17543385922908783, -0.06527562439441681, 0.009369194507598877, 0.9781262874603271, -1.891383409500122, 66.51980590820312, 0.12558120489120483, -0.28651684522628784, 6.372978687286377, 0.0789724737405777, 0.5908691883087158, 0.06809885799884796, 0.5176390760512097, -0.6445789886276145, -8.435889074052787, 9362.0, 30146.0, 35388.0, 9362.0, 8.17190170288086, 0.03679923713207245, -0.06201918423175812, 0.023697907105088234, -0.007209059316664934, -0.024566324427723885, 1.0308682918548584, -0.07972430437803268, -0.03959846496582031, 1.49267578125, 1.302978515625, 0.0450897216796875, 1.49560546875
49455, 0.17452754080295563, -0.06609827280044556, 0.009847031906247139, 0.9818989634513855, -1.8999927043914795, 66.71112823486328, 0.1259305477142334, -0.2874373495578766, 6.381952285766602, 0.07897502928972244, 0.5908713340759277, 0.06809040158987045, 0.5141384771297072, -0.6427805392714845, -8.430690418095958, 9362.0, 30146.0, 35388.0, 9362.0, 8.17190170288086, 0.03679923713207245, -0.06201918423175812, 0.023697907105088234, -0.007209059316664934, -0.024566324427723885, 1.0308682918548584, -0.07972430437803268, -0.03959846496582031, 1.49267578125, 1.302978515625, 0.0450897216796875, 1.497802734375
49465, 0.17475922405719757, -0.06449853628873825, 0.009528525173664093, 0.9818989634513855, -1.8999927043914795, 66.71112823486328, 0.1259305477142334, -0.2874373495578766, 6.381952285766602, 0.07894596457481384, 0.5908941030502319, 0.06817948818206787, 0.52882661034956, -0.6512827747692995, -8.426181620802277, 9362.0, 30146.0, 35388.0, 9362.0, 8.17190170288086, 0.03679923713207245, -0.06201918423175812, 0.023697907105088234, -0.007209059316664934, -0.024566324427723885, 1.0308682918548584, -0.08178164064884186, -0.09335899353027344, 1.48828125, 1.302978515625, 0.0450897216796875, 1.494140625
49475, 0.17485901713371277, -0.0645206943154335, 0.00934913195669651, 0.9818989634513855, -1.8999927043914795, 66.71112823486328, 0.1259305477142334, -0.2874373495578766, 6.381952285766602, 0.07897945493459702, 0.5908676385879517, 0.06811457872390747, 0.5194779883973957, -0.6461406492344963, -8.430541768382772, 9362.0, 30146.0, 35388.0, 9362.0, 8.17190170288086, 0.03679923713207245, -0.06201918423175812, 0.023697907105088234, -0.007209059316664934, -0.024566324427723885, 1.0308682918548584, -0.08222713321447372, -0.030637741088867188, 1.493408203125, 1.302978515625, 0.0450897216796875, 1.49560546875
49485, 0.17675365507602692, -0.06491053849458694, 0.008032560348510742, 0.9818989634513855, -1.8999927043914795, 66.71112823486328, 0.1259305477142334, -0.2874373495578766, 6.381952285766602, 0.07895151525735855, 0.5908656120300293, 0.06810066103935242, 0.5170064286912771, -0.6436179586167441, -8.425896072763802, 9362.0, 30146.0, 35388.0, 9362.0, 8.17190170288086, 0.03679923713207245, -0.06201918423175812, 0.023697907105088234, -0.007209059316664934, -0.024566324427723885, 1.0308682918548584, -0.08061795681715012, -0.07543754577636719, 1.48974609375, 1.302978515625, 0.0450897216796875, 1.49560546875
49495, 0.1781785935163498, -0.06519317626953125, 0.008677634410560131, 0.9818989634513855, -1.8999927043914795, 66.71112823486328, 0.1259305477142334, -0.2874373495578766, 6.381952285766602, 0.07897008955478668, 0.590848445892334, 0.06808678060770035, 0.5119773864073249, -0.6472538188561714, -8.424539205210161, 9362.0, 30146.0, 35388.0, 9362.0, 8.17190170288086, 0.03679923713207245, -0.06201918423175812, 0.023697907105088234, -0.007209059316664934, -0.024566324427723885, 1.0308682918548584, -0.08061795681715012, -0.07543754577636719, 1.48974609375, 1.302978515625, 0.0450897216796875, 1.494873046875
49515, 0.1784663051366806, -0.06812369078397751, 0.008415017277002335, 0.9894754886627197, -1.9172947406768799, 67.09459686279297, 0.12662045657634735, -0.28929948806762695, 6.400407791137695, 0.0789666622877121, 0.5908671021461487, 0.06811090558767319, 0.5140551439628791, -0.6472192675059034, -8.42906372290731, 9362.0, 30146.0, 35388.0, 9362.0, 8.17190170288086, 0.03679923713207245, -0.06201918423175812, 0.023697907105088234, -0.009765825234353542, -0.023612020537257195, 1.0309523344039917, -0.08061795681715012, -0.07543754577636719, 1.48974609375, 1.305908203125, 0.0413360595703125, 1.49560546875
49525, 0.1796727329492569, -0.06855032593011856, 0.008604253642261028, 0.9907422661781311, -1.9201892614364624, 67.15861511230469, 0.1267378181219101, -0.2896135747432709, 6.403404235839844, 0.07893993705511093, 0.5908886194229126, 0.06815430521965027, 0.5230749059961628, -0.6479512402405874, -8.414472409862904, 9362.0, 30146.0, 35388.0, 9362.0, 8.17190170288086, 0.03679923713207245, -0.06201918423175812, 0.023697907105088234, -0.009765825234353542, -0.023612020537257195, 1.0309523344039917, -0.08061795681715012, -0.07543754577636719, 1.48974609375, 1.305908203125, 0.0413360595703125, 1.49560546875
49535, 0.17883798480033875, -0.07058809697628021, 0.01166245061904192, 0.992010235786438, -1.9230870008468628, 67.22266387939453, 0.12685807049274445, -0.28992849588394165, 6.406386852264404, 0.07893823087215424, 0.5909030437469482, 0.06814832240343094, 0.5283287027679904, -0.6516633789385935, -8.420414653745425, 9362.0, 30146.0, 35388.0, 9362.0, 8.17190170288086, 0.03679923713207245, -0.06201918423175812, 0.023697907105088234, -0.009765825234353542, -0.023612020537257195, 1.0309523344039917, -0.08061795681715012, -0.07543754577636719, 1.48974609375, 1.305908203125, 0.0413360595703125, 1.493408203125
49555, 0.1783037930727005, -0.07495879381895065, 0.012192778289318085, 0.9945498108863831, -1.928891897201538, 67.3508529663086, 0.1271040439605713, -0.2905614972114563, 6.412546157836914, 0.07896652072668076, 0.5908659100532532, 0.06813275814056396, 0.5096671756231992, -0.6516663870761477, -8.434286860859594, 9362.0, 30146.0, 35388.0, 9362.0, 8.17190170288086, 0.03679923713207245, -0.06201918423175812, 0.023697907105088234, -0.009190875105559826, -0.025173230096697807, 1.0312225818634033, -0.08267088234424591, -0.1291980743408203, 1.4853515625, 1.3154296875, 0.03118896484375, 1.494140625
49565, 0.17812305688858032, -0.07585853338241577, 0.01207437552511692, 0.995821475982666, -1.931799054145813, 67.41499328613281, 0.1272307187318802, -0.290877103805542, 6.415615081787109, 0.07897841930389404, 0.5908642411231995, 0.06810746341943741, 0.5185140096531203, -0.65016898225457, -8.43431197005934, 9362.0, 30146.0, 35388.0, 9362.0, 8.17190170288086, 0.03679923713207245, -0.06201918423175812, 0.023697907105088234, -0.009190875105559826, -0.025173230096697807, 1.0312225818634033, -0.08267088234424591, -0.1291980743408203, 1.4853515625, 1.305908203125, 0.0413360595703125, 1.494140625
49575, 0.1780387908220291, -0.07306920737028122, 0.01176866888999939, 0.995821475982666, -1.931799054145813, 67.41499328613281, 0.1272307187318802, -0.290877103805542, 6.415615081787109, 0.07896218448877335, 0.5908602476119995, 0.06811000406742096, 0.5167643606877786, -0.6461363807642613, -8.424902256325286, 9362.0, 30146.0, 35388.0, 9362.0, 8.17190170288086, 0.03679923713207245, -0.06201918423175812, 0.023697907105088234, -0.009190875105559826, -0.025173230096697807, 1.0312225818634033, -0.0866614505648613, -0.07543754577636719, 1.48974609375, 1.305908203125, 0.0413360595703125, 1.494873046875
49585, 0.1786690652370453, -0.07585042715072632, 0.01081470213830471, 0.995821475982666, -1.931799054145813, 67.41499328613281, 0.1272307187318802, -0.290877103805542, 6.415615081787109, 0.07895934581756592, 0.5908632278442383, 0.06810329109430313, 0.5187241196052168, -0.6487177716817598, -8.425970985251395, 9362.0, 30146.0, 35388.0, 9362.0, 8.17190170288086, 0.03679923713207245, -0.06201918423175812, 0.023697907105088234, -0.009190875105559826, -0.025173230096697807, 1.0312225818634033, -0.08301274478435516, -0.01271820068359375, 1.494873046875, 1.305908203125, 0.0413360595703125, 1.494140625
49595, 0.17813906073570251, -0.07513774186372757, 0.010188673622906208, 0.995821475982666, -1.931799054145813, 67.41499328613281, 0.1272307187318802, -0.290877103805542, 6.415615081787109, 0.0789642408490181, 0.5908676385879517, 0.06812825053930283, 0.5139179681991497, -0.644932918165182, -8.435336088298156, 9362.0, 30146.0, 35388.0, 9362.0, 8.17190170288086, 0.03679923713207245, -0.06201918423175812, 0.023697907105088234, -0.009190875105559826, -0.025173230096697807, 1.0312225818634033, -0.08264405280351639, -0.021678924560546875, 1.494140625, 1.3095703125, 0.037139892578125, 1.4970703125
49605, 0.17873258888721466, -0.07510186731815338, 0.011983364820480347, 0.995821475982666, -1.931799054145813, 67.41499328613281, 0.1272307187318802, -0.290877103805542, 6.415615081787109, 0.0789656937122345, 0.5908759236335754, 0.06813094764947891, 0.5143586188358545, -0.6461727342482675, -8.436902875796852, 9362.0, 30146.0, 35388.0, 9362.0, 8.17190170288086, 0.03679923713207245, -0.06201918423175812, 0.023697907105088234, -0.009190875105559826, -0.025173230096697807, 1.0312225818634033, -0.07738228142261505, -0.08439826965332031, 1.489013671875, 1.30517578125, 0.0422515869140625, 1.497802734375
49625, 0.18069486320018768, -0.07560864090919495, 0.012187453918159008, 0.995821475982666, -1.931799054145813, 67.41499328613281, 0.1272307187318802, -0.290877103805542, 6.415615081787109, 0.07895633578300476, 0.5908659100532532, 0.0681065171957016, 0.5187931134449743, -0.6487266862624494, -8.427319886286133, 9362.0, 30146.0, 35388.0, 9362.0, 8.17190170288086, 0.03679923713207245, -0.06201918423175812, 0.023697907105088234, -0.009761316701769829, -0.022511621937155724, 1.0305951833724976, -0.07658342272043228, -0.03959846496582031, 1.49267578125, 1.314697265625, 0.0319061279296875, 1.496337890625
49645, 0.17885521054267883, -0.07642080634832382, 0.012856383807957172, 0.995821475982666, -1.931799054145813, 67.41499328613281, 0.1272307187318802, -0.290877103805542, 6.415615081787109, 0.07895643264055252, 0.5908671617507935, 0.06811438500881195, 0.5174126410719979, -0.6508034077900788, -8.423156525555742, 9362.0, 30146.0, 35388.0, 9362.0, 8.17190170288086, 0.03679923713207245, -0.06201918423175812, 0.023697907105088234, -0.007637570146471262, -0.0230843685567379, 1.0312260389328003, -0.07658342272043228, -0.03959846496582031, 1.49267578125, 1.333740234375, 0.0189361572265625, 1.49267578125
49665, 0.17833511531352997, -0.07820087671279907, 0.012916295789182186, 1.0086108446121216, -1.9610443115234375, 68.05807495117188, 0.12856194376945496, -0.2940328121185303, 6.446101188659668, 0.07898016273975372, 0.5908640623092651, 0.06810954958200455, 0.5130862210533963, -0.6515605341503203, -8.431496845715374, 9362.0, 30146.0, 35388.0, 9362.0, 8.17190170288086, 0.03679923713207245, -0.06201918423175812, 0.023697907105088234, -0.007637570146471262, -0.0230843685567379, 1.0312260389328003, -0.07658342272043228, -0.03959846496582031, 1.49267578125, 1.30224609375, 0.0460052490234375, 1.49267578125
49675, 0.17912060022354126, -0.07920332998037338, 0.01296025887131691, 1.0098971128463745, -1.9639861583709717, 68.12255096435547, 0.12869878113269806, -0.2943483889102936, 6.449150085449219, 0.07896065711975098, 0.5908581614494324, 0.06812029331922531, 0.5128429337157316, -0.6520202183930337, -8.42397944909974, 9362.0, 30146.0, 35388.0, 9362.0, 8.17190170288086, 0.03679923713207245, -0.06201918423175812, 0.023697907105088234, -0.007637570146471262, -0.0230843685567379, 1.0312260389328003, -0.07658342272043228, -0.03959846496582031, 1.49267578125, 1.297119140625, 0.0532379150390625, 1.49267578125
49685, 0.1804201602935791, -0.08304768055677414, 0.014845064841210842, 1.011184811592102, -1.9669312238693237, 68.18705749511719, 0.12883739173412323, -0.294664204120636, 6.452507972717285, 0.07896639406681061, 0.5908703207969666, 0.0681297779083252, 0.5184075775053653, -0.6531360454314381, -8.4271828328781, 9362.0, 30146.0, 35388.0, 9362.0, 8.17190170288086, 0.03679923713207245, -0.06201918423175812, 0.023697907105088234, -0.007637570146471262, -0.0230843685567379, 1.0312260389328003, -0.07658342272043228, -0.03959846496582031, 1.49267578125, 1.295654296875, 0.05548095703125, 1.49560546875
49695, 0.17965488135814667, -0.08366233855485916, 0.012497592717409134, 1.011184811592102, -1.9669312238693237, 68.18705749511719, 0.12883739173412323, -0.294664204120636, 6.452507972717285, 0.07894935458898544, 0.5908995866775513, 0.06816350668668747, 0.5244568877834076, -0.6521690904319826, -8.423308823315077, 9362.0, 30146.0, 35388.0, 9362.0, 8.17190170288086, 0.03679923713207245, -0.06201918423175812, 0.023697907105088234, -0.007637570146471262, -0.0230843685567379, 1.0312260389328003, -0.10069183260202408, -0.07543754577636719, 1.48974609375, 1.295654296875, 0.05548095703125, 1.493408203125
49705, 0.18010294437408447, -0.0834566131234169, 0.011414877139031887, 1.011184811592102, -1.9669312238693237, 68.18705749511719, 0.12883739173412323, -0.294664204120636, 6.452507972717285, 0.07896050065755844, 0.5908684730529785, 0.06812238693237305, 0.5095020171748611, -0.6519084453754544, -8.431062728565268, 9362.0, 30146.0, 35388.0, 9362.0, 8.17190170288086, 0.03679923713207245, -0.06201918423175812, 0.023697907105088234, -0.007637570146471262, -0.0230843685567379, 1.0312260389328003, -0.09496437758207321, -0.05751800537109375, 1.4912109375, 1.295654296875, 0.05548095703125, 1.493408203125
49715, 0.18031154572963715, -0.08119423687458038, 0.010396583937108517, 1.011184811592102, -1.9669312238693237, 68.18705749511719, 0.12883739173412323, -0.294664204120636, 6.452507972717285, 0.07896968722343445, 0.5908722281455994, 0.0680890679359436, 0.5166292849724295, -0.6451328550028279, -8.427620457594003, 9362.0, 30146.0, 35388.0, 9362.0, 8.17190170288086, 0.03679923713207245, -0.06201918423175812, 0.023697907105088234, -0.007637570146471262, -0.0230843685567379, 1.0312260389328003, -0.09399775415658951, -0.13815879821777344, 1.484619140625, 1.295654296875, 0.05548095703125, 1.49853515625
49725, 0.1820731908082962, -0.08179514110088348, 0.01094177644699812, 1.011184811592102, -1.9669312238693237, 68.18705749511719, 0.12883739173412323, -0.294664204120636, 6.452507972717285, 0.07897061854600906, 0.5908656120300293, 0.06810695677995682, 0.5093457497670166, -0.6533208835377593, -8.43471603390717, 9362.0, 30146.0, 35388.0, 9362.0, 8.17190170288086, 0.03679923713207245, -0.06201918423175812, 0.023697907105088234, -0.007637570146471262, -0.0230843685567379, 1.0312260389328003, -0.09399775415658951, -0.13815879821777344, 1.484619140625, 1.295654296875, 0.05548095703125, 1.5
49735, 0.180645152926445, -0.08201264590024948, 0.011769946664571762, 1.011184811592102, -1.9669312238693237, 68.18705749511719, 0.12883739173412323, -0.294664204120636, 6.452507972717285, 0.07895117253065109, 0.5908992886543274, 0.06818607449531555, 0.5284879355272457, -0.6518326778431742, -8.423554610949635, 9362.0, 30146.0, 35388.0, 9362.0, 8.17190170288086, 0.03679923713207245, -0.06201918423175812, 0.023697907105088234, -0.008669824339449406, -0.023428145796060562, 1.0306390523910522, -0.09399775415658951, -0.13815879821777344, 1.484619140625, 1.295654296875, 0.05548095703125, 1.49560546875
49795, 0.18230240046977997, -0.08520389348268509, 0.012096960097551346, 1.0254446268081665, -1.9995368719100952, 68.89868927001953, 0.13041871786117554, -0.2981717884540558, 6.48590087890625, 0.07896142452955246, 0.5908679962158203, 0.06812436133623123, 0.5116927045918154, -0.6500289355861923, -8.43266300610185, 9362.0, 30146.0, 35388.0, 9362.0, 8.17190170288086, 0.03679923713207245, -0.06201918423175812, 0.023697907105088234, -0.010111186653375626, -0.021495167165994644, 1.0310252904891968, -0.08426433056592941, -0.08439826965332031, 1.489013671875, 1.30078125, 0.048004150390625, 1.491943359375
49805, 0.18289315700531006, -0.08668064326047897, 0.013678105548024178, 1.026749610900879, -2.0025203227996826, 68.96356201171875, 0.1305665671825409, -0.2984951138496399, 6.4888916015625, 0.07899008691310883, 0.5908353924751282, 0.06806681305170059, 0.5360652511476091, -0.6601618326937455, -8.426347106872154, 9362.0, 30146.0, 35388.0, 9362.0, 8.17190170288086, 0.03679923713207245, -0.06201918423175812, 0.023697907105088234, -0.010111186653375626, -0.021495167165994644, 1.0310252904891968, -0.08426433056592941, -0.08439826965332031, 1.489013671875, 1.30078125, 0.048004150390625, 1.4912109375
49815, 0.18272574245929718, -0.08631987869739532, 0.013651130720973015, 1.028056025505066, -2.005506992340088, 69.0284652709961, 0.13071708381175995, -0.2988168001174927, 6.491901397705078, 0.07896647602319717, 0.5908573865890503, 0.0681036189198494, 0.5162631139993211, -0.6454694475831673, -8.429531824385924, 9362.0, 30146.0, 35388.0, 9362.0, 8.17190170288086, 0.03679923713207245, -0.06201918423175812, 0.023697907105088234, -0.010111186653375626, -0.021495167165994644, 1.0310252904891968, -0.08426433056592941, -0.08439826965332031, 1.489013671875, 1.30078125, 0.048004150390625, 1.494873046875
49825, 0.18325433135032654, -0.08610444515943527, 0.011950764805078506, 1.028056025505066, -2.005506992340088, 69.0284652709961, 0.13071708381175995, -0.2988168001174927, 6.491901397705078, 0.0789460614323616, 0.5908553600311279, 0.06808687746524811, 0.5191721432016438, -0.660043949304054, -8.457658742116864, 9362.0, 30146.0, 35388.0, 9362.0, 8.17190170288086, 0.03679923713207245, -0.06201918423175812, 0.023697907105088234, -0.009655213914811611, -0.024749094620347023, 1.031919002532959, -0.08426433056592941, -0.08439826965332031, 1.489013671875, 1.30078125, 0.048004150390625, 1.49560546875
49835, 0.18299804627895355, -0.0861973911523819, 0.011214302852749825, 1.028056025505066, -2.005506992340088, 69.0284652709961, 0.13071708381175995, -0.2988168001174927, 6.491901397705078, 0.0789635106921196, 0.5908553004264832, 0.0681115984916687, 0.5150242133672273, -0.6474363433915471, -8.425203773762455, 9362.0, 30146.0, 35388.0, 9362.0, 8.17190170288086, 0.03679923713207245, -0.06201918423175812, 0.023697907105088234, -0.009655213914811611, -0.024749094620347023, 1.031919002532959, -0.08710314333438873, -0.07543754577636719, 1.48974609375, 1.30078125, 0.048004150390625, 1.4912109375
49845, 0.18311454355716705, -0.08693152666091919, 0.012114842422306538, 1.028056025505066, -2.005506992340088, 69.0284652709961, 0.13071708381175995, -0.2988168001174927, 6.491901397705078, 0.07896124571561813, 0.5908703207969666, 0.0680909976363182, 0.5164739941461545, -0.6552738235724291, -8.427261639194244, 9362.0, 30146.0, 35388.0, 9362.0, 8.17190170288086, 0.03679923713207245, -0.06201918423175812, 0.023697907105088234, -0.009655213914811611, -0.024749094620347023, 1.031919002532959, -0.08438265323638916, -0.05751800537109375, 1.4912109375, 1.30078125, 0.048004150390625, 1.493408203125
49855, 0.18306265771389008, -0.08499578386545181, 0.01201699674129486, 1.028056025505066, -2.005506992340088, 69.0284652709961, 0.13071708381175995, -0.2988168001174927, 6.491901397705078, 0.07896953076124191, 0.5908682942390442, 0.06811287254095078, 0.5163828930951203, -0.6501544373962247, -8.428649725978023, 9362.0, 30146.0, 35388.0, 9362.0, 8.17190170288086, 0.03679923713207245, -0.06201918423175812, 0.023697907105088234, -0.009655213914811611, -0.024749094620347023, 1.031919002532959, -0.08438265323638916, -0.05751800537109375, 1.4912109375, 1.30078125, 0.048004150390625, 1.497802734375
49905, 0.18306893110275269, -0.08679040521383286, 0.010879403911530972, 1.0398821830749512, -2.032531499862671, 69.6139907836914, 0.13208197057247162, -0.30172762274742126, 6.519906997680664, 0.07894615828990936, 0.5908558964729309, 0.06810348480939865, 0.5126320928992313, -0.6519056555636666, -8.435086871257706, 9362.0, 30146.0, 35388.0, 9362.0, 8.17190170288086, 0.03679923713207245, -0.06201918423175812, 0.023697907105088234, -0.011066353879868984, -0.02275347150862217, 1.0314445495605469, -0.08030842989683151, -0.08439826965332031, 1.489013671875, 1.336669921875, 0.0177764892578125, 1.4912109375
49915, 0.18284299969673157, -0.08819601684808731, 0.010469931177794933, 1.0398821830749512, -2.032531499862671, 69.6139907836914, 0.13208197057247162, -0.30172762274742126, 6.519906997680664, 0.07897092401981354, 0.5908703804016113, 0.06811226904392242, 0.5116588301418865, -0.6418784530743267, -8.43162455078331, 9362.0, 30146.0, 35388.0, 9362.0, 8.17190170288086, 0.03679923713207245, -0.06201918423175812, 0.023697907105088234, -0.011066353879868984, -0.02275347150862217, 1.0314445495605469, -0.08474321663379669, -0.08439826965332031, 1.489013671875, 1.330078125, 0.0206298828125, 1.4912109375
49925, 0.1833784580230713, -0.09021790325641632, 0.011892128735780716, 1.0398821830749512, -2.032531499862671, 69.6139907836914, 0.13208197057247162, -0.30172762274742126, 6.519906997680664, 0.07896173745393753, 0.5908558368682861, 0.06810511648654938, 0.5125876635364737, -0.6508115998486232, -8.433231970544881, 9362.0, 30146.0, 35388.0, 9362.0, 8.17190170288086, 0.03679923713207245, -0.06201918423175812, 0.023697907105088234, -0.011066353879868984, -0.02275347150862217, 1.0314445495605469, -0.08505826443433762, -0.05751800537109375, 1.4912109375, 1.32275390625, 0.0251312255859375, 1.493408203125
49935, 0.182770237326622, -0.0923321545124054, 0.011561241932213306, 1.0438514947891235, -2.041597843170166, 69.8097152709961, 0.13254009187221527, -0.30269432067871094, 6.528444290161133, 0.07895751297473907, 0.5908657312393188, 0.06809798628091812, 0.5195906032929566, -0.6404160763502489, -8.427086009449008, 9362.0, 30146.0, 35388.0, 9362.0, 8.17190170288086, 0.03679923713207245, -0.06201918423175812, 0.023697907105088234, -0.011066353879868984, -0.02275347150862217, 1.0314445495605469, -0.08505826443433762, -0.05751800537109375, 1.4912109375, 1.32275390625, 0.0251312255859375, 1.494140625
49945, 0.18205198645591736, -0.09139915555715561, 0.010011172853410244, 1.045177698135376, -2.044626474380493, 69.87501525878906, 0.13269932568073273, -0.30301758646965027, 6.531379699707031, 0.07895895838737488, 0.5908604860305786, 0.06812221556901932, 0.5121437181246813, -0.6531777782012682, -8.42224173640068, 9362.0, 30146.0, 35388.0, 9362.0, 8.17190170288086, 0.03679923713207245, -0.06201918423175812, 0.023697907105088234, -0.011066353879868984, -0.02275347150862217, 1.0314445495605469, -0.08505826443433762, -0.05751800537109375, 1.4912109375, 1.32275390625, 0.0251312255859375, 1.4970703125
49955, 0.18238966166973114, -0.09363196790218353, 0.007607273757457733, 1.045177698135376, -2.044626474380493, 69.87501525878906, 0.13269932568073273, -0.30301758646965027, 6.531379699707031, 0.07896590232849121, 0.5908713936805725, 0.06811048090457916, 0.5151032885102605, -0.6532288098593995, -8.42539640518989, 9362.0, 30146.0, 35388.0, 9362.0, 8.17190170288086, 0.03679923713207245, -0.06201918423175812, 0.023697907105088234, -0.011066353879868984, -0.02275347150862217, 1.0314445495605469, -0.08753389120101929, -0.07543754577636719, 1.48974609375, 1.32275390625, 0.0251312255859375, 1.4912109375
49965, 0.1821490228176117, -0.09347911179065704, 0.009500979445874691, 1.045177698135376, -2.044626474380493, 69.87501525878906, 0.13269932568073273, -0.30301758646965027, 6.531379699707031, 0.07896484434604645, 0.5908989310264587, 0.06816064566373825, 0.5312932921939341, -0.6434726343658781, -8.41494440127523, 9362.0, 30146.0, 35388.0, 9362.0, 8.17190170288086, 0.03679923713207245, -0.06201918423175812, 0.023697907105088234, -0.01009389292448759, -0.023287871852517128, 1.0304630994796753, -0.09002076089382172, -0.09335899353027344, 1.48828125, 1.32275390625, 0.0251312255859375, 1.494873046875
49975, 0.1819043755531311, -0.09569617360830307, 0.011111182160675526, 1.045177698135376, -2.044626474380493, 69.87501525878906, 0.13269932568073273, -0.30301758646965027, 6.531379699707031, 0.07896053791046143, 0.5908706784248352, 0.06810466945171356, 0.5141902766697465, -0.654290098406193, -8.431398718166122, 9362.0, 30146.0, 35388.0, 9362.0, 8.17190170288086, 0.03679923713207245, -0.06201918423175812, 0.023697907105088234, -0.01009389292448759, -0.023287871852517128, 1.0304630994796753, -0.09002076089382172, -0.09335899353027344, 1.48828125, 1.32275390625, 0.0251312255859375, 1.500732421875
49995, 0.18221963942050934, -0.09748819470405579, 0.01077132299542427, 1.045177698135376, -2.044626474380493, 69.87501525878906, 0.13269932568073273, -0.30301758646965027, 6.531379699707031, 0.0789683386683464, 0.5908903479576111, 0.06817498803138733, 0.5221953034710651, -0.6449107174167352, -8.416564090564394, 9362.0, 30146.0, 35388.0, 9362.0, 8.17190170288086, 0.03376646339893341, 0.2418672889471054, 0.0937572494149208, -0.01009389292448759, -0.023287871852517128, 1.0304630994796753, -0.09002076089382172, -0.09335899353027344, 1.48828125, 1.329345703125, 0.02105712890625, 1.49560546875
50005, 0.18278785049915314, -0.09892252087593079, 0.010388881899416447, 1.0531692504882812, -2.0628654956817627, 70.2674560546875, 0.13369148969650269, -0.3049470782279968, 6.549746036529541, 0.07897211611270905, 0.5908757448196411, 0.06812082976102829, 0.5122167845794791, -0.6542013981188575, -8.42322344683644, 9362.0, 30146.0, 35388.0, 9362.0, 8.17190170288086, 0.03376646339893341, 0.2418672889471054, 0.0937572494149208, -0.01009389292448759, -0.023287871852517128, 1.0304630994796753, -0.09002076089382172, -0.09335899353027344, 1.48828125, 1.3271484375, 0.022308349609375, 1.49560546875
50025, 0.1835913360118866, -0.09589070081710815, 0.009401950053870678, 1.0545070171356201, -2.0659165382385254, 70.33296966552734, 0.1338639110326767, -0.30526912212371826, 6.552907943725586, 0.07896579802036285, 0.5908700227737427, 0.06811100989580154, 0.5104638043649085, -0.6534738755967169, -8.426361939217573, 9362.0, 30146.0, 35388.0, 9362.0, 8.17190170288086, 0.03376646339893341, 0.2418672889471054, 0.0937572494149208, -0.010258103720843792, -0.024151859804987907, 1.027975082397461, -0.08538847416639328, -0.08439826965332031, 1.489013671875, 1.3447265625, 0.0158538818359375, 1.493408203125
50035, 0.18356455862522125, -0.09668876975774765, 0.010724332183599472, 1.057187795639038, -2.072028398513794, 70.4640884399414, 0.13420958817005157, -0.3059144616127014, 6.558633804321289, 0.07896824181079865, 0.5908612608909607, 0.06811077892780304, 0.5087644413767408, -0.6494891172936264, -8.426305301592487, 9362.0, 30146.0, 35388.0, 9362.0, 8.17190170288086, 0.03376646339893341, 0.2418672889471054, 0.0937572494149208, -0.010258103720843792, -0.024151859804987907, 1.027975082397461, -0.08538847416639328, -0.08439826965332031, 1.489013671875, 1.327880859375, 0.0218353271484375, 1.493408203125
50045, 0.1852422058582306, -0.09856025129556656, 0.01158325094729662, 1.0585306882858276, -2.0750892162323, 70.5296859741211, 0.13437867164611816, -0.30623793601989746, 6.561500549316406, 0.07895813137292862, 0.5908724069595337, 0.06810271739959717, 0.5109448677356526, -0.6455777605791866, -8.422781381746471, 9362.0, 30146.0, 35388.0, 9362.0, 8.17190170288086, 0.03376646339893341, 0.2418672889471054, 0.0937572494149208, -0.010258103720843792, -0.024151859804987907, 1.027975082397461, -0.08538847416639328, -0.08439826965332031, 1.489013671875, 1.327880859375, 0.0218353271484375, 1.493408203125
50055, 0.18616700172424316, -0.10129662603139877, 0.013393957167863846, 1.0585306882858276, -2.0750892162323, 70.5296859741211, 0.13437867164611816, -0.30623793601989746, 6.561500549316406, 0.07897457480430603, 0.5908756852149963, 0.06810121983289719, 0.5131909348706032, -0.6465650607432281, -8.428403412723126, 9362.0, 30146.0, 35388.0, 9362.0, 8.17190170288086, 0.03376646339893341, 0.2418672889471054, 0.0937572494149208, -0.010258103720843792, -0.024151859804987907, 1.027975082397461, -0.08714237064123154, -0.07543754577636719, 1.48974609375, 1.327880859375, 0.0218353271484375, 1.494873046875
50065, 0.1869819313287735, -0.10014785081148148, 0.01315377838909626, 1.0585306882858276, -2.0750892162323, 70.5296859741211, 0.13437867164611816, -0.30623793601989746, 6.561500549316406, 0.07896643877029419, 0.590872585773468, 0.06809718161821365, 0.5167205507285023, -0.6516269134419588, -8.434075257920071, 9362.0, 30146.0, 35388.0, 9362.0, 8.17190170288086, 0.03376646339893341, 0.2418672889471054, 0.0937572494149208, -0.006822484545409679, -0.024495167657732964, 1.0319468975067139, -0.08714237064123154, -0.07543754577636719, 1.48974609375, 1.327880859375, 0.0218353271484375, 1.4912109375
