timeTick, roll, pitch, yaw, stateX, stateY, stateZ, stateVX, stateVY, stateVZ, otX0, otY0, otZ0, otRoll0, otPitch0, otYaw0, left wing, pitch motor, yaw motor, right wing, voltage, roll rate, pitch rate, yaw rate, A_x, A_y, A_z, current, i_raw, v_raw, airflow_voltage, airflow_speed, pot_Pitch
29084, 0.001219746540300548, -0.002589417854323983, 9.95250593405217e-05, 0, 0, 0, 0, 0, 0, 0.08577919751405716, 0.16154377162456512, 0.06900253146886826, 0.19940993640018284, 0.19021850035744592, -5.743076208059521, 0, 0, 0, 0, 0, 0, 0, 0, 0, 0, 0, 0, 0, 0, 0, 0, 0
29094, 0.001830179593525827, -0.0033753402531147003, -0.0017145650926977396, 1.3309334079281143e-08, -4.475591453001471e-09, 5.970161873847246e-05, 2.653058345458703e-06, -9.113327905652113e-07, 0.006078801117837429, 0.08577840775251389, 0.16153576970100403, 0.06898123770952225, 0.1964995069566498, 0.1899394816172162, -5.736728565782274, 9362.0, 30146.0, 35388.0, 9362.0, 8.409917831420898, 0.08438292145729065, 0.32673224806785583, 0.07613997906446457, 0.0015781548572704196, -0.0355910062789917, 1.0318814516067505, -0.07777929306030273, -0.09335899353027344, 1.48828125, 0, 0, 0
29104, 0.002511493628844619, -0.004854084923863411, -0.0026559201069176197, 6.270293795296311e-08, -2.435848678317143e-08, 0.00013587588910013437, 7.2678085416555405e-06, -3.0981791496742517e-06, 0.009156453423202038, 0.08577096462249756, 0.1615433394908905, 0.06901576370000839, 0.19337340092720645, 0.1922737370766754, -5.749674385263438, 9362.0, 30146.0, 35388.0, 9362.0, 8.409917831420898, -0.010181732475757599, -0.11183930188417435, -0.015123073942959309, 0.0039346832782030106, -0.034070853143930435, 1.0319868326187134, -0.0802503153681755, -0.10231781005859375, 1.487548828125, 1.348388671875, 0.0154571533203125, 1.493408203125
29114, 0.002249444369226694, -0.005776097532361746, -0.0028605612460523844, 1.6520871781722235e-07, -7.151458447651748e-08, 0.00024326692800968885, 1.331498697254574e-05, -6.370781648001866e-06, 0.012322147376835346, 0.08578044176101685, 0.16155022382736206, 0.06895937770605087, 0.1994818135753772, 0.19940122026073936, -5.741545095132631, 9362.0, 30146.0, 35388.0, 9362.0, 8.390083312988281, -0.0820460394024849, 0.02969660982489586, 0.16416829824447632, 0.004312016069889069, -0.032567232847213745, 1.0303387641906738, -0.08200608938932419, -0.08439826965332031, 1.489013671875, 1.335205078125, 0.018280029296875, 1.493408203125
29124, 0.0034308244939893484, -0.007011733017861843, -0.003339851275086403, 3.4121376302209683e-07, -1.5739806258352473e-07, 0.00038184598088264465, 2.1935440599918365e-05, -1.0791899512696546e-05, 0.015394066460430622, 0.0857754796743393, 0.1615286022424698, 0.06897395849227905, 0.20496305488033165, 0.19771128972544716, -5.745544616974535, 9362.0, 30146.0, 35388.0, 9362.0, 8.390083312988281, 0.09993234276771545, 0.32981064915657043, -0.20328673720359802, 0.002605979796499014, -0.03273121640086174, 1.029467225074768, -0.08106312900781631, -0.07543754577636719, 1.48974609375, 1.333740234375, 0.0189361572265625, 1.491943359375
29134, 0.0021665373351424932, -0.007376231253147125, -0.003405358176678419, 6.114773896115366e-07, -2.851460294550634e-07, 0.0005502873100340366, 3.217978883185424e-05, -1.4817579540249426e-05, 0.018294591456651688, 0.08578453212976456, 0.1615372896194458, 0.06899667531251907, 0.19844254653733212, 0.19966690627606454, -5.741679807497181, 9362.0, 30146.0, 35388.0, 9362.0, 8.409917831420898, -0.05741530656814575, -0.0934765487909317, 0.014344604685902596, 0.004083717707544565, -0.03176518529653549, 1.0309672355651855, -0.08011499792337418, -0.11127853393554688, 1.48681640625, 1.3388671875, 0.017120361328125, 1.49267578125
29144, 0.003473643446341157, -0.006275872699916363, -0.005089899525046349, 9.951263564289548e-07, -4.635897994376137e-07, 0.0007481574430130422, 4.4568991143023595e-05, -2.080533522530459e-05, 0.021279839798808098, 0.0857827365398407, 0.16154088079929352, 0.06900661438703537, 0.20451126331817965, 0.19594490035117929, -5.741068660802462, 9362.0, 30146.0, 35388.0, 9362.0, 8.390083312988281, 0.14875566959381104, -0.39150986075401306, -0.019058044999837875, 0.002820019144564867, -0.03317658603191376, 1.0307843685150146, -0.07948331534862518, -0.04855918884277344, 1.491943359375, 1.33447265625, 0.0186309814453125, 1.491943359375
29154, 0.0037312298081815243, -0.005651269573718309, -0.006681129336357117, 1.505915406596614e-06, -6.9076816089364e-07, 0.0009761290857568383, 5.7530425692675635e-05, -2.4699944333406165e-05, 0.024314889684319496, 0.08583762496709824, 0.16151849925518036, 0.06901649385690689, 0.21564404932827672, 0.16655624224074472, -5.761476529616643, 9362.0, 30146.0, 35388.0, 9362.0, 8.409917831420898, 0.08863864094018936, 0.34430211782455444, 0.09829427301883698, 0.0010777657153084874, -0.03504910692572594, 1.0298305749893188, -0.0785578042268753, -0.05751800537109375, 1.4912109375, 1.3359375, 0.01806640625, 1.494873046875
29164, 0.004564062692224979, -0.007415355648845434, -0.006991150323301554, 2.1365740394685417e-06, -9.684121096142917e-07, 0.0012341602705419064, 6.856866821181029e-05, -3.0842529668007046e-05, 0.02729174681007862, 0.08579105883836746, 0.16153794527053833, 0.06898381561040878, 0.20137000766304436, 0.19212772204531348, -5.740957350736383, 9362.0, 30146.0, 35388.0, 9362.0, 8.390083312988281, 0.07738513499498367, 0.13686688244342804, -0.2681119740009308, 0.0029102624393999577, -0.03188449516892433, 1.031474232673645, -0.08162370324134827, -0.08439826965332031, 1.489013671875, 1.323486328125, 0.024688720703125, 1.491943359375
29174, 0.004290650133043528, -0.008797863498330116, -0.006172389257699251, 2.872121058317134e-06, -1.3097657074467861e-06, 0.0015221277717500925, 7.863335486035794e-05, -3.747201481019147e-05, 0.03030214086174965, 0.08578898757696152, 0.16153456270694733, 0.06901194155216217, 0.19853368627567297, 0.19993926583401844, -5.732124208418586, 9362.0, 30146.0, 35388.0, 9362.0, 8.409917831420898, 0.010466801933944225, -0.09881372004747391, 0.07075906544923782, 0.004236162640154362, -0.0312266293913126, 1.0324256420135498, -0.08180109411478043, -0.030637741088867188, 1.493408203125, 1.33154296875, 0.0198516845703125, 1.494873046875
29184, 0.004262175410985947, -0.008322608657181263, -0.006272576283663511, 3.7239874473016243e-06, -1.724831577121222e-06, 0.001841035671532154, 9.181671339320019e-05, -4.5525819587055594e-05, 0.03347981721162796, 0.0857747495174408, 0.16155676543712616, 0.06896815448999405, 0.19890329086788242, 0.19894154627505145, -5.739920608278309, 9362.0, 30146.0, 35388.0, 9362.0, 8.390083312988281, 0.004716403782367706, 0.28399547934532166, -0.06500149518251419, 0.003964129835367203, -0.032851193100214005, 1.0301260948181152, -0.08689609169960022, -0.09335899353027344, 1.48828125, 1.3359375, 0.01806640625, 1.491943359375
29194, 0.0036521279253065586, -0.00872836634516716, -0.0064870091155171394, 4.719814569398295e-06, -2.2179742700245697e-06, 0.002191118663176894, 0.00010732339433161542, -5.3101237426744774e-05, 0.03653719276189804, 0.08578775823116302, 0.1615496575832367, 0.06899651139974594, 0.19766350060526722, 0.1928282860191075, -5.738213812116494, 9362.0, 30146.0, 35388.0, 9362.0, 8.390083312988281, -0.05568700656294823, 0.04434366896748543, 0.0618399903178215, 0.0027981430757790804, -0.03032701276242733, 1.029478907585144, -0.08591558039188385, -0.05751800537109375, 1.4912109375, 1.336669921875, 0.0177764892578125, 1.49560546875
29204, 0.005357182119041681, -0.008201680146157742, -0.006812396924942732, 5.866397259524092e-06, -2.7865601168741705e-06, 0.0025709765031933784, 0.0001220136255142279, -6.058514190954156e-05, 0.039434779435396194, 0.08581455796957016, 0.16152042150497437, 0.06897339969873428, 0.20360392269014235, 0.17453649975530539, -5.747739094212366, 9362.0, 30146.0, 35388.0, 9362.0, 8.390083312988281, 0.10720135271549225, -0.1094256043434143, 0.12945882976055145, 0.002538731787353754, -0.03085663914680481, 1.0307499170303345, -0.08533316105604172, -0.06647872924804688, 1.490478515625, 1.3330078125, 0.0191650390625, 1.48974609375
29214, 0.005394434556365013, -0.008225465193390846, -0.005838591139763594, 7.163526333897607e-06, -3.424637043281109e-06, 0.002980252727866173, 0.0001373847044305876, -6.711917376378551e-05, 0.0424208827316761, 0.08578453212976456, 0.16153766214847565, 0.06900103390216827, 0.19802310730570824, 0.19936824738041992, -5.743804304214757, 9362.0, 30146.0, 35388.0, 9362.0, 8.390083312988281, -0.06270112842321396, 0.07294540107250214, 0.1964404135942459, 0.004048579838126898, -0.029676802456378937, 1.0298185348510742, -0.08065950870513916, -0.12023735046386719, 1.486083984375, 1.332275390625, 0.019561767578125, 1.49267578125
29224, 0.006429310888051987, -0.006778249051421881, -0.007447473704814911, 8.609731594333425e-06, -4.143103979004081e-06, 0.003419486340135336, 0.00015185782103799284, -7.657596870558336e-05, 0.04542623460292816, 0.08582060784101486, 0.16152805089950562, 0.06897643208503723, 0.2076176525901614, 0.17571056647028627, -5.757539331586403, 9362.0, 30146.0, 35388.0, 9362.0, 8.409917831420898, 0.049063220620155334, -0.03125544264912605, -0.11143645644187927, 0.002453003078699112, -0.03121842071413994, 1.031254529953003, -0.08483536541461945, -0.11127853393554688, 1.48681640625, 1.3388671875, 0.017120361328125, 1.4912109375
29234, 0.006479992996901274, -0.0051515959203243256, -0.009499765001237392, 1.0200873475696426e-05, -4.956462817062857e-06, 0.0038887353148311377, 0.00016629460151307285, -8.615036495029926e-05, 0.04842396825551987, 0.08577443659305573, 0.16153252124786377, 0.06898128986358643, 0.19769000485039176, 0.19390478217724194, -5.735578143284027, 9362.0, 30146.0, 35388.0, 9362.0, 8.390083312988281, -0.0898275375366211, -0.19905409216880798, -0.2081279158592224, 0.003458585124462843, -0.032013241201639175, 1.0299738645553589, -0.08178140223026276, -0.05751800537109375, 1.4912109375, 1.345458984375, 0.0156707763671875, 1.490478515625
29244, 0.006027102004736662, -0.005207809619605541, -0.009682961739599705, 1.192363015434239e-05, -5.874712314835051e-06, 0.004388106986880302, 0.00017817037587519735, -9.750269236974418e-05, 0.05145079270005226, 0.0857912003993988, 0.161534383893013, 0.06897874176502228, 0.19344395544068055, 0.19838312427762617, -5.742617237133728, 9362.0, 30146.0, 35388.0, 9362.0, 8.409917831420898, -0.06368681788444519, -0.09676715731620789, 0.03897341340780258, 0.002861662767827511, -0.031179457902908325, 1.029281735420227, -0.07546572387218475, -0.04855918884277344, 1.491943359375, 1.341064453125, 0.01654052734375, 1.48681640625
29254, 0.006402791012078524, -0.006097349803894758, -0.011998321861028671, 1.3750719517702237e-05, -6.906846920173848e-06, 0.004916992038488388, 0.00018725024710875005, -0.0001089015495381318, 0.05432663485407829, 0.08578362315893173, 0.16154223680496216, 0.06898874044418335, 0.20109787094313158, 0.19557962507232673, -5.7374280064378915, 9362.0, 30146.0, 35388.0, 9362.0, 8.409917831420898, -0.2340172827243805, -0.04516010731458664, -0.21329382061958313, 0.0014853436732664704, -0.03356258198618889, 1.0290194749832153, -0.07658060640096664, -0.08439826965332031, 1.489013671875, 1.335205078125, 0.018280029296875, 1.48974609375
29264, 0.007190251257270575, -0.005499086808413267, -0.012461395002901554, 1.566910395922605e-05, -8.048980816965923e-06, 0.005474645644426346, 0.00019647087901830673, -0.00011954442015849054, 0.05720442906022072, 0.08579299598932266, 0.16154471039772034, 0.06898222863674164, 0.20067699202640513, 0.1876206287653872, -5.736236502513, 9362.0, 30146.0, 35388.0, 9362.0, 8.409917831420898, 0.030626853927969933, -0.07669776678085327, -0.07765190303325653, 0.003097911598160863, -0.035365376621484756, 1.0310996770858765, -0.0783231258392334, -0.03959846496582031, 1.49267578125, 1.33447265625, 0.0186309814453125, 1.4912109375
29274, 0.006739984732121229, -0.006795098073780537, -0.012901121750473976, 1.7687569197732955e-05, -9.300897545472253e-06, 0.006061438005417585, 0.00020719121675938368, -0.00013087956176605076, 0.06015444174408913, 0.08579430729150772, 0.1615375429391861, 0.06897559762001038, 0.19683101255467908, 0.19419058761727115, -5.736883412077761, 9362.0, 30146.0, 35388.0, 9362.0, 8.409917831420898, -0.00871248822659254, 0.5619145631790161, -0.18460319936275482, 0.0029093686025589705, -0.034354083240032196, 1.0318944454193115, -0.07891928404569626, -0.10231781005859375, 1.487548828125, 1.333740234375, 0.0189361572265625, 1.4912109375
29284, 0.007565543055534363, -0.009079045616090298, -0.012724480591714382, 1.980803244805429e-05, -1.0673203178157564e-05, 0.006678481120616198, 0.00021697134070564061, -0.000143557321280241, 0.06325459480285645, 0.08579014986753464, 0.16153645515441895, 0.06900393217802048, 0.20224367313048194, 0.19319260873629673, -5.743407000027385, 9362.0, 30146.0, 35388.0, 9362.0, 8.409917831420898, 0.14492285251617432, 0.20904310047626495, 0.037455037236213684, 0.0016364067560061812, -0.034477975219488144, 1.0306520462036133, -0.08476181328296661, -0.09335899353027344, 1.48828125, 1.345458984375, 0.0156707763671875, 1.491943359375
29294, 0.007801991421729326, -0.008053965866565704, -0.015379846096038818, 2.2037709641153924e-05, -1.21682796816458e-05, 0.007326244376599789, 0.0002290852862643078, -0.00015550185344181955, 0.0662984699010849, 0.08579469472169876, 0.16154663264751434, 0.06897566467523575, 0.19872774253312941, 0.19929585204909017, -5.741014412993629, 9362.0, 30146.0, 35388.0, 9362.0, 8.409917831420898, -0.1540904939174652, -0.21766877174377441, -0.047771528363227844, 0.0024849215988069773, -0.03468099236488342, 1.0294275283813477, -0.08218356966972351, -0.05751800537109375, 1.4912109375, 1.339599609375, 0.0168914794921875, 1.49267578125
29304, 0.009037445299327374, -0.00913240946829319, -0.016210930421948433, 2.4408631361438893e-05, -1.3790048797091004e-05, 0.008004114031791687, 0.0002450450847391039, -0.00016886503726709634, 0.06927591562271118, 0.08580470085144043, 0.1615140438079834, 0.06897789239883423, 0.20382901185328284, 0.1726741300734318, -5.753776782834495, 9362.0, 30146.0, 35388.0, 9362.0, 8.409917831420898, 0.35095107555389404, 0.018428681418299675, 0.19258089363574982, 0.004737778566777706, -0.03216183930635452, 1.031846046447754, -0.08288227021694183, -0.03959846496582031, 1.49267578125, 1.333740234375, 0.0189361572265625, 1.491943359375
29314, 0.009570579044520855, -0.008798063732683659, -0.017522014677524567, 2.6930149033432826e-05, -1.5547579096164554e-05, 0.008712070994079113, 0.00025931542040780187, -0.00018270678992848843, 0.07231584191322327, 0.08578243851661682, 0.16153395175933838, 0.06897741556167603, 0.19931705258282634, 0.1953732090813105, -5.735687782140389, 9362.0, 30146.0, 35388.0, 9362.0, 8.409917831420898, -0.12250344455242157, 0.18138538300991058, 0.04819759726524353, 0.0031991316936910152, -0.03150596842169762, 1.0319088697433472, -0.0837242603302002, -0.05751800537109375, 1.4912109375, 1.34765625, 0.0154571533203125, 1.491943359375
29324, 0.009782818146049976, -0.007052029948681593, -0.01622936502099037, 2.9603941584355198e-05, -1.7454492990509607e-05, 0.009450789541006088, 0.0002754246525000781, -0.00019870515097863972, 0.07542828470468521, 0.08577408641576767, 0.16154199838638306, 0.0689927265048027, 0.19458447396515688, 0.1922559898634688, -5.7478057136061, 9362.0, 30146.0, 35388.0, 9362.0, 8.390083312988281, -0.15867625176906586, -0.2581685483455658, -0.0819215476512909, 0.002461652737110853, -0.0335281640291214, 1.0313732624053955, -0.08656191825866699, -0.12023735046386719, 1.486083984375, 1.33154296875, 0.0198516845703125, 1.494873046875
29334, 0.010623648762702942, -0.005454265978187323, -0.018947575241327286, 3.2435877074021846e-05, -1.952610728039872e-05, 0.010220679454505444, 0.00029086790164001286, -0.00021562892652582377, 0.07855015993118286, 0.08578081429004669, 0.161539688706398, 0.06897671520709991, 0.19600033280504767, 0.20220205481587072, -5.745963318646206, 9362.0, 30146.0, 35388.0, 9362.0, 8.390083312988281, 0.32560011744499207, 0.015385710634291172, -0.0036078919656574726, 0.0018373029306530952, -0.03236139565706253, 1.0289549827575684, -0.08627478033304214, -0.1291980743408203, 1.4853515625, 1.34765625, 0.0154571533203125, 1.491943359375
29344, 0.010924171656370163, -0.007880850695073605, -0.01798863336443901, 3.540670877555385e-05, -2.1768668375443667e-05, 0.011020847596228123, 0.0003032157546840608, -0.000232926759053953, 0.0814838781952858, 0.08577428013086319, 0.1615428626537323, 0.06896936893463135, 0.19873950351840036, 0.18837007822605756, -5.744007337246367, 9362.0, 30146.0, 35388.0, 9362.0, 8.409917831420898, 0.13371574878692627, 0.11471673101186752, 0.051640573889017105, 0.0032221584115177393, -0.03205454722046852, 1.0300040245056152, -0.08345790952444077, -0.07543754577636719, 1.48974609375, 1.3330078125, 0.0191650390625, 1.491943359375
29354, 0.011618195101618767, -0.008684495463967323, -0.017521144822239876, 3.8486912671942264e-05, -2.4191596821765415e-05, 0.011850233189761639, 0.00031294862856157124, -0.00025167400599457324, 0.08439367264509201, 0.08577367663383484, 0.1615455448627472, 0.06898865103721619, 0.19788568366304357, 0.18706921593596348, -5.738649567413172, 9362.0, 30146.0, 35388.0, 9362.0, 8.390083312988281, -0.039587363600730896, 0.11795145273208618, 0.24938248097896576, 0.0038323793560266495, -0.03407495468854904, 1.0313043594360352, -0.08299391716718674, -0.08439826965332031, 1.489013671875, 1.34326171875, 0.01605224609375, 1.4912109375
29364, 0.010921875014901161, -0.012380310334265232, -0.016095275059342384, 3.8486912671942264e-05, -2.4191596821765415e-05, 0.011850233189761639, 0.00031294862856157124, -0.00025167400599457324, 0.08439367264509201, 0.08577070385217667, 0.16154199838638306, 0.06898365914821625, 0.20259093432648245, 0.19061103929519163, -5.7471434657791285, 9362.0, 30146.0, 35388.0, 9362.0, 8.390083312988281, -0.039587363600730896, 0.11795145273208618, 0.24938248097896576, 0.0037870353553444147, -0.03247038275003433, 1.0314371585845947, -0.08299391716718674, -0.08439826965332031, 1.489013671875, 1.34326171875, 0.01605224609375, 1.4912109375
29374, 0.010904034599661827, -0.015001592226326466, -0.015460006892681122, 3.8486912671942264e-05, -2.4191596821765415e-05, 0.011850233189761639, 0.00031294862856157124, -0.00025167400599457324, 0.08439367264509201, 0.08577156811952591, 0.16154314577579498, 0.06897547841072083, 0.19798193074842294, 0.1944911841337955, -5.742443858833358, 9362.0, 30146.0, 35388.0, 9362.0, 8.390083312988281, -0.039587363600730896, 0.11795145273208618, 0.24938248097896576, 0.0037870353553444147, -0.03247038275003433, 1.0314371585845947, -0.08299391716718674, -0.08439826965332031, 1.489013671875, 1.34326171875, 0.01605224609375, 1.4912109375
29384, 0.010241590440273285, -0.0156298466026783, -0.013530977070331573, 3.8486912671942264e-05, -2.4191596821765415e-05, 0.011850233189761639, 0.00031294862856157124, -0.00025167400599457324, 0.08439367264509201, 0.08578375726938248, 0.1615384966135025, 0.06898193806409836, 0.20063392506138228, 0.20033334464241648, -5.743243640607635, 9362.0, 30146.0, 35388.0, 9362.0, 8.390083312988281, -0.0705803707242012, 0.20347309112548828, 0.13175807893276215, 0.0037870353553444147, -0.03247038275003433, 1.0314371585845947, -0.08299391716718674, -0.08439826965332031, 1.489013671875, 1.34326171875, 0.01605224609375, 1.4912109375
29404, 0.01059276144951582, -0.015202561393380165, -0.011976191774010658, 3.8486912671942264e-05, -2.4191596821765415e-05, 0.011850233189761639, 0.00031294862856157124, -0.00025167400599457324, 0.08439367264509201, 0.08577720075845718, 0.16154108941555023, 0.06899548321962357, 0.19982650090269935, 0.19403523337109618, -5.737498443380431, 9362.0, 30146.0, 35388.0, 9362.0, 8.390083312988281, 0.005217714700847864, -0.18697601556777954, 0.16636142134666443, 0.004794377367943525, -0.03224995359778404, 1.0323212146759033, -0.08347605168819427, -0.06647872924804688, 1.490478515625, 1.34326171875, 0.01605224609375, 1.4912109375
29414, 0.010261359624564648, -0.016097985208034515, -0.010113514959812164, 6.071482857805677e-05, -4.2805444536497816e-05, 0.01746976748108864, 0.00044641230488196015, -0.00036815853673033416, 0.103045754134655, 0.08582089096307755, 0.16151905059814453, 0.06897924840450287, 0.19981349765329579, 0.17360519856353562, -5.749229011562011, 9362.0, 30146.0, 35388.0, 9362.0, 8.409917831420898, 0.005217714700847864, -0.18697601556777954, 0.16636142134666443, 0.0036980470176786184, -0.03022715449333191, 1.030770182609558, -0.08347605168819427, -0.06647872924804688, 1.490478515625, 1.34326171875, 0.01605224609375, 1.4912109375
29484, 0.00856295321136713, -0.022863227874040604, -0.007589293643832207, 9.27041910472326e-05, -6.820746057201177e-05, 0.024196794256567955, 0.0006298419903032482, -0.0004782474716193974, 0.12115016579627991, 0.08580365031957626, 0.16156329214572906, 0.06894601136445999, 0.1924762660686592, 0.1901935963603023, -5.755594040120607, 9362.0, 30146.0, 35388.0, 9362.0, 8.409917831420898, 0.0994320660829544, 0.1585364043712616, 0.004452532157301903, 0.004477963782846928, -0.03020266629755497, 1.0318799018859863, -0.08993068337440491, -0.10231781005859375, 1.487548828125, 1.34326171875, 0.01605224609375, 1.4912109375
29524, 0.007353557739406824, -0.025444434955716133, -0.006799515336751938, 0.00012887005868833512, -9.403480362379923e-05, 0.03063061833381653, 0.0008279361063614488, -0.0005532780778594315, 0.13598085939884186, 0.08578375726938248, 0.16154104471206665, 0.06898152083158493, 0.19367611197529377, 0.1954676139934577, -5.7391993234760825, 9362.0, 30146.0, 35388.0, 9362.0, 8.390083312988281, -0.10258857160806656, -0.026576193049550056, -0.1163642406463623, 0.0014052740298211575, -0.030192021280527115, 1.0316818952560425, -0.08596192300319672, -0.04855918884277344, 1.491943359375, 1.34326171875, 0.01605224609375, 1.4912109375
29534, 0.007051956374198198, -0.028385978192090988, -0.005349993705749512, 0.00013736577238887548, -9.963435877580196e-05, 0.03200583904981613, 0.0008712563430890441, -0.0005666216602548957, 0.13906331360340118, 0.08582630008459091, 0.1615266352891922, 0.06894159317016602, 0.1976313994228277, 0.17472645693914046, -5.759623904780411, 9362.0, 30146.0, 35388.0, 9362.0, 8.390083312988281, 0.03925592079758644, 0.3761224150657654, 0.24122200906276703, 0.0014052740298211575, -0.030192021280527115, 1.0316818952560425, -0.09406614303588867, -0.09335899353027344, 1.48828125, 1.34326171875, 0.01605224609375, 1.4912109375
29574, 0.007131408434361219, -0.025491813197731972, -0.006163904909044504, 0.0001759504375513643, -0.00012330521713010967, 0.03781295567750931, 0.001056679873727262, -0.0006165804225020111, 0.15137644112110138, 0.08582007884979248, 0.16153155267238617, 0.06898976117372513, 0.20333918613809357, 0.17859638054733296, -5.752002072931971, 9362.0, 30146.0, 35388.0, 9362.0, 8.390083312988281, 0.03925592079758644, 0.3761224150657654, 0.24122200906276703, 0.004076314624398947, -0.03181573376059532, 1.0310895442962646, -0.08176498860120773, -0.03959846496582031, 1.49267578125, 1.34326171875, 0.01605224609375, 1.4912109375
29624, 0.008218963630497456, -0.026108967140316963, -0.011894243769347668, 0.0001980202941922471, -0.0001358997542411089, 0.04089977592229843, 0.0011490856995806098, -0.0006425495957955718, 0.1573130041360855, 0.08577921986579895, 0.1615474820137024, 0.06902432441711426, 0.18772628180616519, 0.19050979520420697, -5.746905376019808, 9362.0, 30146.0, 35388.0, 9362.0, 8.390083312988281, -0.21934475004673004, -0.10751892626285553, -0.03855148330330849, 0.004076314624398947, -0.03181573376059532, 1.0310895442962646, -0.0782453864812851, -0.03959846496582031, 1.49267578125, 1.34326171875, 0.01605224609375, 1.4912109375
29644, 0.007279982324689627, -0.029366610571742058, -0.010467168875038624, 0.0001980202941922471, -0.0001358997542411089, 0.04089977592229843, 0.0011490856995806098, -0.0006425495957955718, 0.1573130041360855, 0.08578554540872574, 0.16154202818870544, 0.06901572644710541, 0.1950600603832719, 0.1945250497984432, -5.740598802611856, 9362.0, 30146.0, 35388.0, 9362.0, 8.409917831420898, 0.22832369804382324, -0.10007871687412262, -0.23380769789218903, 0.001235962612554431, -0.03273386135697365, 1.0301433801651, -0.08177058398723602, -0.06647872924804688, 1.490478515625, 1.34326171875, 0.01605224609375, 1.4912109375
29654, 0.006483827717602253, -0.03174421563744545, -0.01051430031657219, 0.0001980202941922471, -0.0001358997542411089, 0.04089977592229843, 0.0011490856995806098, -0.0006425495957955718, 0.1573130041360855, 0.08577325195074081, 0.16153712570667267, 0.06898941844701767, 0.19868087855666386, 0.18311051874181317, -5.7440590830710425, 9362.0, 30146.0, 35388.0, 9362.0, 8.409917831420898, 0.22832369804382324, -0.10007871687412262, -0.23380769789218903, 0.0028379750438034534, -0.03465043008327484, 1.0304526090621948, -0.08177058398723602, -0.06647872924804688, 1.490478515625, 1.34326171875, 0.01605224609375, 1.4912109375
29664, 0.007670256309211254, -0.03245554119348526, -0.012321901507675648, 0.0001980202941922471, -0.0001358997542411089, 0.04089977592229843, 0.0011490856995806098, -0.0006425495957955718, 0.1573130041360855, 0.08585095405578613, 0.1615171879529953, 0.06902682036161423, 0.20744951435466644, 0.15643775100480184, -5.757747317835336, 9362.0, 30146.0, 35388.0, 9362.0, 8.409917831420898, 0.22832369804382324, -0.10007871687412262, -0.23380769789218903, 0.002369458554312587, -0.03219766169786453, 1.0312700271606445, -0.08177058398723602, -0.06647872924804688, 1.490478515625, 1.34326171875, 0.01605224609375, 1.4912109375
29784, 0.0072716157883405685, -0.034935399889945984, -0.013185814023017883, 0.00048680161125957966, -0.0002741222851909697, 0.07406823337078094, 0.0021311412565410137, -0.0008799605420790613, 0.21095669269561768, 0.0858168751001358, 0.16152048110961914, 0.06899964809417725, 0.2061035713412178, 0.18044222034754398, -5.747218670031438, 9362.0, 30146.0, 35388.0, 9362.0, 8.390083312988281, -0.15920531749725342, 0.20538750290870667, -0.1953050196170807, 0.0035697012208402157, -0.032905519008636475, 1.0302342176437378, -0.08496282994747162, -0.08439826965332031, 1.489013671875, 1.34326171875, 0.01605224609375, 1.4912109375
29834, 0.007686738856136799, -0.036250244826078415, -0.014881313778460026, 0.0006011035875417292, -0.0003195850003976375, 0.08498474955558777, 0.0024346821010112762, -0.0009383903234265745, 0.22567600011825562, 0.08577170968055725, 0.16154985129833221, 0.06903795152902603, 0.20198334219780376, 0.19778216185974884, -5.7431785830096835, 9362.0, 30146.0, 35388.0, 9362.0, 8.409917831420898, -0.10087097436189651, 0.17450197041034698, 0.08453844487667084, 0.003203633474186063, -0.03293289616703987, 1.0307644605636597, -0.07952654361724854, -0.10231781005859375, 1.487548828125, 1.3388671875, 0.017120361328125, 1.4912109375
29884, 0.008664989843964577, -0.039965637028217316, -0.016146762296557426, 0.0007585233543068171, -0.0003782465064432472, 0.09906981140375137, 0.0028243158012628555, -0.001020957948639989, 0.24400979280471802, 0.08577834069728851, 0.16154193878173828, 0.06899093091487885, 0.19574080329730661, 0.20355140545262884, -5.739164854587588, 9362.0, 30146.0, 35388.0, 9362.0, 8.390083312988281, 0.08604452759027481, -0.047069400548934937, -0.13385199010372162, 0.003530398476868868, -0.032932523638010025, 1.0320039987564087, -0.08092787116765976, -0.05751800537109375, 1.4912109375, 1.3388671875, 0.017120361328125, 1.4912109375
29894, 0.00917412806302309, -0.03876075521111488, -0.019828537479043007, 0.0007585233543068171, -0.0003782465064432472, 0.09906981140375137, 0.0028243158012628555, -0.001020957948639989, 0.24400979280471802, 0.08577560633420944, 0.16154570877552032, 0.06900367885828018, 0.19673506793242618, 0.1991087637601936, -5.751377441606866, 9362.0, 30146.0, 35388.0, 9362.0, 8.390083312988281, 0.08604452759027481, -0.047069400548934937, -0.13385199010372162, 0.0013432808918878436, -0.03361699357628822, 1.0340938568115234, -0.08092787116765976, -0.05751800537109375, 1.4912109375, 1.3388671875, 0.017120361328125, 1.4912109375
29904, 0.007799546234309673, -0.0401320718228817, -0.01946328580379486, 0.0007585233543068171, -0.0003782465064432472, 0.09906981140375137, 0.0028243158012628555, -0.001020957948639989, 0.24400979280471802, 0.08579527586698532, 0.16153675317764282, 0.06900344789028168, 0.19277839349390002, 0.19175677690526527, -5.741803513948559, 9362.0, 30146.0, 35388.0, 9362.0, 8.390083312988281, 0.08604452759027481, -0.047069400548934937, -0.13385199010372162, 0.0026581287384033203, -0.03147999197244644, 1.0304608345031738, -0.08092787116765976, -0.05751800537109375, 1.4912109375, 1.3388671875, 0.017120361328125, 1.4912109375
29914, 0.008958917111158371, -0.040232155472040176, -0.01991387829184532, 0.0008464541751891375, -0.00040956775774247944, 0.1065330058336258, 0.0030354431364685297, -0.001067728386260569, 0.25351911783218384, 0.08579014241695404, 0.16154001653194427, 0.0690028965473175, 0.1926602000532066, 0.18874179818763537, -5.741826687558208, 9362.0, 30146.0, 35388.0, 9362.0, 8.390083312988281, 0.08604452759027481, -0.047069400548934937, -0.13385199010372162, 0.006174719892442226, -0.031485315412282944, 1.0305358171463013, -0.08092787116765976, -0.05751800537109375, 1.4912109375, 1.3388671875, 0.017120361328125, 1.4912109375
29944, 0.006962301209568977, -0.045070528984069824, -0.015283034183084965, 0.0009085801430046558, -0.0004312089004088193, 0.11166337132453918, 0.0031772099900990725, -0.0010973768075928092, 0.2595667839050293, 0.08578697592020035, 0.16154265403747559, 0.06897800415754318, 0.19196945707150653, 0.19365808916472815, -5.737769554729453, 9362.0, 30146.0, 35388.0, 9362.0, 8.390083312988281, 0.08604452759027481, -0.047069400548934937, -0.13385199010372162, 0.006174719892442226, -0.031485315412282944, 1.0305358171463013, -0.10174999386072159, -0.07543754577636719, 1.48974609375, 1.3388671875, 0.017120361328125, 1.4912109375
29994, 0.007235831115394831, -0.04931851848959923, -0.02468499355018139, 0.001112908823415637, -0.0004994428600184619, 0.1277942657470703, 0.003656863234937191, -0.00117352488450706, 0.27797386050224304, 0.08577645570039749, 0.1615331768989563, 0.0689866915345192, 0.19323871788441424, 0.195809168751083, -5.7428188234457584, 9362.0, 30146.0, 35388.0, 9362.0, 8.409917831420898, -0.047598205506801605, 0.05767945200204849, -0.23360072076320648, 0.004827677737921476, -0.03262602165341377, 1.0308855772018433, -0.0849526971578598, -0.06647872924804688, 1.490478515625, 1.3388671875, 0.017120361328125, 1.4912109375
30004, 0.008143829181790352, -0.04915716126561165, -0.026002638041973114, 0.001112908823415637, -0.0004994428600184619, 0.1277942657470703, 0.003656863234937191, -0.00117352488450706, 0.27797386050224304, 0.0857895240187645, 0.16154144704341888, 0.06898831576108932, 0.19057972607334797, 0.19179858681189899, -5.737986382518741, 9362.0, 30146.0, 35388.0, 9362.0, 8.390083312988281, -0.047598205506801605, 0.05767945200204849, -0.23360072076320648, 0.002512892708182335, -0.034055814146995544, 1.0286461114883423, -0.0849526971578598, -0.06647872924804688, 1.490478515625, 1.3388671875, 0.017120361328125, 1.4912109375
30014, 0.00854780338704586, -0.0484921969473362, -0.02673972398042679, 0.001187785412184894, -0.0005231668474152684, 0.13341334462165833, 0.0038307581562548876, -0.001199004240334034, 0.28387337923049927, 0.08580847084522247, 0.16151559352874756, 0.0689614862203598, 0.19929251116853788, 0.1768928872235449, -5.754997448776001, 9362.0, 30146.0, 35388.0, 9362.0, 8.390083312988281, 0.14244262874126434, 0.09427271038293839, -0.017620543017983437, 0.002512892708182335, -0.034055814146995544, 1.0286461114883423, -0.0849526971578598, -0.06647872924804688, 1.490478515625, 1.3388671875, 0.017120361328125, 1.4912109375
30024, 0.006817453075200319, -0.0472877062857151, -0.02901260182261467, 0.001226526335813105, -0.0005352288717404008, 0.13626669347286224, 0.00391739048063755, -0.0012134243734180927, 0.2867966294288635, 0.08580332249403, 0.16151656210422516, 0.06897532194852829, 0.20297720517899584, 0.17184964242150613, -5.743388563459334, 9362.0, 30146.0, 35388.0, 9362.0, 8.409917831420898, 0.14244262874126434, 0.09427271038293839, -0.017620543017983437, 0.003465828951448202, -0.033353447914123535, 1.032312035560608, -0.0849526971578598, -0.06647872924804688, 1.490478515625, 1.3388671875, 0.017120361328125, 1.4912109375
30104, 0.005883239209651947, -0.055281881242990494, -0.02402893267571926, 0.0013900564517825842, -0.0005847807042300701, 0.14798027276992798, 0.004264261107891798, -0.0012597667519003153, 0.29870927333831787, 0.08580416440963745, 0.16152969002723694, 0.06898413598537445, 0.1937656461348099, 0.192644844350923, -5.743739851765681, 9362.0, 30146.0, 35388.0, 9362.0, 8.409917831420898, -0.19567252695560455, 0.04690717160701752, -0.07186949998140335, 0.0010353683028370142, -0.034439366310834885, 1.0310508012771606, -0.08148820698261261, -0.05751800537109375, 1.4912109375, 1.3388671875, 0.017120361328125, 1.4912109375
30124, 0.006422443315386772, -0.054367393255233765, -0.02569345012307167, 0.0013900564517825842, -0.0005847807042300701, 0.14798027276992798, 0.004264261107891798, -0.0012597667519003153, 0.29870927333831787, 0.08577950298786163, 0.1615389883518219, 0.06900841742753983, 0.19676377028776368, 0.1960113161295567, -5.74796001278711, 9362.0, 30146.0, 35388.0, 9362.0, 8.409917831420898, -0.19567252695560455, 0.04690717160701752, -0.07186949998140335, 0.003940311726182699, -0.030782897025346756, 1.032618522644043, -0.07728461921215057, -0.06647872924804688, 1.490478515625, 1.3388671875, 0.017120361328125, 1.4912109375
30134, 0.005426477640867233, -0.05529085919260979, -0.02276715822517872, 0.0013900564517825842, -0.0005847807042300701, 0.14798027276992798, 0.004264261107891798, -0.0012597667519003153, 0.29870927333831787, 0.0858268290758133, 0.1615268886089325, 0.06892948597669601, 0.19498110016434897, 0.17638746514163017, -5.755252163590314, 9362.0, 30146.0, 35388.0, 9362.0, 8.409917831420898, -0.19567252695560455, 0.04690717160701752, -0.07186949998140335, 0.002490721410140395, -0.033439699560403824, 1.030911922454834, -0.07728461921215057, -0.06647872924804688, 1.490478515625, 1.3388671875, 0.017120361328125, 1.4912109375
30144, 0.005543814040720463, -0.05614886060357094, -0.02136916294693947, 0.0017611648654565215, -0.0006889092619530857, 0.17282205820083618, 0.005015324801206589, -0.0013427555095404387, 0.32272008061408997, 0.08578602969646454, 0.1615411937236786, 0.06901249289512634, 0.20137169641827896, 0.19614584089620735, -5.740768234354172, 9362.0, 30146.0, 35388.0, 9362.0, 8.409917831420898, 0.18752501904964447, 0.21346518397331238, 0.11390377581119537, 0.002490721410140395, -0.033439699560403824, 1.030911922454834, -0.08225423842668533, -0.07543754577636719, 1.48974609375, 1.3388671875, 0.017120361328125, 1.4912109375
30184, 0.005990439560264349, -0.05683550983667374, -0.02509787306189537, 0.0019696836825460196, -0.0007434064173139632, 0.18597395718097687, 0.005410998594015837, -0.0013831604737788439, 0.3348398506641388, 0.08578198403120041, 0.16154953837394714, 0.06899485737085342, 0.19790871745692593, 0.1996866640634778, -5.742786840138649, 9362.0, 30146.0, 35388.0, 9362.0, 8.390083312988281, 0.1223582848906517, 0.013966554775834084, 0.025302570313215256, 0.0023591844365000725, -0.0345940962433815, 1.0305451154708862, -0.08212146162986755, -0.05751800537109375, 1.4912109375, 1.3388671875, 0.017120361328125, 1.4912109375
30194, 0.0053918445482850075, -0.058750610798597336, -0.023753313347697258, 0.0019696836825460196, -0.0007434064173139632, 0.18597395718097687, 0.005410998594015837, -0.0013831604737788439, 0.3348398506641388, 0.08577229082584381, 0.16154493391513824, 0.06902612745761871, 0.19055130526855915, 0.19538741345732547, -5.743762865284324, 9362.0, 30146.0, 35388.0, 9362.0, 8.390083312988281, 0.1223582848906517, 0.013966554775834084, 0.025302570313215256, 0.0023591844365000725, -0.0345940962433815, 1.0305451154708862, -0.07919485121965408, -0.13815879821777344, 1.484619140625, 1.3388671875, 0.017120361328125, 1.4912109375
30214, 0.004412200767546892, -0.05696632340550423, -0.027967151254415512, 0.0019696836825460196, -0.0007434064173139632, 0.18597395718097687, 0.005410998594015837, -0.0013831604737788439, 0.3348398506641388, 0.08580869436264038, 0.16152553260326385, 0.06898058205842972, 0.19678515805172242, 0.1758374085518426, -5.745593125345355, 9362.0, 30146.0, 35388.0, 9362.0, 8.409917831420898, -0.060177866369485855, 0.16370457410812378, -0.10550829768180847, 0.0023591844365000725, -0.0345940962433815, 1.0305451154708862, -0.08082538098096848, -0.07543754577636719, 1.48974609375, 1.3388671875, 0.017120361328125, 1.4912109375
30224, 0.004533535800874233, -0.05822652578353882, -0.027856849133968353, 0.0019696836825460196, -0.0007434064173139632, 0.18597395718097687, 0.005410998594015837, -0.0013831604737788439, 0.3348398506641388, 0.0858234092593193, 0.16152040660381317, 0.06898699700832367, 0.2004372568916081, 0.17803226374093128, -5.753923365931627, 9362.0, 30146.0, 35388.0, 9362.0, 8.409917831420898, -0.060177866369485855, 0.16370457410812378, -0.10550829768180847, 0.0023591844365000725, -0.0345940962433815, 1.0305451154708862, -0.08082538098096848, -0.07543754577636719, 1.48974609375, 1.3388671875, 0.017120361328125, 1.4912109375
30234, 0.0033630316611379385, -0.05865974351763725, -0.02758548967540264, 0.0019696836825460196, -0.0007434064173139632, 0.18597395718097687, 0.005410998594015837, -0.0013831604737788439, 0.3348398506641388, 0.08580496907234192, 0.1615280658006668, 0.06898028403520584, 0.19794670789964286, 0.16991249218759208, -5.75707070416609, 9362.0, 30146.0, 35388.0, 9362.0, 8.409917831420898, -0.14947688579559326, 0.17230041325092316, 0.12024763226509094, 0.0023591844365000725, -0.0345940962433815, 1.0305451154708862, -0.08082538098096848, -0.07543754577636719, 1.48974609375, 1.3388671875, 0.017120361328125, 1.4912109375
30244, 0.0029340870678424835, -0.05928928032517433, -0.028605233877897263, 0.0019696836825460196, -0.0007434064173139632, 0.18597395718097687, 0.005410998594015837, -0.0013831604737788439, 0.3348398506641388, 0.08581200987100601, 0.16151660680770874, 0.06898375600576401, 0.2042403127519914, 0.1814805615356363, -5.747736239248514, 9362.0, 30146.0, 35388.0, 9362.0, 8.409917831420898, -0.14947688579559326, 0.17230041325092316, 0.12024763226509094, 0.004407793283462524, -0.031835854053497314, 1.0333760976791382, -0.08082538098096848, -0.07543754577636719, 1.48974609375, 1.3388671875, 0.017120361328125, 1.4912109375
30254, 0.0027672715950757265, -0.057327982038259506, -0.028612831607460976, 0.0019696836825460196, -0.0007434064173139632, 0.18597395718097687, 0.005410998594015837, -0.0013831604737788439, 0.3348398506641388, 0.08580955117940903, 0.16151434183120728, 0.06897591054439545, 0.19829428340827687, 0.17493683589813713, -5.751483489667051, 9362.0, 30146.0, 35388.0, 9362.0, 8.390083312988281, -0.14947688579559326, 0.17230041325092316, 0.12024763226509094, 0.0033773311879485846, -0.03225500136613846, 1.0300302505493164, -0.08082538098096848, -0.07543754577636719, 1.48974609375, 1.3388671875, 0.017120361328125, 1.4912109375
30264, 0.0024513734970241785, -0.057238850742578506, -0.029112903401255608, 0.0019696836825460196, -0.0007434064173139632, 0.18597395718097687, 0.005410998594015837, -0.0013831604737788439, 0.3348398506641388, 0.08581976592540741, 0.161513090133667, 0.06897850334644318, 0.2009389588866361, 0.18322880170615008, -5.748574825964322, 9362.0, 30146.0, 35388.0, 9362.0, 8.390083312988281, -0.14947688579559326, 0.17230041325092316, 0.12024763226509094, 0.004510894417762756, -0.0347338430583477, 1.0295777320861816, -0.08082538098096848, -0.07543754577636719, 1.48974609375, 1.3388671875, 0.017120361328125, 1.4912109375
30274, 0.0030264665838330984, -0.058542169630527496, -0.029112976044416428, 0.0024973510298877954, -0.0008715838193893433, 0.21733209490776062, 0.006323270499706268, -0.0014545194571837783, 0.36217001080513, 0.0857866033911705, 0.16155320405960083, 0.06900759041309357, 0.19293412737663, 0.19238577922834565, -5.743624865451717, 9362.0, 30146.0, 35388.0, 9362.0, 8.390083312988281, -0.14947688579559326, 0.17230041325092316, 0.12024763226509094, 0.004153402987867594, -0.03353669494390488, 1.0308796167373657, -0.08082538098096848, -0.07543754577636719, 1.48974609375, 1.3388671875, 0.017120361328125, 1.4912109375
30294, 0.003592828055843711, -0.06009868532419205, -0.028693338856101036, 0.002625847700983286, -0.0009007670450955629, 0.22463449835777283, 0.006527665536850691, -0.0014643403701484203, 0.3681237995624542, 0.08579627424478531, 0.16153603792190552, 0.068999744951725, 0.18993384694033824, 0.19420747207743716, -5.741722694498695, 9362.0, 30146.0, 35388.0, 9362.0, 8.390083312988281, 0.16674388945102692, -0.3032538592815399, -0.165424183011055, 0.0035460281651467085, -0.03229442238807678, 1.030783772468567, -0.07956600934267044, -0.07543754577636719, 1.48974609375, 1.3388671875, 0.017120361328125, 1.4912109375
30324, 0.00408288836479187, -0.06541597843170166, -0.028414595872163773, 0.0027585215866565704, -0.0009301782702095807, 0.23205715417861938, 0.0067398156970739365, -0.0014769159024581313, 0.3742023706436157, 0.08578047156333923, 0.16154564917087555, 0.06899642199277878, 0.1904525048411146, 0.18940581617994212, -5.739076754427435, 9362.0, 30146.0, 35388.0, 9362.0, 8.409917831420898, -0.0009245648398064077, 0.37145206332206726, 0.09571946412324905, 0.0035460281651467085, -0.03229442238807678, 1.030783772468567, -0.0857795849442482, -0.07543754577636719, 1.48974609375, 1.3388671875, 0.017120361328125, 1.491943359375
30334, 0.004527952987700701, -0.06525130569934845, -0.02816576138138771, 0.0027585215866565704, -0.0009301782702095807, 0.23205715417861938, 0.0067398156970739365, -0.0014769159024581313, 0.3742023706436157, 0.08581343293190002, 0.16152065992355347, 0.06899756193161011, 0.19530432082443064, 0.16735035526571096, -5.7455848759206285, 9362.0, 30146.0, 35388.0, 9362.0, 8.390083312988281, -0.0009245648398064077, 0.37145206332206726, 0.09571946412324905, 0.002453276887536049, -0.0322277769446373, 1.0335192680358887, -0.0857795849442482, -0.07543754577636719, 1.48974609375, 1.3388671875, 0.017120361328125, 1.491943359375
30354, 0.004348726477473974, -0.06200548633933067, -0.03138454630970955, 0.0030369488522410393, -0.0009897820418700576, 0.24727241694927216, 0.007188982795923948, -0.0015046157641336322, 0.386711984872818, 0.08578243851661682, 0.16153764724731445, 0.06900050491094589, 0.19547119631535104, 0.19251807745436622, -5.746007289182239, 9362.0, 30146.0, 35388.0, 9362.0, 8.390083312988281, 0.00016278240946121514, 0.14893285930156708, 0.03299183025956154, 0.002453276887536049, -0.0322277769446373, 1.0335192680358887, -0.12341905385255814, -0.06647872924804688, 1.490478515625, 1.3388671875, 0.017120361328125, 1.491943359375
30364, 0.0047837188467383385, -0.06285929679870605, -0.03207223489880562, 0.0030369488522410393, -0.0009897820418700576, 0.24727241694927216, 0.007188982795923948, -0.0015046157641336322, 0.386711984872818, 0.08578390628099442, 0.1615551859140396, 0.0689772218465805, 0.19316640598271065, 0.19302677155994274, -5.736804266251717, 9362.0, 30146.0, 35388.0, 9362.0, 8.390083312988281, -0.08654045313596725, -0.019586186856031418, -0.16368655860424042, 0.002453276887536049, -0.0322277769446373, 1.0335192680358887, -0.10608337074518204, -0.10231781005859375, 1.487548828125, 1.3388671875, 0.017120361328125, 1.491943359375
30374, 0.004291401244699955, -0.06326483935117722, -0.031088130548596382, 0.0030369488522410393, -0.0009897820418700576, 0.24727241694927216, 0.007188982795923948, -0.0015046157641336322, 0.386711984872818, 0.08581424504518509, 0.16153359413146973, 0.0689765140414238, 0.19820956302673617, 0.18209846155622245, -5.752594170716907, 9362.0, 30146.0, 35388.0, 9362.0, 8.409917831420898, -0.08654045313596725, -0.019586186856031418, -0.16368655860424042, 0.0033566455822438, -0.031071102246642113, 1.031829833984375, -0.10608337074518204, -0.10231781005859375, 1.487548828125, 1.3388671875, 0.017120361328125, 1.491943359375
30384, 0.003557333257049322, -0.06441773474216461, -0.028731999918818474, 0.0030369488522410393, -0.0009897820418700576, 0.24727241694927216, 0.007188982795923948, -0.0015046157641336322, 0.386711984872818, 0.08578415215015411, 0.16154834628105164, 0.06901079416275024, 0.1925757778720248, 0.19109646589177487, -5.740592238286309, 9362.0, 30146.0, 35388.0, 9362.0, 8.409917831420898, -0.08654045313596725, -0.019586186856031418, -0.16368655860424042, 0.003558599390089512, -0.030422357842326164, 1.0306158065795898, -0.10608337074518204, -0.10231781005859375, 1.487548828125, 1.3388671875, 0.017120361328125, 1.491943359375
30444, 0.002161442069336772, -0.06687558442354202, -0.029757985845208168, 0.003729330375790596, -0.0011282052146270871, 0.2833216190338135, 0.008210676722228527, -0.0015678451163694263, 0.414506196975708, 0.08578519523143768, 0.16154401004314423, 0.06899229437112808, 0.19360609442133192, 0.19741778664973708, -5.741881419282518, 9362.0, 30146.0, 35388.0, 9362.0, 8.409917831420898, -0.2996556758880615, -0.3182140588760376, -0.013480422087013721, 0.003854217240586877, -0.032641276717185974, 1.0333606004714966, -0.08791592717170715, -0.15607833862304688, 1.483154296875, 1.3388671875, 0.017120361328125, 1.491943359375
30454, 0.0027599979657679796, -0.06815708428621292, -0.029031751677393913, 0.003729330375790596, -0.0011282052146270871, 0.2833216190338135, 0.008210676722228527, -0.0015678451163694263, 0.414506196975708, 0.08579405397176743, 0.1615534871816635, 0.06899851560592651, 0.19214026611182214, 0.19162633869598267, -5.749784980252634, 9362.0, 30146.0, 35388.0, 9362.0, 8.390083312988281, 0.1170865148305893, 0.274941086769104, 0.13545075058937073, 0.003456220729276538, -0.03514504432678223, 1.0301474332809448, -0.08613221347332001, -0.10231781005859375, 1.487548828125, 1.3388671875, 0.017120361328125, 1.491943359375
30464, 0.003356006694957614, -0.07003406435251236, -0.02938506007194519, 0.0038959181401878595, -0.00115968135651201, 0.29167136549949646, 0.008447565138339996, -0.0015783781418576837, 0.42038974165916443, 0.08578796684741974, 0.16154496371746063, 0.0690092146396637, 0.19489591422411143, 0.19587396673972535, -5.748812655824605, 9362.0, 30146.0, 35388.0, 9362.0, 8.409917831420898, -0.046024225652217865, 0.399130254983902, -0.07321786135435104, 0.003456220729276538, -0.03514504432678223, 1.0301474332809448, -0.08649449795484543, -0.030637741088867188, 1.493408203125, 1.3388671875, 0.017120361328125, 1.491943359375
30474, 0.003793320618569851, -0.07258874922990799, -0.02890785038471222, 0.003980994690209627, -0.001175489742308855, 0.29589003324508667, 0.00856787245720625, -0.0015833383658900857, 0.4233469069004059, 0.08576835691928864, 0.16153834760189056, 0.06901824474334717, 0.19851675148590386, 0.2011521608101532, -5.745386737647508, 9362.0, 30146.0, 35388.0, 9362.0, 8.409917831420898, -0.17520518600940704, 0.10590934753417969, 0.20751406252384186, 0.0025070812553167343, -0.03250541165471077, 1.0322164297103882, -0.08326740562915802, -0.10231781005859375, 1.487548828125, 1.3388671875, 0.017120361328125, 1.491943359375
30484, 0.0031875374261289835, -0.07328198105096817, -0.028879672288894653, 0.004067291971296072, -0.0011913530761376023, 0.30013924837112427, 0.008691765367984772, -0.0015893552917987108, 0.4264949560165405, 0.08579334616661072, 0.16154836118221283, 0.06897839158773422, 0.1904934175121036, 0.19440048805898869, -5.743768868145925, 9362.0, 30146.0, 35388.0, 9362.0, 8.409917831420898, 0.07318266481161118, -0.1594056785106659, -0.24461787939071655, 0.0025070812553167343, -0.03250541165471077, 1.0322164297103882, -0.08687947690486908, -0.07543754577636719, 1.48974609375, 1.3388671875, 0.017120361328125, 1.491943359375
30494, 0.002098984783515334, -0.07396264374256134, -0.0269362460821867, 0.004067291971296072, -0.0011913530761376023, 0.30013924837112427, 0.008691765367984772, -0.0015893552917987108, 0.4264949560165405, 0.08580745756626129, 0.1615244597196579, 0.06897104531526566, 0.20113594998012482, 0.1711759751223667, -5.752735318010632, 9362.0, 30146.0, 35388.0, 9362.0, 8.390083312988281, -0.047056421637535095, 0.21449778974056244, 0.25401103496551514, 0.0031324869487434626, -0.035721179097890854, 1.0318500995635986, -0.08244060724973679, -0.06647872924804688, 1.490478515625, 1.330078125, 0.0206298828125, 1.491943359375
30504, 0.0026227429043501616, -0.07382319867610931, -0.027685170993208885, 0.004067291971296072, -0.0011913530761376023, 0.30013924837112427, 0.008691765367984772, -0.0015893552917987108, 0.4264949560165405, 0.08582480251789093, 0.16154156625270844, 0.06898460537195206, 0.20213343501942513, 0.1819523883835359, -5.748014851415886, 9362.0, 30146.0, 35388.0, 9362.0, 8.390083312988281, -0.21680571138858795, 0.09854795783758163, 0.15813235938549042, 0.0031324869487434626, -0.035721179097890854, 1.0318500995635986, -0.08415594696998596, -0.09335899353027344, 1.48828125, 1.330078125, 0.0206298828125, 1.491943359375
30514, 0.004719212651252747, -0.07545953243970871, -0.027999479323625565, 0.004333845805376768, -0.0012393058277666569, 0.31307369470596313, 0.009080160409212112, -0.0016055209562182426, 0.43583422899246216, 0.08578654378652573, 0.16154201328754425, 0.06900021433830261, 0.19304720341398976, 0.20252906450843966, -5.743245272623933, 9362.0, 30146.0, 35388.0, 9362.0, 8.390083312988281, 0.21127715706825256, 0.15008573234081268, -0.17395293712615967, 0.0031324869487434626, -0.035721179097890854, 1.0318500995635986, -0.08583599328994751, -0.1291980743408203, 1.4853515625, 1.330078125, 0.0206298828125, 1.491943359375
30524, 0.004252174403518438, -0.07693704962730408, -0.028804346919059753, 0.004425299819558859, -0.001255384529940784, 0.31744807958602905, 0.009210780262947083, -0.0016103391535580158, 0.4390416741371155, 0.0858222171664238, 0.1615140438079834, 0.06898465752601624, 0.20214392226533417, 0.18258788669169235, -5.752293893488352, 9362.0, 30146.0, 35388.0, 9362.0, 8.390083312988281, 0.21127715706825256, 0.15008573234081268, -0.17395293712615967, 0.0025274339132010937, -0.03284710273146629, 1.0324149131774902, -0.0848810076713562, -0.10231781005859375, 1.487548828125, 1.330078125, 0.0206298828125, 1.491943359375
30534, 0.004527946934103966, -0.07778052240610123, -0.028591370210051537, 0.004518074449151754, -0.001271529938094318, 0.32185444235801697, 0.009344258345663548, -0.001618723152205348, 0.4422319829463959, 0.08581341803073883, 0.1615338921546936, 0.06899065524339676, 0.20039403638275297, 0.17968380814716056, -5.756903926069643, 9362.0, 30146.0, 35388.0, 9362.0, 8.390083312988281, 0.18795551359653473, 0.3897964656352997, -0.027934551239013672, 0.0025274339132010937, -0.03284710273146629, 1.0324149131774902, -0.08298004418611526, -0.07543754577636719, 1.48974609375, 1.330078125, 0.0206298828125, 1.491943359375
30544, 0.00506490096449852, -0.07838461548089981, -0.03016352839767933, 0.004518074449151754, -0.001271529938094318, 0.32185444235801697, 0.009344258345663548, -0.001618723152205348, 0.4422319829463959, 0.08581841737031937, 0.16152428090572357, 0.0689733698964119, 0.1990338786538853, 0.17639297919347996, -5.758773494760475, 9362.0, 30146.0, 35388.0, 9362.0, 8.390083312988281, -0.037584733217954636, 0.25323736667633057, -0.08002900332212448, 0.0026079099625349045, -0.031700585037469864, 1.030629277229309, -0.08321445435285568, -0.11127853393554688, 1.48681640625, 1.3330078125, 0.0191650390625, 1.491943359375
30554, 0.005090560298413038, -0.07924822717905045, -0.0320943146944046, 0.004518074449151754, -0.001271529938094318, 0.32185444235801697, 0.009344258345663548, -0.001618723152205348, 0.4422319829463959, 0.08585565537214279, 0.16153012216091156, 0.06902534514665604, 0.2028489336890397, 0.1656890922409957, -5.757237364109004, 9362.0, 30146.0, 35388.0, 9362.0, 8.390083312988281, 7.888353138696402e-05, 0.16001226007938385, -0.28226572275161743, 0.003576421644538641, -0.03322842717170715, 1.0315231084823608, -0.08409132808446884, -0.0037593841552734375, 1.49560546875, 1.3330078125, 0.0191650390625, 1.491943359375
30574, 0.006167053245007992, -0.08344902098178864, -0.0332472063601017, 0.004902814980596304, -0.0013369275256991386, 0.33979207277297974, 0.00989627931267023, -0.0016525007085874677, 0.45469677448272705, 0.08580628782510757, 0.16153544187545776, 0.06896962970495224, 0.19466738959211044, 0.1916543441205647, -5.745198837728323, 9362.0, 30146.0, 35388.0, 9362.0, 8.409917831420898, 0.26254552602767944, 0.17766335606575012, -0.43298280239105225, 0.005954948253929615, -0.03402302786707878, 1.0320123434066772, -0.08731584250926971, -0.08439826965332031, 1.489013671875, 1.3330078125, 0.0191650390625, 1.491943359375
30584, 0.006480138748884201, -0.08386348932981491, -0.032591287046670914, 0.00500249769538641, -0.0013534956378862262, 0.34435412287712097, 0.01004039030522108, -0.001661190646700561, 0.4577130675315857, 0.0857759416103363, 0.1615416407585144, 0.06901192665100098, 0.19440752300206196, 0.19007288064810268, -5.735209546463958, 9362.0, 30146.0, 35388.0, 9362.0, 8.409917831420898, 0.17147859930992126, 0.10925876349210739, 0.25459349155426025, 0.005954948253929615, -0.03402302786707878, 1.0320123434066772, -0.09020654112100601, -0.030637741088867188, 1.493408203125, 1.3330078125, 0.0191650390625, 1.491943359375
30604, 0.006993060931563377, -0.0834701731801033, -0.03000502660870552, 0.00500249769538641, -0.0013534956378862262, 0.34435412287712097, 0.01004039030522108, -0.001661190646700561, 0.4577130675315857, 0.08580777794122696, 0.16152486205101013, 0.0689777284860611, 0.20335926818041924, 0.18118360035160208, -5.754684685295988, 9362.0, 30146.0, 35388.0, 9362.0, 8.409917831420898, 0.03793312981724739, 0.16278599202632904, -0.07732882350683212, 0.005954948253929615, -0.03402302786707878, 1.0320123434066772, -0.0918179377913475, -0.07543754577636719, 1.48974609375, 1.3330078125, 0.0191650390625, 1.491943359375
30614, 0.007634304463863373, -0.08654818683862686, -0.029554469510912895, 0.00500249769538641, -0.0013534956378862262, 0.34435412287712097, 0.01004039030522108, -0.001661190646700561, 0.4577130675315857, 0.08581714332103729, 0.16153854131698608, 0.06894472986459732, 0.19116856853817624, 0.19752334441500352, -5.741651627913947, 9362.0, 30146.0, 35388.0, 9362.0, 8.409917831420898, 0.03793312981724739, 0.16278599202632904, -0.07732882350683212, 0.005954948253929615, -0.03402302786707878, 1.0320123434066772, -0.09307173639535904, -0.07543754577636719, 1.48974609375, 1.3330078125, 0.0191650390625, 1.491943359375
30704, 0.004736369010061026, -0.08914708346128464, -0.035841137170791626, 0.006093552801758051, -0.0015272486489266157, 0.39209291338920593, 0.011606504209339619, -0.0017788162222132087, 0.48836764693260193, 0.08580181747674942, 0.1615411788225174, 0.06899651139974594, 0.1962079158969417, 0.19547257050587064, -5.746491813558201, 9362.0, 30146.0, 35388.0, 9362.0, 8.409917831420898, 0.04129115119576454, -0.30776137113571167, -0.10453096777200699, 0.001731048570945859, -0.03395411744713783, 1.0334941148757935, -0.0895116776227951, -0.04855918884277344, 1.491943359375, 1.3330078125, 0.0191650390625, 1.491943359375
30714, 0.005130884237587452, -0.08891820907592773, -0.034554529935121536, 0.006093552801758051, -0.0015272486489266157, 0.39209291338920593, 0.011606504209339619, -0.0017788162222132087, 0.48836764693260193, 0.08577769249677658, 0.16153913736343384, 0.06898675858974457, 0.18946010348102163, 0.19085840007497268, -5.747149885675048, 9362.0, 30146.0, 35388.0, 9362.0, 8.409917831420898, -0.01635020598769188, 0.10718792676925659, 0.2073177844285965, 0.002583916299045086, -0.031924135982990265, 1.0320210456848145, -0.08924351632595062, -0.05751800537109375, 1.4912109375, 1.3330078125, 0.0191650390625, 1.491943359375
30734, 0.004600273445248604, -0.0889071524143219, -0.032924801111221313, 0.006694259587675333, -0.0016173297772184014, 0.41690462827682495, 0.0124124800786376, -0.001822932157665491, 0.5041565299034119, 0.08581395447254181, 0.16151688992977142, 0.06899595260620117, 0.19777422437668873, 0.17125162021071105, -5.756491278824869, 9362.0, 30146.0, 35388.0, 9362.0, 8.409917831420898, -0.24784350395202637, -0.4193969666957855, -0.03013097681105137, 0.0036676295567303896, -0.030546007677912712, 1.0291450023651123, -0.08931811898946762, -0.030637741088867188, 1.493408203125, 1.3330078125, 0.0191650390625, 1.491943359375
30754, 0.004193246830254793, -0.09056966751813889, -0.03548070415854454, 0.006945617031306028, -0.0016539522912353277, 0.4270468056201935, 0.012724248692393303, -0.0018393326317891479, 0.5100165009498596, 0.08580980449914932, 0.16151802241802216, 0.0689363181591034, 0.1964007073693475, 0.17728241523730048, -5.746832444110206, 9362.0, 30146.0, 35388.0, 9362.0, 8.390083312988281, 0.004905103240162134, -0.13197655975818634, -0.0664927139878273, 0.0036676295567303896, -0.030546007677912712, 1.0291450023651123, -0.08878578245639801, -0.10231781005859375, 1.487548828125, 1.3330078125, 0.0191650390625, 1.491943359375
30844, 0.004975276533514261, -0.09451645612716675, -0.036105018109083176, 0.007203309331089258, -0.0016909032128751278, 0.4373084306716919, 0.013044716790318489, -0.001855355454608798, 0.5161027908325195, 0.08578949421644211, 0.1615450382232666, 0.06899715214967728, 0.193122379448357, 0.19732806173485073, -5.746082003958508, 9362.0, 30146.0, 35388.0, 9362.0, 8.390083312988281, -0.026077602058649063, 0.1606864631175995, -0.26736536622047424, 0.0029097767546772957, -0.030826197937130928, 1.0294122695922852, -0.07915950566530228, -0.07543754577636719, 1.48974609375, 1.3330078125, 0.0191650390625, 1.491943359375
30854, 0.005268055479973555, -0.09266369044780731, -0.035129744559526443, 0.008299733512103558, -0.0018426446476951241, 0.4795517921447754, 0.014365914277732372, -0.0019378622528165579, 0.5397995114326477, 0.08582265675067902, 0.16152940690517426, 0.06895209848880768, 0.19920777997143468, 0.1763039251955263, -5.755677361220285, 9362.0, 30146.0, 35388.0, 9362.0, 8.390083312988281, 0.03164462372660637, -0.02338290959596634, 0.14922437071800232, 0.0029097767546772957, -0.030826197937130928, 1.0294122695922852, -0.07915950566530228, -0.07543754577636719, 1.48974609375, 1.3330078125, 0.0191650390625, 1.491943359375
30874, 0.006002354901283979, -0.09189620614051819, -0.037261608988046646, 0.008590370416641235, -0.0018815821968019009, 0.4904078245162964, 0.014696205966174603, -0.0019561671651899815, 0.545904278755188, 0.08577696979045868, 0.1615379899740219, 0.06898556649684906, 0.19482526609056408, 0.19405928028456287, -5.7419651831597545, 9362.0, 30146.0, 35388.0, 9362.0, 8.409917831420898, -0.02790527231991291, -0.17331045866012573, 0.12370762974023819, 0.003160038497298956, -0.03559238836169243, 1.0329102277755737, -0.07795019447803497, -0.10231781005859375, 1.487548828125, 1.3330078125, 0.0191650390625, 1.491943359375
30934, 0.008694425225257874, -0.09990546852350235, -0.033831220120191574, 0.00919121690094471, -0.0019606284331530333, 0.512493908405304, 0.015349316410720348, -0.001997479237616062, 0.5582413673400879, 0.08577115833759308, 0.16152696311473846, 0.068975530564785, 0.1914544583616985, 0.1929590928352809, -5.738025103964383, 9362.0, 30146.0, 35388.0, 9362.0, 8.390083312988281, -0.09240139275789261, -0.00021154734713491052, 0.21736328303813934, 0.0036331687588244677, -0.03227502852678299, 1.0305606126785278, -0.07359246909618378, -0.030637741088867188, 1.493408203125, 1.3330078125, 0.0191650390625, 1.491943359375
