timeTick, roll, pitch, yaw, stateX, stateY, stateZ, stateVX, stateVY, stateVZ, otX0, otY0, otZ0, otRoll0, otPitch0, otYaw0, left wing, pitch motor, yaw motor, right wing, voltage, roll rate, pitch rate, yaw rate, A_x, A_y, A_z, current, i_raw, v_raw, airflow_voltage, airflow_speed, pot_Pitch
47153, -0.0010058466577902436, -0.0009291540482081473, 0.00485313730314374, 0, 0, 0, 0, 0, 0, 0.06353791803121567, 0.14811290800571442, 0.06887275725603104, 0.050303622002755614, 0.570048562910273, -2.2648690686010933, 0, 0, 0, 0, 0, 0, 0, 0, 0, 0, 0, 0, 0, 0, 0, 0, 0
47163, -0.0011561765568330884, -0.003698399756103754, 0.006876589264720678, 0.0, 0.0, 1.3620825484395027e-05, 4.4173116720003236e-08, 4.782721063634199e-08, 0.0027241555508226156, 0.06353151053190231, 0.1481001079082489, 0.06888633966445923, 0.04638361630720848, 0.5595419568137174, -2.253319068377736, 9362.0, 30146.0, 35388.0, 9362.0, 8.390083312988281, -0.08005660027265549, 0.0930890291929245, 0.19134625792503357, 0.011368517763912678, -0.040095459669828415, 1.0298075675964355, -0.0903593897819519, -0.06647872924804688, 1.490478515625, 1.32275390625, 0.0251312255859375, 0
47173, 9.121756011154503e-05, -0.003802231512963772, 0.006538571324199438, 8.619452707137043e-09, 9.332471684331267e-09, 5.4682313930243254e-05, 1.8132609511667397e-06, 1.825991262194293e-06, 0.0054885451681911945, 0.06357060372829437, 0.14810164272785187, 0.06887820363044739, 0.05462560791499963, 0.5464715346639366, -2.2616185181085435, 9362.0, 30146.0, 35388.0, 9362.0, 8.390083312988281, 0.14427754282951355, 0.32197558879852295, 0.16171886026859283, 0.009634614922106266, -0.04022113233804703, 1.0301109552383423, -0.09074477851390839, -0.10231781005859375, 1.487548828125, 1.33154296875, 0.0198516845703125, 1.491943359375
47183, 0.00118459842633456, -0.004423427861183882, 0.005582807119935751, 5.9378891137384926e-08, 3.779630830536007e-08, 0.00012454198440536857, 8.344073648913763e-06, 3.801531875069486e-06, 0.00848378986120224, 0.0635366216301918, 0.14811763167381287, 0.06889558583498001, 0.046004310322457775, 0.5615311454797052, -2.258306338050482, 9362.0, 30146.0, 35388.0, 9362.0, 8.390083312988281, 0.007449956610798836, 0.14445292949676514, -0.27905037999153137, 0.008847587741911411, -0.037095922976732254, 1.0306425094604492, -0.08905918896198273, -0.030637741088867188, 1.493408203125, 1.3271484375, 0.022308349609375, 1.493408203125
47193, 0.0009704882395453751, -0.0068504782393574715, 0.007554597221314907, 1.763486068284692e-07, 7.501107290863729e-08, 0.00022412528051063418, 1.5081850506248884e-05, 3.585033027775353e-06, 0.011433267965912819, 0.06353046000003815, 0.14810217916965485, 0.06888853758573532, 0.052424027849232946, 0.5683205051066977, -2.250188650962965, 9362.0, 30146.0, 35388.0, 9362.0, 8.390083312988281, 0.13262328505516052, 0.3363052010536194, 0.1792503148317337, 0.011095451191067696, -0.036262474954128265, 1.0303235054016113, -0.08520449697971344, -0.03959846496582031, 1.49267578125, 1.341796875, 0.0162811279296875, 1.493408203125
47203, 0.0003647207049652934, -0.007978511974215508, 0.008675959892570972, 3.6619206866816967e-07, 1.0041457443321633e-07, 0.0003534260904416442, 2.3013726604403928e-05, 1.5071323105075862e-06, 0.014427291229367256, 0.0635296106338501, 0.1480991393327713, 0.06889817118644714, 0.04226817747135814, 0.5613505060829311, -2.266618069483093, 9362.0, 30146.0, 35388.0, 9362.0, 8.409917831420898, -0.2241123914718628, 0.0401914119720459, 0.057272497564554214, 0.010258364491164684, -0.03842770680785179, 1.0323970317840576, -0.08221470564603806, -0.030637741088867188, 1.493408203125, 1.33154296875, 0.0198516845703125, 1.49267578125
47213, 0.0001129954689531587, -0.00745947752147913, 0.00869227759540081, 6.567929631273728e-07, 1.0692832574932254e-07, 0.0005128924385644495, 3.516632204991765e-05, -1.7201200819272344e-07, 0.01746637560427189, 0.06349135935306549, 0.14810684323310852, 0.0688517689704895, 0.0445695138978326, 0.5798783400920513, -2.2402646582916863, 9362.0, 30146.0, 35388.0, 9362.0, 8.409917831420898, 0.08729173988103867, 0.07102086395025253, -0.06599815934896469, 0.010663127526640892, -0.039919763803482056, 1.0322155952453613, -0.08169754594564438, -0.04855918884277344, 1.491943359375, 1.34326171875, 0.01605224609375, 1.48974609375
47223, 0.00011032310430891812, -0.008058437146246433, 0.00844612903892994, 1.0789642601594096e-06, 1.0199578071024007e-07, 0.0007033885340206325, 4.923924643662758e-05, -8.005850986592122e-07, 0.020633231848478317, 0.06352837383747101, 0.14810937643051147, 0.06888013333082199, 0.051211622192462745, 0.5689320116417491, -2.2487352317783187, 9362.0, 30146.0, 35388.0, 9362.0, 8.390083312988281, 0.23346708714962006, -0.009704142808914185, 0.2814937233924866, 0.011286943219602108, -0.04029439017176628, 1.0315922498703003, -0.08196775615215302, -0.07543754577636719, 1.48974609375, 1.320556640625, 0.02685546875, 1.4912109375
47233, 0.0005479834508150816, -0.009860169142484665, 0.007931203581392765, 1.6372794107155642e-06, 9.300134706791141e-08, 0.0009255663608200848, 6.24569074716419e-05, -9.982055644286447e-07, 0.02380274049937725, 0.06354767084121704, 0.1480947881937027, 0.06888042390346527, 0.04723730469982547, 0.5650808896545527, -2.2534913467309834, 9362.0, 30146.0, 35388.0, 9362.0, 8.409917831420898, -0.010151779279112816, 0.4174005687236786, 0.013838979415595531, 0.011205960065126419, -0.03764263540506363, 1.0312836170196533, -0.08110858500003815, -0.09335899353027344, 1.48828125, 1.32421875, 0.024139404296875, 1.491943359375
47243, 0.00022268452448770404, -0.010399039834737778, 0.009749973192811012, 2.3329941996053094e-06, 8.205577017861287e-08, 0.0011789407581090927, 7.678257679799572e-05, -1.2144653283030493e-06, 0.026872538030147552, 0.06352569162845612, 0.14811323583126068, 0.06890819221735, 0.04854649808017945, 0.5678709288039272, -2.2501295393265393, 9362.0, 30146.0, 35388.0, 9362.0, 8.409917831420898, 0.03860035166144371, 0.0730094239115715, 0.20983095467090607, 0.010603598318994045, -0.037598177790641785, 1.0325870513916016, -0.08136659115552902, -0.1291980743408203, 1.4853515625, 1.335205078125, 0.018280029296875, 1.491943359375
47253, -0.00012404622975736856, -0.011750354431569576, 0.011013665236532688, 3.187912625435274e-06, 6.508300032237457e-08, 0.0014632423408329487, 9.423044684808701e-05, -2.1618495793518377e-06, 0.029988162219524384, 0.06350768357515335, 0.14810745418071747, 0.06884445995092392, 0.04409269294254419, 0.5897628364334935, -2.2437476745011335, 9362.0, 30146.0, 35388.0, 9362.0, 8.409917831420898, -0.3114171326160431, 0.02463807538151741, 0.2557521164417267, 0.008668551221489906, -0.03865215927362442, 1.032452940940857, -0.08043818920850754, -0.05751800537109375, 1.4912109375, 1.341064453125, 0.01654052734375, 1.491943359375
47263, -0.0004202523559797555, -0.011240707710385323, 0.012246302329003811, 4.2221163312206045e-06, 4.151223009785099e-08, 0.0017789595294743776, 0.00011268498201388866, -2.5327285584353376e-06, 0.03315567225217819, 0.06352472305297852, 0.14810219407081604, 0.06886788457632065, 0.04134652215100887, 0.5670257607685301, -2.255320276771107, 9362.0, 30146.0, 35388.0, 9362.0, 8.390083312988281, -0.1484169363975525, 0.2805350124835968, 0.04238651692867279, 0.011910651810467243, -0.03755200654268265, 1.0321285724639893, -0.08406001329421997, -0.05751800537109375, 1.4912109375, 1.332275390625, 0.019561767578125, 1.48974609375
47273, -0.001825047773309052, -0.010987053625285625, 0.01435666624456644, 5.452791356219677e-06, 1.7300967769529052e-08, 0.002126276958733797, 0.00013342197053134441, -2.292786803081981e-06, 0.03630824387073517, 0.06354422867298126, 0.1480829119682312, 0.06884478777647018, 0.04869861876143821, 0.5570478275281232, -2.2634525083472483, 9362.0, 30146.0, 35388.0, 9362.0, 8.390083312988281, -0.3109496533870697, -0.07290054857730865, 0.23182722926139832, 0.011649571359157562, -0.036868151277303696, 1.031065821647644, -0.08276043832302094, -0.09335899353027344, 1.48828125, 1.31982421875, 0.0273590087890625, 1.4912109375
47283, -0.0028735727537423372, -0.012534343637526035, 0.014700350351631641, 6.886286428198218e-06, -1.894079559860984e-09, 0.0025048861280083656, 0.0001532632886664942, -1.469366907258518e-06, 0.03941398486495018, 0.06349979341030121, 0.14807550609111786, 0.06881354004144669, 0.04562065672320113, 0.5830289432973927, -2.2441795710249113, 9362.0, 30146.0, 35388.0, 9362.0, 8.390083312988281, -0.15222397446632385, 0.5459595322608948, 0.18774718046188354, 0.01080306526273489, -0.04004692658782005, 1.032063603401184, -0.08247445523738861, -0.030637741088867188, 1.493408203125, 1.329345703125, 0.02105712890625, 1.49267578125
47293, -0.00213240971788764, -0.015560248866677284, 0.01576668955385685, 8.515978151990566e-06, -4.4039683011476427e-10, 0.002914694370701909, 0.00017275971185881644, 1.8175744571635732e-06, 0.042548056691884995, 0.0635291263461113, 0.14810198545455933, 0.06888680160045624, 0.048540657590723305, 0.5660627933785918, -2.2508496427617297, 9362.0, 30146.0, 35388.0, 9362.0, 8.390083312988281, -0.14395275712013245, 0.40007367730140686, 0.20110268890857697, 0.010417068377137184, -0.03909221291542053, 1.0304468870162964, -0.08307327330112457, -0.08439826965332031, 1.489013671875, 1.330078125, 0.0206298828125, 1.491943359375
47303, -0.0024056502152234316, -0.015933744609355927, 0.017659401521086693, 1.0354237019782886e-05, 4.313501023034405e-08, 0.003355549182742834, 0.0001950542937265709, 6.858175765955821e-06, 0.04562332108616829, 0.06348930299282074, 0.14809834957122803, 0.06884843111038208, 0.0489284875456435, 0.5909546658679687, -2.230694828775965, 9362.0, 30146.0, 35388.0, 9362.0, 8.409917831420898, 0.17852109670639038, 0.05266299098730087, 0.16970597207546234, 0.008779127150774002, -0.039999090135097504, 1.031079649925232, -0.08309253305196762, -0.04855918884277344, 1.491943359375, 1.332275390625, 0.019561767578125, 1.489013671875
47313, -0.0025322111323475838, -0.012884723022580147, 0.01651369407773018, 1.2442050319805276e-05, 1.3056704517566686e-07, 0.003826756030321121, 0.00022252775670494884, 1.0643417226674501e-05, 0.04861843213438988, 0.06353091448545456, 0.14810523390769958, 0.06890147924423218, 0.04365994760745172, 0.5564681648116618, -2.2576998611914965, 9362.0, 30146.0, 35388.0, 9362.0, 8.390083312988281, -0.026123201474547386, -0.45573991537094116, -0.15304900705814362, 0.009962229058146477, -0.03671066090464592, 1.0310016870498657, -0.08002835512161255, -0.14711761474609375, 1.48388671875, 1.32275390625, 0.0251312255859375, 1.491943359375
47323, -0.004303094930946827, -0.010425079613924026, 0.018768666312098503, 1.480796800024109e-05, 2.5827912963904964e-07, 0.004328187555074692, 0.0002504936419427395, 1.4905098396411631e-05, 0.051668230444192886, 0.06352810561656952, 0.1481100171804428, 0.06890175491571426, 0.04631897166327564, 0.5608750577593185, -2.256685074698347, 9362.0, 30146.0, 35388.0, 9362.0, 8.409917831420898, -0.34223538637161255, -0.2870536148548126, 0.14511992037296295, 0.0114633459597826, -0.03620357811450958, 1.0306215286254883, -0.08109620213508606, -0.06647872924804688, 1.490478515625, 1.34033203125, 0.0166168212890625, 1.491943359375
47333, -0.004076996818184853, -0.009206879884004593, 0.018536405637860298, 1.7426580598112196e-05, 4.297045848034031e-07, 0.004859891254454851, 0.00027309972210787237, 1.9473722204566002e-05, 0.05467292293906212, 0.06352872401475906, 0.14811360836029053, 0.06888990849256516, 0.04890268432994349, 0.5637397533660646, -2.2542816821163894, 9362.0, 30146.0, 35388.0, 9362.0, 8.390083312988281, 0.058999206870794296, -0.21328707039356232, 0.020114045590162277, 0.010662157088518143, -0.03794164955615997, 1.0297921895980835, -0.07650138437747955, -0.06647872924804688, 1.490478515625, 1.32861328125, 0.0214385986328125, 1.49560546875
47343, -0.004041289445012808, -0.010085146874189377, 0.01942863129079342, 2.0249502995284274e-05, 6.624206889682682e-07, 0.0054214089177548885, 0.0002914220676757395, 2.705773658817634e-05, 0.05763103440403938, 0.06354745477437973, 0.14809469878673553, 0.06886246800422668, 0.05204449270512958, 0.5655593100204896, -2.2602605703018703, 9362.0, 30146.0, 35388.0, 9362.0, 8.409917831420898, -0.08287858963012695, -0.12185321003198624, -0.03970703110098839, 0.010394500568509102, -0.039244335144758224, 1.0319961309432983, -0.08124832063913345, -0.13815879821777344, 1.484619140625, 1.3359375, 0.01806640625, 1.491943359375
47353, -0.003866450861096382, -0.008656534366309643, 0.019660700112581253, 2.324498382222373e-05, 9.690129445516504e-07, 0.006012982688844204, 0.0003077207366004586, 3.425908289500512e-05, 0.060684140771627426, 0.06348877400159836, 0.1481107771396637, 0.06883947551250458, 0.050956183754100104, 0.5849917234347686, -2.2446929350594433, 9362.0, 30146.0, 35388.0, 9362.0, 8.390083312988281, -0.13359516859054565, 0.1024492159485817, -0.19002991914749146, 0.01037647295743227, -0.039153747260570526, 1.0336037874221802, -0.08168202638626099, -0.06647872924804688, 1.490478515625, 1.343994140625, 0.015899658203125, 1.4912109375
47363, -0.004488934762775898, -0.0070271119475364685, 0.01963375136256218, 2.6411309590912424e-05, 1.3473500075633638e-06, 0.006635691039264202, 0.00032546528382226825, 4.1398696339456365e-05, 0.06385798007249832, 0.06354920566082001, 0.14809134602546692, 0.06886801868677139, 0.051243224402434624, 0.5607024128253784, -2.2553824315576, 9362.0, 30146.0, 35388.0, 9362.0, 8.409917831420898, -0.1385401487350464, -0.20974600315093994, 0.024538859724998474, 0.011767109856009483, -0.040588513016700745, 1.029881238937378, -0.08065339177846909, -0.05751800537109375, 1.4912109375, 1.33447265625, 0.0186309814453125, 1.4912109375
47373, -0.0048240311443805695, -0.00833967700600624, 0.020071296021342278, 2.9742453989456408e-05, 1.7955330804397818e-06, 0.007290123030543327, 0.0003406733158044517, 4.827230441151187e-05, 0.06702885031700134, 0.06357240676879883, 0.14809374511241913, 0.06885745376348495, 0.05018462169388948, 0.5500105320725481, -2.260012028369748, 9362.0, 30146.0, 35388.0, 9362.0, 8.390083312988281, 0.09159871935844421, 0.0774819478392601, 0.04063412547111511, 0.012158660218119621, -0.039862461388111115, 1.0309605598449707, -0.08178810775279999, -0.10231781005859375, 1.487548828125, 1.341064453125, 0.01654052734375, 1.493408203125
47383, -0.004270792938768864, -0.005892288871109486, 0.018889078870415688, 3.321115218568593e-05, 2.3178702122095274e-06, 0.007975265383720398, 0.0003531344991642982, 5.6212589697679505e-05, 0.07000001519918442, 0.06353368610143661, 0.14811760187149048, 0.06888741999864578, 0.051425922281459896, 0.5587548647403651, -2.258167294730239, 9362.0, 30146.0, 35388.0, 9362.0, 8.390083312988281, 0.0987720787525177, -0.46973100304603577, -0.04417887702584267, 0.010299700312316418, -0.03923740237951279, 1.0314172506332397, -0.08091340959072113, -0.06647872924804688, 1.490478515625, 1.320556640625, 0.02685546875, 1.497802734375
47393, -0.003804432228207588, -0.004941026214510202, 0.018436577171087265, 3.6816094507230446e-05, 2.9226016522443388e-06, 0.008690491318702698, 0.0003677239001262933, 6.470392690971494e-05, 0.07304564118385315, 0.06349891424179077, 0.14810341596603394, 0.06884577870368958, 0.04275390706331093, 0.5856466897293728, -2.2350338965045835, 9362.0, 30146.0, 35388.0, 9362.0, 8.390083312988281, 0.16047804057598114, 0.05940717086195946, 0.1339542716741562, 0.010674500837922096, -0.03762971609830856, 1.031159520149231, -0.08448375016450882, -0.14711761474609375, 1.48388671875, 1.326416015625, 0.022705078125, 1.4912109375
47423, -0.0025752922520041466, -0.007741523906588554, 0.020574267953634262, 4.8280428018188104e-05, 5.181711458135396e-06, 0.01101695466786623, 0.0003953928535338491, 8.474654168821871e-05, 0.08177042752504349, 0.0635368824005127, 0.14811058342456818, 0.06888845562934875, 0.04587047425007281, 0.5674746730154254, -2.2586840020871093, 9362.0, 30146.0, 35388.0, 9362.0, 8.390083312988281, 0.09069539606571198, 0.6012261509895325, 0.3868390917778015, 0.010702264495193958, -0.03598080947995186, 1.0313396453857422, -0.08729758858680725, -0.07543754577636719, 1.48974609375, 1.305908203125, 0.0413360595703125, 1.491943359375
47433, -0.0029625834431499243, -0.010388491675257683, 0.022486697882413864, 5.228343798080459e-05, 6.050418051017914e-06, 0.011849310249090195, 0.00040532025741413236, 8.90035298652947e-05, 0.08470117300748825, 0.06353705376386642, 0.14810407161712646, 0.06888066232204437, 0.049441707802475865, 0.5713476426722366, -2.252598947425175, 9362.0, 30146.0, 35388.0, 9362.0, 8.390083312988281, -0.025270767509937286, -0.03696882724761963, -0.08349987864494324, 0.009880388155579567, -0.03773422911763191, 1.0310038328170776, -0.08662542700767517, -0.14711761474609375, 1.48388671875, 1.305908203125, 0.0413360595703125, 1.491943359375
47443, -0.003583306446671486, -0.009728554636240005, 0.022168857976794243, 5.228343798080459e-05, 6.050418051017914e-06, 0.011849310249090195, 0.00040532025741413236, 8.90035298652947e-05, 0.08470117300748825, 0.06357666850090027, 0.1480763554573059, 0.06883209198713303, 0.0548369956089575, 0.5406947220530469, -2.2628556153180974, 9362.0, 30146.0, 35388.0, 9362.0, 8.390083312988281, 0.060592807829380035, 0.03214741870760918, 0.10948726534843445, 0.009706295095384121, -0.03866953402757645, 1.0313496589660645, -0.08662542700767517, -0.14711761474609375, 1.48388671875, 1.305908203125, 0.0413360595703125, 1.491943359375
47473, -0.00433299969881773, -0.012014432810246944, 0.02149374596774578, 6.978672172408551e-05, 1.0034274964709766e-05, 0.0154812540858984, 0.00047315406845882535, 0.00011259765597060323, 0.09675755351781845, 0.06350817531347275, 0.14810222387313843, 0.06883767247200012, 0.043548356029900315, 0.5873530697764977, -2.2422323443551337, 9362.0, 30146.0, 35388.0, 9362.0, 8.390083312988281, 0.04398466274142265, 0.2215714305639267, -0.04105329141020775, 0.007993040606379509, -0.03784722834825516, 1.030697226524353, -0.08110737055540085, -0.10231781005859375, 1.487548828125, 1.289794921875, 0.065032958984375, 1.491943359375
47533, -0.003108002943918109, -0.01561410166323185, 0.02423805370926857, 0.00010245721932733431, 1.8023389202426188e-05, 0.021834222599864006, 0.0006237054476514459, 0.0001474345481256023, 0.11489306390285492, 0.06353890895843506, 0.14808331429958344, 0.06886392086744308, 0.04814142261343152, 0.55588238818126, -2.250540473401009, 9362.0, 30146.0, 35388.0, 9362.0, 8.390083312988281, -0.20096442103385925, 0.19742146134376526, 0.3281063735485077, 0.009705008938908577, -0.04073511064052582, 1.0322906970977783, -0.08325181901454926, -0.04855918884277344, 1.491943359375, 1.343994140625, 0.015899658203125, 1.491943359375
47543, -0.002452580025419593, -0.014298277907073498, 0.02465002052485943, 0.00010245721932733431, 1.8023389202426188e-05, 0.021834222599864006, 0.0006237054476514459, 0.0001474345481256023, 0.11489306390285492, 0.06353026628494263, 0.148106187582016, 0.06885934621095657, 0.044953387674493625, 0.5600693613946248, -2.255065259261364, 9362.0, 30146.0, 35388.0, 9362.0, 8.390083312988281, -0.1456664800643921, 0.1229419857263565, 0.025958945974707603, 0.010615701787173748, -0.03779630362987518, 1.0339504480361938, -0.08325181901454926, -0.04855918884277344, 1.491943359375, 1.343994140625, 0.015899658203125, 1.491943359375
47573, -0.003460042644292116, -0.012642722576856613, 0.02587025985121727, 0.00012237024202477187, 2.2651178369414993e-05, 0.02542302943766117, 0.0007030072738416493, 0.00016133820463437587, 0.12448371201753616, 0.06353602558374405, 0.14810894429683685, 0.06887681782245636, 0.049497147737213164, 0.5652410387589555, -2.2515575388863063, 9362.0, 30146.0, 35388.0, 9362.0, 8.390083312988281, -0.004544717725366354, 0.1211777776479721, 0.2242380827665329, 0.013007409870624542, -0.03907856345176697, 1.0314314365386963, -0.08765991777181625, -0.04855918884277344, 1.491943359375, 1.343994140625, 0.015899658203125, 1.491943359375
47633, -0.005001245066523552, -0.008978961035609245, 0.026908276602625847, 0.00017718803428579122, 3.546123480191454e-05, 0.034914545714855194, 0.0008507816237397492, 0.00020945913274772465, 0.1465807855129242, 0.06350794434547424, 0.1480918973684311, 0.06880586594343185, 0.03806577406179612, 0.5756122235773091, -2.2456551423670907, 9362.0, 30146.0, 35388.0, 9362.0, 8.409917831420898, 0.30072253942489624, -0.2719450294971466, -0.23056726157665253, 0.010193227790296078, -0.03612609952688217, 1.0316190719604492, -0.08217772096395493, -0.1291980743408203, 1.4853515625, 1.3388671875, 0.017120361328125, 1.491943359375
47643, -0.004519855137914419, -0.0067771682515740395, 0.02417750097811222, 0.00017718803428579122, 3.546123480191454e-05, 0.034914545714855194, 0.0008507816237397492, 0.00020945913274772465, 0.1465807855129242, 0.06355006992816925, 0.1480957269668579, 0.0688517689704895, 0.04971178305403723, 0.5536904889541745, -2.2509738470456013, 9362.0, 30146.0, 35388.0, 9362.0, 8.390083312988281, 0.30072253942489624, -0.2719450294971466, -0.23056726157665253, 0.011920908465981483, -0.03793836012482643, 1.0316494703292847, -0.08217772096395493, -0.1291980743408203, 1.4853515625, 1.3388671875, 0.017120361328125, 1.491943359375
47653, -0.004335438832640648, -0.007153057958930731, 0.024424055591225624, 0.00017718803428579122, 3.546123480191454e-05, 0.034914545714855194, 0.0008507816237397492, 0.00020945913274772465, 0.1465807855129242, 0.06355762481689453, 0.14809544384479523, 0.0688316747546196, 0.05061822374631341, 0.5609994737650084, -2.241178969150953, 9362.0, 30146.0, 35388.0, 9362.0, 8.390083312988281, 0.30072253942489624, -0.2719450294971466, -0.23056726157665253, 0.010285110212862492, -0.03870372846722603, 1.0306469202041626, -0.08217772096395493, -0.1291980743408203, 1.4853515625, 1.3388671875, 0.017120361328125, 1.491943359375
47713, -0.001854384783655405, -0.013244799338281155, 0.027106190100312233, 0.0002310925192432478, 4.950817674398422e-05, 0.04426651448011398, 0.0009444032330065966, 0.00025181175442412496, 0.16507820785045624, 0.06351594626903534, 0.14810867607593536, 0.06888958811759949, 0.043981948555885005, 0.5559600980311643, -2.2477866459548017, 9362.0, 30146.0, 35388.0, 9362.0, 8.390083312988281, 0.11627698689699173, 0.15575389564037323, -0.06639109551906586, 0.011718506924808025, -0.03931456431746483, 1.0308901071548462, -0.08816917985677719, -0.12023735046386719, 1.486083984375, 1.288330078125, 0.0676116943359375, 1.491943359375
47743, -0.0017834259197115898, -0.018498891964554787, 0.028332309797406197, 0.0002310925192432478, 4.950817674398422e-05, 0.04426651448011398, 0.0009444032330065966, 0.00025181175442412496, 0.16507820785045624, 0.06354795396327972, 0.1481141895055771, 0.0688873678445816, 0.04405702191869521, 0.5659291609251227, -2.242213507911618, 9362.0, 30146.0, 35388.0, 9362.0, 8.390083312988281, 0.019095681607723236, 0.29955989122390747, -0.1205240786075592, 0.011718506924808025, -0.03931456431746483, 1.0308901071548462, -0.08915786445140839, -0.08439826965332031, 1.489013671875, 1.29931640625, 0.0500640869140625, 1.491943359375
47763, -0.0008360196952708066, -0.019960137084126472, 0.029694879427552223, 0.0002310925192432478, 4.950817674398422e-05, 0.04426651448011398, 0.0009444032330065966, 0.00025181175442412496, 0.16507820785045624, 0.06350893527269363, 0.14807865023612976, 0.06882289052009583, 0.045372048761626906, 0.5782645759734635, -2.2408996650149766, 9362.0, 30146.0, 35388.0, 9362.0, 8.409917831420898, -0.07433666288852692, -0.1649922877550125, -0.17882543802261353, 0.011718506924808025, -0.03931456431746483, 1.0308901071548462, -0.08915786445140839, -0.08439826965332031, 1.489013671875, 1.295654296875, 0.05548095703125, 1.491943359375
47773, -0.0006567842210642993, -0.02207254432141781, 0.02872178703546524, 0.0002310925192432478, 4.950817674398422e-05, 0.04426651448011398, 0.0009444032330065966, 0.00025181175442412496, 0.16507820785045624, 0.06352492421865463, 0.14810772240161896, 0.06887942552566528, 0.05112978061264887, 0.5620490921414216, -2.248478752139575, 9362.0, 30146.0, 35388.0, 9362.0, 8.390083312988281, -0.07433666288852692, -0.1649922877550125, -0.17882543802261353, 0.009719905443489552, -0.03856564313173294, 1.032361388206482, -0.08915786445140839, -0.08439826965332031, 1.489013671875, 1.295654296875, 0.05548095703125, 1.491943359375
47873, -0.002086786786094308, -0.031131703406572342, 0.033446673303842545, 0.0004505380056798458, 9.975563443731517e-05, 0.07888063788414001, 0.0016154644545167685, 0.00030320382211357355, 0.22006891667842865, 0.06349702924489975, 0.1481015682220459, 0.06886505335569382, 0.04646386724403202, 0.5859480465255729, -2.241341619974767, 9362.0, 30146.0, 35388.0, 9362.0, 8.409917831420898, 0.08189563453197479, 0.35391494631767273, 0.07329048216342926, 0.00968332588672638, -0.04030536860227585, 1.03020179271698, -0.08984260261058807, -0.05751800537109375, 1.4912109375, 1.306640625, 0.040557861328125, 1.4912109375
47883, -0.0005243419436737895, -0.03205781430006027, 0.03391459584236145, 0.0004505380056798458, 9.975563443731517e-05, 0.07888063788414001, 0.0016154644545167685, 0.00030320382211357355, 0.22006891667842865, 0.0635743960738182, 0.1480877846479416, 0.06885848939418793, 0.048530799116708, 0.5409349559274688, -2.2603518577645736, 9362.0, 30146.0, 35388.0, 9362.0, 8.409917831420898, 0.10312921553850174, 0.04797257483005524, 0.12986180186271667, 0.008699007332324982, -0.040017563849687576, 1.0333499908447266, -0.08984260261058807, -0.05751800537109375, 1.4912109375, 1.306640625, 0.040557861328125, 1.4912109375
47953, -0.0015775178326293826, -0.03222797438502312, 0.03811165690422058, 0.0005573945818468928, 0.00011839500803034753, 0.09263787418603897, 0.0019473948050290346, 0.00031397200655192137, 0.2385217547416687, 0.06351900845766068, 0.1480727195739746, 0.0687878355383873, 0.043258387944014404, 0.578341837927212, -2.241726978237508, 9362.0, 30146.0, 35388.0, 9362.0, 8.390083312988281, -0.20198562741279602, 0.024134056642651558, 0.11628469824790955, 0.010692010633647442, -0.03797680884599686, 1.0314949750900269, -0.11558515578508377, -0.07543754577636719, 1.48974609375, 1.32861328125, 0.0214385986328125, 1.4912109375
47973, -0.0005917181260883808, -0.03162393718957901, 0.036398306488990784, 0.0005573945818468928, 0.00011839500803034753, 0.09263787418603897, 0.0019473948050290346, 0.00031397200655192137, 0.2385217547416687, 0.0635870099067688, 0.14806418120861053, 0.06883417069911957, 0.06678045508179378, 0.5236226028619058, -2.267781849772656, 9362.0, 30146.0, 35388.0, 9362.0, 8.390083312988281, 0.05593889206647873, -0.031391218304634094, -0.20432555675506592, 0.010692010633647442, -0.03797680884599686, 1.0314949750900269, -0.11558515578508377, -0.07543754577636719, 1.48974609375, 1.322021484375, 0.0257415771484375, 1.4912109375
47993, -0.0002704090438783169, -0.03140119090676308, 0.03712195158004761, 0.0005573945818468928, 0.00011839500803034753, 0.09263787418603897, 0.0019473948050290346, 0.00031397200655192137, 0.2385217547416687, 0.06352962553501129, 0.14810332655906677, 0.06885714083909988, 0.048792125569832374, 0.5520486370686513, -2.2495294595002475, 9362.0, 30146.0, 35388.0, 9362.0, 8.390083312988281, 0.14062076807022095, -0.008485952392220497, -0.15994518995285034, 0.010692010633647442, -0.03797680884599686, 1.0314949750900269, -0.11558515578508377, -0.07543754577636719, 1.48974609375, 1.3330078125, 0.0191650390625, 1.4912109375
48003, 0.000449025712441653, -0.031435009092092514, 0.03619537502527237, 0.0005573945818468928, 0.00011839500803034753, 0.09263787418603897, 0.0019473948050290346, 0.00031397200655192137, 0.2385217547416687, 0.06352507323026657, 0.14810815453529358, 0.06886503845453262, 0.050203824164823524, 0.5622538791515694, -2.2580993536703984, 9362.0, 30146.0, 35388.0, 9362.0, 8.390083312988281, 0.14062076807022095, -0.008485952392220497, -0.15994518995285034, 0.009898205287754536, -0.03903641179203987, 1.0326354503631592, -0.11558515578508377, -0.07543754577636719, 1.48974609375, 1.3330078125, 0.0191650390625, 1.4912109375
48023, 0.002529695862904191, -0.029495716094970703, 0.0379054918885231, 0.0007552676252089441, 0.00014748354442417622, 0.11534633487462997, 0.0024499802384525537, 0.00032858969643712044, 0.26612794399261475, 0.06355617195367813, 0.14810022711753845, 0.06888043880462646, 0.04955087471139325, 0.5382429040181478, -2.2508221224924063, 9362.0, 30146.0, 35388.0, 9362.0, 8.390083312988281, 0.1895419806241989, -0.0663747563958168, 0.11564713716506958, 0.009898205287754536, -0.03903641179203987, 1.0326354503631592, -0.09332140535116196, -0.11127853393554688, 1.48681640625, 1.3330078125, 0.0191650390625, 1.4912109375
48053, 0.0031509418040513992, -0.02819182723760605, 0.03402251750230789, 0.0008311675046570599, 0.00015719437215011567, 0.12345960736274719, 0.0026091064792126417, 0.0003167375980410725, 0.27498042583465576, 0.06357316672801971, 0.14807777106761932, 0.068840391933918, 0.061037487487036086, 0.5375817179831586, -2.254649479189045, 9362.0, 30146.0, 35388.0, 9362.0, 8.390083312988281, -0.001698570093140006, -0.17323154211044312, -0.1908775120973587, 0.010217439383268356, -0.035474758595228195, 1.031685471534729, -0.09315288066864014, -0.08439826965332031, 1.489013671875, 1.3330078125, 0.0191650390625, 1.4912109375
48073, 0.002966437255963683, -0.02834194153547287, 0.035289421677589417, 0.0008311675046570599, 0.00015719437215011567, 0.12345960736274719, 0.0026091064792126417, 0.0003167375980410725, 0.27498042583465576, 0.06352764368057251, 0.14810530841350555, 0.06889068335294724, 0.050742766878892266, 0.5603138006963206, -2.252290328981148, 9362.0, 30146.0, 35388.0, 9362.0, 8.390083312988281, 0.07027617841959, -0.04042341187596321, 0.265074223279953, 0.011882207356393337, -0.04094788059592247, 1.031507134437561, -0.09315288066864014, -0.08439826965332031, 1.489013671875, 1.330078125, 0.0206298828125, 1.4912109375
48113, 0.002186369150876999, -0.03223547711968422, 0.03769991174340248, 0.0008311675046570599, 0.00015719437215011567, 0.12345960736274719, 0.0026091064792126417, 0.0003167375980410725, 0.27498042583465576, 0.06357277184724808, 0.14808133244514465, 0.06884780526161194, 0.055322734335664515, 0.5330165286753754, -2.25745272656621, 9362.0, 30146.0, 35388.0, 9362.0, 8.390083312988281, 0.10154629498720169, -0.15023472905158997, 0.10600889474153519, 0.012298430316150188, -0.036954980343580246, 1.0299428701400757, -0.09315288066864014, -0.08439826965332031, 1.489013671875, 1.335205078125, 0.018280029296875, 1.4912109375
48123, 0.0015324689447879791, -0.032388463616371155, 0.03850943222641945, 0.0008311675046570599, 0.00015719437215011567, 0.12345960736274719, 0.0026091064792126417, 0.0003167375980410725, 0.27498042583465576, 0.06349015980958939, 0.14810681343078613, 0.06887497007846832, 0.04360013889420724, 0.5851165074751066, -2.224763234551573, 9362.0, 30146.0, 35388.0, 9362.0, 8.409917831420898, -0.10177858918905258, 0.3215155005455017, 0.13212652504444122, 0.010184147395193577, -0.04034219682216644, 1.02983558177948, -0.09315288066864014, -0.08439826965332031, 1.489013671875, 1.335205078125, 0.018280029296875, 1.4912109375
48133, 0.00021530357480514795, -0.031010601669549942, 0.038336701691150665, 0.0008311675046570599, 0.00015719437215011567, 0.12345960736274719, 0.0026091064792126417, 0.0003167375980410725, 0.27498042583465576, 0.06349427998065948, 0.14810454845428467, 0.0688495934009552, 0.03755682980971519, 0.57643344837021, -2.2325978455533444, 9362.0, 30146.0, 35388.0, 9362.0, 8.409917831420898, -0.10177858918905258, 0.3215155005455017, 0.13212652504444122, 0.011036376468837261, -0.03828854113817215, 1.0333995819091797, -0.09315288066864014, -0.08439826965332031, 1.489013671875, 1.335205078125, 0.018280029296875, 1.4912109375
48143, 0.0005526132881641388, -0.030331477522850037, 0.03749967738986015, 0.0008311675046570599, 0.00015719437215011567, 0.12345960736274719, 0.0026091064792126417, 0.0003167375980410725, 0.27498042583465576, 0.06350166350603104, 0.1480756402015686, 0.06881556659936905, 0.04963685418534977, 0.5827411608732973, -2.233715117260006, 9362.0, 30146.0, 35388.0, 9362.0, 8.390083312988281, -0.10177858918905258, 0.3215155005455017, 0.13212652504444122, 0.011036376468837261, -0.03828854113817215, 1.0333995819091797, -0.08159306645393372, -0.07543754577636719, 1.48974609375, 1.335205078125, 0.018280029296875, 1.4912109375
48253, 0.0012667622650042176, -0.0280685406178236, 0.03503311797976494, 0.0014614914543926716, 0.00021151140390429646, 0.18440085649490356, 0.003703384194523096, 0.0002344419772271067, 0.33484336733818054, 0.06357263773679733, 0.14809264242649078, 0.06888118386268616, 0.06232400957846513, 0.5544307781473492, -2.2532874912599556, 9362.0, 30146.0, 35388.0, 9362.0, 8.390083312988281, 0.00780576141551137, 0.3742952346801758, 0.13462616503238678, 0.009206724353134632, -0.03858033940196037, 1.0312379598617554, -0.08416139334440231, -0.12023735046386719, 1.486083984375, 1.33447265625, 0.0186309814453125, 1.4912109375
48263, 0.0001476329634897411, -0.02739851176738739, 0.03573283180594444, 0.0014614914543926716, 0.00021151140390429646, 0.18440085649490356, 0.003703384194523096, 0.0002344419772271067, 0.33484336733818054, 0.06355166435241699, 0.14810965955257416, 0.06885257363319397, 0.044209393992957965, 0.5576791865154576, -2.2534777320171253, 9362.0, 30146.0, 35388.0, 9362.0, 8.390083312988281, -0.1732175499200821, -0.2653653919696808, -0.15515348315238953, 0.010690988972783089, -0.03900335356593132, 1.0303226709365845, -0.08416139334440231, -0.12023735046386719, 1.486083984375, 1.33447265625, 0.0186309814453125, 1.4912109375
48273, 0.0005165620241314173, -0.024313535541296005, 0.03482591733336449, 0.0014614914543926716, 0.00021151140390429646, 0.18440085649490356, 0.003703384194523096, 0.0002344419772271067, 0.33484336733818054, 0.063539057970047, 0.14811073243618011, 0.06888475269079208, 0.04300601257654554, 0.557213961667884, -2.2531543453970038, 9362.0, 30146.0, 35388.0, 9362.0, 8.390083312988281, -0.1732175499200821, -0.2653653919696808, -0.15515348315238953, 0.009785804897546768, -0.037600599229335785, 1.0305477380752563, -0.08416139334440231, -0.12023735046386719, 1.486083984375, 1.33447265625, 0.0186309814453125, 1.4912109375
48283, 0.0009954080451279879, -0.023927250877022743, 0.035694971680641174, 0.0014614914543926716, 0.00021151140390429646, 0.18440085649490356, 0.003703384194523096, 0.0002344419772271067, 0.33484336733818054, 0.0635584220290184, 0.14809751510620117, 0.06885476410388947, 0.05568545607191999, 0.5553565244620415, -2.2534587277468576, 9362.0, 30146.0, 35388.0, 9362.0, 8.390083312988281, -0.1732175499200821, -0.2653653919696808, -0.15515348315238953, 0.010644380003213882, -0.037138450890779495, 1.0308953523635864, -0.08416139334440231, -0.12023735046386719, 1.486083984375, 1.33447265625, 0.0186309814453125, 1.4912109375
48313, 0.0003100924950558692, -0.02666093409061432, 0.03433826565742493, 0.00169222557451576, 0.0002252627455163747, 0.2050284594297409, 0.003977333195507526, 0.00022558496857527643, 0.35293689370155334, 0.06353236734867096, 0.14811217784881592, 0.06888268887996674, 0.052245419148233614, 0.5717709301169975, -2.248742437935048, 9362.0, 30146.0, 35388.0, 9362.0, 8.390083312988281, 0.07745040953159332, 0.28836697340011597, -0.10790403187274933, 0.010644380003213882, -0.037138450890779495, 1.0308953523635864, -0.08566024899482727, -0.07543754577636719, 1.48974609375, 1.33447265625, 0.0186309814453125, 1.4912109375
48323, 0.00022677915694657713, -0.02727975882589817, 0.033457450568675995, 0.00169222557451576, 0.0002252627455163747, 0.2050284594297409, 0.003977333195507526, 0.00022558496857527643, 0.35293689370155334, 0.0635332241654396, 0.1481180191040039, 0.0688701793551445, 0.04806121196971697, 0.5650660515595405, -2.2418097517086717, 9362.0, 30146.0, 35388.0, 9362.0, 8.390083312988281, -0.013194253668189049, 0.1138252541422844, 0.03605398163199425, 0.010644380003213882, -0.037138450890779495, 1.0308953523635864, -0.08566024899482727, -0.07543754577636719, 1.48974609375, 1.32275390625, 0.0251312255859375, 1.4912109375
48343, -0.0011265288339927793, -0.025970714166760445, 0.033601127564907074, 0.00169222557451576, 0.0002252627455163747, 0.2050284594297409, 0.003977333195507526, 0.00022558496857527643, 0.35293689370155334, 0.0635344609618187, 0.1481265276670456, 0.0688939094543457, 0.04527638073791054, 0.5612336020705015, -2.2445009931152904, 9362.0, 30146.0, 35388.0, 9362.0, 8.390083312988281, 0.10606564581394196, 0.1577318161725998, 0.02454013004899025, 0.010644380003213882, -0.037138450890779495, 1.0308953523635864, -0.08566024899482727, -0.07543754577636719, 1.48974609375, 1.3330078125, 0.0191650390625, 1.4912109375
48373, -0.001170157571323216, -0.029890883713960648, 0.03482061251997948, 0.0019392399117350578, 0.00023879617219790816, 0.22675155103206635, 0.004259895533323288, 0.00022932913270778954, 0.37136510014533997, 0.0635015144944191, 0.14811882376670837, 0.06884630024433136, 0.04609346433116142, 0.5873882540238924, -2.2298796437582094, 9362.0, 30146.0, 35388.0, 9362.0, 8.390083312988281, 0.06504836678504944, 0.013922854326665401, 0.06523800641298294, 0.009870857000350952, -0.03861048445105553, 1.0320072174072266, -0.08566024899482727, -0.07543754577636719, 1.48974609375, 1.32568359375, 0.0232086181640625, 1.4912109375
48423, -0.002985235769301653, -0.032114703208208084, 0.03721597418189049, 0.0021588378585875034, 0.00025061078486032784, 0.245721697807312, 0.004531174898147583, 0.0002447760780341923, 0.3872852623462677, 0.06354574114084244, 0.14808660745620728, 0.06886809319257736, 0.0534718692595306, 0.5522838216312209, -2.259034173544637, 9362.0, 30146.0, 35388.0, 9362.0, 8.390083312988281, -0.1968754678964615, 0.03568240627646446, -0.07234235107898712, 0.008613270707428455, -0.03608440235257149, 1.0316555500030518, -0.08923143893480301, -0.1291980743408203, 1.4853515625, 1.336669921875, 0.0177764892578125, 1.4912109375
48433, -0.003833314636722207, -0.03292575851082802, 0.036130741238594055, 0.002204444957897067, 0.0002530769561417401, 0.24961046874523163, 0.004590156022459269, 0.0002485093136783689, 0.39047032594680786, 0.06355202198028564, 0.1480942666530609, 0.06886505335569382, 0.042466449320561386, 0.5549216380238704, -2.251220017782797, 9362.0, 30146.0, 35388.0, 9362.0, 8.409917831420898, 0.0372132807970047, -0.2915491461753845, -0.11143945157527924, 0.008224830031394958, -0.03719678148627281, 1.031358003616333, -0.09134940803050995, -0.14711761474609375, 1.48388671875, 1.342529296875, 0.0161895751953125, 1.4912109375
48443, -0.003937242552638054, -0.03346973657608032, 0.036628689616918564, 0.002204444957897067, 0.0002530769561417401, 0.24961046874523163, 0.004590156022459269, 0.0002485093136783689, 0.39047032594680786, 0.06354569643735886, 0.148095041513443, 0.0688449963927269, 0.0538019483543679, 0.5621839466248275, -2.2519568669838503, 9362.0, 30146.0, 35388.0, 9362.0, 8.409917831420898, -0.029367221519351006, 0.07224205136299133, 0.04805060848593712, 0.009681888855993748, -0.041176263242959976, 1.03213369846344, -0.08961756527423859, -0.07543754577636719, 1.48974609375, 1.3212890625, 0.026214599609375, 1.4912109375
48473, -0.0027229171246290207, -0.0313151478767395, 0.035222094506025314, 0.0023926778230816126, 0.0002635108248796314, 0.26547688245773315, 0.004824128933250904, 0.00027394056087359786, 0.4029490351676941, 0.06349468976259232, 0.14811763167381287, 0.06886564195156097, 0.040305179022020986, 0.5846411280694213, -2.232857358242005, 9362.0, 30146.0, 35388.0, 9362.0, 8.390083312988281, -0.08346159011125565, -0.3438768982887268, 0.19857586920261383, 0.01145199779421091, -0.03667732700705528, 1.0316070318222046, -0.08660620450973511, -0.11127853393554688, 1.48681640625, 1.29931640625, 0.0500640869140625, 1.4912109375
48493, -0.003211300354450941, -0.03250303119421005, 0.03738002851605415, 0.0024903484154492617, 0.0002691134577617049, 0.2735983431339264, 0.004940094891935587, 0.0002854249905794859, 0.40916919708251953, 0.06351888924837112, 0.14809654653072357, 0.06886859238147736, 0.04646854684290879, 0.5611700911869093, -2.2386788989417963, 9362.0, 30146.0, 35388.0, 9362.0, 8.390083312988281, -0.004103136248886585, -0.09610117226839066, 0.10470303893089294, 0.010175161994993687, -0.03911760076880455, 1.0302094221115112, -0.1257656067609787, -0.04855918884277344, 1.491943359375, 1.3447265625, 0.0158538818359375, 1.4912109375
48503, -0.004341457039117813, -0.035249918699264526, 0.03797702491283417, 0.0024903484154492617, 0.0002691134577617049, 0.2735983431339264, 0.004940094891935587, 0.0002854249905794859, 0.40916919708251953, 0.06356515735387802, 0.14810095727443695, 0.06887003779411316, 0.046685709838597385, 0.5522127261900778, -2.2619173621732673, 9362.0, 30146.0, 35388.0, 9362.0, 8.390083312988281, -0.08169949054718018, 0.18538151681423187, -0.0029748964589089155, 0.010175161994993687, -0.03911760076880455, 1.0302094221115112, -0.1257656067609787, -0.04855918884277344, 1.491943359375, 1.3447265625, 0.0158538818359375, 1.4912109375
48513, -0.003194601973518729, -0.034482765942811966, 0.03944161906838417, 0.0024903484154492617, 0.0002691134577617049, 0.2735983431339264, 0.004940094891935587, 0.0002854249905794859, 0.40916919708251953, 0.06355898827314377, 0.14810140430927277, 0.06888469308614731, 0.0603028852686588, 0.5530142892731931, -2.257730334879784, 9362.0, 30146.0, 35388.0, 9362.0, 8.390083312988281, -0.08169949054718018, 0.18538151681423187, -0.0029748964589089155, 0.009224897250533104, -0.03582359105348587, 1.0303865671157837, -0.1257656067609787, -0.04855918884277344, 1.491943359375, 1.3447265625, 0.0158538818359375, 1.4912109375
48593, -0.0010439931647852063, -0.03681955114006996, 0.03731965273618698, 0.0027972401585429907, 0.00028734205989167094, 0.2986987829208374, 0.005298123229295015, 0.00032295644632540643, 0.42776983976364136, 0.063533253967762, 0.14809489250183105, 0.0688684955239296, 0.04942193086917012, 0.5627496388990778, -2.2386116036084323, 9362.0, 30146.0, 35388.0, 9362.0, 8.409917831420898, 0.20971722900867462, -0.15374982357025146, -0.008295220322906971, 0.010658826678991318, -0.038116149604320526, 1.0318784713745117, -0.09502919763326645, -0.11127853393554688, 1.48681640625, 1.29638671875, 0.0542755126953125, 1.4912109375
48603, -0.0005931804189458489, -0.03652844950556755, 0.0376553013920784, 0.0027972401585429907, 0.00028734205989167094, 0.2986987829208374, 0.005298123229295015, 0.00032295644632540643, 0.42776983976364136, 0.06354133039712906, 0.14812496304512024, 0.06890878081321716, 0.05492554617682105, 0.5712092924769081, -2.2428343038520264, 9362.0, 30146.0, 35388.0, 9362.0, 8.409917831420898, -0.11219417303800583, -0.31481102108955383, 0.08944905549287796, 0.010658826678991318, -0.038116149604320526, 1.0318784713745117, -0.09502919763326645, -0.11127853393554688, 1.48681640625, 1.29638671875, 0.0542755126953125, 1.4912109375
48613, -0.002051749499514699, -0.0318681076169014, 0.036018867045640945, 0.0027972401585429907, 0.00028734205989167094, 0.2986987829208374, 0.005298123229295015, 0.00032295644632540643, 0.42776983976364136, 0.06353268027305603, 0.14811144769191742, 0.06889072060585022, 0.049378120904705426, 0.5617104585465711, -2.2457565420872543, 9362.0, 30146.0, 35388.0, 9362.0, 8.409917831420898, -0.11219417303800583, -0.31481102108955383, 0.08944905549287796, 0.011705566197633743, -0.03894959017634392, 1.0327086448669434, -0.09502919763326645, -0.11127853393554688, 1.48681640625, 1.29638671875, 0.0542755126953125, 1.4912109375
48623, -0.002248195931315422, -0.033396270126104355, 0.035073019564151764, 0.0027972401585429907, 0.00028734205989167094, 0.2986987829208374, 0.005298123229295015, 0.00032295644632540643, 0.42776983976364136, 0.0635213777422905, 0.1481236070394516, 0.0688840001821518, 0.04359028035742873, 0.5671655493271999, -2.2490373774609345, 9362.0, 30146.0, 35388.0, 9362.0, 8.409917831420898, -0.15297578275203705, 0.24926535785198212, -0.13444171845912933, 0.01040760800242424, -0.037896327674388885, 1.0318139791488647, -0.09502919763326645, -0.11127853393554688, 1.48681640625, 1.29638671875, 0.0542755126953125, 1.4912109375
48633, -0.0027806370053440332, -0.033102136105298996, 0.035542432218790054, 0.0027972401585429907, 0.00028734205989167094, 0.2986987829208374, 0.005298123229295015, 0.00032295644632540643, 0.42776983976364136, 0.0635220855474472, 0.14811645448207855, 0.06889323890209198, 0.0415222525285408, 0.5586994701282038, -2.2497078583644288, 9362.0, 30146.0, 35388.0, 9362.0, 8.409917831420898, -0.15297578275203705, 0.24926535785198212, -0.13444171845912933, 0.011419529095292091, -0.03799554705619812, 1.0321378707885742, -0.09502919763326645, -0.11127853393554688, 1.48681640625, 1.29638671875, 0.0542755126953125, 1.4912109375
48653, -0.0026612288784235716, -0.0357460081577301, 0.034285757690668106, 0.003359009511768818, 0.0003217669727746397, 0.343024879693985, 0.00592442974448204, 0.0003619049093686044, 0.45857319235801697, 0.06349889934062958, 0.14811085164546967, 0.06886127591133118, 0.046284548621940494, 0.5891061484265379, -2.2373079770630624, 9362.0, 30146.0, 35388.0, 9362.0, 8.409917831420898, -0.014610128477215767, -0.024035360664129257, -0.2334708571434021, 0.009960598312318325, -0.03797348588705063, 1.0277584791183472, -0.08684694766998291, -0.06647872924804688, 1.490478515625, 1.29638671875, 0.0542755126953125, 1.4912109375
48673, -0.002184399636462331, -0.03455967828631401, 0.03528507053852081, 0.003359009511768818, 0.0003217669727746397, 0.343024879693985, 0.00592442974448204, 0.0003619049093686044, 0.45857319235801697, 0.0635308250784874, 0.14811494946479797, 0.06887590140104294, 0.044751404098999095, 0.5685526067957483, -2.248403172100888, 9362.0, 30146.0, 35388.0, 9362.0, 8.390083312988281, 0.010313872247934341, -0.03805279731750488, 0.205304816365242, 0.009960598312318325, -0.03797348588705063, 1.0277584791183472, -0.08385977149009705, -0.05751800537109375, 1.4912109375, 1.29638671875, 0.0542755126953125, 1.4912109375
48703, -0.0005794874159619212, -0.034926384687423706, 0.03332965448498726, 0.003359009511768818, 0.0003217669727746397, 0.343024879693985, 0.00592442974448204, 0.0003619049093686044, 0.45857319235801697, 0.0634969174861908, 0.1480816900730133, 0.06880753487348557, 0.04769854836833417, 0.5813979236244222, -2.2348154487779057, 9362.0, 30146.0, 35388.0, 9362.0, 8.409917831420898, -0.06841164082288742, 0.2939944267272949, -0.09461191296577454, 0.010289755649864674, -0.038009997457265854, 1.030432105064392, -0.07543615251779556, -0.05751800537109375, 1.4912109375, 1.330810546875, 0.0203399658203125, 1.4912109375
48733, 0.0004542876558844, -0.032419148832559586, 0.03547190874814987, 0.003852735972031951, 0.00035194531665183604, 0.38065117597579956, 0.006417595315724611, 0.00038355393917299807, 0.4824058413505554, 0.06352963298559189, 0.1481248140335083, 0.06887686997652054, 0.04825682784783184, 0.5644201540254699, -2.2494209058736336, 9362.0, 30146.0, 35388.0, 9362.0, 8.409917831420898, -0.03961955010890961, -0.12434452772140503, -0.13928963243961334, 0.008236849680542946, -0.037298351526260376, 1.0319405794143677, -0.07543615251779556, -0.05751800537109375, 1.4912109375, 1.3037109375, 0.04412841796875, 1.4912109375
48743, -0.000815833278466016, -0.030963771045207977, 0.03424849361181259, 0.003852735972031951, 0.00035194531665183604, 0.38065117597579956, 0.006417595315724611, 0.00038355393917299807, 0.4824058413505554, 0.06350909918546677, 0.1480911374092102, 0.06879512220621109, 0.04772188274065086, 0.58287282656093, -2.2344959412043446, 9362.0, 30146.0, 35388.0, 9362.0, 8.409917831420898, -0.10877615213394165, -0.05305067449808121, 0.07921406626701355, 0.011975822038948536, -0.03773113340139389, 1.0317413806915283, -0.08330629765987396, -0.03959846496582031, 1.49267578125, 1.3037109375, 0.04412841796875, 1.4912109375
48753, -0.00044263459858484566, -0.030781712383031845, 0.03611021861433983, 0.003852735972031951, 0.00035194531665183604, 0.38065117597579956, 0.006417595315724611, 0.00038355393917299807, 0.4824058413505554, 0.06356926262378693, 0.14809656143188477, 0.06888099759817123, 0.04814629717375777, 0.5472026525873162, -2.2498145391561697, 9362.0, 30146.0, 35388.0, 9362.0, 8.390083312988281, -0.10108029842376709, 0.1815463751554489, 0.16714586317539215, 0.010696161538362503, -0.037866123020648956, 1.0297136306762695, -0.08330629765987396, -0.03959846496582031, 1.49267578125, 1.341064453125, 0.01654052734375, 1.4912109375
48763, -0.0016492854338139296, -0.03090440295636654, 0.037776052951812744, 0.004047872498631477, 0.0003634437161963433, 0.39526572823524475, 0.006588517688214779, 0.00038411602145060897, 0.49179139733314514, 0.06350477784872055, 0.148097425699234, 0.06883188337087631, 0.04260576443473881, 0.5777284699964866, -2.239866456768561, 9362.0, 30146.0, 35388.0, 9362.0, 8.390083312988281, -0.12813220918178558, 0.1489803045988083, 0.2660555839538574, 0.010862866416573524, -0.039035044610500336, 1.029111623764038, -0.08330629765987396, -0.03959846496582031, 1.49267578125, 1.341064453125, 0.01654052734375, 1.4912109375
48833, -0.0014640063745900989, -0.02962026372551918, 0.03454799950122833, 0.00431570690125227, 0.0003789906040765345, 0.4151727259159088, 0.0067990003153681755, 0.0003963175695389509, 0.5037964582443237, 0.06353619694709778, 0.14813686907291412, 0.06887569278478622, 0.045979169709221945, 0.5632902888557396, -2.2561230997451647, 9362.0, 30146.0, 35388.0, 9362.0, 8.409917831420898, -0.15624584257602692, -0.02912233956158161, -0.05882379785180092, 0.010862866416573524, -0.039035044610500336, 1.029111623764038, -0.07597082853317261, -0.06647872924804688, 1.490478515625, 1.32275390625, 0.0251312255859375, 1.4912109375
48843, -0.0019042002968490124, -0.02913791500031948, 0.033540718257427216, 0.00431570690125227, 0.0003789906040765345, 0.4151727259159088, 0.0067990003153681755, 0.0003963175695389509, 0.5037964582443237, 0.06352180242538452, 0.14812737703323364, 0.06888934969902039, 0.04375592078143379, 0.5628010574051245, -2.251987430312511, 9362.0, 30146.0, 35388.0, 9362.0, 8.409917831420898, 0.06000103801488876, 0.21773689985275269, -0.15722158551216125, 0.010862866416573524, -0.039035044610500336, 1.029111623764038, -0.07597082853317261, -0.06647872924804688, 1.490478515625, 1.32275390625, 0.0251312255859375, 1.4912109375
48853, -0.0001836810988606885, -0.029808104038238525, 0.03460335731506348, 0.00431570690125227, 0.0003789906040765345, 0.4151727259159088, 0.0067990003153681755, 0.0003963175695389509, 0.5037964582443237, 0.06353176385164261, 0.14812496304512024, 0.06889658421278, 0.041677851074737524, 0.5651823413474233, -2.2488916447093943, 9362.0, 30146.0, 35388.0, 9362.0, 8.409917831420898, 0.06000103801488876, 0.21773689985275269, -0.15722158551216125, 0.010747551918029785, -0.03863534703850746, 1.0292869806289673, -0.07597082853317261, -0.06647872924804688, 1.490478515625, 1.32275390625, 0.0251312255859375, 1.4912109375
48863, -0.00016019740724004805, -0.02948225662112236, 0.035193733870983124, 0.00431570690125227, 0.0003789906040765345, 0.4151727259159088, 0.0067990003153681755, 0.0003963175695389509, 0.5037964582443237, 0.06357219815254211, 0.1480667144060135, 0.0688428282737732, 0.06577687899050833, 0.5293604117149755, -2.2671721453058478, 9362.0, 30146.0, 35388.0, 9362.0, 8.390083312988281, 0.06000103801488876, 0.21773689985275269, -0.15722158551216125, 0.010092338547110558, -0.03974192216992378, 1.0305826663970947, -0.07597082853317261, -0.06647872924804688, 1.490478515625, 1.32275390625, 0.0251312255859375, 1.4912109375
48923, -0.0007554781623184681, -0.03262820839881897, 0.036066483706235886, 0.005169346462935209, 0.0004287162737455219, 0.4778493344783783, 0.007434790022671223, 0.00041738030267879367, 0.5405311584472656, 0.0635356530547142, 0.14812283217906952, 0.06886941194534302, 0.04559482861884587, 0.5601093274416655, -2.250921085421363, 9362.0, 30146.0, 35388.0, 9362.0, 8.390083312988281, -0.09536909312009811, -0.22513656318187714, 0.05879591032862663, 0.010854405350983143, -0.039455488324165344, 1.029910683631897, -0.14776456356048584, -0.06647872924804688, 1.490478515625, 1.32275390625, 0.0251312255859375, 1.4912109375
48933, -0.001363852876238525, -0.03079199604690075, 0.03629610314965248, 0.005169346462935209, 0.0004287162737455219, 0.4778493344783783, 0.007434790022671223, 0.00041738030267879367, 0.5405311584472656, 0.0635366290807724, 0.14812126755714417, 0.06885186582803726, 0.037095949761543415, 0.5569670185428777, -2.237487261189206, 9362.0, 30146.0, 35388.0, 9362.0, 8.390083312988281, -0.23208560049533844, -0.05729782581329346, 0.0977269783616066, 0.010854405350983143, -0.039455488324165344, 1.029910683631897, -0.14776456356048584, -0.06647872924804688, 1.490478515625, 1.3271484375, 0.022308349609375, 1.4912109375
48953, -0.0016281538410112262, -0.03067236766219139, 0.0368557907640934, 0.005169346462935209, 0.0004287162737455219, 0.4778493344783783, 0.007434790022671223, 0.00041738030267879367, 0.5405311584472656, 0.06356902420520782, 0.14807796478271484, 0.06884296238422394, 0.056579244258341474, 0.5353815205713204, -2.2621761883638594, 9362.0, 30146.0, 35388.0, 9362.0, 8.409917831420898, -0.08806335180997849, 0.16526195406913757, 0.22875571250915527, 0.010854405350983143, -0.039455488324165344, 1.029910683631897, -0.14776456356048584, -0.06647872924804688, 1.490478515625, 1.349853515625, 0.015350341796875, 1.4912109375
48963, -0.002529378514736891, -0.03252575919032097, 0.036779679358005524, 0.005169346462935209, 0.0004287162737455219, 0.4778493344783783, 0.007434790022671223, 0.00041738030267879367, 0.5405311584472656, 0.06351295858621597, 0.14811672270298004, 0.06889569014310837, 0.04261402600932517, 0.5660981927595969, -2.2524463405540422, 9362.0, 30146.0, 35388.0, 9362.0, 8.409917831420898, 0.011059009470045567, -0.007981189526617527, -0.07027138024568558, 0.009924988262355328, -0.038309816271066666, 1.0297322273254395, -0.14776456356048584, -0.06647872924804688, 1.490478515625, 1.349853515625, 0.015350341796875, 1.4912109375
48973, -0.002769825514405966, -0.033103097230196, 0.03820563852787018, 0.005169346462935209, 0.0004287162737455219, 0.4778493344783783, 0.007434790022671223, 0.00041738030267879367, 0.5405311584472656, 0.06353487074375153, 0.14811237156391144, 0.06887329369783401, 0.048109378829106826, 0.5632866945773003, -2.243507312778016, 9362.0, 30146.0, 35388.0, 9362.0, 8.409917831420898, -0.12986715137958527, 0.06098925694823265, -0.08197268843650818, 0.009924988262355328, -0.038309816271066666, 1.0297322273254395, -0.14776456356048584, -0.06647872924804688, 1.490478515625, 1.349853515625, 0.015350341796875, 1.4912109375
48983, -0.003137561958283186, -0.031083256006240845, 0.03842822462320328, 0.005169346462935209, 0.0004287162737455219, 0.4778493344783783, 0.007434790022671223, 0.00041738030267879367, 0.5405311584472656, 0.06351438909769058, 0.14809443056583405, 0.06880983710289001, 0.04265629142156405, 0.5792454150807771, -2.2352421015854413, 9362.0, 30146.0, 35388.0, 9362.0, 8.409917831420898, -0.12986715137958527, 0.06098925694823265, -0.08197268843650818, 0.010632428340613842, -0.03721988573670387, 1.0325523614883423, -0.14776456356048584, -0.06647872924804688, 1.490478515625, 1.349853515625, 0.015350341796875, 1.4912109375
48993, -0.003080203663557768, -0.02973064035177231, 0.04042882099747658, 0.005169346462935209, 0.0004287162737455219, 0.4778493344783783, 0.007434790022671223, 0.00041738030267879367, 0.5405311584472656, 0.06353818625211716, 0.14809155464172363, 0.06883435696363449, 0.04888991328300272, 0.5584763445687031, -2.2464741546862452, 9362.0, 30146.0, 35388.0, 9362.0, 8.409917831420898, -0.12986715137958527, 0.06098925694823265, -0.08197268843650818, 0.010683964006602764, -0.0360356830060482, 1.0298874378204346, -0.14776456356048584, -0.06647872924804688, 1.490478515625, 1.349853515625, 0.015350341796875, 1.4912109375
49003, -0.004399897530674934, -0.029961977154016495, 0.04215427115559578, 0.005169346462935209, 0.0004287162737455219, 0.4778493344783783, 0.007434790022671223, 0.00041738030267879367, 0.5405311584472656, 0.06354217231273651, 0.14809852838516235, 0.06885956972837448, 0.04335152491899442, 0.5578017255608927, -2.2462015933449107, 9362.0, 30146.0, 35388.0, 9362.0, 8.409917831420898, -0.12986715137958527, 0.06098925694823265, -0.08197268843650818, 0.010439187288284302, -0.03755181282758713, 1.0297176837921143, -0.14776456356048584, -0.06647872924804688, 1.490478515625, 1.349853515625, 0.015350341796875, 1.4912109375
49063, -0.0032257239799946547, -0.03429161012172699, 0.043760985136032104, 0.006101892329752445, 0.00048103867447935045, 0.5448551177978516, 0.008100231178104877, 0.0004718728887382895, 0.5764448046684265, 0.06356799602508545, 0.14811038970947266, 0.06884519010782242, 0.0537385207166001, 0.545501478212401, -2.2555820759944023, 9362.0, 30146.0, 35388.0, 9362.0, 8.409917831420898, -0.07992581278085709, -0.13828903436660767, -0.0477345809340477, 0.012469202280044556, -0.038381241261959076, 1.0295923948287964, -0.09277138113975525, -0.03959846496582031, 1.49267578125, 1.29345703125, 0.05889892578125, 1.4912109375
49073, -0.00263111456297338, -0.03225291520357132, 0.04407190904021263, 0.006101892329752445, 0.00048103867447935045, 0.5448551177978516, 0.008100231178104877, 0.0004718728887382895, 0.5764448046684265, 0.06349217146635056, 0.14811627566814423, 0.06885194778442383, 0.039800971543669475, 0.5778628204801635, -2.240081018464925, 9362.0, 30146.0, 35388.0, 9362.0, 8.409917831420898, -0.07992581278085709, -0.13828903436660767, -0.0477345809340477, 0.01138282846659422, -0.03863108158111572, 1.0295982360839844, -0.09277138113975525, -0.03959846496582031, 1.49267578125, 1.34033203125, 0.0166168212890625, 1.4912109375
49083, -0.0027480938006192446, -0.03417424112558365, 0.044389236718416214, 0.006101892329752445, 0.00048103867447935045, 0.5448551177978516, 0.008100231178104877, 0.0004718728887382895, 0.5764448046684265, 0.06351973116397858, 0.14812417328357697, 0.06889732927083969, 0.04409505688144987, 0.5552929433046074, -2.2442723700979035, 9362.0, 30146.0, 35388.0, 9362.0, 8.409917831420898, -0.16530154645442963, 0.3172943592071533, 0.03416133299469948, 0.01138282846659422, -0.03863108158111572, 1.0295982360839844, -0.09277138113975525, -0.03959846496582031, 1.49267578125, 1.338134765625, 0.01727294921875, 1.4912109375
49093, -0.0027879744302481413, -0.035969916731119156, 0.04561411589384079, 0.006101892329752445, 0.00048103867447935045, 0.5448551177978516, 0.008100231178104877, 0.0004718728887382895, 0.5764448046684265, 0.06349688023328781, 0.1481122374534607, 0.0688394159078598, 0.03619613666342509, 0.5796831720551552, -2.243697171608554, 9362.0, 30146.0, 35388.0, 9362.0, 8.409917831420898, -0.16530154645442963, 0.3172943592071533, 0.03416133299469948, 0.010616552084684372, -0.04099445044994354, 1.0306086540222168, -0.09277138113975525, -0.03959846496582031, 1.49267578125, 1.338134765625, 0.01727294921875, 1.4912109375
49113, -0.004383735358715057, -0.03354145586490631, 0.045828524976968765, 0.006101892329752445, 0.00048103867447935045, 0.5448551177978516, 0.008100231178104877, 0.0004718728887382895, 0.5764448046684265, 0.06353260576725006, 0.14809074997901917, 0.06883510202169418, 0.04657395374679161, 0.5522172719649632, -2.2497304889915823, 9362.0, 30146.0, 35388.0, 9362.0, 8.390083312988281, -0.16530154645442963, 0.3172943592071533, 0.03416133299469948, 0.009462817572057247, -0.03725914657115936, 1.0305612087249756, -0.09277138113975525, -0.03959846496582031, 1.49267578125, 1.338134765625, 0.01727294921875, 1.4912109375
