timeTick, roll, pitch, yaw, stateX, stateY, stateZ, stateVX, stateVY, stateVZ, otX0, otY0, otZ0, otRoll0, otPitch0, otYaw0, left wing, pitch motor, yaw motor, right wing, voltage, roll rate, pitch rate, yaw rate, A_x, A_y, A_z, current, i_raw, v_raw, airflow_voltage, airflow_speed, pot_Pitch
27200, 2.188889980316162, 2.673462152481079, -1.930923342704773, 0, 0, 0, 0, 0, 0, 0.08057143539190292, 1.1457252502441406, 0.06674537807703018, 0.2558050035824004, -0.5841637232465757, -4.411318444819744, 0, 0, 0, 0, 0, 0, 0, 0, 0, 0, 0, 0, 0, 0, 0, 0, 0
27210, 2.1896705627441406, 2.674290657043457, -1.9313839673995972, -0.003617315087467432, -0.002764736535027623, 95.95162200927734, -0.3641476035118103, -0.27832043170928955, 7.4922380447387695, 0.08054782450199127, 1.1457140445709229, 0.06677883863449097, 0.24332658895612835, -0.563658720231075, -4.420207673624555, 9362.0, 30146.0, 35388.0, 9362.0, 7.933885097503662, 0.3307970464229584, -0.1382690668106079, 0.23735062777996063, -0.0127089349552989, -0.029150942340493202, 1.0298874378204346, -0.0827014371752739, -0.09335899353027344, 1.48828125, 0, 0, 0
27220, 2.189321279525757, 2.674219846725464, -1.930820345878601, -0.0072829704731702805, -0.005566428415477276, 96.02655792236328, -0.36898353695869446, -0.28201791644096375, 7.4949750900268555, 0.08054052293300629, 1.1457228660583496, 0.06676873564720154, 0.24321050512062095, -0.566209097362588, -4.4224089641214634, 9362.0, 30146.0, 35388.0, 9362.0, 7.933885097503662, -0.011393669061362743, -0.35107776522636414, 0.14124782383441925, -0.011199411004781723, -0.029277289286255836, 1.0290926694869995, -0.08060550689697266, -0.09335899353027344, 1.48828125, 1.28759765625, 0.068939208984375, 1.493408203125
27230, 2.1889874935150146, 2.6755528450012207, -1.928409218788147, -0.0109969861805439, -0.008405095897614956, 96.10152435302734, -0.373819500207901, -0.2857156991958618, 7.497683048248291, 0.08053650707006454, 1.145717740058899, 0.06678155064582825, 0.2530417162646379, -0.5604552948827575, -4.419460728782986, 9362.0, 30146.0, 35388.0, 9362.0, 7.933885097503662, 0.055282022804021835, -0.08241733908653259, 0.11923149973154068, -0.010831805877387524, -0.02844093181192875, 1.0293599367141724, -0.07943843305110931, -0.04855918884277344, 1.491943359375, 1.3095703125, 0.037139892578125, 1.493408203125
27240, 2.18953537940979, 2.6753668785095215, -1.928731918334961, -0.01475935336202383, -0.011280733160674572, 96.176513671875, -0.3786538243293762, -0.2894119918346405, 7.500361919403076, 0.08058220148086548, 1.1457154750823975, 0.06674185395240784, 0.2507211501905711, -0.5825524519945304, -4.416374237696529, 9362.0, 30146.0, 35388.0, 9362.0, 7.933885097503662, -0.0811847373843193, -0.07276395708322525, 0.22591234743595123, -0.009467716328799725, -0.027740787714719772, 1.0314109325408936, -0.07954971492290497, -0.07543754577636719, 1.48974609375, 1.317626953125, 0.0291900634765625, 1.496337890625
27250, 2.1890459060668945, 2.6765782833099365, -1.927868366241455, -0.01857008785009384, -0.014193341135978699, 96.25153350830078, -0.38349297642707825, -0.29310956597328186, 7.503094673156738, 0.08042388409376144, 1.145768642425537, 0.06695633381605148, 0.283530590543087, -0.6549177852559183, -4.4038429376565675, 9362.0, 30146.0, 35388.0, 9362.0, 7.933885097503662, -0.06260024756193161, -0.35702207684516907, 0.005168170668184757, -0.009884380735456944, -0.029343625530600548, 1.0304831266403198, -0.08239929378032684, -0.07543754577636719, 1.48974609375, 1.317626953125, 0.0291900634765625, 1.489013671875
27260, 2.188948392868042, 2.677715301513672, -1.9273442029953003, -0.022429246455430984, -0.01714295521378517, 96.32657623291016, -0.38833868503570557, -0.29681336879730225, 7.505967617034912, 0.08034689724445343, 1.1458332538604736, 0.06706809252500534, 0.16636770314830296, -0.664317033070148, -4.6158087851836225, 9362.0, 30146.0, 35388.0, 9362.0, 7.933885097503662, 0.061095479875802994, -0.013350619934499264, 0.09400039166212082, -0.009516427293419838, -0.029959358274936676, 1.0276392698287964, -0.07906587421894073, -0.05751800537109375, 1.4912109375, 1.319091796875, 0.0279998779296875, 1.491943359375
27270, 2.188953399658203, 2.6777725219726562, -1.9279026985168457, -0.026336830109357834, -0.020129570737481117, 96.40164947509766, -0.3931780755519867, -0.30050987005233765, 7.5086669921875, 0.08054837584495544, 1.1457247734069824, 0.06678228825330734, 0.24849780253479614, -0.5537035560977017, -4.425316007633378, 9362.0, 30146.0, 35388.0, 9362.0, 7.933885097503662, 0.0023893858306109905, 0.3908410668373108, 0.35007748007774353, -0.010080892592668533, -0.02880994603037834, 1.0304207801818848, -0.08204998821020126, -0.13815879821777344, 1.484619140625, 1.320556640625, 0.02685546875, 1.491943359375
27280, 2.1887569427490234, 2.678123950958252, -1.926061749458313, -0.030292794108390808, -0.02315313182771206, 96.47674560546875, -0.39801454544067383, -0.3042024075984955, 7.511264801025391, 0.08054002374410629, 1.1457257270812988, 0.06677808612585068, 0.24516544379222527, -0.5609787787765015, -4.423683520490868, 9362.0, 30146.0, 35388.0, 9362.0, 7.933885097503662, -0.1268216371536255, -0.16688230633735657, 0.008874217979609966, -0.012082656845450401, -0.027756810188293457, 1.0302654504776, -0.07718053460121155, -0.030637741088867188, 1.493408203125, 1.317626953125, 0.0291900634765625, 1.49267578125
27290, 2.1907541751861572, 2.678457021713257, -1.9232257604599, -0.03429717943072319, -0.026213660836219788, 96.55187225341797, -0.4028622508049011, -0.3079036772251129, 7.514095306396484, 0.08041910082101822, 1.1457659006118774, 0.06695446372032166, 0.2858030310166725, -0.6673190302388434, -4.394141437870847, 9362.0, 30146.0, 35388.0, 9362.0, 7.9537200927734375, 0.01331409253180027, 0.24160981178283691, 0.22011983394622803, -0.010323730297386646, -0.026183530688285828, 1.0293197631835938, -0.07908882945775986, -0.03959846496582031, 1.49267578125, 1.318359375, 0.028656005859375, 1.493408203125
27300, 2.190639019012451, 2.6788668632507324, -1.9235025644302368, -0.038350023329257965, -0.02931118756532669, 96.62702941894531, -0.4077063798904419, -0.3116018772125244, 7.516843318939209, 0.0805443674325943, 1.1457253694534302, 0.06676772981882095, 0.24441450282683902, -0.5613617439530287, -4.418449607340973, 9362.0, 30146.0, 35388.0, 9362.0, 7.9537200927734375, -0.013764436356723309, -0.2500844895839691, -0.13978764414787292, -0.010333132930099964, -0.02707088366150856, 1.0291036367416382, -0.0797414556145668, -0.03959846496582031, 1.49267578125, 1.31689453125, 0.0298919677734375, 1.49267578125
27310, 2.1899938583374023, 2.6811561584472656, -1.9240530729293823, -0.042451292276382446, -0.03244570270180702, 96.70220947265625, -0.41254785656929016, -0.315300852060318, 7.5195207595825195, 0.08036556839942932, 1.1457889080047607, 0.06704873591661453, 0.18315886088546762, -0.6790886836107859, -4.5924203806318005, 9362.0, 30146.0, 35388.0, 9362.0, 7.933885097503662, -0.1110825389623642, -0.06349436193704605, 0.23699815571308136, -0.009124914184212685, -0.031183317303657532, 1.029772400856018, -0.08250164985656738, -0.06647872924804688, 1.490478515625, 1.32568359375, 0.0232086181640625, 1.4912109375
27320, 2.1901824474334717, 2.6821157932281494, -1.923704981803894, -0.046600986272096634, -0.03561720997095108, 96.77742004394531, -0.41739100217819214, -0.31900012493133545, 7.522215843200684, 0.08026308566331863, 1.1458468437194824, 0.06720244884490967, 0.22953411994178535, -0.7681516083260362, -4.576668108041809, 9362.0, 30146.0, 35388.0, 9362.0, 7.9537200927734375, 0.04800521582365036, -0.4268142282962799, -0.22020845115184784, -0.009713191539049149, -0.028539618477225304, 1.0295404195785522, -0.08006666600704193, -0.08439826965332031, 1.489013671875, 1.330078125, 0.0206298828125, 1.49267578125
27330, 2.190072536468506, 2.6831250190734863, -1.92391836643219, -0.050799138844013214, -0.03882570564746857, 96.85265350341797, -0.42223966121673584, -0.3226994574069977, 7.524943828582764, 0.08036932349205017, 1.1457993984222412, 0.06702601164579391, 0.18487514015166484, -0.6835638215553104, -4.599398468814759, 9362.0, 30146.0, 35388.0, 9362.0, 7.9537200927734375, -0.07203873991966248, 0.16126009821891785, -0.008378155529499054, -0.007137280888855457, -0.029659250751137733, 1.0278053283691406, -0.08246207237243652, -0.08439826965332031, 1.489013671875, 1.3212890625, 0.026214599609375, 1.4912109375
27340, 2.190796375274658, 2.682309865951538, -1.9238842725753784, -0.05504576116800308, -0.042071178555488586, 96.92791748046875, -0.427084743976593, -0.3263949751853943, 7.527561664581299, 0.08056960999965668, 1.1457281112670898, 0.06671657413244247, 0.23936138752682112, -0.557256698141515, -4.431540123991356, 9362.0, 30146.0, 35388.0, 9362.0, 7.9537200927734375, 0.2247244417667389, -4.300305954529904e-05, -0.08746708929538727, -0.008522417396306992, -0.028834840282797813, 1.0299535989761353, -0.08193421363830566, -0.10231781005859375, 1.487548828125, 1.32421875, 0.024139404296875, 1.49267578125
27350, 2.1901462078094482, 2.683072090148926, -1.9223613739013672, -0.05934084206819534, -0.04535360261797905, 97.00320434570312, -0.4319309592247009, -0.3300899267196655, 7.5301690101623535, 0.08055619895458221, 1.1457219123840332, 0.06677134335041046, 0.24710180727337402, -0.5573514958856833, -4.411355939703844, 9362.0, 30146.0, 35388.0, 9362.0, 7.933885097503662, 0.007911387830972672, -0.03318989649415016, 0.14065444469451904, -0.010257420130074024, -0.02743755839765072, 1.0305652618408203, -0.0795217752456665, -0.10231781005859375, 1.487548828125, 1.317626953125, 0.0291900634765625, 1.494873046875
27360, 2.1899051666259766, 2.685333251953125, -1.922515869140625, -0.06368442624807358, -0.04867301881313324, 97.07852172851562, -0.436785489320755, -0.33379361033439636, 7.53297758102417, 0.08036607503890991, 1.14580500125885, 0.06703855097293854, 0.18594299987529403, -0.6734719937114448, -4.59421266898046, 9362.0, 30146.0, 35388.0, 9362.0, 7.933885097503662, -0.001807857770472765, -0.6645694375038147, -0.3081699311733246, -0.00994169432669878, -0.028445469215512276, 1.030215859413147, -0.08179054409265518, -0.12023735046386719, 1.486083984375, 1.319091796875, 0.0279998779296875, 1.49267578125
27370, 2.189375877380371, 2.6876254081726074, -1.924785852432251, -0.06807655096054077, -0.052029456943273544, 97.15386199951172, -0.4416388273239136, -0.33749425411224365, 7.535733699798584, 0.08025766164064407, 1.145860195159912, 0.06721118837594986, 0.22686857559316637, -0.7718107139112078, -4.569133628023741, 9362.0, 30146.0, 35388.0, 9362.0, 7.9537200927734375, -0.11087572574615479, 0.10469941049814224, 0.25349628925323486, -0.008653447031974792, -0.026105472818017006, 1.0282124280929565, -0.08371543139219284, -0.10231781005859375, 1.487548828125, 1.317626953125, 0.0291900634765625, 1.493408203125
27380, 2.1890320777893066, 2.6858139038085938, -1.9234415292739868, -0.07251723110675812, -0.05542290210723877, 97.22923278808594, -0.4464969038963318, -0.3411944806575775, 7.538501739501953, 0.08037631958723068, 1.1458022594451904, 0.06702990084886551, 0.19327264191313415, -0.6814285103712336, -4.5927708425393945, 9362.0, 30146.0, 35388.0, 9362.0, 7.9537200927734375, -0.04791814833879471, -0.20270366966724396, -0.23549509048461914, -0.010473419912159443, -0.030260147526860237, 1.0298736095428467, -0.08462665975093842, -0.15607833862304688, 1.483154296875, 1.3212890625, 0.026214599609375, 1.491943359375
27390, 2.1887974739074707, 2.689676284790039, -1.9252856969833374, -0.07700648903846741, -0.05885332450270653, 97.30463409423828, -0.4513537287712097, -0.3448900878429413, 7.541166305541992, 0.08036007732152939, 1.1458070278167725, 0.06705258041620255, 0.1793799639658622, -0.6816623837127906, -4.610968791981297, 9362.0, 30146.0, 35388.0, 9362.0, 7.933885097503662, 0.04924502968788147, -0.21716924011707306, -0.028007715940475464, -0.010402890853583813, -0.031056175008416176, 1.0279011726379395, -0.0833904966711998, -0.07543754577636719, 1.48974609375, 1.3212890625, 0.026214599609375, 1.49560546875
27400, 2.1892032623291016, 2.691838502883911, -1.9276418685913086, -0.08154428750276566, -0.06232069432735443, 97.38005828857422, -0.45620593428611755, -0.3485835790634155, 7.54379415512085, 0.08037205040454865, 1.1458042860031128, 0.06703166663646698, 0.18531518216558082, -0.6735689865518282, -4.600469832723604, 9362.0, 30146.0, 35388.0, 9362.0, 7.9537200927734375, -0.039187099784612656, -0.12731775641441345, -0.22458133101463318, -0.011163147166371346, -0.03073647804558277, 1.0290806293487549, -0.08411402255296707, -0.05751800537109375, 1.4912109375, 1.330810546875, 0.0203399658203125, 1.4912109375
27410, 2.1883127689361572, 2.6921751499176025, -1.9282199144363403, -0.08613063395023346, -0.06582498550415039, 97.45550537109375, -0.461063027381897, -0.3522748649120331, 7.54638147354126, 0.08039788901805878, 1.1458027362823486, 0.06698698550462723, 0.18458405954541304, -0.6665338258921452, -4.612669784968715, 9362.0, 30146.0, 35388.0, 9362.0, 7.9537200927734375, -0.01452734973281622, -0.16484257578849792, -0.053919464349746704, -0.010179859586060047, -0.02877642959356308, 1.0294058322906494, -0.08539336919784546, -0.021678924560546875, 1.494140625, 1.314697265625, 0.0319061279296875, 1.487548828125
27420, 2.1885294914245605, 2.6908302307128906, -1.9262863397598267, -0.09076560288667679, -0.0693662166595459, 97.5309829711914, -0.465930312871933, -0.35597145557403564, 7.54910135269165, 0.08035025000572205, 1.1457972526550293, 0.0670616403222084, 0.19203678470625687, -0.6750101078196451, -4.597562860331788, 9362.0, 30146.0, 35388.0, 9362.0, 7.9537200927734375, 0.16723661124706268, 0.5985734462738037, 0.13436101377010345, -0.010286153294146061, -0.026290634647011757, 1.0290311574935913, -0.08619224280118942, -0.05751800537109375, 1.4912109375, 1.32568359375, 0.0232086181640625, 1.491943359375
27430, 2.189326524734497, 2.6895830631256104, -1.9284634590148926, -0.09544923156499863, -0.07294439524412155, 97.60649108886719, -0.4707959294319153, -0.3596650958061218, 7.551778316497803, 0.08036599308252335, 1.1457959413528442, 0.06704419106245041, 0.186485055581302, -0.6734260428148104, -4.592880189207218, 9362.0, 30146.0, 35388.0, 9362.0, 7.9537200927734375, 0.15183518826961517, -0.007340225391089916, -0.43963587284088135, -0.009935764595866203, -0.02775830216705799, 1.029006004333496, -0.08689676970243454, -0.04855918884277344, 1.491943359375, 1.323486328125, 0.024688720703125, 1.494140625
27440, 2.189954996109009, 2.6889100074768066, -1.9294030666351318, -0.10018150508403778, -0.07655951380729675, 97.68202209472656, -0.4756584167480469, -0.3633584678173065, 7.55443811416626, 0.08054515719413757, 1.1457265615463257, 0.06681665033102036, 0.24449839178452212, -0.5576455559797466, -4.430448108889337, 9362.0, 30146.0, 35388.0, 9362.0, 7.9537200927734375, 0.03227038308978081, 0.3191336989402771, 0.15048205852508545, -0.011298127472400665, -0.030394040048122406, 1.0283335447311401, -0.08682076632976532, -0.08439826965332031, 1.489013671875, 1.317626953125, 0.0291900634765625, 1.49267578125
27450, 2.189767599105835, 2.68715238571167, -1.9277608394622803, -0.10496237874031067, -0.0802115648984909, 97.75757598876953, -0.4805161654949188, -0.3670510947704315, 7.557041645050049, 0.08024044334888458, 1.1458543539047241, 0.06724803149700165, 0.22860503520437309, -0.7744798601175091, -4.563362500642824, 9362.0, 30146.0, 35388.0, 9362.0, 7.9537200927734375, -0.02041727676987648, -0.017348280176520348, 0.2699818015098572, -0.013175111263990402, -0.031209340319037437, 1.0283228158950806, -0.08645316958427429, -0.05751800537109375, 1.4912109375, 1.3154296875, 0.03118896484375, 1.490478515625
27460, 2.190242052078247, 2.685102939605713, -1.9272302389144897, -0.1097918301820755, -0.08390054851770401, 97.83316040039062, -0.48537370562553406, -0.3707459270954132, 7.559668064117432, 0.08036185055971146, 1.1458162069320679, 0.06706894934177399, 0.1857402318170586, -0.6762559020745869, -4.601134914597109, 9362.0, 30146.0, 35388.0, 9362.0, 7.933885097503662, -0.1627630889415741, 0.0865871012210846, -0.1903616338968277, -0.012300815433263779, -0.028647633269429207, 1.0274474620819092, -0.08782199770212173, -0.11127853393554688, 1.48681640625, 1.30517578125, 0.0422515869140625, 1.493408203125
27470, 2.1893656253814697, 2.686519145965576, -1.9281734228134155, -0.11466982215642929, -0.08762646466493607, 97.90876770019531, -0.49022501707077026, -0.3744381070137024, 7.562230587005615, 0.08053626120090485, 1.1457455158233643, 0.066789910197258, 0.2512103874119158, -0.5588802013664065, -4.423652205094758, 9362.0, 30146.0, 35388.0, 9362.0, 7.933885097503662, -0.12636183202266693, -0.1759917438030243, -0.3222322165966034, -0.012300815433263779, -0.028647633269429207, 1.0274474620819092, -0.08782199770212173, -0.11127853393554688, 1.48681640625, 1.324951171875, 0.0236663818359375, 1.49267578125
27480, 2.1894023418426514, 2.687335729598999, -1.9287450313568115, -0.11466982215642929, -0.08762646466493607, 97.90876770019531, -0.49022501707077026, -0.3744381070137024, 7.562230587005615, 0.08053714036941528, 1.1457384824752808, 0.06679925322532654, 0.24450829760773474, -0.5635802397465852, -4.414059281247155, 9362.0, 30146.0, 35388.0, 9362.0, 7.933885097503662, -0.16284917294979095, 0.009793694131076336, 0.09995166957378387, -0.012300815433263779, -0.028647633269429207, 1.0274474620819092, -0.08782199770212173, -0.11127853393554688, 1.48681640625, 1.324951171875, 0.0236663818359375, 1.49267578125
27490, 2.189950466156006, 2.6862919330596924, -1.9297208786010742, -0.11466982215642929, -0.08762646466493607, 97.90876770019531, -0.49022501707077026, -0.3744381070137024, 7.562230587005615, 0.08041530847549438, 1.1457706689834595, 0.06697575747966766, 0.2832652190996271, -0.6563973430088765, -4.401855280525651, 9362.0, 30146.0, 35388.0, 9362.0, 7.933885097503662, 0.24714794754981995, 0.3461237847805023, 0.1174963042140007, -0.012300815433263779, -0.028647633269429207, 1.0274474620819092, -0.08782199770212173, -0.11127853393554688, 1.48681640625, 1.324951171875, 0.0236663818359375, 1.49267578125
27500, 2.1904046535491943, 2.6865906715393066, -1.9295251369476318, -0.11466982215642929, -0.08762646466493607, 97.90876770019531, -0.49022501707077026, -0.3744381070137024, 7.562230587005615, 0.08054464310407639, 1.1457222700119019, 0.0668218806385994, 0.24380038234290777, -0.5589115553556212, -4.426915050328134, 9362.0, 30146.0, 35388.0, 9362.0, 7.933885097503662, -0.01632119156420231, -0.36113178730010986, -0.3050392270088196, -0.012300815433263779, -0.028647633269429207, 1.0274474620819092, -0.08782199770212173, -0.11127853393554688, 1.48681640625, 1.324951171875, 0.0236663818359375, 1.49267578125
27510, 2.1919407844543457, 2.6883387565612793, -1.9312840700149536, -0.11466982215642929, -0.08762646466493607, 97.90876770019531, -0.49022501707077026, -0.3744381070137024, 7.562230587005615, 0.08054115623235703, 1.1457149982452393, 0.06680451333522797, 0.24826773440601876, -0.5606082296018542, -4.422893873572302, 9362.0, 30146.0, 35388.0, 9362.0, 7.933885097503662, 0.019850948825478554, -0.4024474620819092, -0.15407125651836395, -0.012300815433263779, -0.028647633269429207, 1.0274474620819092, -0.08782199770212173, -0.11127853393554688, 1.48681640625, 1.324951171875, 0.0236663818359375, 1.49267578125
27530, 2.1921916007995605, 2.6905033588409424, -1.9346377849578857, -0.14495670795440674, -0.11075766384601593, 98.36297607421875, -0.5193632245063782, -0.39662012457847595, 7.57828950881958, 0.08053305000066757, 1.1457265615463257, 0.06681182235479355, 0.24214855275162295, -0.5646457824757647, -4.4218247625223155, 9362.0, 30146.0, 35388.0, 9362.0, 7.9537200927734375, 0.019850948825478554, -0.4024474620819092, -0.15407125651836395, -0.01067538745701313, -0.028390124440193176, 1.0290879011154175, -0.09150997549295425, -0.05751800537109375, 1.4912109375, 1.324951171875, 0.0236663818359375, 1.49267578125
27550, 2.1921491622924805, 2.6875410079956055, -1.9349732398986816, -0.14495670795440674, -0.11075766384601593, 98.36297607421875, -0.5193632245063782, -0.39662012457847595, 7.57828950881958, 0.08053810894489288, 1.145722508430481, 0.06680703163146973, 0.24518723675893822, -0.5586938571381665, -4.4248516942523235, 9362.0, 30146.0, 35388.0, 9362.0, 7.9537200927734375, 0.019850948825478554, -0.4024474620819092, -0.15407125651836395, -0.011320696212351322, -0.026615068316459656, 1.029089331626892, -0.09207626432180405, -0.08439826965332031, 1.489013671875, 1.324951171875, 0.0236663818359375, 1.49267578125
27600, 2.1971688270568848, 2.6850554943084717, -1.9378777742385864, -0.17699378728866577, -0.13522082567214966, 98.81815338134766, -0.5485253930091858, -0.41881850361824036, 7.594175338745117, 0.08041466027498245, 1.1457819938659668, 0.06699938327074051, 0.2863442088629475, -0.6548527137268252, -4.404593721099443, 9362.0, 30146.0, 35388.0, 9362.0, 7.933885097503662, 0.019850948825478554, -0.4024474620819092, -0.15407125651836395, -0.010710946284234524, -0.027997151017189026, 1.0296944379806519, -0.08669091016054153, -0.07543754577636719, 1.48974609375, 1.324951171875, 0.0236663818359375, 1.49267578125
27630, 2.198190927505493, 2.683899402618408, -1.936927080154419, -0.17699378728866577, -0.13522082567214966, 98.81815338134766, -0.5485253930091858, -0.41881850361824036, 7.594175338745117, 0.08053907752037048, 1.145721435546875, 0.0668128952383995, 0.24760856121713518, -0.5593220284137601, -4.42204619890938, 9362.0, 30146.0, 35388.0, 9362.0, 7.933885097503662, 0.019850948825478554, -0.4024474620819092, -0.15407125651836395, -0.010395989753305912, -0.029112273827195168, 1.0294510126113892, -0.08755047619342804, -0.10231781005859375, 1.487548828125, 1.324951171875, 0.0236663818359375, 1.49267578125
27640, 2.199507713317871, 2.6836137771606445, -1.938149094581604, -0.17699378728866577, -0.13522082567214966, 98.81815338134766, -0.5485253930091858, -0.41881850361824036, 7.594175338745117, 0.08044122159481049, 1.1457751989364624, 0.06695571541786194, 0.2939337755258964, -0.677403517504672, -4.392670099228308, 9362.0, 30146.0, 35388.0, 9362.0, 7.933885097503662, 0.019850948825478554, -0.4024474620819092, -0.15407125651836395, -0.010269216261804104, -0.02854328788816929, 1.0288188457489014, -0.08755047619342804, -0.10231781005859375, 1.487548828125, 1.324951171875, 0.0236663818359375, 1.49267578125
27700, 2.202155590057373, 2.6884026527404785, -1.9371591806411743, -0.23427367210388184, -0.1789567619562149, 99.57891082763672, -0.5970610976219177, -0.4559100866317749, 7.620579719543457, 0.08026573061943054, 1.1458555459976196, 0.06723187118768692, 0.23189429620946417, -0.7940256492758806, -4.568984824348543, 9362.0, 30146.0, 35388.0, 9362.0, 7.9537200927734375, 0.011367034167051315, 0.15175962448120117, 0.1560126692056656, -0.012729089707136154, -0.02994043007493019, 1.0288715362548828, -0.09381380677223206, -0.1291980743408203, 1.4853515625, 1.324951171875, 0.0236663818359375, 1.49267578125
27710, 2.2019667625427246, 2.6877048015594482, -1.936972975730896, -0.23427367210388184, -0.1789567619562149, 99.57891082763672, -0.5970610976219177, -0.4559100866317749, 7.620579719543457, 0.08042407780885696, 1.145767092704773, 0.06699376553297043, 0.28592719051392035, -0.6452140100340387, -4.398960490857347, 9362.0, 30146.0, 35388.0, 9362.0, 7.9537200927734375, -0.2896798253059387, 0.06738664954900742, 0.11246723681688309, -0.012729089707136154, -0.02994043007493019, 1.0288715362548828, -0.09381380677223206, -0.1291980743408203, 1.4853515625, 1.324951171875, 0.0236663818359375, 1.49267578125
27720, 2.201219081878662, 2.6877148151397705, -1.9391473531723022, -0.2524043023586273, -0.19280147552490234, 99.80764770507812, -0.6116484999656677, -0.4670703709125519, 7.628823280334473, 0.08040551096200943, 1.1457973718643188, 0.06700839847326279, 0.26672070708722156, -0.6355435067120823, -4.414471614093096, 9362.0, 30146.0, 35388.0, 9362.0, 7.933885097503662, -0.2896798253059387, 0.06738664954900742, 0.11246723681688309, -0.012729089707136154, -0.02994043007493019, 1.0288715362548828, -0.09230608493089676, -0.05751800537109375, 1.4912109375, 1.324951171875, 0.0236663818359375, 1.49267578125
27730, 2.2020931243896484, 2.686844825744629, -1.9399292469024658, -0.2524043023586273, -0.19280147552490234, 99.80764770507812, -0.6116484999656677, -0.4670703709125519, 7.628823280334473, 0.08054746687412262, 1.1457289457321167, 0.06679685413837433, 0.24263092416894574, -0.5595024554016845, -4.4170375283479455, 9362.0, 30146.0, 35388.0, 9362.0, 7.933885097503662, -0.2896798253059387, 0.06738664954900742, 0.11246723681688309, -0.0092484625056386, -0.03037615306675434, 1.0298361778259277, -0.09230608493089676, -0.05751800537109375, 1.4912109375, 1.324951171875, 0.0236663818359375, 1.49267578125
27740, 0.0, 0.0, 0.0, -0.2524043023586273, -0.19280147552490234, 99.80764770507812, -0.6116484999656677, -0.4670703709125519, 7.628823280334473, 0.08036297559738159, 1.1457995176315308, 0.06706374883651733, 0.18883151343276391, -0.6729669715505224, -4.588679725385649, 9362.0, 30146.0, 35388.0, 9362.0, 7.933885097503662, -0.2896798253059387, 0.06738664954900742, 0.11246723681688309, -0.0092484625056386, -0.03037615306675434, 1.0298361778259277, -0.09230608493089676, -0.05751800537109375, 1.4912109375, 1.324951171875, 0.0236663818359375, 1.49267578125
27750, 0.0015621057245880365, 0.0009238659986294806, -0.0011849491856992245, 0.0, 0.0, 0.0, 0.0, 0.0, 0.0, 0.08054275065660477, 1.1457277536392212, 0.06682408601045609, 0.24577872013852298, -0.5616738304983357, -4.425879342898614, 9362.0, 30146.0, 35388.0, 9362.0, 7.933885097503662, 0.1578386276960373, 0.0900983065366745, 0.10482250899076462, -0.0092484625056386, -0.03037615306675434, 1.0298361778259277, -0.09230608493089676, -0.05751800537109375, 1.4912109375, 1.324951171875, 0.0236663818359375, 1.49267578125
27760, 0.0027164637576788664, 0.0019271965138614178, -0.0027911150828003883, 0.0, 0.0, 1.483759842813015e-05, -4.78514579071998e-08, -8.090498226920317e-08, 0.0029675140976905823, 0.08053575456142426, 1.1457200050354004, 0.0668090358376503, 0.24950988154648168, -0.5599310288836818, -4.410916831861323, 9362.0, 30146.0, 35388.0, 9362.0, 7.933885097503662, -0.06806152313947678, -0.0045420643873512745, 0.004589117597788572, -0.01014528889209032, -0.028839951381087303, 1.0305540561676025, -0.09230608493089676, -0.05751800537109375, 1.4912109375, 1.324951171875, 0.0236663818359375, 1.49267578125
27770, 0.0034283148124814034, 0.0017355558229610324, -0.001130346325226128, -8.627658587556652e-09, -1.4587237195939906e-08, 5.9382873587310314e-05, -1.7298442571700434e-06, -2.8964195735170506e-06, 0.005941918585449457, 0.08054318279027939, 1.1457217931747437, 0.06680059432983398, 0.2469801975163742, -0.5614094260525633, -4.420295611319558, 9362.0, 30146.0, 35388.0, 9362.0, 7.933885097503662, 0.1674661487340927, 0.11153942346572876, 0.19023431837558746, -0.01014528889209032, -0.028839951381087303, 1.0305540561676025, -0.088411845266819, -0.07543754577636719, 1.48974609375, 1.324951171875, 0.0236663818359375, 1.49267578125
27780, 0.004651664290577173, 0.0005417590145953, 0.00019065148080699146, -4.2941262989870665e-08, -6.753248982249715e-08, 0.0001341290189884603, -5.122485163155943e-06, -7.73081774241291e-06, 0.009007706306874752, 0.08026370406150818, 1.145855188369751, 0.06722121685743332, 0.2278795059692838, -0.7709073674195679, -4.572588542154634, 9362.0, 30146.0, 35388.0, 9362.0, 7.9537200927734375, 0.1674661487340927, 0.11153942346572876, 0.19023431837558746, -0.009331626817584038, -0.028624897822737694, 1.0253812074661255, -0.088411845266819, -0.07543754577636719, 1.48974609375, 1.324951171875, 0.0236663818359375, 1.49267578125
27790, 0.005620797164738178, 0.000370544585166499, 0.0001306598132941872, -4.2941262989870665e-08, -6.753248982249715e-08, 0.0001341290189884603, -5.122485163155943e-06, -7.73081774241291e-06, 0.009007706306874752, 0.08041922748088837, 1.145772933959961, 0.06698121130466461, 0.29478148886121286, -0.6525668742065989, -4.398517230769231, 9362.0, 30146.0, 35388.0, 9362.0, 7.9537200927734375, 0.1674661487340927, 0.11153942346572876, 0.19023431837558746, -0.010757267475128174, -0.029304489493370056, 1.0271910429000854, -0.088411845266819, -0.07543754577636719, 1.48974609375, 1.318359375, 0.028656005859375, 1.49267578125
27800, 0.0061785271391272545, -0.0016221797559410334, 0.0005299131153151393, -4.2941262989870665e-08, -6.753248982249715e-08, 0.0001341290189884603, -5.122485163155943e-06, -7.73081774241291e-06, 0.009007706306874752, 0.08036817610263824, 1.1458052396774292, 0.06706370413303375, 0.18948340193991395, -0.6731262977558856, -4.594616648921029, 9362.0, 30146.0, 35388.0, 9362.0, 7.933885097503662, 0.08949518203735352, -0.020865706726908684, 0.1219300925731659, -0.011441572569310665, -0.0279358122497797, 1.027479648590088, -0.088411845266819, -0.07543754577636719, 1.48974609375, 1.318359375, 0.028656005859375, 1.49267578125
27820, 0.007354174740612507, -0.0006008177879266441, 0.001387711032293737, -3.7127540508663515e-07, -9.978527941711945e-07, 0.000709193293005228, -6.831650807725964e-06, -4.283406451577321e-05, 0.01971079781651497, 0.0802450105547905, 1.1458550691604614, 0.06724852323532104, 0.2295345868715761, -0.7724125734105769, -4.5654483877971614, 9362.0, 30146.0, 35388.0, 9362.0, 7.9537200927734375, 0.19471004605293274, -0.022452568635344505, 0.0177561454474926, -0.011441572569310665, -0.0279358122497797, 1.027479648590088, -0.09006805717945099, -0.10231781005859375, 1.487548828125, 1.318359375, 0.028656005859375, 1.49267578125
27830, 0.007531536277383566, -0.0011677455622702837, 0.0032276271376758814, -4.3702567609216203e-07, -1.4828017356194323e-06, 0.0009202046203427017, -6.303424925135914e-06, -5.4200576414586976e-05, 0.022491855546832085, 0.08035413920879364, 1.145815134048462, 0.06706953048706055, 0.18975402203686784, -0.6757814102685415, -4.596282342028512, 9362.0, 30146.0, 35388.0, 9362.0, 7.933885097503662, 0.19471004605293274, -0.022452568635344505, 0.0177561454474926, -0.011441572569310665, -0.0279358122497797, 1.027479648590088, -0.09006805717945099, -0.10231781005859375, 1.487548828125, 1.318359375, 0.028656005859375, 1.49267578125
27840, 0.007244965992867947, -0.0007010292611084878, 0.002709633205085993, -4.3702567609216203e-07, -1.4828017356194323e-06, 0.0009202046203427017, -6.303424925135914e-06, -5.4200576414586976e-05, 0.022491855546832085, 0.08036361634731293, 1.1458039283752441, 0.06708972901105881, 0.18855735320106862, -0.6750822409114221, -4.5942943609529605, 9362.0, 30146.0, 35388.0, 9362.0, 7.933885097503662, 0.19471004605293274, -0.022452568635344505, 0.0177561454474926, -0.011441572569310665, -0.0279358122497797, 1.027479648590088, -0.09006805717945099, -0.10231781005859375, 1.487548828125, 1.318359375, 0.028656005859375, 1.49267578125
27890, 0.012220011092722416, 0.002353477058932185, 0.002442689146846533, -7.312729621844483e-07, -7.180874035839224e-06, 0.0027995475102216005, -1.1945320693484973e-05, -0.00014057521184440702, 0.040143679827451706, 0.0805642232298851, 1.145742654800415, 0.0667654275894165, 0.24812691582430235, -0.558725913128427, -4.428413483054006, 9362.0, 30146.0, 35388.0, 9362.0, 7.9537200927734375, 0.19471004605293274, -0.022452568635344505, 0.0177561454474926, -0.01186360139399767, -0.028597155585885048, 1.0311022996902466, -0.09006805717945099, -0.10231781005859375, 1.487548828125, 1.318359375, 0.028656005859375, 1.49267578125
27900, 0.01216545794159174, 0.001504275482147932, 0.0009911785600706935, -7.312729621844483e-07, -7.180874035839224e-06, 0.0027995475102216005, -1.1945320693484973e-05, -0.00014057521184440702, 0.040143679827451706, 0.08045800775289536, 1.1457648277282715, 0.06695079058408737, 0.2934136711699934, -0.6760399875109613, -4.391637739095455, 9362.0, 30146.0, 35388.0, 9362.0, 7.933885097503662, 0.19471004605293274, -0.022452568635344505, 0.0177561454474926, -0.011007269844412804, -0.030742371454834938, 1.0294302701950073, -0.09006805717945099, -0.10231781005859375, 1.487548828125, 1.318359375, 0.028656005859375, 1.49267578125
27920, 0.011599020101130009, 0.0007495470345020294, 0.004882711451500654, -1.2551297459140187e-06, -1.23177651403239e-05, 0.004135862458497286, -2.2262502170633525e-05, -0.00020312763808760792, 0.04895588010549545, 0.08043080568313599, 1.1457645893096924, 0.0669856145977974, 0.2841706757144123, -0.6466285047538065, -4.403941610264208, 9362.0, 30146.0, 35388.0, 9362.0, 7.933885097503662, 0.19471004605293274, -0.022452568635344505, 0.0177561454474926, -0.011007269844412804, -0.030742371454834938, 1.0294302701950073, -0.08527474105358124, -0.04855918884277344, 1.491943359375, 1.318359375, 0.028656005859375, 1.49267578125
27930, 0.011888585984706879, 0.0009037338313646615, 0.003503991523757577, -1.2551297459140187e-06, -1.23177651403239e-05, 0.004135862458497286, -2.2262502170633525e-05, -0.00020312763808760792, 0.04895588010549545, 0.08035099506378174, 1.1457937955856323, 0.06707992404699326, 0.18335719154109364, -0.6815559249094747, -4.594630191136462, 9362.0, 30146.0, 35388.0, 9362.0, 7.933885097503662, 0.19471004605293274, -0.022452568635344505, 0.0177561454474926, -0.011007269844412804, -0.030742371454834938, 1.0294302701950073, -0.08799979090690613, -0.11127853393554688, 1.48681640625, 1.318359375, 0.028656005859375, 1.49267578125
27940, 0.01200717594474554, 0.0016380657907575369, 0.002940372796729207, -1.2551297459140187e-06, -1.23177651403239e-05, 0.004135862458497286, -2.2262502170633525e-05, -0.00020312763808760792, 0.04895588010549545, 0.08043225109577179, 1.14576256275177, 0.06700558215379715, 0.2843398359504151, -0.6523549755159763, -4.401301414136799, 9362.0, 30146.0, 35388.0, 9362.0, 7.9537200927734375, 0.19471004605293274, -0.022452568635344505, 0.0177561454474926, -0.011007269844412804, -0.030742371454834938, 1.0294302701950073, -0.08799979090690613, -0.11127853393554688, 1.48681640625, 1.318359375, 0.028656005859375, 1.49267578125
28050, 0.014810295775532722, 0.005715848412364721, 0.008976648561656475, -8.181568773579784e-06, -5.7088018365902826e-05, 0.012995028868317604, -0.00011929870379390195, -0.0004920384963043034, 0.08766686171293259, 0.080527663230896, 1.1457191705703735, 0.06679945439100266, 0.24778330224371892, -0.5606872133357115, -4.414740236700824, 9362.0, 30146.0, 35388.0, 9362.0, 7.933885097503662, 0.19471004605293274, -0.022452568635344505, 0.0177561454474926, -0.01011740043759346, -0.029827898368239403, 1.0301458835601807, -0.08400378376245499, -0.08439826965332031, 1.489013671875, 1.318359375, 0.028656005859375, 1.49267578125
28060, 0.0158284530043602, 0.006462303455919027, 0.008213813416659832, -8.181568773579784e-06, -5.7088018365902826e-05, 0.012995028868317604, -0.00011929870379390195, -0.0004920384963043034, 0.08766686171293259, 0.08023975044488907, 1.1458567380905151, 0.0672413557767868, 0.23001095192391344, -0.7713456189359249, -4.573487244648043, 9362.0, 30146.0, 35388.0, 9362.0, 7.933885097503662, 0.19471004605293274, -0.022452568635344505, 0.0177561454474926, -0.01011740043759346, -0.029827898368239403, 1.0301458835601807, -0.08102181553840637, -0.03959846496582031, 1.49267578125, 1.318359375, 0.028656005859375, 1.49267578125
28070, 0.017139485105872154, 0.009252515621483326, 0.008570810779929161, -8.181568773579784e-06, -5.7088018365902826e-05, 0.012995028868317604, -0.00011929870379390195, -0.0004920384963043034, 0.08766686171293259, 0.08054511249065399, 1.1457244157791138, 0.06679803133010864, 0.24966852958337524, -0.5615397178617627, -4.420411970911759, 9362.0, 30146.0, 35388.0, 9362.0, 7.933885097503662, -0.013542043045163155, -0.48354122042655945, -0.1359718292951584, -0.01011740043759346, -0.029827898368239403, 1.0301458835601807, -0.08102181553840637, -0.03959846496582031, 1.49267578125, 1.318359375, 0.028656005859375, 1.49267578125
28080, 0.01741454377770424, 0.00939962174743414, 0.009091425687074661, -1.2329282981227152e-05, -7.299405842786655e-05, 0.01575397700071335, -0.00015526307106483728, -0.0005705932853743434, 0.09592673927545547, 0.08042275160551071, 1.1457775831222534, 0.06697531044483185, 0.28228186846271114, -0.654954784030366, -4.400573377604245, 9362.0, 30146.0, 35388.0, 9362.0, 7.933885097503662, -0.01828601211309433, 0.5184744596481323, 0.254732221364975, -0.01011740043759346, -0.029827898368239403, 1.0301458835601807, -0.08527643978595734, -0.10231781005859375, 1.487548828125, 1.318359375, 0.028656005859375, 1.49267578125
28090, 0.016633983701467514, 0.0066080763936042786, 0.009473220445215702, -1.2329282981227152e-05, -7.299405842786655e-05, 0.01575397700071335, -0.00015526307106483728, -0.0005705932853743434, 0.09592673927545547, 0.08053015917539597, 1.1457182168960571, 0.06680801510810852, 0.24486841985505733, -0.5603257425979393, -4.42829282667473, 9362.0, 30146.0, 35388.0, 9362.0, 7.933885097503662, -0.10874398797750473, 0.19857840240001678, -0.13521723449230194, -0.01011740043759346, -0.029827898368239403, 1.0301458835601807, -0.08028345555067062, -0.04855918884277344, 1.491943359375, 1.318359375, 0.028656005859375, 1.49267578125
28100, 0.01747932843863964, 0.007247630041092634, 0.009653829038143158, -1.2329282981227152e-05, -7.299405842786655e-05, 0.01575397700071335, -0.00015526307106483728, -0.0005705932853743434, 0.09592673927545547, 0.0805780440568924, 1.1457264423370361, 0.06675080209970474, 0.24776101100983106, -0.5549173004933436, -4.439461330340188, 9362.0, 30146.0, 35388.0, 9362.0, 7.9537200927734375, 0.054576508700847626, -0.08677424490451813, 0.2273840308189392, -0.01091460045427084, -0.028210261836647987, 1.0257630348205566, -0.08028345555067062, -0.04855918884277344, 1.491943359375, 1.318359375, 0.028656005859375, 1.49267578125
28110, 0.017499200999736786, 0.008728891611099243, 0.010993815958499908, -1.7699043382890522e-05, -9.14718330022879e-05, 0.018754128366708755, -0.00019958447956014425, -0.0006606481038033962, 0.10395660996437073, 0.08037044107913971, 1.1457948684692383, 0.06705212593078613, 0.18739452168030762, -0.6770615028709415, -4.602147627298414, 9362.0, 30146.0, 35388.0, 9362.0, 7.933885097503662, 0.054576508700847626, -0.08677424490451813, 0.2273840308189392, -0.00985000841319561, -0.028366003185510635, 1.028288722038269, -0.08028345555067062, -0.04855918884277344, 1.491943359375, 1.318359375, 0.028656005859375, 1.49267578125
28120, 0.01712646894156933, 0.008637167513370514, 0.010958192870020866, -1.7699043382890522e-05, -9.14718330022879e-05, 0.018754128366708755, -0.00019958447956014425, -0.0006606481038033962, 0.10395660996437073, 0.08042716979980469, 1.1457723379135132, 0.06697530299425125, 0.2835861777415381, -0.6566763937522069, -4.397811208798018, 9362.0, 30146.0, 35388.0, 9362.0, 7.9537200927734375, -0.22759756445884705, -0.3624979257583618, -0.05433213338255882, -0.010060517117381096, -0.02789470925927162, 1.029181718826294, -0.08028345555067062, -0.04855918884277344, 1.491943359375, 1.317626953125, 0.0291900634765625, 1.49267578125
28130, 0.01649540662765503, 0.010278595611453056, 0.01067851111292839, -2.1959303921903484e-05, -0.00010529992141528055, 0.02088683471083641, -0.0002277556632179767, -0.0007221941486932337, 0.10942540317773819, 0.08045753836631775, 1.1457761526107788, 0.0669388696551323, 0.2816079212077154, -0.6511414834854747, -4.417700812143307, 9362.0, 30146.0, 35388.0, 9362.0, 7.9537200927734375, -0.22759756445884705, -0.3624979257583618, -0.05433213338255882, -0.011870745569467545, -0.03042854741215706, 1.0279358625411987, -0.08028345555067062, -0.04855918884277344, 1.491943359375, 1.317626953125, 0.0291900634765625, 1.49267578125
28140, 0.016218554228544235, 0.008708222769200802, 0.010265803895890713, -2.1959303921903484e-05, -0.00010529992141528055, 0.02088683471083641, -0.0002277556632179767, -0.0007221941486932337, 0.10942540317773819, 0.08053288608789444, 1.145727515220642, 0.06680878251791, 0.24628119402403573, -0.5623814698950298, -4.434209335375383, 9362.0, 30146.0, 35388.0, 9362.0, 7.933885097503662, -0.22759756445884705, -0.3624979257583618, -0.05433213338255882, -0.010237438604235649, -0.030502792447805405, 1.0281976461410522, -0.08028345555067062, -0.04855918884277344, 1.491943359375, 1.317626953125, 0.0291900634765625, 1.49267578125
28150, 0.017059726640582085, 0.008748798631131649, 0.01051657646894455, -2.1959303921903484e-05, -0.00010529992141528055, 0.02088683471083641, -0.0002277556632179767, -0.0007221941486932337, 0.10942540317773819, 0.08054479956626892, 1.1457198858261108, 0.0668095126748085, 0.2453806787803072, -0.5622938858468558, -4.421848186374394, 9362.0, 30146.0, 35388.0, 9362.0, 7.9537200927734375, -0.22759756445884705, -0.3624979257583618, -0.05433213338255882, -0.011308275163173676, -0.028478901833295822, 1.0267866849899292, -0.08028345555067062, -0.04855918884277344, 1.491943359375, 1.317626953125, 0.0291900634765625, 1.49267578125
28180, 0.018045922741293907, 0.009161064401268959, 0.008692018687725067, -3.5370903788134456e-05, -0.00014510467008221895, 0.02670268714427948, -0.00030999735463410616, -0.0008716115262359381, 0.12310744822025299, 0.08054277300834656, 1.1457306146621704, 0.06678669154644012, 0.2531550899960496, -0.5645335002006959, -4.423995792476209, 9362.0, 30146.0, 35388.0, 9362.0, 7.933885097503662, 0.09215778857469559, 0.23005330562591553, 0.015408022329211235, -0.011308275163173676, -0.028478901833295822, 1.0267866849899292, -0.07967071235179901, -0.05751800537109375, 1.4912109375, 1.317626953125, 0.0291900634765625, 1.49267578125
28190, 0.019401557743549347, 0.006030889693647623, 0.011277902871370316, -3.5370903788134456e-05, -0.00014510467008221895, 0.02670268714427948, -0.00030999735463410616, -0.0008716115262359381, 0.12310744822025299, 0.0805351585149765, 1.1457276344299316, 0.06678438931703568, 0.24768891688677724, -0.5599493403902898, -4.423112289824823, 9362.0, 30146.0, 35388.0, 9362.0, 7.933885097503662, 0.13553710281848907, 0.2580832242965698, -0.07377144694328308, -0.011308275163173676, -0.028478901833295822, 1.0267866849899292, -0.0767892450094223, -0.10231781005859375, 1.487548828125, 1.317626953125, 0.0291900634765625, 1.49267578125
28200, 0.019619913771748543, 0.005187447182834148, 0.010344263166189194, -3.5370903788134456e-05, -0.00014510467008221895, 0.02670268714427948, -0.00030999735463410616, -0.0008716115262359381, 0.12310744822025299, 0.08041726797819138, 1.145768165588379, 0.0669613927602768, 0.28748310458684334, -0.6629861508054944, -4.404026769528721, 9362.0, 30146.0, 35388.0, 9362.0, 7.9537200927734375, 0.13553710281848907, 0.2580832242965698, -0.07377144694328308, -0.012693729251623154, -0.028121886774897575, 1.0298540592193604, -0.0767892450094223, -0.10231781005859375, 1.487548828125, 1.317626953125, 0.0291900634765625, 1.49267578125
28210, 0.020844601094722748, 0.004589839372783899, 0.009276865981519222, -3.5370903788134456e-05, -0.00014510467008221895, 0.02670268714427948, -0.00030999735463410616, -0.0008716115262359381, 0.12310744822025299, 0.08053892850875854, 1.145723581314087, 0.06679391115903854, 0.25337443884971417, -0.5576263167100421, -4.427236543845441, 9362.0, 30146.0, 35388.0, 9362.0, 7.9537200927734375, 0.1690099537372589, -0.1956675499677658, -0.2223958671092987, -0.012693729251623154, -0.028121886774897575, 1.0298540592193604, -0.0767892450094223, -0.10231781005859375, 1.487548828125, 1.317626953125, 0.0291900634765625, 1.49267578125
28220, 0.022334380075335503, 0.004212538246065378, 0.006990399677306414, -3.5370903788134456e-05, -0.00014510467008221895, 0.02670268714427948, -0.00030999735463410616, -0.0008716115262359381, 0.12310744822025299, 0.08053655922412872, 1.1457176208496094, 0.06677799671888351, 0.24474332463168025, -0.5602704431695429, -4.423614838165085, 9362.0, 30146.0, 35388.0, 9362.0, 7.933885097503662, 0.1445448100566864, 0.16194774210453033, 0.19217270612716675, -0.012693729251623154, -0.028121886774897575, 1.0298540592193604, -0.0767892450094223, -0.10231781005859375, 1.487548828125, 1.317626953125, 0.0291900634765625, 1.49267578125
28230, 0.022691544145345688, 0.0033936183899641037, 0.008563528768718243, -3.5370903788134456e-05, -0.00014510467008221895, 0.02670268714427948, -0.00030999735463410616, -0.0008716115262359381, 0.12310744822025299, 0.0804317370057106, 1.1457730531692505, 0.06699167191982269, 0.28702119464336673, -0.6560785286044393, -4.407257923925339, 9362.0, 30146.0, 35388.0, 9362.0, 7.933885097503662, 0.1445448100566864, 0.16194774210453033, 0.19217270612716675, -0.010084861889481544, -0.029314344748854637, 1.0281423330307007, -0.0767892450094223, -0.10231781005859375, 1.487548828125, 1.317626953125, 0.0291900634765625, 1.49267578125
28240, 0.02196773886680603, 0.002961653284728527, 0.011065653525292873, -3.5370903788134456e-05, -0.00014510467008221895, 0.02670268714427948, -0.00030999735463410616, -0.0008716115262359381, 0.12310744822025299, 0.0804130882024765, 1.1457983255386353, 0.06696339696645737, 0.2673939304062715, -0.6341508646785314, -4.423582448853514, 9362.0, 30146.0, 35388.0, 9362.0, 7.9537200927734375, 0.1445448100566864, 0.16194774210453033, 0.19217270612716675, -0.009578908793628216, -0.030199529603123665, 1.0291239023208618, -0.0767892450094223, -0.10231781005859375, 1.487548828125, 1.317626953125, 0.0291900634765625, 1.49267578125
28250, 0.023912640288472176, 0.0007811436080373824, 0.009101809933781624, -6.0167963965795934e-05, -0.00021445749734994024, 0.03600743040442467, -0.00038366945227608085, -0.0011211667442694306, 0.1429429054260254, 0.08056703209877014, 1.1457265615463257, 0.06674597412347794, 0.24261221620867857, -0.5560545615933563, -4.438720677962509, 9362.0, 30146.0, 35388.0, 9362.0, 7.9537200927734375, 0.08611998707056046, -0.1804918795824051, 0.049255140125751495, -0.009578908793628216, -0.030199529603123665, 1.0291239023208618, -0.07820878177881241, -0.06647872924804688, 1.490478515625, 1.317626953125, 0.0291900634765625, 1.49267578125
28260, 0.023868780583143234, -0.00021398540411610156, 0.009982066228985786, -6.0167963965795934e-05, -0.00021445749734994024, 0.03600743040442467, -0.00038366945227608085, -0.0011211667442694306, 0.1429429054260254, 0.0805446058511734, 1.145714282989502, 0.06679462641477585, 0.24918152949244213, -0.5657156575881004, -4.426278366582693, 9362.0, 30146.0, 35388.0, 9362.0, 7.933885097503662, -0.35555312037467957, 0.04852103069424629, 0.0503728985786438, -0.009578908793628216, -0.030199529603123665, 1.0291239023208618, -0.07778683304786682, -0.09335899353027344, 1.48828125, 1.317626953125, 0.0291900634765625, 1.49267578125
28270, 0.023971328511834145, -0.0004939708742313087, 0.00994776375591755, -6.0167963965795934e-05, -0.00021445749734994024, 0.03600743040442467, -0.00038366945227608085, -0.0011211667442694306, 0.1429429054260254, 0.08054868131875992, 1.1457264423370361, 0.06678865849971771, 0.2465452894203054, -0.557898278102698, -4.422062749902348, 9362.0, 30146.0, 35388.0, 9362.0, 7.933885097503662, -0.35555312037467957, 0.04852103069424629, 0.0503728985786438, -0.010208098217844963, -0.029598359018564224, 1.0287693738937378, -0.07778683304786682, -0.09335899353027344, 1.48828125, 1.317626953125, 0.0291900634765625, 1.49267578125
28280, 0.02531365305185318, -0.0016586786368861794, 0.01152289193123579, -7.182430999819189e-05, -0.00024990536621771753, 0.04042651876807213, -0.0003896930138580501, -0.001244263956323266, 0.1517457813024521, 0.08056961745023727, 1.1457308530807495, 0.06673821806907654, 0.23363266201441868, -0.553685876913562, -4.43627076550324, 9362.0, 30146.0, 35388.0, 9362.0, 7.933885097503662, -0.35555312037467957, 0.04852103069424629, 0.0503728985786438, -0.01116176601499319, -0.027364611625671387, 1.0297881364822388, -0.07778683304786682, -0.09335899353027344, 1.48828125, 1.317626953125, 0.0291900634765625, 1.49267578125
28290, 0.02589510753750801, -0.00194501259829849, 0.013090098276734352, -7.182430999819189e-05, -0.00024990536621771753, 0.04042651876807213, -0.0003896930138580501, -0.001244263956323266, 0.1517457813024521, 0.08054717630147934, 1.1457189321517944, 0.06677638739347458, 0.24005685273121485, -0.5566131265865124, -4.422566378931771, 9362.0, 30146.0, 35388.0, 9362.0, 7.933885097503662, 0.014971497468650341, -0.30376458168029785, -0.024449337273836136, -0.010890614241361618, -0.02809406816959381, 1.030555248260498, -0.07778683304786682, -0.09335899353027344, 1.48828125, 1.29931640625, 0.0500640869140625, 1.49267578125
28300, 0.027096714824438095, -0.0012400363339111209, 0.01254371926188469, -7.95897503849119e-05, -0.0002756479661911726, 0.043518733233213425, -0.0003858066920656711, -0.0013312316732481122, 0.15752871334552765, 0.08042023330926895, 1.1457712650299072, 0.06698527932167053, 0.28434732499654297, -0.6588618042193275, -4.405306483322592, 9362.0, 30146.0, 35388.0, 9362.0, 7.933885097503662, 0.029358752071857452, 0.06270679831504822, 0.18152084946632385, -0.011260909959673882, -0.02928078919649124, 1.0310192108154297, -0.07778683304786682, -0.09335899353027344, 1.48828125, 1.29931640625, 0.0500640869140625, 1.49267578125
28320, 0.027415325865149498, -3.211992225260474e-05, 0.01221438217908144, -8.724362851353362e-05, -0.0003031976812053472, 0.04672930762171745, -0.0003802213177550584, -0.0014247582294046879, 0.16352801024913788, 0.08055312931537628, 1.1457083225250244, 0.06676501035690308, 0.28060684503273475, -0.6511367192721877, -4.408158663138298, 9362.0, 30146.0, 35388.0, 9362.0, 7.933885097503662, 0.1648973524570465, 0.32202649116516113, 0.004337153863161802, -0.011260909959673882, -0.02928078919649124, 1.0310192108154297, -0.0804421454668045, -0.10231781005859375, 1.487548828125, 1.29931640625, 0.0500640869140625, 1.49267578125
28330, 0.02803128771483898, 0.0009600452613085508, 0.013536389917135239, -8.724362851353362e-05, -0.0003031976812053472, 0.04672930762171745, -0.0003802213177550584, -0.0014247582294046879, 0.16352801024913788, 0.08056008815765381, 1.1457124948501587, 0.06678792089223862, 0.2439804029898796, -0.554902234886697, -4.416393470008158, 9362.0, 30146.0, 35388.0, 9362.0, 7.933885097503662, 0.1648973524570465, 0.32202649116516113, 0.004337153863161802, -0.011260909959673882, -0.02928078919649124, 1.0310192108154297, -0.0777837336063385, -0.0037593841552734375, 1.49560546875, 1.29931640625, 0.0500640869140625, 1.49267578125
28340, 0.0291758943349123, 0.0037953113205730915, 0.013241931796073914, -8.724362851353362e-05, -0.0003031976812053472, 0.04672930762171745, -0.0003802213177550584, -0.0014247582294046879, 0.16352801024913788, 0.08023650199174881, 1.145876169204712, 0.06724419444799423, 0.2118372711934208, -0.7542831307511335, -4.573252299141366, 9362.0, 30146.0, 35388.0, 9362.0, 7.933885097503662, 0.1648973524570465, 0.32202649116516113, 0.004337153863161802, -0.010234704241156578, -0.03038335219025612, 1.028852939605713, -0.0777837336063385, -0.0037593841552734375, 1.49560546875, 1.29931640625, 0.0500640869140625, 1.49267578125
28350, 0.029476996511220932, 0.003933948930352926, 0.012178897857666016, -8.724362851353362e-05, -0.0003031976812053472, 0.04672930762171745, -0.0003802213177550584, -0.0014247582294046879, 0.16352801024913788, 0.08037149161100388, 1.1457983255386353, 0.06703945249319077, 0.18608906729532568, -0.669114147609406, -4.599875735319704, 9362.0, 30146.0, 35388.0, 9362.0, 7.933885097503662, 0.1648973524570465, 0.32202649116516113, 0.004337153863161802, -0.01189544890075922, -0.030389396473765373, 1.0279808044433594, -0.0777837336063385, -0.0037593841552734375, 1.49560546875, 1.29931640625, 0.0500640869140625, 1.49267578125
28360, 0.029916534200310707, 0.00353221595287323, 0.012723498046398163, -8.724362851353362e-05, -0.0003031976812053472, 0.04672930762171745, -0.0003802213177550584, -0.0014247582294046879, 0.16352801024913788, 0.08057696372270584, 1.1457066535949707, 0.06673574447631836, 0.2304112981982519, -0.5575741700994854, -4.453790296419027, 9362.0, 30146.0, 35388.0, 9362.0, 7.933885097503662, 0.1648973524570465, 0.32202649116516113, 0.004337153863161802, -0.010090280324220657, -0.02923417091369629, 1.0288639068603516, -0.0777837336063385, -0.0037593841552734375, 1.49560546875, 1.29931640625, 0.0500640869140625, 1.49267578125
28370, 0.030414754524827003, 0.002431341912597418, 0.013044518418610096, -8.724362851353362e-05, -0.0003031976812053472, 0.04672930762171745, -0.0003802213177550584, -0.0014247582294046879, 0.16352801024913788, 0.0803653672337532, 1.1457889080047607, 0.06704314053058624, 0.17762654852212995, -0.6750420850719081, -4.598619017598698, 9362.0, 30146.0, 35388.0, 9362.0, 7.933885097503662, 0.1648973524570465, 0.32202649116516113, 0.004337153863161802, -0.009409861639142036, -0.028522389009594917, 1.028725266456604, -0.0777837336063385, -0.0037593841552734375, 1.49560546875, 1.29931640625, 0.0500640869140625, 1.49267578125
28380, 0.03057163581252098, 0.0028993848245590925, 0.011468922719359398, -8.724362851353362e-05, -0.0003031976812053472, 0.04672930762171745, -0.0003802213177550584, -0.0014247582294046879, 0.16352801024913788, 0.08043037354946136, 1.145757794380188, 0.06697239726781845, 0.2799445691939332, -0.6546856456170644, -4.405865684177949, 9362.0, 30146.0, 35388.0, 9362.0, 7.933885097503662, 0.1648973524570465, 0.32202649116516113, 0.004337153863161802, -0.009409861639142036, -0.028522389009594917, 1.028725266456604, -0.08864325284957886, -0.07543754577636719, 1.48974609375, 1.29931640625, 0.0500640869140625, 1.49267578125
28390, 0.03028535097837448, 0.0040653725154697895, 0.010571260936558247, -8.724362851353362e-05, -0.0003031976812053472, 0.04672930762171745, -0.0003802213177550584, -0.0014247582294046879, 0.16352801024913788, 0.0805414617061615, 1.1457269191741943, 0.06678672879934311, 0.24630048455170567, -0.5608849833670035, -4.427613455104312, 9362.0, 30146.0, 35388.0, 9362.0, 7.933885097503662, 0.19904209673404694, -0.17151817679405212, -0.22484107315540314, -0.009409861639142036, -0.028522389009594917, 1.028725266456604, -0.08999542146921158, -0.07543754577636719, 1.48974609375, 1.29931640625, 0.0500640869140625, 1.49267578125
28400, 0.03214934468269348, 0.0024127562064677477, 0.009226038120687008, -8.724362851353362e-05, -0.0003031976812053472, 0.04672930762171745, -0.0003802213177550584, -0.0014247582294046879, 0.16352801024913788, 0.08037294447422028, 1.1457901000976562, 0.06702376157045364, 0.1817254763057997, -0.6783492259262118, -4.601557270315428, 9362.0, 30146.0, 35388.0, 9362.0, 7.933885097503662, 0.04530846327543259, 0.013349506072700024, -0.11075881868600845, -0.011549527756869793, -0.029881233349442482, 1.0305477380752563, -0.08999542146921158, -0.07543754577636719, 1.48974609375, 1.29931640625, 0.0500640869140625, 1.49267578125
28410, 0.03252281993627548, 0.0025128794368356466, 0.0073473164811730385, -0.00012256258924026042, -0.0004516316403169185, 0.06258808821439743, -0.0004167327133473009, -0.0018857636023312807, 0.18873001635074615, 0.08055245876312256, 1.1457116603851318, 0.06678710132837296, 0.2436936067513208, -0.5522579816204427, -4.4218764412506815, 9362.0, 30146.0, 35388.0, 9362.0, 7.9537200927734375, -0.06466909497976303, 0.057869117707014084, -0.08681377023458481, -0.00978265143930912, -0.028978338465094566, 1.0302398204803467, -0.08999542146921158, -0.07543754577636719, 1.48974609375, 1.29931640625, 0.0500640869140625, 1.49267578125
28420, 0.03280630335211754, 0.0010852792765945196, 0.007475295569747686, -0.00012675115431193262, -0.00047077288036234677, 0.06449031084775925, -0.0004209873441141099, -0.0019425032660365105, 0.19171498715877533, 0.0803685188293457, 1.1458053588867188, 0.06703051924705505, 0.19101177999017388, -0.6723646059694204, -4.605275386154052, 9362.0, 30146.0, 35388.0, 9362.0, 7.933885097503662, -0.06466909497976303, 0.057869117707014084, -0.08681377023458481, -0.010884350165724754, -0.028109997510910034, 1.030438780784607, -0.08999542146921158, -0.07543754577636719, 1.48974609375, 1.29931640625, 0.0500640869140625, 1.49267578125
28430, 0.03199077770113945, 0.0009109287057071924, 0.008312215097248554, -0.0001309831568505615, -0.0004904848174192011, 0.06642239540815353, -0.00042533903615549207, -0.001999898813664913, 0.1947026401758194, 0.08036517351865768, 1.1457905769348145, 0.06704746931791306, 0.19089897088219884, -0.6645180359743676, -4.602210231209468, 9362.0, 30146.0, 35388.0, 9362.0, 7.933885097503662, 0.044670913368463516, 0.1065247505903244, 0.3036162555217743, -0.009857301600277424, -0.027927160263061523, 1.028861165046692, -0.08999542146921158, -0.07543754577636719, 1.48974609375, 1.29931640625, 0.0500640869140625, 1.49267578125
28440, 0.03402339667081833, 0.0007078164489939809, 0.007718913722783327, -0.00013524606765713543, -0.0005107729230076075, 0.06838386505842209, -0.0004272347432561219, -0.0020576822571456432, 0.19759191572666168, 0.08037906885147095, 1.1458011865615845, 0.06705884635448456, 0.19045712892561034, -0.6729701933832075, -4.597632093816846, 9362.0, 30146.0, 35388.0, 9362.0, 7.933885097503662, 0.12329266965389252, 0.09699205309152603, 0.05178055912256241, -0.009857301600277424, -0.027927160263061523, 1.028861165046692, -0.0899423211812973, -0.11127853393554688, 1.48681640625, 1.29931640625, 0.0500640869140625, 1.49267578125
28450, 0.033286646008491516, -3.679073415696621e-05, 0.00876713264733553, -0.00013524606765713543, -0.0005107729230076075, 0.06838386505842209, -0.0004272347432561219, -0.0020576822571456432, 0.19759191572666168, 0.08054233342409134, 1.1457176208496094, 0.06678935885429382, 0.24282204676781485, -0.5535309934149666, -4.425511904556523, 9362.0, 30146.0, 35388.0, 9362.0, 7.933885097503662, 0.12329266965389252, 0.09699205309152603, 0.05178055912256241, -0.009552973322570324, -0.02730877324938774, 1.0293546915054321, -0.09195243567228317, -0.08439826965332031, 1.489013671875, 1.29931640625, 0.0500640869140625, 1.490478515625
28460, 0.03319836035370827, -0.000494981009978801, 0.00872589647769928, -0.00014382079825736582, -0.0005530722555704415, 0.0723918005824089, -0.00043002227903343737, -0.0021740172524005175, 0.2032235860824585, 0.0803665742278099, 1.1458114385604858, 0.06705296784639359, 0.19027313260385956, -0.6752385230301741, -4.593439165904991, 9362.0, 30146.0, 35388.0, 9362.0, 7.933885097503662, 0.12888234853744507, -0.05015071481466293, -0.18517711758613586, -0.009552973322570324, -0.02730877324938774, 1.0293546915054321, -0.09195243567228317, -0.08439826965332031, 1.489013671875, 1.29931640625, 0.0500640869140625, 1.490478515625
28470, 0.03328133374452591, -0.0009685606928542256, 0.009051031433045864, -0.00014382079825736582, -0.0005530722555704415, 0.0723918005824089, -0.00043002227903343737, -0.0021740172524005175, 0.2032235860824585, 0.08036839216947556, 1.145800232887268, 0.0670304149389267, 0.1872769848819045, -0.6775207251379811, -4.595363638347619, 9362.0, 30146.0, 35388.0, 9362.0, 7.9537200927734375, -0.24225175380706787, 0.27003565430641174, 0.1351906806230545, -0.011701914481818676, -0.030029159039258957, 1.0297001600265503, -0.09195243567228317, -0.08439826965332031, 1.489013671875, 1.30078125, 0.048004150390625, 1.490478515625
28480, 0.032331161201000214, -0.0014611127553507686, 0.007917115464806557, -0.00015241549408528954, -0.0005977254477329552, 0.07651451975107193, -0.00042901947745122015, -0.0022912253625690937, 0.20904122292995453, 0.08025536686182022, 1.1458544731140137, 0.06723300367593765, 0.22604654625627588, -0.7731718403046841, -4.5664916887164875, 9362.0, 30146.0, 35388.0, 9362.0, 7.933885097503662, -0.07000739872455597, 0.46327900886535645, -0.040285009890794754, -0.01104022841900587, -0.028533710166811943, 1.0275002717971802, -0.09195243567228317, -0.08439826965332031, 1.489013671875, 1.30078125, 0.048004150390625, 1.490478515625
