timeTick, roll, pitch, yaw, stateX, stateY, stateZ, stateVX, stateVY, stateVZ, otX0, otY0, otZ0, otRoll0, otPitch0, otYaw0, left wing, pitch motor, yaw motor, right wing, voltage, roll rate, pitch rate, yaw rate, A_x, A_y, A_z, current, i_raw, v_raw, airflow_voltage, airflow_speed, pot_Pitch
59303, 0.0005812952294945717, -0.005971553735435009, -0.006808001548051834, 0, 0, 0, 0, 0, 0, 0.1763298064470291, 0.5500556826591492, 0.05686245486140251, 0.17167626101279307, 0.2848453807569058, -7.7346592491235775, 0, 0, 0, 0, 0, 0, 0, 0, 0, 0, 0, 0, 0, 0, 0, 0, 0
59313, 0.0005629956140182912, -0.007476411294192076, -0.005815099459141493, -3.621332780312514e-07, 3.248479742978816e-06, -0.027245840057730675, 0.00010481878416612744, 1.7924263318036537e-07, -0.13662508130073547, 0.17633554339408875, 0.5500444769859314, 0.05685877799987793, 0.1732323514610373, 0.28411636958813347, -7.734077879964857, 9362.0, 30146.0, 35388.0, 9362.0, 8.390083312988281, -0.05594002082943916, -0.2787373960018158, -0.026610560715198517, 0.0098801264539361, -0.03699815273284912, 0.9648892879486084, -0.07297731935977936, -0.07543754577636719, 1.48974609375, 0, 0, 0
59323, 3.987345280620502e-06, -0.006218200549483299, -0.006395319476723671, 7.35365460968751e-07, 3.2454661322844913e-06, -0.02862945757806301, 0.00011458987137302756, -7.828617754057632e-07, -0.14009809494018555, 0.17633694410324097, 0.5500501394271851, 0.05685269087553024, 0.1743240035504944, 0.28108700960646615, -7.73271682299702, 9362.0, 30146.0, 35388.0, 9362.0, 8.390083312988281, 0.1334277242422104, -0.09253637492656708, 0.05839009955525398, 0.011464507319033146, -0.03813895583152771, 0.963024914264679, -0.06893211603164673, -0.08439826965332031, 1.489013671875, 1.318359375, 0.028656005859375, 1.493408203125
59333, 3.3252177672693506e-05, -0.006634054239839315, -0.006114720832556486, 1.9430233351158677e-06, 3.2329805890185526e-06, -0.030047640204429626, 0.00012701719242613763, -1.747898977555451e-06, -0.143538236618042, 0.17633576691150665, 0.5500515699386597, 0.05683644860982895, 0.17609579250584104, 0.2796557242469362, -7.7365930803666805, 9362.0, 30146.0, 35388.0, 9362.0, 8.390083312988281, 0.10983360558748245, 0.25193488597869873, -0.050913210958242416, 0.012865861877799034, -0.03853427618741989, 0.9649638533592224, -0.07250259071588516, -0.10231781005859375, 1.487548828125, 1.32275390625, 0.0251312255859375, 1.497802734375
59343, 0.0008334673475474119, -0.008783897385001183, -0.006092242430895567, 3.2644734346831683e-06, 3.2154630389413796e-06, -0.03150103613734245, 0.00013724672317039222, -1.7537263374833856e-06, -0.14714032411575317, 0.1763664335012436, 0.5500353574752808, 0.05683984234929085, 0.1765456652414673, 0.2938210720051586, -7.748269609622281, 9362.0, 30146.0, 35388.0, 9362.0, 8.390083312988281, -0.11448298394680023, -0.3966841995716095, -0.08078085631132126, 0.00803572591394186, -0.03798099234700203, 0.9648396968841553, -0.07416464388370514, -0.07543754577636719, 1.48974609375, 1.32421875, 0.024139404296875, 1.4970703125
59353, 0.00035070820013061166, -0.0054301125928759575, -0.006564796902239323, 4.691726644523442e-06, 3.1976453556126216e-06, -0.03298977389931679, 0.00014807403204031289, -1.761435555636126e-06, -0.15060673654079437, 0.17634464800357819, 0.5500184297561646, 0.05683736503124237, 0.1791605920924436, 0.2731424037282295, -7.730171982453431, 9362.0, 30146.0, 35388.0, 9362.0, 8.390083312988281, 0.1454087346792221, 0.43987181782722473, -0.08330980688333511, 0.009020227007567883, -0.03815607726573944, 0.9622666835784912, -0.07500816881656647, -0.09335899353027344, 1.48828125, 1.300048828125, 0.0489654541015625, 1.496337890625
59363, 0.001242184778675437, -0.008780824020504951, -0.0071005309000611305, 6.244998985494021e-06, 3.173141067236429e-06, -0.03451322764158249, 0.00016278366092592478, -3.168804141751025e-06, -0.154083251953125, 0.17633892595767975, 0.550049901008606, 0.05681867524981499, 0.17292025717386034, 0.2898073532331864, -7.738055549432946, 9362.0, 30146.0, 35388.0, 9362.0, 8.390083312988281, 0.1066645011305809, -0.035599369555711746, -0.006428206339478493, 0.009148151613771915, -0.03953051194548607, 0.9646967649459839, -0.0765971764922142, -0.1291980743408203, 1.4853515625, 1.307373046875, 0.039581298828125, 1.49560546875
59373, 0.0013382552424445748, -0.009588825516402721, -0.007521822117269039, 7.917587936390191e-06, 3.1385575312015135e-06, -0.03607235476374626, 0.00017152032523881644, -3.691134452310507e-06, -0.15774202346801758, 0.17633679509162903, 0.5500441193580627, 0.0568423755466938, 0.1738831962920196, 0.28288601667117064, -7.736863748696247, 9362.0, 30146.0, 35388.0, 9362.0, 8.390083312988281, -0.04681987687945366, 0.16212515532970428, -0.06739509850740433, 0.010360310785472393, -0.03803233802318573, 0.9655188918113708, -0.07241079956293106, -0.09335899353027344, 1.48828125, 1.286865234375, 0.070281982421875, 1.491943359375
59383, 0.0006511489627882838, -0.011019095778465271, -0.008219120092689991, 9.705237062007654e-06, 3.091388407483464e-06, -0.03766755014657974, 0.0001859594922279939, -5.736847015214153e-06, -0.16129636764526367, 0.17634734511375427, 0.5500525236129761, 0.056854043155908585, 0.172133365268481, 0.28766917309667406, -7.735450221973014, 9362.0, 30146.0, 35388.0, 9362.0, 8.390083312988281, 0.09182585030794144, -0.05025869980454445, -0.121388740837574, 0.010899817571043968, -0.03632085770368576, 0.9663195013999939, -0.07401402294635773, -0.10231781005859375, 1.487548828125, 1.31103515625, 0.0355682373046875, 1.497802734375
59393, 0.0007101645460352302, -0.011912064626812935, -0.008278526365756989, 1.1644098776741885e-05, 3.022946657438297e-06, -0.03929736465215683, 0.00020172882068436593, -7.992094651854131e-06, -0.16466641426086426, 0.17633600533008575, 0.5500405430793762, 0.05683860927820206, 0.16865974443226453, 0.27452977644679777, -7.733688667253114, 9362.0, 30146.0, 35388.0, 9362.0, 8.390083312988281, 0.3709735572338104, -0.005404474213719368, -0.0755874291062355, 0.009480993263423443, -0.03877802938222885, 0.9652906656265259, -0.07409925013780594, -0.07543754577636719, 1.48974609375, 1.30078125, 0.048004150390625, 1.49560546875
59403, 0.0028578070923686028, -0.01176596712321043, -0.008120495826005936, 1.3752502127317712e-05, 2.937628323707031e-06, -0.040960751473903656, 0.00021989991364534944, -9.068145118362736e-06, -0.16801078617572784, 0.17634309828281403, 0.5500356554985046, 0.05684836953878403, 0.1718648168910111, 0.28991868886768657, -7.732460873890523, 9362.0, 30146.0, 35388.0, 9362.0, 8.390083312988281, -0.0007473067380487919, -0.05213628709316254, 0.04708228260278702, 0.010386313311755657, -0.03710322454571724, 0.9646136164665222, -0.07130550593137741, -0.030637741088867188, 1.493408203125, 1.297119140625, 0.0532379150390625, 1.49560546875
59413, 0.0026203675661236048, -0.01074777077883482, -0.007746976334601641, 1.604996941750869e-05, 2.8410622689989395e-06, -0.04265774041414261, 0.0002396019990555942, -1.0118644240719732e-05, -0.17138631641864777, 0.17633004486560822, 0.5500484704971313, 0.05683579668402672, 0.16936736645005737, 0.2811647132679127, -7.736698025539494, 9362.0, 30146.0, 35388.0, 9362.0, 8.390083312988281, -0.1146494671702385, -0.042778708040714264, -0.1226290762424469, 0.009800625964999199, -0.038259539753198624, 0.9628390669822693, -0.07143592834472656, -0.03959846496582031, 1.49267578125, 1.298583984375, 0.051055908203125, 1.493408203125
59423, 0.0016128860879689455, -0.011330608278512955, -0.007672944106161594, 1.8543163605500013e-05, 2.716258677537553e-06, -0.04438888281583786, 0.00025909842224791646, -1.4856283996778075e-05, -0.17484144866466522, 0.17634786665439606, 0.5500396490097046, 0.05685196816921234, 0.1775218911656943, 0.28656247980600824, -7.735844090390708, 9362.0, 30146.0, 35388.0, 9362.0, 8.390083312988281, 0.06853818148374557, 0.10766607522964478, -0.0846802368760109, 0.010148418135941029, -0.03744589164853096, 0.9648643732070923, -0.07209768146276474, -0.11127853393554688, 1.48681640625, 1.31689453125, 0.0298919677734375, 1.493408203125
59433, 0.0012908601202070713, -0.012605041265487671, -0.00772174121811986, 2.1222762370598502e-05, 2.5460785764153115e-06, -0.04615538567304611, 0.0002767844998743385, -1.9243236238253303e-05, -0.1784587949514389, 0.1763295978307724, 0.5500428676605225, 0.05684579163789749, 0.1718222467364531, 0.28662262652329673, -7.732424966515701, 9362.0, 30146.0, 35388.0, 9362.0, 8.390083312988281, -0.06141013652086258, -0.28622034192085266, -0.03533172607421875, 0.00951217021793127, -0.03633064404129982, 0.9682031273841858, -0.07659827917814255, -0.10231781005859375, 1.487548828125, 1.31689453125, 0.0298919677734375, 1.494873046875
59443, 0.0003712874895427376, -0.011111607775092125, -0.008601292967796326, 2.408410728094168e-05, 2.3403238174068974e-06, -0.047957658767700195, 0.0002954059455078095, -2.1927557099843398e-05, -0.18199573457241058, 0.17634142935276031, 0.5500440001487732, 0.056836072355508804, 0.17072864583567363, 0.2804054935554632, -7.732138223770646, 9362.0, 30146.0, 35388.0, 9362.0, 8.390083312988281, -0.06704603135585785, -0.2736591398715973, 0.27284374833106995, 0.00833605881780386, -0.037681423127651215, 0.9682082533836365, -0.07690765708684921, -0.07543754577636719, 1.48974609375, 1.31689453125, 0.0298919677734375, 1.4970703125
59453, -0.0010141461389139295, -0.009479277767241001, -0.00790461152791977, 2.7142552426084876e-05, 2.1103442122694105e-06, -0.04979362711310387, 0.0003163664659950882, -2.4120005036820658e-05, -0.1851978302001953, 0.17634005844593048, 0.5500462651252747, 0.056820690631866455, 0.17857601864030065, 0.2809644833259881, -7.728820052468837, 9362.0, 30146.0, 35388.0, 9362.0, 8.390083312988281, 0.04441803693771362, 0.21451382339000702, -0.17096905410289764, 0.012335413135588169, -0.036027681082487106, 0.965385913848877, -0.07740288972854614, -0.09335899353027344, 1.48828125, 1.329345703125, 0.02105712890625, 1.494873046875
59463, -0.0007181887631304562, -0.010599947534501553, -0.00942944549024105, 3.039829789486248e-05, 1.866053480625851e-06, -0.05166130140423775, 0.0003348718164488673, -2.4813736672513187e-05, -0.18833647668361664, 0.1763608306646347, 0.550044596195221, 0.05685288459062576, 0.16775105312151475, 0.2871334023414249, -7.743598090489302, 9362.0, 30146.0, 35388.0, 9362.0, 8.390083312988281, 0.11428460478782654, 0.32522106170654297, -0.011835548095405102, 0.011099882423877716, -0.034958332777023315, 0.9634580612182617, -0.07678238302469254, -0.09335899353027344, 1.48828125, 1.3271484375, 0.022308349609375, 1.493408203125
59473, 0.0005504761938937008, -0.013152356259524822, -0.009918737225234509, 3.382543218322098e-05, 1.626294420020713e-06, -0.05356121063232422, 0.00035049018333666027, -2.312147080374416e-05, -0.19164493680000305, 0.17636312544345856, 0.5500423312187195, 0.056837327778339386, 0.17477342504616405, 0.291032309672147, -7.742658159026422, 9362.0, 30146.0, 35388.0, 9362.0, 8.390083312988281, -0.036455199122428894, -0.21743512153625488, 0.08050006628036499, 0.008800775744020939, -0.03690410777926445, 0.9644702076911926, -0.0740966722369194, -0.03959846496582031, 1.49267578125, 1.317626953125, 0.0291900634765625, 1.49560546875
59483, 0.0006834714440628886, -0.011606238782405853, -0.0095586646348238, 3.741778346011415e-05, 1.400990413458203e-06, -0.05549546703696251, 0.0003678219800349325, -2.1860743800061755e-05, -0.1952061504125595, 0.17633278667926788, 0.5500419735908508, 0.05685710906982422, 0.17315123854034156, 0.2833403428565475, -7.73835095242908, 9362.0, 30146.0, 35388.0, 9362.0, 8.390083312988281, -0.025075756013393402, -0.23592829704284668, -0.21852411329746246, 0.009243582375347614, -0.03836362436413765, 0.9649602770805359, -0.07660458236932755, -0.10231781005859375, 1.487548828125, 1.327880859375, 0.0218353271484375, 1.494873046875
59493, 0.0006138673634268343, -0.010161340236663818, -0.010112731717526913, 4.1204544686479494e-05, 1.1778213320212672e-06, -0.057465191930532455, 0.00038962517282925546, -2.2764776076655835e-05, -0.19873832166194916, 0.1763349324464798, 0.550037682056427, 0.05683428794145584, 0.17139639028347575, 0.28290141910861166, -7.736401608629713, 9362.0, 30146.0, 35388.0, 9362.0, 8.390083312988281, 0.020328190177679062, -0.09660901129245758, 0.3974834978580475, 0.00962111633270979, -0.03715628758072853, 0.9647534489631653, -0.07598493993282318, -0.06647872924804688, 1.490478515625, 1.32568359375, 0.0232086181640625, 1.4970703125
59503, 0.0012667063856497407, -0.009039226919412613, -0.008053249679505825, 4.5196691644378006e-05, 9.445104751648614e-07, -0.05946967750787735, 0.0004088901332579553, -2.390171903243754e-05, -0.20215816795825958, 0.17633815109729767, 0.5500485897064209, 0.05684751272201538, 0.17332712490777, 0.2833689225364253, -7.733770733639973, 9362.0, 30146.0, 35388.0, 9362.0, 8.390083312988281, -0.1614999622106552, -0.10787466168403625, 0.027900755405426025, 0.011653495952486992, -0.035854537039995193, 0.9657809138298035, -0.07090172171592712, -0.03959846496582031, 1.49267578125, 1.316162109375, 0.030517578125, 1.49560546875
59513, 0.0007720443536527455, -0.008991211652755737, -0.007899098098278046, 4.9369522457709536e-05, 7.004081226114067e-07, -0.06150851398706436, 0.0004257434338796884, -2.4878967451513745e-05, -0.20560890436172485, 0.17635498940944672, 0.5500378608703613, 0.05684150010347366, 0.17456060519033398, 0.29245282565710795, -7.742268031042281, 9362.0, 30146.0, 35388.0, 9362.0, 8.390083312988281, -0.18665096163749695, -0.12672477960586548, 0.08145090192556381, 0.00939958542585373, -0.035841841250658035, 0.9636714458465576, -0.07443733513355255, -0.09335899353027344, 1.48828125, 1.305908203125, 0.0413360595703125, 1.494873046875
59523, -0.00031021004542708397, -0.009158319793641567, -0.007048262283205986, 5.370168582885526e-05, 4.411358531797305e-07, -0.0635814294219017, 0.0004406917723827064, -2.7004451112588868e-05, -0.2089737206697464, 0.17635753750801086, 0.5500539541244507, 0.05685107037425041, 0.17809486736819313, 0.2888600868037372, -7.74094376629525, 9362.0, 30146.0, 35388.0, 9362.0, 8.390083312988281, 0.146975576877594, 0.1382775902748108, -0.00454677501693368, 0.008631975390017033, -0.04076638072729111, 0.9641674160957336, -0.07792612910270691, -0.13815879821777344, 1.484619140625, 1.2978515625, 0.05224609375, 1.4970703125
59533, 0.0006158200558274984, -0.010896105319261551, -0.006014995276927948, 5.818283534608781e-05, 1.6470701780235686e-07, -0.06568862497806549, 0.0004555279447231442, -2.8346939870971255e-05, -0.21246515214443207, 0.17633996903896332, 0.5500454306602478, 0.05683600902557373, 0.16738499245756025, 0.2855461958645833, -7.734814164750175, 9362.0, 30146.0, 35388.0, 9362.0, 8.390083312988281, 0.20435909926891327, -0.2182837873697281, 0.11004820466041565, 0.007284885738044977, -0.038560204207897186, 0.9645162224769592, -0.07951007038354874, -0.1291980743408203, 1.4853515625, 1.2978515625, 0.05224609375, 1.493408203125
59543, 0.001403259695507586, -0.00951404869556427, -0.005187991540879011, 6.281367677729577e-05, -1.1621213502621686e-07, -0.06783103197813034, 0.00047053361777216196, -2.7779258743976243e-05, -0.21601516008377075, 0.1763325035572052, 0.5500438809394836, 0.05683237686753273, 0.1768535091702813, 0.2803889456504294, -7.7353132456085225, 9362.0, 30146.0, 35388.0, 9362.0, 8.390083312988281, 0.02788897231221199, -0.009168691001832485, -0.030470261350274086, 0.006621303036808968, -0.037668582051992416, 0.9634480476379395, -0.08072975277900696, -0.05751800537109375, 1.4912109375, 1.300048828125, 0.0489654541015625, 1.5
59553, 0.0014353959122672677, -0.009797381237149239, -0.005777711048722267, 6.760896212654188e-05, -3.990977859302802e-07, -0.07000870257616043, 0.0004886075621470809, -2.8749576813424937e-05, -0.2195189893245697, 0.1763453185558319, 0.5500472187995911, 0.05686667561531067, 0.17428589419007764, 0.2837833400862735, -7.734345944445171, 9362.0, 30146.0, 35388.0, 9362.0, 8.390083312988281, -0.3434276282787323, -0.1433839052915573, -0.21033801138401031, 0.010465028695762157, -0.03943228721618652, 0.9661098718643188, -0.07835961878299713, -0.0037593841552734375, 1.49560546875, 1.2978515625, 0.05224609375, 1.496337890625
59563, 0.0002216921275248751, -0.009251343086361885, -0.00696586724370718, 7.257350807776675e-05, -6.981742899370147e-07, -0.07222183793783188, 0.0005042834091000259, -3.106388248852454e-05, -0.22310709953308105, 0.17633838951587677, 0.5500339865684509, 0.05684519559144974, 0.17711514895480504, 0.2805391723874777, -7.738287556249424, 9362.0, 30146.0, 35388.0, 9362.0, 8.390083312988281, -0.02074401080608368, -0.04834490641951561, 0.08108394593000412, 0.011079450137913227, -0.03747173771262169, 0.9647246599197388, -0.07994776219129562, -0.08439826965332031, 1.489013671875, 1.289794921875, 0.065032958984375, 1.494140625
59573, 0.0008303810027427971, -0.008566068485379219, -0.006661655381321907, 7.769731018925086e-05, -1.0206838396698004e-06, -0.07446989417076111, 0.0005205092602409422, -3.351019768160768e-05, -0.22650453448295593, 0.17634066939353943, 0.5500479936599731, 0.056847888976335526, 0.17141545106709818, 0.2883768819462489, -7.73226871731546, 9362.0, 30146.0, 35388.0, 9362.0, 8.390083312988281, 0.036618318408727646, 0.2401442974805832, -0.14267025887966156, 0.0118977390229702, -0.03776213154196739, 0.9627299904823303, -0.07962079346179962, -0.13815879821777344, 1.484619140625, 1.29638671875, 0.0542755126953125, 1.49560546875
59583, 0.0012252723099663854, -0.008562328293919563, -0.008726419880986214, 8.297884778585285e-05, -1.3576270703197224e-06, -0.07675198465585709, 0.0005358392372727394, -3.384220690350048e-05, -0.22991378605365753, 0.1763453483581543, 0.5500372052192688, 0.056849077343940735, 0.1768185565013825, 0.29039135325146503, -7.727092492412158, 9362.0, 30146.0, 35388.0, 9362.0, 8.390083312988281, 0.1331380009651184, -0.07030639797449112, 0.15714424848556519, 0.0118977390229702, -0.03776213154196739, 0.9627299904823303, -0.07962079346179962, -0.13815879821777344, 1.484619140625, 1.302978515625, 0.0450897216796875, 1.49560546875
59593, 0.0018516387790441513, -0.007626079022884369, -0.007394757587462664, 8.297884778585285e-05, -1.3576270703197224e-06, -0.07675198465585709, 0.0005358392372727394, -3.384220690350048e-05, -0.22991378605365753, 0.17633552849292755, 0.5500380396842957, 0.056824520230293274, 0.16940054718200864, 0.2847035351124134, -7.734088216170395, 9362.0, 30146.0, 35388.0, 9362.0, 8.390083312988281, 0.1331380009651184, -0.07030639797449112, 0.15714424848556519, 0.008504745550453663, -0.03987819701433182, 0.9637572765350342, -0.07962079346179962, -0.13815879821777344, 1.484619140625, 1.302978515625, 0.0450897216796875, 1.49560546875
59633, 0.0018244116799905896, -0.009671098552644253, -0.007289957720786333, 0.00011149904457852244, -3.296360773674678e-06, -0.08869237452745438, 0.0006054608384147286, -4.542411625152454e-05, -0.24746783077716827, 0.17635861039161682, 0.5500472187995911, 0.056861478835344315, 0.17316490416060015, 0.292762266742983, -7.7439940878719815, 9362.0, 30146.0, 35388.0, 9362.0, 8.390083312988281, 0.09686730802059174, 0.1497068852186203, -0.24626274406909943, 0.011351699940860271, -0.03771136328577995, 0.9651145935058594, -0.0848572626709938, -0.03959846496582031, 1.49267578125, 1.302978515625, 0.0450897216796875, 1.49560546875
59653, 0.0020842754747718573, -0.011504157446324825, -0.006298358552157879, 0.00011762783105950803, -3.772783884414821e-06, -0.09118440747261047, 0.0006202544318512082, -4.991193418391049e-05, -0.25093814730644226, 0.17633271217346191, 0.550035834312439, 0.05684143677353859, 0.17265942981367022, 0.2842294346106087, -7.740033364155011, 9362.0, 30146.0, 35388.0, 9362.0, 8.390083312988281, 0.09671983867883682, 0.1774861067533493, -0.2370930314064026, 0.008587360382080078, -0.03610288351774216, 0.9657158851623535, -0.07764849066734314, -0.05751800537109375, 1.4912109375, 1.302978515625, 0.0450897216796875, 1.49560546875
59703, 0.004110288340598345, -0.014047648757696152, -0.009103360585868359, 0.0001582050317665562, -7.478921361325774e-06, -0.10684747248888016, 0.0007472335128113627, -7.575586641905829e-05, -0.27103903889656067, 0.17637021839618683, 0.5500308871269226, 0.056836050003767014, 0.18251756554069792, 0.2859222500003966, -7.751300837506693, 9362.0, 30146.0, 35388.0, 9362.0, 8.390083312988281, -0.03293963521718979, 0.18471084535121918, -0.03863397613167763, 0.011622568592429161, -0.03681251406669617, 0.9661155939102173, -0.07726576179265976, -0.1291980743408203, 1.4853515625, 1.295654296875, 0.05548095703125, 1.49560546875
59713, 0.004123196005821228, -0.016218408942222595, -0.009563465602695942, 0.0001582050317665562, -7.478921361325774e-06, -0.10684747248888016, 0.0007472335128113627, -7.575586641905829e-05, -0.27103903889656067, 0.1763397455215454, 0.5500118136405945, 0.05681239813566208, 0.1844308692656659, 0.2792060419311895, -7.734719318005062, 9362.0, 30146.0, 35388.0, 9362.0, 8.390083312988281, -0.03293963521718979, 0.18471084535121918, -0.03863397613167763, 0.010630084201693535, -0.038069333881139755, 0.9656593799591064, -0.07726576179265976, -0.1291980743408203, 1.4853515625, 1.295654296875, 0.05548095703125, 1.49560546875
59723, 0.004016576334834099, -0.015560402534902096, -0.00952039286494255, 0.0001582050317665562, -7.478921361325774e-06, -0.10684747248888016, 0.0007472335128113627, -7.575586641905829e-05, -0.27103903889656067, 0.17634083330631256, 0.5500474572181702, 0.05686314031481743, 0.1758805250406632, 0.282864284397391, -7.732962949786462, 9362.0, 30146.0, 35388.0, 9362.0, 8.390083312988281, -0.02569267526268959, -0.14596262574195862, 0.08086957037448883, 0.009973251260817051, -0.03659864142537117, 0.9642246961593628, -0.07726576179265976, -0.1291980743408203, 1.4853515625, 1.295654296875, 0.05548095703125, 1.49560546875
59753, 0.004572623409330845, -0.013477868400514126, -0.009718543849885464, 0.00019865708600264043, -1.2021080692647956e-05, -0.12082480639219284, 0.0008707275846973062, -0.00010762237070593983, -0.2881041467189789, 0.1763388216495514, 0.5500426888465881, 0.056838080286979675, 0.1738855562932017, 0.28056499162238424, -7.738944728895809, 9362.0, 30146.0, 35388.0, 9362.0, 8.390083312988281, 0.012504895217716694, 0.25321897864341736, 0.10612525790929794, 0.010403699241578579, -0.03973666951060295, 0.9651023745536804, -0.08095598220825195, -0.04855918884277344, 1.491943359375, 1.295654296875, 0.05548095703125, 1.49560546875
59763, 0.004991405643522739, -0.015185615979135036, -0.008686835877597332, 0.00020748098904732615, -1.3131951163813937e-05, -0.12372303754091263, 0.0008940905099734664, -0.00011452921171439812, -0.29154184460639954, 0.1763392835855484, 0.5500476360321045, 0.056820373982191086, 0.1770753748046001, 0.28158064730965293, -7.738063646352579, 9362.0, 30146.0, 35388.0, 9362.0, 8.390083312988281, -0.04655144736170769, 0.0014699265593662858, 0.08119989186525345, 0.009518948383629322, -0.035888880491256714, 0.965929388999939, -0.08095598220825195, -0.04855918884277344, 1.491943359375, 1.295654296875, 0.05548095703125, 1.49560546875
59773, 0.004814947955310345, -0.01471906341612339, -0.007925943471491337, 0.00020748098904732615, -1.3131951163813937e-05, -0.12372303754091263, 0.0008940905099734664, -0.00011452921171439812, -0.29154184460639954, 0.17632725834846497, 0.5500446557998657, 0.056863535195589066, 0.16580919613965905, 0.28541205456832586, -7.734045855584816, 9362.0, 30146.0, 35388.0, 9362.0, 8.390083312988281, 0.1374063342809677, 0.2965722680091858, -0.27614304423332214, 0.010743927210569382, -0.03702349215745926, 0.965707004070282, -0.08095598220825195, -0.04855918884277344, 1.491943359375, 1.295654296875, 0.05548095703125, 1.49560546875
59783, 0.004928241018205881, -0.017060525715351105, -0.009883308783173561, 0.00020748098904732615, -1.3131951163813937e-05, -0.12372303754091263, 0.0008940905099734664, -0.00011452921171439812, -0.29154184460639954, 0.17633773386478424, 0.5500406622886658, 0.05685305967926979, 0.17053201974993826, 0.28377566852859104, -7.733192474271513, 9362.0, 30146.0, 35388.0, 9362.0, 8.390083312988281, 0.266516774892807, 0.10946590453386307, -0.32038813829421997, 0.009867483749985695, -0.03631093353033066, 0.9642123579978943, -0.08095598220825195, -0.04855918884277344, 1.491943359375, 1.295654296875, 0.05548095703125, 1.49560546875
59823, 0.004977122414857149, -0.021970391273498535, -0.007536649703979492, 0.00025523919612169266, -1.9858835003105924e-05, -0.13872143626213074, 0.0010231361957266927, -0.00015662971418350935, -0.30856800079345703, 0.1763356626033783, 0.5500445365905762, 0.05684452876448631, 0.1726760783200328, 0.2742854986880445, -7.734814471800185, 9362.0, 30146.0, 35388.0, 9362.0, 8.390083312988281, -0.20172818005084991, 0.4085436165332794, 0.24108488857746124, 0.008855141699314117, -0.03773975744843483, 0.9662826061248779, -0.07898630946874619, -0.04855918884277344, 1.491943359375, 1.295654296875, 0.05548095703125, 1.49560546875
59833, 0.00569553766399622, -0.021420389413833618, -0.010495285503566265, 0.0002763332740869373, -2.3179001800599508e-05, -0.144965261220932, 0.001088975346647203, -0.00017501313413958997, -0.31579896807670593, 0.17633002996444702, 0.5500444769859314, 0.05683647096157074, 0.1660568399637318, 0.2792994553649919, -7.737229851129729, 9362.0, 30146.0, 35388.0, 9362.0, 8.390083312988281, 0.10880269855260849, 0.47232139110565186, 0.3009994328022003, 0.008771216496825218, -0.03972437605261803, 0.9659396409988403, -0.07898630946874619, -0.04855918884277344, 1.491943359375, 1.295654296875, 0.05548095703125, 1.49560546875
59843, 0.006149825640022755, -0.023699939250946045, -0.008589105680584908, 0.0002763332740869373, -2.3179001800599508e-05, -0.144965261220932, 0.001088975346647203, -0.00017501313413958997, -0.31579896807670593, 0.17634586989879608, 0.5500187873840332, 0.05682387202978134, 0.1765453149958307, 0.2724883925470749, -7.735503283256212, 9362.0, 30146.0, 35388.0, 9362.0, 8.390083312988281, 0.10880269855260849, 0.47232139110565186, 0.3009994328022003, 0.011791408993303776, -0.036440011113882065, 0.9673739671707153, -0.07898630946874619, -0.04855918884277344, 1.491943359375, 1.295654296875, 0.05548095703125, 1.49560546875
59853, 0.00632796436548233, -0.024402253329753876, -0.008120994083583355, 0.0002763332740869373, -2.3179001800599508e-05, -0.144965261220932, 0.001088975346647203, -0.00017501313413958997, -0.31579896807670593, 0.17636407911777496, 0.5500394701957703, 0.05685217306017876, 0.17406249796005507, 0.28716858770010845, -7.745248573134169, 9362.0, 30146.0, 35388.0, 9362.0, 8.390083312988281, 0.11547477543354034, -0.024038804695010185, 0.14307421445846558, 0.011791408993303776, -0.036440011113882065, 0.9673739671707153, -0.0727127343416214, -0.01271820068359375, 1.494873046875, 1.295654296875, 0.05548095703125, 1.49560546875
59873, 0.006120241247117519, -0.025019703432917595, -0.009620842523872852, 0.00032283770269714296, -3.090671816607937e-05, -0.15786349773406982, 0.0012402074644342065, -0.00021327634749468416, -0.3290378451347351, 0.17633198201656342, 0.5500439405441284, 0.05686517059803009, 0.17113553311247107, 0.2733845449633634, -7.731150652252216, 9362.0, 30146.0, 35388.0, 9362.0, 8.390083312988281, -0.04517856240272522, 0.05400509014725685, -0.011677779257297516, 0.010545188561081886, -0.037457890808582306, 0.9664062261581421, -0.0727127343416214, -0.01271820068359375, 1.494873046875, 1.295654296875, 0.05548095703125, 1.49560546875
59883, 0.005569005385041237, -0.02564438246190548, -0.011026632972061634, 0.00032283770269714296, -3.090671816607937e-05, -0.15786349773406982, 0.0012402074644342065, -0.00021327634749468416, -0.3290378451347351, 0.1763269156217575, 0.5500428080558777, 0.05686233565211296, 0.17193881449830004, 0.2701073650477497, -7.735592310259841, 9362.0, 30146.0, 35388.0, 9362.0, 8.390083312988281, 0.10474843531847, 0.020126037299633026, -0.18586426973342896, 0.010299031622707844, -0.03704041242599487, 0.9634986519813538, -0.0727127343416214, -0.01271820068359375, 1.494873046875, 1.295654296875, 0.05548095703125, 1.49560546875
59893, 0.005644835066050291, -0.025860654190182686, -0.011882869526743889, 0.00032283770269714296, -3.090671816607937e-05, -0.15786349773406982, 0.0012402074644342065, -0.00021327634749468416, -0.3290378451347351, 0.1763349324464798, 0.5500507950782776, 0.05686447396874428, 0.1705916316951121, 0.2875709575499741, -7.7362364994320565, 9362.0, 30146.0, 35388.0, 9362.0, 8.390083312988281, 0.10474843531847, 0.020126037299633026, -0.18586426973342896, 0.009599503129720688, -0.03831053525209427, 0.9626244306564331, -0.0727127343416214, -0.01271820068359375, 1.494873046875, 1.295654296875, 0.05548095703125, 1.49560546875
59963, 0.00698675075545907, -0.028784623369574547, -0.011542726308107376, 0.00043547971290536225, -5.110232814331539e-05, -0.18530979752540588, 0.0015832940116524696, -0.0002955522504635155, -0.35688862204551697, 0.17633625864982605, 0.5500404238700867, 0.056841373443603516, 0.17333274641637766, 0.28367289779720295, -7.732262028762022, 9362.0, 30146.0, 35388.0, 9362.0, 8.390083312988281, 0.058833613991737366, 0.1124797835946083, 0.07943239063024521, 0.008457517251372337, -0.03825719282031059, 0.9640564918518066, -0.06598933041095734, -0.04855918884277344, 1.491943359375, 1.295654296875, 0.05548095703125, 1.494873046875
59973, 0.00814152043312788, -0.03044445998966694, -0.011385620571672916, 0.0004681003338191658, -5.7265184295829386e-05, -0.19251444935798645, 0.0016782779712229967, -0.00031977391336113214, -0.3636968731880188, 0.17634035646915436, 0.5500345826148987, 0.05684749037027359, 0.16852546535104487, 0.2902470550005489, -7.7350810031316435, 9362.0, 30146.0, 35388.0, 9362.0, 8.390083312988281, 0.11219707131385803, -0.36700472235679626, -0.25609883666038513, 0.008457517251372337, -0.03825719282031059, 0.9640564918518066, -0.07972729951143265, -0.11127853393554688, 1.48681640625, 1.295654296875, 0.05548095703125, 1.494873046875
59983, 0.00837589893490076, -0.02868625521659851, -0.01314182486385107, 0.0004681003338191658, -5.7265184295829386e-05, -0.19251444935798645, 0.0016782779712229967, -0.00031977391336113214, -0.3636968731880188, 0.17634211480617523, 0.5500401258468628, 0.05685038864612579, 0.16800838800282047, 0.2809657628997684, -7.730778475406631, 9362.0, 30146.0, 35388.0, 9362.0, 8.390083312988281, -0.09714851528406143, -0.1415853351354599, 0.23777268826961517, 0.011988031677901745, -0.03961501643061638, 0.9640098214149475, -0.07972729951143265, -0.11127853393554688, 1.48681640625, 1.295654296875, 0.05548095703125, 1.494873046875
59993, 0.00696052610874176, -0.027392810210585594, -0.01121473964303732, 0.0004681003338191658, -5.7265184295829386e-05, -0.19251444935798645, 0.0016782779712229967, -0.00031977391336113214, -0.3636968731880188, 0.17633341252803802, 0.550038754940033, 0.05684886872768402, 0.17219443884922347, 0.2860724909054113, -7.736692302190643, 9362.0, 30146.0, 35388.0, 9362.0, 8.390083312988281, -0.09714851528406143, -0.1415853351354599, 0.23777268826961517, 0.010070321150124073, -0.03659287840127945, 0.9656357169151306, -0.0697084292769432, -0.03959846496582031, 1.49267578125, 1.295654296875, 0.05548095703125, 1.494873046875
60023, 0.00716549763455987, -0.03605971485376358, -0.00783467385917902, 0.000558020721655339, -7.48175589251332e-05, -0.21113957464694977, 0.0019182537216693163, -0.00038149263127706945, -0.3810046911239624, 0.1763329654932022, 0.5500480532646179, 0.056831859052181244, 0.17505057787397627, 0.2848797941738326, -7.727194306218892, 9362.0, 30146.0, 35388.0, 9362.0, 8.390083312988281, -0.07575856894254684, 0.0712781548500061, 0.034214213490486145, 0.010430346243083477, -0.03969064727425575, 0.9647098779678345, -0.06320906430482864, -0.07543754577636719, 1.48974609375, 1.295654296875, 0.05548095703125, 1.494873046875
60033, 0.007286363281309605, -0.03694652393460274, -0.00854050274938345, 0.0005774737801402807, -7.868721877457574e-05, -0.21496626734733582, 0.0019721579737961292, -0.00039240639307536185, -0.38433390855789185, 0.1763305962085724, 0.5500492453575134, 0.05686243623495102, 0.16657720670567686, 0.27985875972905205, -7.728192726612483, 9362.0, 30146.0, 35388.0, 9362.0, 8.390083312988281, 0.34333959221839905, 0.4237101078033447, -0.016702134162187576, 0.00938844308257103, -0.03844454512000084, 0.963797926902771, -0.06320906430482864, -0.07543754577636719, 1.48974609375, 1.295654296875, 0.05548095703125, 1.494873046875
60043, 0.007718679495155811, -0.03826609626412392, -0.009501118212938309, 0.0005974931409582496, -8.267049997812137e-05, -0.21882691979408264, 0.0020316634327173233, -0.00040424344479106367, -0.3877968192100525, 0.17633850872516632, 0.5500385761260986, 0.056859664618968964, 0.16717273466322088, 0.27864121479910864, -7.73499768914791, 9362.0, 30146.0, 35388.0, 9362.0, 8.390083312988281, 0.34333959221839905, 0.4237101078033447, -0.016702134162187576, 0.010446514002978802, -0.03797184303402901, 0.9649420976638794, -0.06025148928165436, -0.08439826965332031, 1.489013671875, 1.295654296875, 0.05548095703125, 1.494873046875
60063, 0.008030216209590435, -0.03856271505355835, -0.013314801268279552, 0.0006393562653101981, -9.099943417822942e-05, -0.22665321826934814, 0.0021557980217039585, -0.0004290154902264476, -0.39478304982185364, 0.17634519934654236, 0.5500257015228271, 0.05681261047720909, 0.17264521819097572, 0.2751155776232963, -7.732890013077832, 9362.0, 30146.0, 35388.0, 9362.0, 8.390083312988281, -0.04810831695795059, -0.31585225462913513, -0.3132462501525879, 0.012335133738815784, -0.03849511221051216, 0.9647278189659119, -0.06292837858200073, -0.05751800537109375, 1.4912109375, 1.295654296875, 0.05548095703125, 1.494873046875
60083, 0.007048852276057005, -0.03669775649905205, -0.015100420452654362, 0.0006837264518253505, -9.983804920921102e-05, -0.23461835086345673, 0.00228200014680624, -0.00045510759809985757, -0.40170368552207947, 0.17633451521396637, 0.5500434041023254, 0.05685589089989662, 0.16677233675518224, 0.2833138063385263, -7.725510318804945, 9362.0, 30146.0, 35388.0, 9362.0, 8.390083312988281, -0.11706000566482544, 0.3152659237384796, 0.0891551673412323, 0.010743606835603714, -0.038606323301792145, 0.9652597904205322, -0.06447379291057587, -0.07543754577636719, 1.48974609375, 1.295654296875, 0.05548095703125, 1.494873046875
60093, 0.005995037965476513, -0.03737151250243187, -0.014430304989218712, 0.0007068466511555016, -0.00010445266525493935, -0.2386532872915268, 0.002342025749385357, -0.000467856036266312, -0.4052833318710327, 0.17634618282318115, 0.5500560998916626, 0.05685685947537422, 0.16900984845892944, 0.2808838292537814, -7.737204201871428, 9362.0, 30146.0, 35388.0, 9362.0, 8.390083312988281, -0.18735948204994202, -0.0815478041768074, 0.21667686104774475, 0.011308395303785801, -0.03792211040854454, 0.9660093188285828, -0.06447379291057587, -0.07543754577636719, 1.48974609375, 1.295654296875, 0.05548095703125, 1.494873046875
60133, 0.006173719651997089, -0.034261226654052734, -0.018108556047081947, 0.0008053480414673686, -0.00012398451508488506, -0.25513944029808044, 0.0025771413929760456, -0.0005061180563643575, -0.4190264344215393, 0.17634014785289764, 0.5500402450561523, 0.05682031437754631, 0.1733666477388464, 0.2837215264499662, -7.737894825348824, 9362.0, 30146.0, 35388.0, 9362.0, 8.390083312988281, -0.03185638412833214, -0.4031468331813812, 0.09508270770311356, 0.01145626325160265, -0.037934184074401855, 0.9675827026367188, -0.06798110902309418, -0.10231781005859375, 1.487548828125, 1.295654296875, 0.05548095703125, 1.494873046875
60153, 0.006231130100786686, -0.03307425603270531, -0.019733523949980736, 0.0008580012945458293, -0.00013431161642074585, -0.26358917355537415, 0.0026890619192272425, -0.000526614545378834, -0.4258262515068054, 0.17636427283287048, 0.5500392317771912, 0.056841891258955, 0.17188354093792527, 0.2929507586161719, -7.743865436003592, 9362.0, 30146.0, 35388.0, 9362.0, 8.390083312988281, 0.01889641210436821, -0.10081727057695389, 0.18637914955615997, 0.012987607158720493, -0.03872371464967728, 0.9649044871330261, -0.07357358187437057, -0.10231781005859375, 1.487548828125, 1.295654296875, 0.05548095703125, 1.494873046875
60163, 0.006364054977893829, -0.03268571197986603, -0.01806148700416088, 0.0008851588936522603, -0.0001396254956489429, -0.2678637206554413, 0.0027424131985753775, -0.0005361357470974326, -0.42908215522766113, 0.17633786797523499, 0.5500569939613342, 0.05683746933937073, 0.16762396451623476, 0.28070454452577565, -7.7344396737241565, 9362.0, 30146.0, 35388.0, 9362.0, 8.390083312988281, -0.0188431553542614, -0.2551572322845459, -0.12184767425060272, 0.011437831446528435, -0.03811469301581383, 0.9647879004478455, -0.07021918892860413, -0.030637741088867188, 1.493408203125, 1.295654296875, 0.05548095703125, 1.494873046875
60173, 0.0057466160506010056, -0.031681522727012634, -0.018050014972686768, 0.0008851588936522603, -0.0001396254956489429, -0.2678637206554413, 0.0027424131985753775, -0.0005361357470974326, -0.42908215522766113, 0.17634636163711548, 0.5500405430793762, 0.05684038624167442, 0.172289983138688, 0.28737648562574236, -7.732000475409594, 9362.0, 30146.0, 35388.0, 9362.0, 8.390083312988281, -0.0188431553542614, -0.2551572322845459, -0.12184767425060272, 0.011056574992835522, -0.036434024572372437, 0.9657541513442993, -0.07081413269042969, -0.10231781005859375, 1.487548828125, 1.314697265625, 0.0319061279296875, 1.494873046875
60203, 0.007147046271711588, -0.03379306569695473, -0.021391062065958977, 0.0009698702488094568, -0.0001561731332913041, -0.28089064359664917, 0.002903511980548501, -0.0005665397038683295, -0.43934306502342224, 0.17633534967899323, 0.5500419735908508, 0.05685367062687874, 0.17194396997021544, 0.2885618481394374, -7.734282850880194, 9362.0, 30146.0, 35388.0, 9362.0, 8.390083312988281, -0.004084431566298008, -0.24115893244743347, -0.2607804238796234, 0.01017714012414217, -0.03571898862719536, 0.9642453789710999, -0.07671049982309341, -0.10231781005859375, 1.487548828125, 1.314697265625, 0.0319061279296875, 1.494873046875
60213, 0.007004981394857168, -0.03370290249586105, -0.0222677793353796, 0.0009698702488094568, -0.0001561731332913041, -0.28089064359664917, 0.002903511980548501, -0.0005665397038683295, -0.43934306502342224, 0.17634674906730652, 0.5500497817993164, 0.05684531480073929, 0.17017956289001596, 0.2798505801973761, -7.736598250216297, 9362.0, 30146.0, 35388.0, 9362.0, 8.390083312988281, -0.011526637710630894, 0.17927832901477814, -0.14668482542037964, 0.009721522219479084, -0.038572996854782104, 0.9666565656661987, -0.07671049982309341, -0.10231781005859375, 1.487548828125, 1.314697265625, 0.0319061279296875, 1.494873046875
60233, 0.005536327604204416, -0.034325212240219116, -0.02378160133957863, 0.0010903063230216503, -0.0001796468422980979, -0.298737496137619, 0.003121310379356146, -0.000609464303124696, -0.4529370069503784, 0.17636775970458984, 0.5500362515449524, 0.05682571232318878, 0.1735173194396518, 0.28511413022940246, -7.73621538007827, 9362.0, 30146.0, 35388.0, 9362.0, 8.390083312988281, 0.042853932827711105, 0.6470127105712891, -0.09162034094333649, 0.010039106011390686, -0.039893753826618195, 0.9647571444511414, -0.07671049982309341, -0.10231781005859375, 1.487548828125, 1.314697265625, 0.0319061279296875, 1.494873046875
60253, 0.006653535179793835, -0.03932861238718033, -0.024583863094449043, 0.001153889810666442, -0.00019202841212972999, -0.30786359310150146, 0.003235997399315238, -0.0006284004193730652, -0.45972418785095215, 0.176351398229599, 0.5500441193580627, 0.0568288154900074, 0.16781333335595724, 0.2831901098670073, -7.737614018947318, 9362.0, 30146.0, 35388.0, 9362.0, 8.390083312988281, -0.026056645438075066, -0.1605505645275116, -0.10519765317440033, 0.010006834752857685, -0.03878672793507576, 0.9647836685180664, -0.07572130858898163, -0.10231781005859375, 1.487548828125, 1.314697265625, 0.0319061279296875, 1.494873046875
60263, 0.0066115059889853, -0.03873872756958008, -0.025149760767817497, 0.001153889810666442, -0.00019202841212972999, -0.30786359310150146, 0.003235997399315238, -0.0006284004193730652, -0.45972418785095215, 0.17634721100330353, 0.5500409603118896, 0.056839048862457275, 0.16985517975812084, 0.28712020220390855, -7.7318228267225795, 9362.0, 30146.0, 35388.0, 9362.0, 8.390083312988281, 0.34357959032058716, -0.05015723034739494, -0.023037951439619064, 0.010165905579924583, -0.03735843673348427, 0.9660532474517822, -0.07572130858898163, -0.10231781005859375, 1.487548828125, 1.314697265625, 0.0319061279296875, 1.494873046875
60273, 0.009040731005370617, -0.038475509732961655, -0.025880681350827217, 0.001153889810666442, -0.00019202841212972999, -0.30786359310150146, 0.003235997399315238, -0.0006284004193730652, -0.45972418785095215, 0.17635215818881989, 0.550044059753418, 0.05683090165257454, 0.17012801101359007, 0.286246559138732, -7.732662382557916, 9362.0, 30146.0, 35388.0, 9362.0, 8.390083312988281, -0.034917451441287994, -0.02083604969084263, 0.21992787718772888, 0.011149992235004902, -0.03725915402173996, 0.9654633402824402, -0.07572130858898163, -0.10231781005859375, 1.487548828125, 1.314697265625, 0.0319061279296875, 1.494873046875
60283, 0.008579636923968792, -0.038176264613866806, -0.025402067229151726, 0.001153889810666442, -0.00019202841212972999, -0.30786359310150146, 0.003235997399315238, -0.0006284004193730652, -0.45972418785095215, 0.17634986340999603, 0.5500473976135254, 0.05684959515929222, 0.17038491796076155, 0.28240469099580423, -7.72964960926995, 9362.0, 30146.0, 35388.0, 9362.0, 8.390083312988281, 0.028087744489312172, -0.0804658755660057, -0.19622807204723358, 0.011981424875557423, -0.03852981701493263, 0.9642549753189087, -0.07572130858898163, -0.10231781005859375, 1.487548828125, 1.314697265625, 0.0319061279296875, 1.494873046875
60303, 0.008414805866777897, -0.03776851296424866, -0.024582169950008392, 0.0013237380189821124, -0.0002248168457299471, -0.3312867283821106, 0.00355633907020092, -0.0006886801565997303, -0.4770459234714508, 0.1763547658920288, 0.5500431060791016, 0.05682328715920448, 0.1690734147580778, 0.285561178754989, -7.729946464475538, 9362.0, 30146.0, 35388.0, 9362.0, 8.390083312988281, 0.14698387682437897, -0.21405278146266937, -0.31232866644859314, 0.00924109946936369, -0.038425132632255554, 0.967316746711731, -0.08231095224618912, -0.1291980743408203, 1.4853515625, 1.314697265625, 0.0319061279296875, 1.494873046875
60323, 0.009935891255736351, -0.038076456636190414, -0.026166578754782677, 0.0013960719807073474, -0.00023886830604169518, -0.340894877910614, 0.0036785269621759653, -0.0007164417766034603, -0.4836830794811249, 0.1763525903224945, 0.5500512719154358, 0.056829504668712616, 0.17241480550933888, 0.277538626424473, -7.735840416046701, 9362.0, 30146.0, 35388.0, 9362.0, 8.390083312988281, -0.23096659779548645, 0.15249387919902802, 0.1384282410144806, 0.010133079253137112, -0.036474160850048065, 0.9640708565711975, -0.08231095224618912, -0.1291980743408203, 1.4853515625, 1.314697265625, 0.0319061279296875, 1.494873046875
60333, 0.008486435748636723, -0.04079168289899826, -0.024617774412035942, 0.001433161087334156, -0.0002461126714479178, -0.34574824571609497, 0.003739212406799197, -0.0007324169855564833, -0.4869895875453949, 0.17637254297733307, 0.5500460267066956, 0.05683156102895737, 0.17112876307437017, 0.2989847392723277, -7.744350532784363, 9362.0, 30146.0, 35388.0, 9362.0, 8.390083312988281, -0.23096659779548645, 0.15249387919902802, 0.1384282410144806, 0.010133079253137112, -0.036474160850048065, 0.9640708565711975, -0.07247096300125122, -0.08439826965332031, 1.489013671875, 1.314697265625, 0.0319061279296875, 1.494873046875
60353, 0.0071839336305856705, -0.03930714726448059, -0.024495935067534447, 0.0015092233661562204, -0.0002610785886645317, -0.3555580675601959, 0.0038691561203449965, -0.000762988580390811, -0.4940667450428009, 0.17635507881641388, 0.5500513315200806, 0.05681327357888222, 0.17120658526033417, 0.2786684952496614, -7.731049346843002, 9362.0, 30146.0, 35388.0, 9362.0, 8.390083312988281, -0.23096659779548645, 0.15249387919902802, 0.1384282410144806, 0.009095778688788414, -0.03751664608716965, 0.9666849970817566, -0.07247096300125122, -0.08439826965332031, 1.489013671875, 1.314697265625, 0.0319061279296875, 1.494873046875
60363, 0.00831056758761406, -0.038814760744571686, -0.023779872804880142, 0.0015092233661562204, -0.0002610785886645317, -0.3555580675601959, 0.0038691561203449965, -0.000762988580390811, -0.4940667450428009, 0.1763530820608139, 0.5500496029853821, 0.05683090165257454, 0.16504445065169543, 0.2800994175281062, -7.732504450586609, 9362.0, 30146.0, 35388.0, 9362.0, 8.390083312988281, -0.23096659779548645, 0.15249387919902802, 0.1384282410144806, 0.010064744390547276, -0.03846226632595062, 0.9636631608009338, -0.07247096300125122, -0.08439826965332031, 1.489013671875, 1.314697265625, 0.0319061279296875, 1.494873046875
60373, 0.008177757263183594, -0.03997212275862694, -0.02325432188808918, 0.0015092233661562204, -0.0002610785886645317, -0.3555580675601959, 0.0038691561203449965, -0.000762988580390811, -0.4940667450428009, 0.1763352006673813, 0.5500520467758179, 0.05681400001049042, 0.1688811916152998, 0.2782780685421926, -7.739867831915586, 9362.0, 30146.0, 35388.0, 9362.0, 8.390083312988281, -0.23096659779548645, 0.15249387919902802, 0.1384282410144806, 0.009217710234224796, -0.036764103919267654, 0.9656140208244324, -0.07247096300125122, -0.08439826965332031, 1.489013671875, 1.314697265625, 0.0319061279296875, 1.494873046875
60383, 0.00822572223842144, -0.03944508358836174, -0.023679304867982864, 0.0015092233661562204, -0.0002610785886645317, -0.3555580675601959, 0.0038691561203449965, -0.000762988580390811, -0.4940667450428009, 0.1763477772474289, 0.5500485897064209, 0.056833308190107346, 0.16671526654231908, 0.2882034768170456, -7.7340451093244935, 9362.0, 30146.0, 35388.0, 9362.0, 8.390083312988281, 0.026701003313064575, -0.17585761845111847, -0.08773478865623474, 0.010055082850158215, -0.03779277205467224, 0.9648582339286804, -0.07247096300125122, -0.08439826965332031, 1.489013671875, 1.314697265625, 0.0319061279296875, 1.494873046875
60423, 0.008734412491321564, -0.037066057324409485, -0.02343131974339485, 0.0017532540950924158, -0.0003092240949627012, -0.38582202792167664, 0.004261083900928497, -0.0008426436106674373, -0.5147407650947571, 0.17634564638137817, 0.5500516891479492, 0.05682516098022461, 0.16791754184449736, 0.2745702113211621, -7.731121597754461, 9362.0, 30146.0, 35388.0, 9362.0, 8.390083312988281, 0.006562378723174334, 0.07827308028936386, 0.11048497259616852, 0.01079268753528595, -0.033875465393066406, 0.9645681977272034, -0.07247096300125122, -0.08439826965332031, 1.489013671875, 1.314697265625, 0.0319061279296875, 1.494873046875
60443, 0.007665013428777456, -0.0353548564016819, -0.024849776178598404, 0.0017532540950924158, -0.0003092240949627012, -0.38582202792167664, 0.004261083900928497, -0.0008426436106674373, -0.5147407650947571, 0.17634014785289764, 0.5500438213348389, 0.056834589689970016, 0.16594662341308306, 0.28104705097621263, -7.730808116131153, 9362.0, 30146.0, 35388.0, 9362.0, 8.390083312988281, 0.006562378723174334, 0.07827308028936386, 0.11048497259616852, 0.01053505577147007, -0.03636834770441055, 0.9652130603790283, -0.08185191452503204, -0.09335899353027344, 1.48828125, 1.314697265625, 0.0319061279296875, 1.494873046875
60493, 0.009099618531763554, -0.03761455416679382, -0.02505933865904808, 0.0021139050368219614, -0.0003809564805123955, -0.42812007665634155, 0.0047564259730279446, -0.0009500618325546384, -0.5423709154129028, 0.176348477602005, 0.550053060054779, 0.056817881762981415, 0.17027523470707048, 0.2759080851125475, -7.734941323120857, 9362.0, 30146.0, 35388.0, 9362.0, 8.390083312988281, 0.006562378723174334, 0.07827308028936386, 0.11048497259616852, 0.009721910580992699, -0.03735128045082092, 0.96551913022995, -0.08121106028556824, -0.04855918884277344, 1.491943359375, 1.314697265625, 0.0319061279296875, 1.494873046875
60513, 0.00918436050415039, -0.03565777838230133, -0.02233111299574375, 0.0021139050368219614, -0.0003809564805123955, -0.42812007665634155, 0.0047564259730279446, -0.0009500618325546384, -0.5423709154129028, 0.17634883522987366, 0.5500450730323792, 0.056843265891075134, 0.1688170406022598, 0.28203055193546334, -7.739436865010094, 9362.0, 30146.0, 35388.0, 9362.0, 8.390083312988281, 0.006562378723174334, 0.07827308028936386, 0.11048497259616852, 0.009957505390048027, -0.036528993397951126, 0.9651519656181335, -0.08121106028556824, -0.04855918884277344, 1.491943359375, 1.314697265625, 0.0319061279296875, 1.494873046875
60623, 0.010357769206166267, -0.0392753966152668, -0.02593173459172249, 0.0027847837191075087, -0.0005174162215553224, -0.5014668703079224, 0.005576283670961857, -0.0011562563013285398, -0.5861172676086426, 0.17633973062038422, 0.5500521659851074, 0.05685799568891525, 0.16745237317946668, 0.28139733641791054, -7.732007576914385, 9362.0, 30146.0, 35388.0, 9362.0, 8.390083312988281, -0.02395695447921753, -0.07380292564630508, -0.28174030780792236, 0.009112759493291378, -0.03839103505015373, 0.9634577035903931, -0.10273101180791855, -0.09335899353027344, 1.48828125, 1.314697265625, 0.0319061279296875, 1.494873046875
60633, 0.009563161060214043, -0.040453795343637466, -0.025684408843517303, 0.0027847837191075087, -0.0005174162215553224, -0.5014668703079224, 0.005576283670961857, -0.0011562563013285398, -0.5861172676086426, 0.17635054886341095, 0.5500479936599731, 0.05682087317109108, 0.1712283046462722, 0.28496576746843516, -7.743444327705641, 9362.0, 30146.0, 35388.0, 9362.0, 8.390083312988281, -0.02395695447921753, -0.07380292564630508, -0.28174030780792236, 0.009619018994271755, -0.039359431713819504, 0.9642782211303711, -0.10273101180791855, -0.09335899353027344, 1.48828125, 1.314697265625, 0.0319061279296875, 1.494873046875
60643, 0.007148961536586285, -0.037821266800165176, -0.025880038738250732, 0.0027847837191075087, -0.0005174162215553224, -0.5014668703079224, 0.005576283670961857, -0.0011562563013285398, -0.5861172676086426, 0.17635421454906464, 0.5500476956367493, 0.05683111771941185, 0.1718440528769112, 0.27983370249828, -7.736379939963793, 9362.0, 30146.0, 35388.0, 9362.0, 8.390083312988281, 0.11219611018896103, -0.13136820495128632, -0.0009419540874660015, 0.00898150634020567, -0.03759418800473213, 0.9655351638793945, -0.10273101180791855, -0.09335899353027344, 1.48828125, 1.314697265625, 0.0319061279296875, 1.494873046875
60733, 0.0046573206782341, -0.04143039882183075, -0.025041326880455017, 0.0033753467723727226, -0.0006401308346539736, -0.5618086457252502, 0.0062574353069067, -0.0012806056765839458, -0.6208093762397766, 0.1763453483581543, 0.5500476956367493, 0.056838516145944595, 0.16715556269689857, 0.28223527039986607, -7.731755262637479, 9362.0, 30146.0, 35388.0, 9362.0, 8.390083312988281, -0.27006030082702637, -0.17219913005828857, -0.05302351713180542, 0.008918591775000095, -0.03834209963679314, 0.9637890458106995, -0.07695900648832321, -0.09335899353027344, 1.48828125, 1.314697265625, 0.0319061279296875, 1.494873046875
60743, 0.005183507688343525, -0.042359717190265656, -0.02445177733898163, 0.0035019826609641314, -0.0006658820202574134, -0.5742941498756409, 0.006406500469893217, -0.0012950091622769833, -0.627700924873352, 0.1763436198234558, 0.5500473380088806, 0.056838251650333405, 0.16547923835958883, 0.28167847294116655, -7.727140810446831, 9362.0, 30146.0, 35388.0, 9362.0, 8.390083312988281, -0.06261298805475235, -0.4624558389186859, -0.17248332500457764, 0.010143699124455452, -0.036666519939899445, 0.9645158648490906, -0.07695900648832321, -0.09335899353027344, 1.48828125, 1.314697265625, 0.0319061279296875, 1.494873046875
60763, 0.004421254154294729, -0.03999338671565056, -0.024538151919841766, 0.0036314877215772867, -0.0006919406005181372, -0.586918294429779, 0.006544829811900854, -0.0013113402528688312, -0.6347272992134094, 0.17634634673595428, 0.5500518083572388, 0.05685896426439285, 0.16550488348478978, 0.2859377108411252, -7.743258149106619, 9362.0, 30146.0, 35388.0, 9362.0, 8.390083312988281, 0.020248105749487877, 0.06130484119057655, -0.176415354013443, 0.01164386048913002, -0.03780587017536163, 0.9644713401794434, -0.07464960962533951, -0.07543754577636719, 1.48974609375, 1.314697265625, 0.0319061279296875, 1.494873046875
60803, 0.002214428037405014, -0.0438108928501606, -0.026073476299643517, 0.003830862697213888, -0.0007316073752008379, -0.6061176657676697, 0.006746279541403055, -0.001333917840383947, -0.6451994776725769, 0.1763504594564438, 0.5500554442405701, 0.056825894862413406, 0.16893161101749424, 0.28035651945253903, -7.731557275555686, 9362.0, 30146.0, 35388.0, 9362.0, 8.390083312988281, -0.005431773606687784, 0.33095577359199524, -0.036980148404836655, 0.009641841985285282, -0.03641622141003609, 0.9643359184265137, -0.07184407860040665, -0.030637741088867188, 1.493408203125, 1.314697265625, 0.0319061279296875, 1.494873046875
60873, 0.002932244911789894, -0.04788534343242645, -0.032138384878635406, 0.004320988431572914, -0.0008263220079243183, -0.6521282196044922, 0.007270881440490484, -0.0013668501051142812, -0.6692516207695007, 0.17634525895118713, 0.5500501990318298, 0.056829437613487244, 0.1753579844917651, 0.29159626519634685, -7.738774390514383, 9362.0, 30146.0, 35388.0, 9362.0, 8.390083312988281, 0.06374821066856384, 0.32569533586502075, -0.1619393229484558, 0.011589069850742817, -0.03834056109189987, 0.9649950861930847, -0.06479604542255402, -0.08439826965332031, 1.489013671875, 1.314697265625, 0.0319061279296875, 1.494873046875
60883, 0.0016331227961927652, -0.04987690597772598, -0.03358350321650505, 0.004320988431572914, -0.0008263220079243183, -0.6521282196044922, 0.007270881440490484, -0.0013668501051142812, -0.6692516207695007, 0.17634329199790955, 0.5500556230545044, 0.05682570859789848, 0.1682173316406351, 0.2803364967094808, -7.743090018802439, 9362.0, 30146.0, 35388.0, 9362.0, 8.390083312988281, -0.0415785014629364, 0.17945000529289246, 0.09142047166824341, 0.012306790798902512, -0.03914155066013336, 0.9663347005844116, -0.06479604542255402, -0.08439826965332031, 1.489013671875, 1.314697265625, 0.0319061279296875, 1.494873046875
60923, 0.0009633239242248237, -0.05821646749973297, -0.030379751697182655, 0.004320988431572914, -0.0008263220079243183, -0.6521282196044922, 0.007270881440490484, -0.0013668501051142812, -0.6692516207695007, 0.17635402083396912, 0.5500428676605225, 0.056836940348148346, 0.17364327635981228, 0.284418040484951, -7.731670453890739, 9362.0, 30146.0, 35388.0, 9362.0, 8.390083312988281, 0.13762754201889038, 0.31402507424354553, -0.13381175696849823, 0.010259365662932396, -0.037285055965185165, 0.9653787016868591, -0.0697278156876564, -0.03959846496582031, 1.49267578125, 1.314697265625, 0.0319061279296875, 1.494873046875
61023, 0.002730739302933216, -0.060261283069849014, -0.03795875236392021, 0.005422522779554129, -0.0010217491071671247, -0.7491238117218018, 0.008515693247318268, -0.001431903918273747, -0.7165085077285767, 0.17635230720043182, 0.5500425696372986, 0.05682927370071411, 0.16902978882535902, 0.28162069044321925, -7.7356807450688505, 9362.0, 30146.0, 35388.0, 9362.0, 8.390083312988281, -0.06545345485210419, -0.05808010697364807, 0.12361381202936172, 0.010195732116699219, -0.03824812173843384, 0.9666860103607178, -0.09613592177629471, -0.04855918884277344, 1.491943359375, 1.314697265625, 0.0319061279296875, 1.493408203125
61033, 0.002339359140023589, -0.06112024560570717, -0.03665618598461151, 0.005422522779554129, -0.0010217491071671247, -0.7491238117218018, 0.008515693247318268, -0.001431903918273747, -0.7165085077285767, 0.17634931206703186, 0.5500478744506836, 0.056824326515197754, 0.1702953213189847, 0.2841086736735008, -7.734427749370563, 9362.0, 30146.0, 35388.0, 9362.0, 8.390083312988281, -0.06545345485210419, -0.05808010697364807, 0.12361381202936172, 0.01083438191562891, -0.04031761735677719, 0.9649116396903992, -0.09613592177629471, -0.04855918884277344, 1.491943359375, 1.314697265625, 0.0319061279296875, 1.493408203125
61043, 0.0017034948104992509, -0.06066194176673889, -0.03850315511226654, 0.005422522779554129, -0.0010217491071671247, -0.7491238117218018, 0.008515693247318268, -0.001431903918273747, -0.7165085077285767, 0.176339790225029, 0.5500501990318298, 0.05683455243706703, 0.16976125798854844, 0.2832037013168076, -7.730358113618668, 9362.0, 30146.0, 35388.0, 9362.0, 8.390083312988281, 0.11216845363378525, -0.1445113718509674, -0.26754188537597656, 0.009660112671554089, -0.03693525120615959, 0.9639382362365723, -0.09613592177629471, -0.04855918884277344, 1.491943359375, 1.314697265625, 0.0319061279296875, 1.493408203125
61093, 0.00022846828505862504, -0.06029563397169113, -0.03953787684440613, 0.006135125178843737, -0.0011378766503185034, -0.8075324296951294, 0.009304246865212917, -0.0014656640123575926, -0.7437172532081604, 0.1763426512479782, 0.5500497221946716, 0.05682903900742531, 0.16120816154750414, 0.27381003654647884, -7.7337675513129875, 9362.0, 30146.0, 35388.0, 9362.0, 8.390083312988281, -0.08983533084392548, -0.13360565900802612, -0.09103477746248245, 0.010978573001921177, -0.034655533730983734, 0.9647266864776611, -0.08083010464906693, -0.030637741088867188, 1.493408203125, 1.314697265625, 0.0319061279296875, 1.493408203125
61113, 0.0003146731178276241, -0.06190769001841545, -0.04115214943885803, 0.006135125178843737, -0.0011378766503185034, -0.8075324296951294, 0.009304246865212917, -0.0014656640123575926, -0.7437172532081604, 0.17634746432304382, 0.550045371055603, 0.05686574429273605, 0.1680177374799105, 0.28201479790286044, -7.739230938586328, 9362.0, 30146.0, 35388.0, 9362.0, 8.390083312988281, 0.14553748071193695, 0.006435067858546972, -0.025971511378884315, 0.008618326857686043, -0.03747149184346199, 0.9668466448783875, -0.08083010464906693, -0.030637741088867188, 1.493408203125, 1.314697265625, 0.0319061279296875, 1.493408203125
61163, -0.003057328052818775, -0.054764654487371445, -0.04343723878264427, 0.006711193360388279, -0.001225944608449936, -0.852765679359436, 0.009902090765535831, -0.0014693434350192547, -0.7639919519424438, 0.17635783553123474, 0.5500486493110657, 0.05684921517968178, 0.16833467667777813, 0.2837185246200704, -7.728438452830221, 9362.0, 30146.0, 35388.0, 9362.0, 8.390083312988281, -0.014717848040163517, -0.3520573675632477, -0.26007407903671265, 0.010156125761568546, -0.03683771565556526, 0.9639544486999512, -0.07241545617580414, -0.10231781005859375, 1.487548828125, 1.314697265625, 0.0319061279296875, 1.493408203125
61213, -0.0030239808838814497, -0.05227690935134888, -0.043255917727947235, 0.0072179692797362804, -0.0012992388801649213, -0.8913940787315369, 0.010362121276557446, -0.0014557536924257874, -0.781230628490448, 0.17633368074893951, 0.5500629544258118, 0.05681053549051285, 0.16823019384072857, 0.27565870834280304, -7.7355456602536, 9362.0, 30146.0, 35388.0, 9362.0, 8.390083312988281, 0.17228136956691742, -0.07369142770767212, -0.01976400800049305, 0.011937248520553112, -0.03758621588349342, 0.9660189747810364, -0.0737161859869957, 0.03208160400390625, 1.49853515625, 1.314697265625, 0.0319061279296875, 1.493408203125
61223, -0.002468456979840994, -0.04904480651021004, -0.04358837753534317, 0.0072179692797362804, -0.0012992388801649213, -0.8913940787315369, 0.010362121276557446, -0.0014557536924257874, -0.781230628490448, 0.176348477602005, 0.550047755241394, 0.05685252323746681, 0.16743495827057808, 0.28321792722013583, -7.733205218012098, 9362.0, 30146.0, 35388.0, 9362.0, 8.390083312988281, 0.08992364257574081, 0.12031837552785873, 0.1257852166891098, 0.009760607033967972, -0.03904901072382927, 0.9646646976470947, -0.0737161859869957, 0.03208160400390625, 1.49853515625, 1.314697265625, 0.0319061279296875, 1.493408203125
