timeTick, roll, pitch, yaw, stateX, stateY, stateZ, stateVX, stateVY, stateVZ, otX0, otY0, otZ0, otRoll0, otPitch0, otYaw0, left wing, pitch motor, yaw motor, right wing, voltage, roll rate, pitch rate, yaw rate, A_x, A_y, A_z, current, i_raw, v_raw, airflow_voltage, airflow_speed, pot_Pitch
38367, -0.13812857866287231, -7.923477649688721, 2.608619213104248, 0, 0, 0, 0, 0, 0, 0.19279827177524567, 0.2603101432323456, 0.06381586194038391, 0.27240233839324124, 0.15145738197557534, -2.549240939304486, 0, 0, 0, 0, 0, 0, 0, 0, 0, 0, 0, 0, 0, 0, 0, 0, 0
38377, -0.138106107711792, -7.921962261199951, 2.6100194454193115, 0.0001784954802133143, 1.1259170605626423e-05, 1.4832167625427246, 0.024595273658633232, 0.0015517662977799773, 0.07901294529438019, 0.19280275702476501, 0.26029539108276367, 0.06381192058324814, 0.2742956348210262, 0.16383537924534153, -2.550965229097485, 9362.0, 30146.0, 35388.0, 9362.0, 8.211570739746094, 0.17550982534885406, -0.07980474084615707, -0.012864482589066029, 0.008625191636383533, -0.03652452304959297, 1.0001144409179688, -0.11096092313528061, -0.10231781005859375, 1.487548828125, 1.320556640625, 0.02685546875, 0
38387, -0.13738559186458588, -7.921352386474609, 2.6090877056121826, 0.0004918990889564157, 3.103293420281261e-05, 1.484001874923706, 0.0380854569375515, 0.00240331725217402, 0.07801809161901474, 0.19279882311820984, 0.2602995038032532, 0.06383718550205231, 0.27547620394137634, 0.158437497109162, -2.552728946012464, 9362.0, 30146.0, 35388.0, 9362.0, 8.211570739746094, 0.13020600378513336, 0.029141241684556007, -0.1778721809387207, 0.00950602162629366, -0.036225855350494385, 0.9999755024909973, -0.1029379665851593, -0.04855918884277344, 1.491943359375, 1.31103515625, 0.0355682373046875, 1.5
38397, -0.13727951049804688, -7.921950817108154, 2.607609510421753, 0.0009402926662005484, 5.9329460782464594e-05, 1.484777808189392, 0.05159328505396843, 0.003255755640566349, 0.07716897130012512, 0.19279585778713226, 0.2603062391281128, 0.06381897628307343, 0.26845038523114495, 0.15538915656657082, -2.5521673906171434, 9362.0, 30146.0, 35388.0, 9362.0, 8.211570739746094, 0.09102804958820343, 0.06619533896446228, -0.14250293374061584, 0.009362354874610901, -0.033612947911024094, 0.9989868998527527, -0.09412595629692078, -0.03959846496582031, 1.49267578125, 1.297119140625, 0.0532379150390625, 1.49853515625
38407, -0.13613949716091156, -7.923841953277588, 2.6085801124572754, 0.0015236447798088193, 9.613562724553049e-05, 1.4855444431304932, 0.06507716327905655, 0.0041051278822124004, 0.07615423947572708, 0.1928047239780426, 0.26029449701309204, 0.0638187974691391, 0.2692807145437699, 0.16038426230446134, -2.546010814447408, 9362.0, 30146.0, 35388.0, 9362.0, 8.211570739746094, -0.002675625728443265, 0.12360436469316483, 0.09826353192329407, 0.009646691381931305, -0.03532712161540985, 1.000748872756958, -0.09397371113300323, -0.11127853393554688, 1.48681640625, 1.3037109375, 0.04412841796875, 1.5
38417, -0.13697627186775208, -7.92636251449585, 2.609469413757324, 0.002241890411823988, 0.00014143621956463903, 1.486301302909851, 0.07857190817594528, 0.0049551986157894135, 0.07521022856235504, 0.19279907643795013, 0.2603045701980591, 0.06381266564130783, 0.2772398728411125, 0.16215790622945292, -2.5494350941171775, 9362.0, 30146.0, 35388.0, 9362.0, 8.211570739746094, -0.2559221684932709, 0.3643938899040222, 0.020255789160728455, 0.009462364949285984, -0.03413788229227066, 0.997930109500885, -0.0862584039568901, -0.08439826965332031, 1.489013671875, 1.318359375, 0.028656005859375, 1.5
38427, -0.13760921359062195, -7.92630672454834, 2.610915184020996, 0.0030950545333325863, 0.00019522679212968796, 1.4870483875274658, 0.0920608788728714, 0.00580313615500927, 0.07420053333044052, 0.19280944764614105, 0.26030534505844116, 0.06381548196077347, 0.272014040278469, 0.15689033132326813, -2.5510855458366315, 9362.0, 30146.0, 35388.0, 9362.0, 8.211570739746094, -0.19262605905532837, -0.04224748536944389, 0.14960139989852905, 0.008637040853500366, -0.03365292400121689, 0.9983235597610474, -0.08372298628091812, -0.12023735046386719, 1.486083984375, 1.3095703125, 0.037139892578125, 1.49853515625
38437, -0.13824863731861115, -7.925287246704102, 2.6112122535705566, 0.004083000589162111, 0.0002574977988842875, 1.4877843856811523, 0.1055283322930336, 0.006651414558291435, 0.0730055719614029, 0.1927996724843979, 0.26030558347702026, 0.06380011141300201, 0.2716695671522218, 0.15705692786298187, -2.554267679287356, 9362.0, 30146.0, 35388.0, 9362.0, 8.211570739746094, 0.07883824408054352, -0.31985750794410706, 0.080967016518116, 0.008580978028476238, -0.03687898814678192, 1.0004647970199585, -0.07861236482858658, -0.05751800537109375, 1.4912109375, 1.319091796875, 0.0279998779296875, 1.493408203125
38447, -0.13738323748111725, -7.927029132843018, 2.613266706466675, 0.005205792374908924, 0.0003282695251982659, 1.4885096549987793, 0.11903004348278046, 0.007503011729568243, 0.07205837219953537, 0.19280864298343658, 0.26029446721076965, 0.06381142884492874, 0.27647566938817153, 0.16017078520786754, -2.5461477359951066, 9362.0, 30146.0, 35388.0, 9362.0, 8.211570739746094, -0.13327395915985107, -0.08755473792552948, -0.00018173673015553504, 0.010293453000485897, -0.03396894782781601, 1.0006567239761353, -0.07689140737056732, -0.04855918884277344, 1.491943359375, 1.3271484375, 0.022308349609375, 1.494873046875
38457, -0.13831683993339539, -7.92604923248291, 2.6141791343688965, 0.006463622208684683, 0.000407564511988312, 1.4892257452011108, 0.13253585994243622, 0.008356456644833088, 0.07115358114242554, 0.19279690086841583, 0.26030799746513367, 0.06382127106189728, 0.2725628864330924, 0.16086032948771845, -2.5475846693832733, 9362.0, 30146.0, 35388.0, 9362.0, 8.211570739746094, -0.10402382165193558, 0.0128529267385602, 0.1308986246585846, 0.009090988896787167, -0.03443341702222824, 1.0000139474868774, -0.07940151542425156, -0.07543754577636719, 1.48974609375, 1.316162109375, 0.030517578125, 1.4970703125
38467, -0.13930751383304596, -7.926201820373535, 2.6137707233428955, 0.007856537587940693, 0.0004953904426656663, 1.489932894706726, 0.1460472196340561, 0.009208961389958858, 0.07026708871126175, 0.1928105503320694, 0.2603031396865845, 0.06379645317792892, 0.2755212166637453, 0.1575784750524747, -2.556289794035289, 9362.0, 30146.0, 35388.0, 9362.0, 8.211570739746094, -0.12667346000671387, 0.05232398584485054, 0.14489340782165527, 0.008621308021247387, -0.036162182688713074, 0.9993574619293213, -0.0784120038151741, -0.06647872924804688, 1.490478515625, 1.319091796875, 0.0279998779296875, 1.493408203125
38477, -0.13941790163516998, -7.925624847412109, 2.6138343811035156, 0.009384489618241787, 0.0005917457747273147, 1.4906306266784668, 0.1595432311296463, 0.010062029585242271, 0.06928262114524841, 0.19279521703720093, 0.2603066563606262, 0.06381870806217194, 0.2676272527630665, 0.16115107845152465, -2.5539029355703358, 9362.0, 30146.0, 35388.0, 9362.0, 8.211570739746094, -0.028092343360185623, 0.18001689016819, 0.07526075094938278, 0.007684201467782259, -0.03496907278895378, 0.9996446371078491, -0.08014309406280518, -0.1291980743408203, 1.4853515625, 1.318359375, 0.028656005859375, 1.497802734375
38487, -0.1397838592529297, -7.927451133728027, 2.614208698272705, 0.011047428473830223, 0.0006966415094211698, 1.491318702697754, 0.17304466664791107, 0.010917137376964092, 0.06833580881357193, 0.19281016290187836, 0.26030096411705017, 0.06382230669260025, 0.2793023595156167, 0.16268384338371789, -2.555547474389418, 9362.0, 30146.0, 35388.0, 9362.0, 8.211570739746094, -0.13990049064159393, 0.12262891232967377, -0.07824428379535675, 0.008945937268435955, -0.03527265042066574, 1.001374363899231, -0.08194579929113388, -0.11127853393554688, 1.48681640625, 1.316162109375, 0.030517578125, 1.499267578125
38497, -0.13997280597686768, -7.924969673156738, 2.6129016876220703, 0.012845415621995926, 0.0008100915001705289, 1.4919975996017456, 0.18655262887477875, 0.011772959493100643, 0.06744328886270523, 0.19279474020004272, 0.26030251383781433, 0.06381350755691528, 0.2757368793106692, 0.15826951526892685, -2.5466585315288484, 9362.0, 30146.0, 35388.0, 9362.0, 8.211570739746094, 0.04241018742322922, -0.22055982053279877, -0.051236871629953384, 0.008027930743992329, -0.034385453909635544, 0.9997448325157166, -0.07871141284704208, -0.1291980743408203, 1.4853515625, 1.319091796875, 0.0279998779296875, 1.49560546875
38507, -0.1403808295726776, -7.923977851867676, 2.612065553665161, 0.0147785022854805, 0.0009321043617092073, 1.492667555809021, 0.20006486773490906, 0.012629310600459576, 0.06655906140804291, 0.1927882432937622, 0.2602951228618622, 0.06379774957895279, 0.27107963180865424, 0.15266490970054747, -2.5466357288459895, 9362.0, 30146.0, 35388.0, 9362.0, 8.211570739746094, 0.0760614275932312, -0.16219405829906464, -0.004817503970116377, 0.007268521003425121, -0.03402376174926758, 0.9995218515396118, -0.0780288502573967, -0.12023735046386719, 1.486083984375, 1.31689453125, 0.0298919677734375, 1.49560546875
38517, -0.14184428751468658, -7.923526287078857, 2.6125683784484863, 0.01684661954641342, 0.0010626752628013492, 1.4933282136917114, 0.21355842053890228, 0.013484683819115162, 0.06557109206914902, 0.19279098510742188, 0.2602955400943756, 0.06376954168081284, 0.27146752610762304, 0.1597170390696192, -2.5473935719971257, 9362.0, 30146.0, 35388.0, 9362.0, 8.211570739746094, -0.11071077734231949, -0.13922393321990967, -0.1559327393770218, 0.008680101484060287, -0.03463946655392647, 0.9991371631622314, -0.07414139807224274, -0.03959846496582031, 1.49267578125, 1.31689453125, 0.0298919677734375, 1.493408203125
38527, -0.141078919172287, -7.921937465667725, 2.613098382949829, 0.019049644470214844, 0.0012018008856102824, 1.4939788579940796, 0.22704650461673737, 0.01434057205915451, 0.06455643475055695, 0.19280481338500977, 0.26028966903686523, 0.06381410360336304, 0.2744578229854824, 0.15759708678984907, -2.5569176060398644, 9362.0, 30146.0, 35388.0, 9362.0, 8.211570739746094, 0.02899032272398472, 0.047607000917196274, 0.3178415596485138, 0.008681473322212696, -0.0359063446521759, 0.9994783997535706, -0.07100755721330643, -0.05751800537109375, 1.4912109375, 1.305908203125, 0.0413360595703125, 1.49560546875
38537, -0.14184650778770447, -7.92167329788208, 2.613105535507202, 0.021387532353401184, 0.001349497470073402, 1.4946192502975464, 0.2405311018228531, 0.015198852866888046, 0.06352327018976212, 0.19281111657619476, 0.2603014409542084, 0.06380902230739594, 0.2739909115516844, 0.16253907581833005, -2.546443166006791, 9362.0, 30146.0, 35388.0, 9362.0, 8.211570739746094, -0.11232265084981918, 0.22324253618717194, -0.005476556718349457, 0.00960890669375658, -0.03458129242062569, 1.0018783807754517, -0.06972169876098633, -0.08439826965332031, 1.489013671875, 1.3212890625, 0.026214599609375, 1.496337890625
38547, -0.14308500289916992, -7.923074722290039, 2.6138722896575928, 0.0238603875041008, 0.001505778869614005, 1.4952503442764282, 0.25404006242752075, 0.016057442873716354, 0.06268429756164551, 0.19280342757701874, 0.2602885961532593, 0.06381143629550934, 0.26992842184234794, 0.16426068162874685, -2.5488466514368113, 9362.0, 30146.0, 35388.0, 9362.0, 8.211570739746094, 0.06123119965195656, 0.15221618115901947, -0.035860445350408554, 0.008278606459498405, -0.03435106948018074, 0.9997841715812683, -0.06894829124212265, -0.12023735046386719, 1.486083984375, 1.3095703125, 0.037139892578125, 1.49560546875
38557, -0.14202000200748444, -7.923266410827637, 2.614698886871338, 0.026468321681022644, 0.0016706521855667233, 1.495872974395752, 0.2675468921661377, 0.01691741868853569, 0.06183414161205292, 0.19281142950057983, 0.2602965831756592, 0.06378250569105148, 0.2775072380117179, 0.16176562534394634, -2.5470529404871045, 9362.0, 30146.0, 35388.0, 9362.0, 8.211570739746094, 0.09575645625591278, -0.1226295456290245, 0.05979396402835846, 0.007485802751034498, -0.03636844456195831, 1.0014607906341553, -0.07027672231197357, -0.03959846496582031, 1.49267578125, 1.294189453125, 0.0578155517578125, 1.497802734375
38567, -0.14210854470729828, -7.92277717590332, 2.6135668754577637, 0.029211269691586494, 0.0018441330175846815, 1.4964865446090698, 0.28104281425476074, 0.01777893677353859, 0.06088878959417343, 0.19280613958835602, 0.26029863953590393, 0.06382441520690918, 0.2717238068141146, 0.15679584408391634, -2.553135788240998, 9362.0, 30146.0, 35388.0, 9362.0, 8.211570739746094, -0.11407523602247238, -0.15408354997634888, 0.07566896826028824, 0.008027936331927776, -0.03711638227105141, 1.0013726949691772, -0.07481464743614197, -0.11127853393554688, 1.48681640625, 1.313232421875, 0.0333251953125, 1.4970703125
38577, -0.14223849773406982, -7.9227118492126465, 2.614825963973999, 0.03208928182721138, 0.0020262275356799364, 1.4970914125442505, 0.2945595681667328, 0.018639693036675453, 0.060090046375989914, 0.19280506670475006, 0.2603025436401367, 0.06382010132074356, 0.2731741932872492, 0.1581546654010424, -2.5451363866348897, 9362.0, 30146.0, 35388.0, 9362.0, 8.211570739746094, -0.06929492205381393, -0.017454054206609726, 0.15830300748348236, 0.007714759558439255, -0.03651273623108864, 0.9996670484542847, -0.07408212125301361, -0.08439826965332031, 1.489013671875, 1.3154296875, 0.03118896484375, 1.5
38587, -0.1422557830810547, -7.924479007720947, 2.6150102615356445, 0.035102419555187225, 0.0022169265430420637, 1.4976880550384521, 0.308068186044693, 0.019500404596328735, 0.059239499270915985, 0.19279968738555908, 0.26031556725502014, 0.06380898505449295, 0.277671387453197, 0.15735923066949908, -2.549062556516541, 9362.0, 30146.0, 35388.0, 9362.0, 8.211570739746094, -0.23987700045108795, -0.07110536843538284, 0.061445847153663635, 0.008459120988845825, -0.03545985743403435, 0.9995052814483643, -0.07548683881759644, -0.07543754577636719, 1.48974609375, 1.3212890625, 0.026214599609375, 1.494873046875
38597, -0.1421853005886078, -7.923862457275391, 2.6140213012695312, 0.03825054690241814, 0.002416229108348489, 1.4982755184173584, 0.32155752182006836, 0.020360155031085014, 0.058250561356544495, 0.19280262291431427, 0.26028773188591003, 0.06382104754447937, 0.27272448593395066, 0.15689704896476542, -2.553984571937932, 9362.0, 30146.0, 35388.0, 9362.0, 8.211570739746094, -0.07024829834699631, -0.14786359667778015, -0.13353674113750458, 0.00899641402065754, -0.034214768558740616, 0.9978040456771851, -0.07822035998106003, -0.08439826965332031, 1.489013671875, 1.313232421875, 0.0333251953125, 1.49853515625
38607, -0.1414298713207245, -7.92170524597168, 2.6129441261291504, 0.04153351113200188, 0.002624125685542822, 1.4988526105880737, 0.3350354731082916, 0.021218914538621902, 0.05715791508555412, 0.19280210137367249, 0.2603045403957367, 0.06381701678037643, 0.2754917673672172, 0.1575551961943802, -2.549862764645032, 9362.0, 30146.0, 35388.0, 9362.0, 8.211570739746094, 0.1053679957985878, -0.2343965619802475, -0.0023381595965474844, 0.006857299245893955, -0.03510492295026779, 1.0002219676971436, -0.08257681876420975, -0.05751800537109375, 1.4912109375, 1.318359375, 0.028656005859375, 1.493408203125
38617, -0.14146476984024048, -7.922569751739502, 2.6147544384002686, 0.04495130479335785, 0.0028406111523509026, 1.499419093132019, 0.34852334856987, 0.02207794040441513, 0.05614418163895607, 0.19281092286109924, 0.26029717922210693, 0.06381659209728241, 0.27882894815282855, 0.16032213337780377, -2.55267378424279, 9362.0, 30146.0, 35388.0, 9362.0, 8.211570739746094, 0.23525941371917725, 0.247510626912117, 0.10409948974847794, 0.009065347723662853, -0.03319966420531273, 0.9979064464569092, -0.07803051173686981, 0.0052013397216796875, 1.496337890625, 1.32275390625, 0.0251312255859375, 1.493408203125
38627, -0.14176706969738007, -7.924221038818359, 2.614631414413452, 0.04850393533706665, 0.0030656768940389156, 1.499975323677063, 0.3620027005672455, 0.02293563447892666, 0.05509520694613457, 0.19278767704963684, 0.2603062391281128, 0.06380227208137512, 0.2698545428742996, 0.1631931503795272, -2.5494713976974355, 9362.0, 30146.0, 35388.0, 9362.0, 8.211570739746094, -0.16778333485126495, 0.08396913856267929, 0.0508723109960556, 0.00972521398216486, -0.034840114414691925, 0.9987505674362183, -0.07715364545583725, -0.10231781005859375, 1.487548828125, 1.311767578125, 0.0348052978515625, 1.5
38637, -0.14191345870494843, -7.9247565269470215, 2.6151282787323, 0.05219131335616112, 0.003299318952485919, 1.5005205869674683, 0.3754725158214569, 0.023792734369635582, 0.053967706859111786, 0.19279290735721588, 0.26029667258262634, 0.06382987648248672, 0.27243192332989447, 0.1526108623141056, -2.556893439991057, 9362.0, 30146.0, 35388.0, 9362.0, 8.211570739746094, -0.024013081565499306, -0.005966858938336372, 0.2118871808052063, 0.00822318997234106, -0.035513777285814285, 0.9999296069145203, -0.07791213691234589, -0.07543754577636719, 1.48974609375, 1.324951171875, 0.0236663818359375, 1.494140625
38667, -0.1430383026599884, -7.921748638153076, 2.617488384246826, 0.06406261026859283, 0.0040517705492675304, 1.5020949840545654, 0.41594967246055603, 0.02637145109474659, 0.0510178841650486, 0.1927950531244278, 0.26028817892074585, 0.06383565813302994, 0.2792486518024923, 0.16045968750194106, -2.549401545677061, 9362.0, 30146.0, 35388.0, 9362.0, 8.211570739746094, 0.16542339324951172, 0.38701698184013367, -0.033512379974126816, 0.00822318997234106, -0.035513777285814285, 0.9999296069145203, -0.07650481909513474, -0.14711761474609375, 1.48388671875, 1.313232421875, 0.0333251953125, 1.494140625
38707, -0.14256258308887482, -7.928053855895996, 2.613696813583374, 0.07714773714542389, 0.004881702363491058, 1.5035783052444458, 0.45639702677726746, 0.028956908732652664, 0.04787508025765419, 0.1927887201309204, 0.2602996826171875, 0.06381145119667053, 0.2733281580332487, 0.16020031532758594, -2.550785212535179, 9362.0, 30146.0, 35388.0, 9362.0, 8.211570739746094, -0.0851796567440033, -0.17759396135807037, -0.14349231123924255, 0.006057632155716419, -0.03291713446378708, 0.9987942576408386, -0.07775088399648666, -0.08439826965332031, 1.489013671875, 1.289794921875, 0.065032958984375, 1.494140625
38737, -0.1416287124156952, -7.93139123916626, 2.6167068481445312, 0.09648371487855911, 0.00610894151031971, 1.505415678024292, 0.5103969573974609, 0.03240389749407768, 0.04397321119904518, 0.1927909404039383, 0.26030680537223816, 0.06384298205375671, 0.27039043212337643, 0.1552402756909146, -2.5566304709251906, 9362.0, 30146.0, 35388.0, 9362.0, 8.211570739746094, 0.0021321435924619436, 0.20320779085159302, 0.017654497176408768, 0.0078077903017401695, -0.03589741140604019, 0.9994708895683289, -0.08162260055541992, -0.10231781005859375, 1.487548828125, 1.305908203125, 0.0413360595703125, 1.494140625
38747, -0.14178746938705444, -7.933157444000244, 2.6175990104675293, 0.09648371487855911, 0.00610894151031971, 1.505415678024292, 0.5103969573974609, 0.03240389749407768, 0.04397321119904518, 0.19278773665428162, 0.2603062391281128, 0.06381213665008545, 0.2724446214582642, 0.16004320385454207, -2.54959491073828, 9362.0, 30146.0, 35388.0, 9362.0, 8.211570739746094, -0.11471840739250183, -0.029696024954319, -0.08448466658592224, 0.0078077903017401695, -0.03589741140604019, 0.9994708895683289, -0.08018764108419418, -0.03959846496582031, 1.49267578125, 1.305908203125, 0.0413360595703125, 1.494140625
38797, -0.14129100739955902, -7.936328411102295, 2.617257595062256, 0.12953674793243408, 0.00820791907608509, 1.5078651905059814, 0.5913732647895813, 0.03756168857216835, 0.03765245899558067, 0.192796990275383, 0.2603013515472412, 0.06381704658269882, 0.2783207459755745, 0.16164725309695882, -2.555164904080375, 9362.0, 30146.0, 35388.0, 9362.0, 8.191736221313477, 0.10357314348220825, 0.31290000677108765, -0.07601875066757202, 0.00881652906537056, -0.03527706861495972, 0.9989388585090637, -0.08634930849075317, -0.10231781005859375, 1.487548828125, 1.305908203125, 0.0413360595703125, 1.494140625
38817, -0.14235486090183258, -7.938661098480225, 2.6164400577545166, 0.12953674793243408, 0.00820791907608509, 1.5078651905059814, 0.5913732647895813, 0.03756168857216835, 0.03765245899558067, 0.19279734790325165, 0.2603021264076233, 0.0638108029961586, 0.270505744555554, 0.16078417052983696, -2.5490016974239733, 9362.0, 30146.0, 35388.0, 9362.0, 8.191736221313477, -0.12421504408121109, -0.008175088092684746, 0.10647427290678024, 0.008046058006584644, -0.033381592482328415, 1.002305030822754, -0.08008528500795364, -0.11127853393554688, 1.48681640625, 1.30810546875, 0.0388031005859375, 1.494140625
38827, -0.14288805425167084, -7.940959453582764, 2.6169161796569824, 0.12953674793243408, 0.00820791907608509, 1.5078651905059814, 0.5913732647895813, 0.03756168857216835, 0.03765245899558067, 0.19279715418815613, 0.26029929518699646, 0.06380856782197952, 0.2702130578859287, 0.16332395513671827, -2.557461494506176, 9362.0, 30146.0, 35388.0, 9362.0, 8.211570739746094, 0.04442047327756882, 0.3375861644744873, -0.11244864761829376, 0.008046058006584644, -0.033381592482328415, 1.002305030822754, -0.08008528500795364, -0.11127853393554688, 1.48681640625, 1.311767578125, 0.0348052978515625, 1.494140625
38837, -0.14272692799568176, -7.942155361175537, 2.614941120147705, 0.12953674793243408, 0.00820791907608509, 1.5078651905059814, 0.5913732647895813, 0.03756168857216835, 0.03765245899558067, 0.19279171526432037, 0.26030272245407104, 0.06381093710660934, 0.26994508461356653, 0.16061653426967837, -2.552595865959141, 9362.0, 30146.0, 35388.0, 9362.0, 8.211570739746094, -0.035993050783872604, 0.24232080578804016, 0.08238113671541214, 0.008046058006584644, -0.033381592482328415, 1.002305030822754, -0.08107142895460129, -0.030637741088867188, 1.493408203125, 1.311767578125, 0.0348052978515625, 1.494140625
38847, -0.14277540147304535, -7.941645622253418, 2.614535331726074, 0.12953674793243408, 0.00820791907608509, 1.5078651905059814, 0.5913732647895813, 0.03756168857216835, 0.03765245899558067, 0.19280697405338287, 0.260305255651474, 0.06379576027393341, 0.2676351659936378, 0.16030155405323399, -2.543960123994202, 9362.0, 30146.0, 35388.0, 9362.0, 8.211570739746094, 0.02717503160238266, 0.18238115310668945, 0.19471000134944916, 0.007542855106294155, -0.0347362644970417, 0.9988163113594055, -0.08107142895460129, -0.030637741088867188, 1.493408203125, 1.311767578125, 0.0348052978515625, 1.494140625
38857, -0.1421279013156891, -7.942603588104248, 2.6180291175842285, 0.12953674793243408, 0.00820791907608509, 1.5078651905059814, 0.5913732647895813, 0.03756168857216835, 0.03765245899558067, 0.19280384480953217, 0.26029977202415466, 0.0637984350323677, 0.27506796787974985, 0.15871966112175073, -2.5452068286493925, 9362.0, 30146.0, 35388.0, 9362.0, 8.211570739746094, -0.09304257482290268, -0.171447291970253, 0.23039652407169342, 0.007542855106294155, -0.0347362644970417, 0.9988163113594055, -0.08107142895460129, -0.030637741088867188, 1.493408203125, 1.31982421875, 0.0273590087890625, 1.494140625
38887, -0.14360299706459045, -7.942737102508545, 2.615797281265259, 0.1882372796535492, 0.01193739753216505, 1.5108743906021118, 0.7130982875823975, 0.04531877487897873, 0.029178529977798462, 0.19280098378658295, 0.2602943181991577, 0.0638149231672287, 0.27255579765723614, 0.15976149263039474, -2.5471085655634855, 9362.0, 30146.0, 35388.0, 9362.0, 8.211570739746094, 0.10957987606525421, -0.25334033370018005, 0.18770280480384827, 0.008907336741685867, -0.03446853905916214, 0.9993653297424316, -0.08394170552492142, -0.12023735046386719, 1.486083984375, 1.3095703125, 0.037139892578125, 1.494140625
38907, -0.14412011206150055, -7.945533752441406, 2.6179232597351074, 0.20276978611946106, 0.012861071154475212, 1.5114386081695557, 0.7401472330093384, 0.04704789072275162, 0.027208799496293068, 0.19279758632183075, 0.2603089213371277, 0.06382305175065994, 0.27358885380302744, 0.1548112379365989, -2.5530398146062447, 9362.0, 30146.0, 35388.0, 9362.0, 8.211570739746094, -0.2137698382139206, 0.06657028943300247, 0.14623306691646576, 0.008907336741685867, -0.03446853905916214, 0.9993653297424316, -0.08359502255916595, -0.12023735046386719, 1.486083984375, 1.306640625, 0.040557861328125, 1.494140625
38937, -0.14561150968074799, -7.949461460113525, 2.615215301513672, 0.20276978611946106, 0.012861071154475212, 1.5114386081695557, 0.7401472330093384, 0.04704789072275162, 0.027208799496293068, 0.1928023397922516, 0.2603011429309845, 0.0638166293501854, 0.26986153450250155, 0.15272129042566007, -2.548372058472469, 9362.0, 30146.0, 35388.0, 9362.0, 8.211570739746094, -0.2137698382139206, 0.06657028943300247, 0.14623306691646576, 0.00874400231987238, -0.03320243954658508, 1.00189208984375, -0.08359502255916595, -0.12023735046386719, 1.486083984375, 1.311767578125, 0.0348052978515625, 1.494873046875
39007, -0.1449148952960968, -7.959232807159424, 2.61487078666687, 0.28355395793914795, 0.017999175935983658, 1.5136871337890625, 0.8756021857261658, 0.05572211369872093, 0.017880672588944435, 0.19279229640960693, 0.26031094789505005, 0.06381772458553314, 0.2681140721791428, 0.1632960329396269, -2.547940298980897, 9362.0, 30146.0, 35388.0, 9362.0, 8.211570739746094, -0.08901436626911163, 0.6197071671485901, 0.39711570739746094, 0.009021453559398651, -0.036998115479946136, 0.999552309513092, -0.07758362591266632, -0.03959846496582031, 1.49267578125, 1.31396484375, 0.0325469970703125, 1.494873046875
39037, -0.14552856981754303, -7.96212100982666, 2.6141602993011475, 0.3104320168495178, 0.019709916785359383, 1.5141807794570923, 0.9162560105323792, 0.058329083025455475, 0.014902138151228428, 0.1927940845489502, 0.2602965235710144, 0.06380821019411087, 0.2712906243811866, 0.15829261266696903, -2.5524796171492117, 9362.0, 30146.0, 35388.0, 9362.0, 8.211570739746094, 0.14667293429374695, 0.09725619107484818, -0.02709631435573101, 0.00806485116481781, -0.03702766075730324, 0.9981769323348999, -0.0806364119052887, -0.06647872924804688, 1.490478515625, 1.307373046875, 0.039581298828125, 1.494873046875
39057, -0.14515234529972076, -7.9619364738464355, 2.6135470867156982, 0.32902801036834717, 0.020893873646855354, 1.514456868171692, 0.9433416128158569, 0.0600656196475029, 0.012706775218248367, 0.19280222058296204, 0.2603108286857605, 0.06382479518651962, 0.2718611345364616, 0.15828917451705138, -2.5489593475146535, 9362.0, 30146.0, 35388.0, 9362.0, 8.211570739746094, -0.02141747437417507, -0.5628131031990051, -0.08979922533035278, 0.00806485116481781, -0.03702766075730324, 0.9981769323348999, -0.0806364119052887, -0.06647872924804688, 1.490478515625, 1.307373046875, 0.039581298828125, 1.494873046875
39087, -0.14507170021533966, -7.963630676269531, 2.6131136417388916, 0.35793831944465637, 0.022734863683581352, 1.514792561531067, 0.9840118288993835, 0.06266714632511139, 0.009691691026091576, 0.19279514253139496, 0.2603065073490143, 0.06381350010633469, 0.2686513946250694, 0.15676540995519872, -2.547481237951672, 9362.0, 30146.0, 35388.0, 9362.0, 8.211570739746094, -0.2965543866157532, -0.3156990706920624, 0.007548204623162746, 0.007805359549820423, -0.03467360883951187, 1.000694751739502, -0.0806364119052887, -0.06647872924804688, 1.490478515625, 1.295654296875, 0.05548095703125, 1.494873046875
39097, -0.1452784538269043, -7.963883876800537, 2.6136598587036133, 0.35793831944465637, 0.022734863683581352, 1.514792561531067, 0.9840118288993835, 0.06266714632511139, 0.009691691026091576, 0.192793071269989, 0.2602994441986084, 0.06383348256349564, 0.26754402972907293, 0.16432711935354405, -2.5542847404966844, 9362.0, 30146.0, 35388.0, 9362.0, 8.211570739746094, -0.2965543866157532, -0.3156990706920624, 0.007548204623162746, 0.007805359549820423, -0.03467360883951187, 1.000694751739502, -0.08150222897529602, -0.07543754577636719, 1.48974609375, 1.295654296875, 0.05548095703125, 1.494873046875
39147, -0.14548014104366302, -7.9671149253845215, 2.610919237136841, 0.4194207489490509, 0.026651103049516678, 1.5152021646499634, 1.06536066532135, 0.06787193566560745, 0.0036379843950271606, 0.19280089437961578, 0.26030662655830383, 0.063835509121418, 0.27437946931103024, 0.15835448164929744, -2.549214982996527, 9362.0, 30146.0, 35388.0, 9362.0, 8.211570739746094, 0.15891671180725098, 0.12484040856361389, -0.047155264765024185, 0.009244994260370731, -0.03403874486684799, 0.9982033967971802, -0.08073120564222336, -0.11127853393554688, 1.48681640625, 1.297119140625, 0.0532379150390625, 1.494873046875
39187, -0.14629478752613068, -7.967280387878418, 2.6058921813964844, 0.451992005109787, 0.0287263672798872, 1.515267014503479, 1.10606050491333, 0.07047799229621887, 0.0007063427474349737, 0.19279982149600983, 0.2603098750114441, 0.06381172686815262, 0.2743622726501562, 0.16433303149821654, -2.548187571521954, 9362.0, 30146.0, 35388.0, 9362.0, 8.211570739746094, -0.04403161630034447, 0.10211320966482162, 0.0699300616979599, 0.006794265937060118, -0.03589453175663948, 0.9986585974693298, -0.08614012598991394, -0.10231781005859375, 1.487548828125, 1.294189453125, 0.0578155517578125, 1.494873046875
39217, -0.14697104692459106, -7.966193675994873, 2.6084136962890625, 0.451992005109787, 0.0287263672798872, 1.515267014503479, 1.10606050491333, 0.07047799229621887, 0.0007063427474349737, 0.192791149020195, 0.26030030846595764, 0.06383687257766724, 0.2695034629083781, 0.158008155883266, -2.5540075558404345, 9362.0, 30146.0, 35388.0, 9362.0, 8.211570739746094, 0.050497349351644516, -0.05207173526287079, 0.06433192640542984, 0.006360848434269428, -0.035354238003492355, 0.9998507499694824, -0.08614012598991394, -0.10231781005859375, 1.487548828125, 1.292724609375, 0.060089111328125, 1.494873046875
39227, -0.1466796100139618, -7.968953609466553, 2.6089348793029785, 0.451992005109787, 0.0287263672798872, 1.515267014503479, 1.10606050491333, 0.07047799229621887, 0.0007063427474349737, 0.19279134273529053, 0.2603062093257904, 0.06383366882801056, 0.2745714694574867, 0.16050853791452369, -2.5521016756017505, 9362.0, 30146.0, 35388.0, 9362.0, 8.211570739746094, 0.050497349351644516, -0.05207173526287079, 0.06433192640542984, 0.006360848434269428, -0.035354238003492355, 0.9998507499694824, -0.08329809457063675, -0.04855918884277344, 1.491943359375, 1.292724609375, 0.060089111328125, 1.494873046875
39247, -0.14599142968654633, -7.972846031188965, 2.6068406105041504, 0.5327399969100952, 0.03387245535850525, 1.515075445175171, 1.2010552883148193, 0.0765596255660057, -0.005984409246593714, 0.1927931159734726, 0.2602970600128174, 0.06382225453853607, 0.2751703845153495, 0.16069069063476604, -2.5502340200689724, 9362.0, 30146.0, 35388.0, 9362.0, 8.211570739746094, 0.19324345886707306, 0.037100207060575485, -0.16972669959068298, 0.009110474027693272, -0.03478334844112396, 0.9992191195487976, -0.08329809457063675, -0.04855918884277344, 1.491943359375, 1.292724609375, 0.060089111328125, 1.494873046875
39257, -0.1457025557756424, -7.973151683807373, 2.607508897781372, 0.5327399969100952, 0.03387245535850525, 1.515075445175171, 1.2010552883148193, 0.0765596255660057, -0.005984409246593714, 0.19278670847415924, 0.2602962553501129, 0.06384170800447464, 0.27721948992386836, 0.16126671950453897, -2.5555204794451187, 9362.0, 30146.0, 35388.0, 9362.0, 8.211570739746094, 0.046481840312480927, 0.028760140761733055, 0.08731772005558014, 0.009110474027693272, -0.03478334844112396, 0.9992191195487976, -0.07964111864566803, -0.10231781005859375, 1.487548828125, 1.292724609375, 0.060089111328125, 1.494873046875
39277, -0.1457839161157608, -7.973989486694336, 2.6101467609405518, 0.5327399969100952, 0.03387245535850525, 1.515075445175171, 1.2010552883148193, 0.0765596255660057, -0.005984409246593714, 0.19279152154922485, 0.26029831171035767, 0.0638185441493988, 0.2735564640058706, 0.1600404036437908, -2.553438670978579, 9362.0, 30146.0, 35388.0, 9362.0, 8.211570739746094, 0.028433075174689293, 0.09338061511516571, 0.08275969326496124, 0.006607358809560537, -0.03603481873869896, 0.9993099570274353, -0.07957462966442108, -0.10231781005859375, 1.487548828125, 1.292724609375, 0.060089111328125, 1.494873046875
39327, -0.1461467444896698, -7.982298851013184, 2.610100507736206, 0.6331694722175598, 0.04027518630027771, 1.5142849683761597, 1.3097366094589233, 0.08350968360900879, -0.013581805862486362, 0.1927921026945114, 0.26030904054641724, 0.06381528824567795, 0.2798991861245077, 0.15717070825792234, -2.555151419143472, 9362.0, 30146.0, 35388.0, 9362.0, 8.191736221313477, -0.19776159524917603, 0.4276542365550995, 0.01105364877730608, 0.007129379082471132, -0.0359661802649498, 1.0011104345321655, -0.07915882766246796, -0.10231781005859375, 1.487548828125, 1.294189453125, 0.0578155517578125, 1.494873046875
39337, -0.14614152908325195, -7.983789920806885, 2.6095616817474365, 0.6331694722175598, 0.04027518630027771, 1.5142849683761597, 1.3097366094589233, 0.08350968360900879, -0.013581805862486362, 0.19280178844928741, 0.2603059411048889, 0.06382951885461807, 0.272181368341465, 0.15953613731207383, -2.549827462848141, 9362.0, 30146.0, 35388.0, 9362.0, 8.211570739746094, -0.10805069655179977, -0.19975699484348297, -0.3011619448661804, 0.007129379082471132, -0.0359661802649498, 1.0011104345321655, -0.07651123404502869, -0.06647872924804688, 1.490478515625, 1.294189453125, 0.0578155517578125, 1.494873046875
39357, -0.14680218696594238, -7.985992431640625, 2.6093320846557617, 0.6730731725692749, 0.04281957447528839, 1.5138336420059204, 1.350502848625183, 0.08611682057380676, -0.016609376296401024, 0.19279298186302185, 0.2603004574775696, 0.06382674723863602, 0.2690058087503108, 0.1567016932160641, -2.5478421743671196, 9362.0, 30146.0, 35388.0, 9362.0, 8.211570739746094, -0.036925893276929855, 0.12963981926441193, 0.22633059322834015, 0.007129379082471132, -0.0359661802649498, 1.0011104345321655, -0.0801372304558754, -0.07543754577636719, 1.48974609375, 1.294189453125, 0.0578155517578125, 1.494873046875
39387, -0.14702434837818146, -7.992674350738525, 2.6116440296173096, 0.6730731725692749, 0.04281957447528839, 1.5138336420059204, 1.350502848625183, 0.08611682057380676, -0.016609376296401024, 0.19279295206069946, 0.2603015899658203, 0.06384166330099106, 0.27625714241116034, 0.15822957786048164, -2.545764685382714, 9362.0, 30146.0, 35388.0, 9362.0, 8.211570739746094, -0.08915144950151443, 0.1319269835948944, 0.09476165473461151, 0.008381816558539867, -0.03306727111339569, 1.0002869367599487, -0.07540970295667648, -0.04855918884277344, 1.491943359375, 1.314697265625, 0.0319061279296875, 1.494873046875
39427, -0.14935402572155, -7.996918201446533, 2.6112778186798096, 0.7565527558326721, 0.048143524676561356, 1.512668251991272, 1.432157039642334, 0.0913500189781189, -0.02231294848024845, 0.19278484582901, 0.2603083550930023, 0.06385423243045807, 0.2723441592474711, 0.15544860460462928, -2.548350896617538, 9362.0, 30146.0, 35388.0, 9362.0, 8.211570739746094, 0.11561170965433121, 0.38701871037483215, 0.2123311161994934, 0.006823962088674307, -0.03569483384490013, 0.9985560774803162, -0.0808376595377922, -0.11127853393554688, 1.48681640625, 1.2978515625, 0.05224609375, 1.494873046875
39437, -0.14863869547843933, -7.996911525726318, 2.611353635787964, 0.7565527558326721, 0.048143524676561356, 1.512668251991272, 1.432157039642334, 0.0913500189781189, -0.02231294848024845, 0.1927943229675293, 0.2603118419647217, 0.0638272687792778, 0.27241190620917194, 0.1572787208684474, -2.548729520598956, 9362.0, 30146.0, 35388.0, 9362.0, 8.211570739746094, 0.11561170965433121, 0.38701871037483215, 0.2123311161994934, 0.007756975945085287, -0.03484947979450226, 0.9983537793159485, -0.0808376595377922, -0.11127853393554688, 1.48681640625, 1.3037109375, 0.04412841796875, 1.494873046875
39457, -0.14994226396083832, -7.999134540557861, 2.6104624271392822, 0.8149266839027405, 0.05186743289232254, 1.5116868019104004, 1.4865427017211914, 0.09484730660915375, -0.02677680179476738, 0.19279587268829346, 0.26030561327934265, 0.06385145336389542, 0.2767990660368582, 0.1614820520686635, -2.5548839139095225, 9362.0, 30146.0, 35388.0, 9362.0, 8.211570739746094, -0.03346318006515503, 0.20349708199501038, -0.14601477980613708, 0.007330228108912706, -0.033831026405096054, 1.0007400512695312, -0.08238857239484787, -0.07543754577636719, 1.48974609375, 1.3037109375, 0.04412841796875, 1.494873046875
39487, -0.15149496495723724, -8.003703117370605, 2.60872745513916, 0.8601360321044922, 0.05475237965583801, 1.5108404159545898, 1.5274115800857544, 0.09748221188783646, -0.02969796024262905, 0.19279344379901886, 0.2602982521057129, 0.06380651891231537, 0.2738033619324805, 0.15727853876632025, -2.5506886748463447, 9362.0, 30146.0, 35388.0, 9362.0, 8.211570739746094, 0.019315101206302643, -0.21483926475048065, -0.17212136089801788, 0.006961875129491091, -0.033371102064847946, 0.9992378950119019, -0.08238857239484787, -0.07543754577636719, 1.48974609375, 1.298583984375, 0.051055908203125, 1.494873046875
39517, -0.15293937921524048, -8.00821304321289, 2.6099319458007812, 0.9065712690353394, 0.057716451585292816, 1.5099029541015625, 1.568284511566162, 0.10012448579072952, -0.032762669026851654, 0.1927870512008667, 0.2603079378604889, 0.06384284049272537, 0.2751365146790413, 0.15690216248262345, -2.544693959795625, 9362.0, 30146.0, 35388.0, 9362.0, 8.211570739746094, -0.23072390258312225, 0.105277419090271, 0.07734112441539764, 0.006598623935133219, -0.03468039631843567, 0.9995303153991699, -0.07461827248334885, -0.06647872924804688, 1.490478515625, 1.29931640625, 0.0500640869140625, 1.494873046875
39537, -0.15192587673664093, -8.008454322814941, 2.6105093955993652, 0.9382094740867615, 0.05973657965660095, 1.5092264413833618, 1.5955281257629395, 0.10188894718885422, -0.03493853285908699, 0.19277755916118622, 0.2603064775466919, 0.06379970163106918, 0.2753527182798227, 0.1541275497514505, -2.5602549237511516, 9362.0, 30146.0, 35388.0, 9362.0, 8.211570739746094, 0.032770439982414246, -0.04094146564602852, 0.09845660626888275, 0.007251006551086903, -0.033770594745874405, 0.9989036321640015, -0.07461827248334885, -0.06647872924804688, 1.490478515625, 1.29931640625, 0.0500640869140625, 1.494873046875
39547, -0.15209738910198212, -8.010218620300293, 2.610487699508667, 0.9542328715324402, 0.060759883373975754, 1.5088714361190796, 1.609145998954773, 0.10277178138494492, -0.03605664148926735, 0.19278666377067566, 0.2603125274181366, 0.06383612006902695, 0.2717933441470518, 0.15337232157025937, -2.552054055678262, 9362.0, 30146.0, 35388.0, 9362.0, 8.211570739746094, 0.032770439982414246, -0.04094146564602852, 0.09845660626888275, 0.007251006551086903, -0.033770594745874405, 0.9989036321640015, -0.07302824407815933, -0.04855918884277344, 1.491943359375, 1.29931640625, 0.0500640869140625, 1.494873046875
39557, -0.15225642919540405, -8.011518478393555, 2.6116466522216797, 0.9542328715324402, 0.060759883373975754, 1.5088714361190796, 1.609145998954773, 0.10277178138494492, -0.03605664148926735, 0.19278709590435028, 0.260309636592865, 0.06387319415807724, 0.26713140734440394, 0.15093489880834454, -2.5554487440027738, 9362.0, 30146.0, 35388.0, 9362.0, 8.211570739746094, 0.032770439982414246, -0.04094146564602852, 0.09845660626888275, 0.007302505429834127, -0.03394567593932152, 1.0010380744934082, -0.07302824407815933, -0.04855918884277344, 1.491943359375, 1.29931640625, 0.0500640869140625, 1.494873046875
39587, -0.15392060577869415, -8.013062477111816, 2.61615252494812, 1.0031213760375977, 0.06388277560472488, 1.5077482461929321, 1.6500991582870483, 0.10542216151952744, -0.03877567499876022, 0.192786306142807, 0.26031607389450073, 0.0638267919421196, 0.27013870285466535, 0.1579002155417868, -2.553804426144605, 9362.0, 30146.0, 35388.0, 9362.0, 8.211570739746094, 0.05414113029837608, 0.1318352073431015, 0.14486010372638702, 0.007302505429834127, -0.03394567593932152, 1.0010380744934082, -0.07916979491710663, -0.04855918884277344, 1.491943359375, 1.31396484375, 0.0325469970703125, 1.494873046875
39597, -0.15122514963150024, -8.014867782592773, 2.6158759593963623, 1.0031213760375977, 0.06388277560472488, 1.5077482461929321, 1.6500991582870483, 0.10542216151952744, -0.03877567499876022, 0.19279034435749054, 0.2603049576282501, 0.06385716795921326, 0.273926375949805, 0.14969365105591237, -2.555842533871308, 9362.0, 30146.0, 35388.0, 9362.0, 8.211570739746094, 0.05414113029837608, 0.1318352073431015, 0.14486010372638702, 0.007302505429834127, -0.03394567593932152, 1.0010380744934082, -0.07722775638103485, -0.06647872924804688, 1.490478515625, 1.31396484375, 0.0325469970703125, 1.494873046875
39637, -0.15087498724460602, -8.018158912658691, 2.61313533782959, 1.0702178478240967, 0.06817050278186798, 1.5061254501342773, 1.7047001123428345, 0.10896167159080505, -0.04255295172333717, 0.1927911937236786, 0.26031485199928284, 0.06385117769241333, 0.27608812785068826, 0.16223050140285977, -2.54551265301737, 9362.0, 30146.0, 35388.0, 9362.0, 8.211570739746094, 0.28413495421409607, 0.03644748404622078, 0.08076375722885132, 0.007633876521140337, -0.037052787840366364, 0.9995408654212952, -0.07162271440029144, -0.04855918884277344, 1.491943359375, 1.31689453125, 0.0298919677734375, 1.494873046875
39647, -0.1530357152223587, -8.014192581176758, 2.612377882003784, 1.0702178478240967, 0.06817050278186798, 1.5061254501342773, 1.7047001123428345, 0.10896167159080505, -0.04255295172333717, 0.192795529961586, 0.26029953360557556, 0.06383416056632996, 0.27834939321013485, 0.15664005572782003, -2.548568000446784, 9362.0, 30146.0, 35388.0, 9362.0, 8.211570739746094, 0.28413495421409607, 0.03644748404622078, 0.08076375722885132, 0.009759883396327496, -0.037513576447963715, 0.9991075396537781, -0.07162271440029144, -0.04855918884277344, 1.491943359375, 1.31689453125, 0.0298919677734375, 1.494873046875
39697, -0.1550133377313614, -8.0128173828125, 2.6150219440460205, 1.2109594345092773, 0.07717020809650421, 1.5023890733718872, 1.8138223886489868, 0.116034597158432, -0.050903040915727615, 0.19279013574123383, 0.2602977454662323, 0.06384018063545227, 0.26868706808470777, 0.1611661828771389, -2.546213662429678, 9362.0, 30146.0, 35388.0, 9362.0, 8.211570739746094, 0.1905609369277954, -0.138098806142807, 0.03868451714515686, 0.008948171511292458, -0.03559304028749466, 0.9992969632148743, -0.06837968528270721, -0.03959846496582031, 1.49267578125, 1.313232421875, 0.0333251953125, 1.494873046875
39717, -0.1544094681739807, -8.015957832336426, 2.615453004837036, 1.2109594345092773, 0.07717020809650421, 1.5023890733718872, 1.8138223886489868, 0.116034597158432, -0.050903040915727615, 0.19278529286384583, 0.2603069245815277, 0.06383183598518372, 0.2681306201246494, 0.15847833309558723, -2.5519444305659653, 9362.0, 30146.0, 35388.0, 9362.0, 8.211570739746094, -0.09257299453020096, -0.19472701847553253, 0.11633450537919998, 0.006372455041855574, -0.035690926015377045, 0.9981574416160583, -0.06837968528270721, -0.03959846496582031, 1.49267578125, 1.311767578125, 0.0348052978515625, 1.494873046875
39747, -0.1559109389781952, -8.016861915588379, 2.615844249725342, 1.2846033573150635, 0.081882543861866, 1.5002708435058594, 1.8683744668960571, 0.11958209425210953, -0.055085234344005585, 0.19278846681118011, 0.2603053152561188, 0.06385129690170288, 0.2728482827975094, 0.16710328967681676, -2.5485951439456866, 9362.0, 30146.0, 35388.0, 9362.0, 8.211570739746094, -0.3719165623188019, 0.03635479882359505, 0.42613404989242554, 0.007658819667994976, -0.03227033466100693, 1.0011215209960938, -0.06837968528270721, -0.03959846496582031, 1.49267578125, 1.298583984375, 0.051055908203125, 1.494873046875
39797, -0.1566786766052246, -8.015178680419922, 2.6146678924560547, 1.3604315519332886, 0.08673713356256485, 1.4979960918426514, 1.9230395555496216, 0.12315025925636292, -0.058611344546079636, 0.19279012084007263, 0.2603070139884949, 0.06384364515542984, 0.2675535922830342, 0.15793000912950106, -2.5462501267098814, 9362.0, 30146.0, 35388.0, 9362.0, 8.211570739746094, 0.31078413128852844, -0.017124459147453308, -0.1202465295791626, 0.008242491632699966, -0.0364922396838665, 1.0004278421401978, -0.06837968528270721, -0.03959846496582031, 1.49267578125, 1.295654296875, 0.05548095703125, 1.494873046875
39827, -0.1568755954504013, -8.015867233276367, 2.6147193908691406, 1.458290696144104, 0.09300611913204193, 1.4949487447738647, 1.9912924766540527, 0.12760785222053528, -0.06346968561410904, 0.19278118014335632, 0.26030561327934265, 0.06386366486549377, 0.27084537007737064, 0.15465736589217727, -2.5603223183009507, 9362.0, 30146.0, 35388.0, 9362.0, 8.211570739746094, 0.09029608964920044, 0.09309478104114532, 0.013065172359347343, 0.007365609984844923, -0.03573089838027954, 1.0010006427764893, -0.08368271589279175, -0.09335899353027344, 1.48828125, 1.294921875, 0.0565948486328125, 1.494873046875
39837, -0.1576264500617981, -8.015081405639648, 2.613969326019287, 1.458290696144104, 0.09300611913204193, 1.4949487447738647, 1.9912924766540527, 0.12760785222053528, -0.06346968561410904, 0.19278615713119507, 0.2603119909763336, 0.06386317312717438, 0.27428769843158624, 0.15624075518888958, -2.550057271363039, 9362.0, 30146.0, 35388.0, 9362.0, 8.211570739746094, -0.03857798874378204, -0.2534913122653961, -0.26469191908836365, 0.007365609984844923, -0.03573089838027954, 1.0010006427764893, -0.08368271589279175, -0.09335899353027344, 1.48828125, 1.300048828125, 0.0489654541015625, 1.494873046875
39877, -0.157342791557312, -8.019838333129883, 2.609337091445923, 1.5390346050262451, 0.09818185120820999, 1.4923338890075684, 2.0458970069885254, 0.1311778575181961, -0.06734425574541092, 0.1927892416715622, 0.26030433177948, 0.06385578215122223, 0.27096929908298, 0.16077598227096246, -2.547022168362064, 9362.0, 30146.0, 35388.0, 9362.0, 8.211570739746094, -0.024577364325523376, 0.4922483265399933, 0.10891532152891159, 0.009053894318640232, -0.034443195909261703, 0.9998708963394165, -0.06807323545217514, -0.06647872924804688, 1.490478515625, 1.311767578125, 0.0348052978515625, 1.494873046875
39887, -0.15622352063655853, -8.021134376525879, 2.6102511882781982, 1.5390346050262451, 0.09818185120820999, 1.4923338890075684, 2.0458970069885254, 0.1311778575181961, -0.06734425574541092, 0.19279295206069946, 0.2603176534175873, 0.06387613713741302, 0.27152095817409255, 0.15666358303090533, -2.553346721733551, 9362.0, 30146.0, 35388.0, 9362.0, 8.211570739746094, 0.10943307727575302, 0.010902243666350842, -0.1645372062921524, 0.009053894318640232, -0.034443195909261703, 0.9998708963394165, -0.06807323545217514, -0.06647872924804688, 1.490478515625, 1.311767578125, 0.0348052978515625, 1.494873046875
39907, -0.15700142085552216, -8.025300979614258, 2.6096601486206055, 1.6219635009765625, 0.10350032150745392, 1.4895659685134888, 2.1005666255950928, 0.13474585115909576, -0.07094661146402359, 0.1927797943353653, 0.26029887795448303, 0.06386066973209381, 0.2710312142099549, 0.16263638231811228, -2.553054636675919, 9362.0, 30146.0, 35388.0, 9362.0, 8.211570739746094, 0.10741231590509415, 0.22455401718616486, -0.18033714592456818, 0.007264860440045595, -0.034680381417274475, 0.9987027645111084, -0.0724855363368988, -0.030637741088867188, 1.493408203125, 1.311767578125, 0.0348052978515625, 1.494873046875
39957, -0.15784549713134766, -8.03146743774414, 2.6125998497009277, 1.707078456878662, 0.10896144807338715, 1.486642837524414, 2.1551787853240967, 0.13831032812595367, -0.07530542463064194, 0.19278842210769653, 0.26031479239463806, 0.0638597309589386, 0.2713060867094667, 0.1618115041061401, -2.562274510651763, 9362.0, 30146.0, 35388.0, 9362.0, 8.191736221313477, -0.1331288367509842, -0.008028903976082802, -0.156822070479393, 0.009076911024749279, -0.03397814929485321, 0.9973593354225159, -0.11835464835166931, -0.08439826965332031, 1.489013671875, 1.4912109375, 0.178253173828125, 1.494873046875
39967, -0.1572815626859665, -8.030877113342285, 2.611902952194214, 1.707078456878662, 0.10896144807338715, 1.486642837524414, 2.1551787853240967, 0.13831032812595367, -0.07530542463064194, 0.192795068025589, 0.26031506061553955, 0.06389015167951584, 0.2664273841517321, 0.15126479112601032, -2.5533201154590284, 9362.0, 30146.0, 35388.0, 9362.0, 8.211570739746094, -0.1331288367509842, -0.008028903976082802, -0.156822070479393, 0.009935094974935055, -0.036635465919971466, 0.9981050491333008, -0.11835464835166931, -0.08439826965332031, 1.489013671875, 1.4912109375, 0.178253173828125, 1.494873046875
39987, -0.15778639912605286, -8.03489875793457, 2.6126999855041504, 1.7943775653839111, 0.11456520110368729, 1.4835383892059326, 2.209784984588623, 0.14187906682491302, -0.07988821715116501, 0.19277364015579224, 0.2603013515472412, 0.06385472416877747, 0.2670683142516405, 0.15589717118095336, -2.552096229181614, 9362.0, 30146.0, 35388.0, 9362.0, 8.211570739746094, -0.13296639919281006, 0.15174275636672974, 0.22335004806518555, 0.00885376799851656, -0.03669743612408638, 0.999954879283905, -0.11835464835166931, -0.08439826965332031, 1.489013671875, 1.4912109375, 0.178253173828125, 1.494873046875
40017, -0.15702106058597565, -8.036918640136719, 2.61130690574646, 1.8612861633300781, 0.11886178702116013, 1.4810926914215088, 2.2507758140563965, 0.14455962181091309, -0.0832398310303688, 0.1927831619977951, 0.26030781865119934, 0.06384643167257309, 0.2680626606184617, 0.15316119983228305, -2.5564853952382256, 9362.0, 30146.0, 35388.0, 9362.0, 8.211570739746094, -0.13296639919281006, 0.15174275636672974, 0.22335004806518555, 0.007878134958446026, -0.03651173785328865, 0.9998152256011963, -0.08366817235946655, -0.03959846496582031, 1.49267578125, 1.310302734375, 0.036285400390625, 1.494873046875
40047, -0.156905397772789, -8.039240837097168, 2.6098926067352295, 1.9065752029418945, 0.12177085876464844, 1.4794074296951294, 2.2781307697296143, 0.1463460773229599, -0.08530981838703156, 0.19277727603912354, 0.260315865278244, 0.06386829167604446, 0.26698393644834795, 0.15877005663807608, -2.5575204215538694, 9362.0, 30146.0, 35388.0, 9362.0, 8.211570739746094, -0.003710323479026556, 0.013809809461236, -0.15912684798240662, 0.007294737733900547, -0.03496675193309784, 0.9976512789726257, -0.07868624478578568, -0.09335899353027344, 1.48828125, 1.310302734375, 0.036285400390625, 1.494873046875
40097, -0.1617847979068756, -8.04039192199707, 2.6119117736816406, 1.9065752029418945, 0.12177085876464844, 1.4794074296951294, 2.2781307697296143, 0.1463460773229599, -0.08530981838703156, 0.19278347492218018, 0.26031026244163513, 0.06387370824813843, 0.26853690200737224, 0.15533840207228877, -2.5547439669420853, 9362.0, 30146.0, 35388.0, 9362.0, 8.211570739746094, -0.07284707576036453, -0.11360935121774673, -0.16889724135398865, 0.00944636669009924, -0.03498831391334534, 0.9977851510047913, -0.07882720977067947, -0.10231781005859375, 1.487548828125, 1.308837890625, 0.0379486083984375, 1.49560546875
40127, -0.16434428095817566, -8.043207168579102, 2.6116888523101807, 2.1171462535858154, 0.13530416786670685, 1.471293330192566, 2.4012763500213623, 0.15441645681858063, -0.09471077471971512, 0.19279341399669647, 0.26029694080352783, 0.06386031955480576, 0.27701896465797343, 0.16094718881012682, -2.553540776997599, 9362.0, 30146.0, 35388.0, 9362.0, 8.211570739746094, -0.20355810225009918, -0.16939738392829895, -0.007323798257857561, 0.00944636669009924, -0.03498831391334534, 0.9977851510047913, -0.08052283525466919, -0.06647872924804688, 1.490478515625, 1.306640625, 0.040557861328125, 1.49560546875
40147, -0.1656842976808548, -8.038615226745605, 2.609487533569336, 2.165445566177368, 0.13841061294078827, 1.46937894821167, 2.42864727973938, 0.1562269777059555, -0.09682448953390121, 0.19277222454547882, 0.26029810309410095, 0.06386049836874008, 0.27525228674884, 0.1586875169239761, -2.5529941137548033, 9362.0, 30146.0, 35388.0, 9362.0, 8.211570739746094, -0.20355810225009918, -0.16939738392829895, -0.007323798257857561, 0.01052822545170784, -0.035260703414678574, 0.9990229606628418, -0.08086108416318893, -0.01271820068359375, 1.494873046875, 1.306640625, 0.040557861328125, 1.49560546875
40157, -0.16613228619098663, -8.03888988494873, 2.6096816062927246, 2.165445566177368, 0.13841061294078827, 1.46937894821167, 2.42864727973938, 0.1562269777059555, -0.09682448953390121, 0.19278624653816223, 0.26030290126800537, 0.06388530135154724, 0.27505097739519024, 0.16037313325492164, -2.550921611050327, 9362.0, 30146.0, 35388.0, 9362.0, 8.211570739746094, 0.04016634449362755, -0.14794011414051056, 0.08834978193044662, 0.01052822545170784, -0.035260703414678574, 0.9990229606628418, -0.07962527871131897, -0.12023735046386719, 1.486083984375, 1.306640625, 0.040557861328125, 1.49560546875
40167, -0.1662992686033249, -8.039834976196289, 2.6113905906677246, 2.165445566177368, 0.13841061294078827, 1.46937894821167, 2.42864727973938, 0.1562269777059555, -0.09682448953390121, 0.19278326630592346, 0.26030147075653076, 0.06385645270347595, 0.2720141669279862, 0.16740335391844496, -2.54899228120285, 9362.0, 30146.0, 35388.0, 9362.0, 8.211570739746094, 0.1954742670059204, 0.1791243702173233, 0.23167723417282104, 0.01052822545170784, -0.035260703414678574, 0.9990229606628418, -0.07614295929670334, -0.07543754577636719, 1.48974609375, 1.306640625, 0.040557861328125, 1.49560546875
40177, -0.16649137437343597, -8.042677879333496, 2.6103200912475586, 2.165445566177368, 0.13841061294078827, 1.46937894821167, 2.42864727973938, 0.1562269777059555, -0.09682448953390121, 0.19277894496917725, 0.2603049576282501, 0.06387811154127121, 0.27083397200888115, 0.16138712458553073, -2.549178084126675, 9362.0, 30146.0, 35388.0, 9362.0, 8.211570739746094, -0.20983187854290009, 0.5135548710823059, 0.11068941652774811, 0.01052822545170784, -0.035260703414678574, 0.9990229606628418, -0.07614295929670334, -0.07543754577636719, 1.48974609375, 1.316162109375, 0.030517578125, 1.49560546875
40197, -0.16635285317897797, -8.041492462158203, 2.6097826957702637, 2.288588762283325, 0.14633557200431824, 1.4644120931625366, 2.497082233428955, 0.16077111661434174, -0.1018955409526825, 0.19278623163700104, 0.26030194759368896, 0.0638740062713623, 0.2718341396202025, 0.15459781208411982, -2.5533393664794275, 9362.0, 30146.0, 35388.0, 9362.0, 8.211570739746094, 0.044308245182037354, -0.21639716625213623, -0.16336189210414886, 0.007925950922071934, -0.03575075417757034, 0.9991416931152344, -0.07614295929670334, -0.07543754577636719, 1.48974609375, 1.29345703125, 0.05889892578125, 1.49560546875
40207, -0.16732729971408844, -8.042891502380371, 2.608619451522827, 2.288588762283325, 0.14633557200431824, 1.4644120931625366, 2.497082233428955, 0.16077111661434174, -0.1018955409526825, 0.19277514517307281, 0.26031598448753357, 0.06383799761533737, 0.27605661904076184, 0.1624283163876612, -2.55304047556645, 9362.0, 30146.0, 35388.0, 9362.0, 8.211570739746094, -0.040706586092710495, 0.1491171419620514, -0.1880556344985962, 0.007925950922071934, -0.03575075417757034, 0.9991416931152344, -0.07795587182044983, -0.10231781005859375, 1.487548828125, 1.29345703125, 0.05889892578125, 1.49560546875
40247, -0.16907067596912384, -8.043673515319824, 2.614542007446289, 2.3895668983459473, 0.15283918380737305, 1.4602526426315308, 2.551841974258423, 0.16441257297992706, -0.10595713555812836, 0.19278256595134735, 0.2603135108947754, 0.06385990977287292, 0.27559552627975964, 0.1571577293483699, -2.550548228023374, 9362.0, 30146.0, 35388.0, 9362.0, 8.211570739746094, 0.0782916322350502, 0.08418828994035721, 0.17592370510101318, 0.00997274462133646, -0.03774715214967728, 0.9990026354789734, -0.08356232196092606, 0.014162063598632812, 1.4970703125, 1.2861328125, 0.0716094970703125, 1.49560546875
40277, -0.16863638162612915, -8.04398250579834, 2.6121180057525635, 2.3895668983459473, 0.15283918380737305, 1.4602526426315308, 2.551841974258423, 0.16441257297992706, -0.10595713555812836, 0.19277329742908478, 0.26030758023262024, 0.06385056674480438, 0.2677588051747549, 0.15956522730854772, -2.554057110306113, 9362.0, 30146.0, 35388.0, 9362.0, 8.211570739746094, -0.017676671966910362, 0.18816827237606049, -0.16419818997383118, 0.008426021784543991, -0.03282536566257477, 0.9993710517883301, -0.08356232196092606, 0.014162063598632812, 1.4970703125, 1.28466796875, 0.07440185546875, 1.4912109375
40337, -0.17108961939811707, -8.043632507324219, 2.606722593307495, 2.651599168777466, 0.16973751783370972, 1.449161410331726, 2.6887500286102295, 0.17354732751846313, -0.11628686636686325, 0.19277538359165192, 0.26031002402305603, 0.06387589126825333, 0.2788134184071542, 0.15323865108396717, -2.5565830505039697, 9362.0, 30146.0, 35388.0, 9362.0, 8.191736221313477, -0.01197529211640358, -0.2587440609931946, -0.05219443514943123, 0.007895478047430515, -0.03368023782968521, 0.9989761710166931, -0.07873180508613586, -0.07543754577636719, 1.48974609375, 1.292724609375, 0.060089111328125, 1.4912109375
40417, -0.1741154044866562, -8.04465389251709, 2.602980375289917, 2.871086359024048, 0.1839151531457901, 1.4395722150802612, 2.798433542251587, 0.18090035021305084, -0.12348213791847229, 0.19277586042881012, 0.2603144645690918, 0.06384266167879105, 0.27811417679443784, 0.15905894927578856, -2.55246360519042, 9362.0, 30146.0, 35388.0, 9362.0, 8.211570739746094, -0.019074685871601105, 0.0618402324616909, -0.3086983561515808, 0.008526717312633991, -0.03293251246213913, 1.0002363920211792, -0.08167757093906403, -0.07543754577636719, 1.48974609375, 1.31689453125, 0.0298919677734375, 1.4912109375
40437, -0.17386247217655182, -8.046485900878906, 2.5994510650634766, 2.871086359024048, 0.1839151531457901, 1.4395722150802612, 2.798433542251587, 0.18090035021305084, -0.12348213791847229, 0.19278545677661896, 0.2603074312210083, 0.0638681948184967, 0.2691619839177129, 0.1532252135659462, -2.552770863216373, 9362.0, 30146.0, 35388.0, 9362.0, 8.211570739746094, -0.004979398567229509, 0.3773092031478882, 0.09831943362951279, 0.009866907261312008, -0.03549262508749962, 0.9979429841041565, -0.08011078834533691, -0.12023735046386719, 1.486083984375, 1.31689453125, 0.0298919677734375, 1.4912109375
40477, -0.17510202527046204, -8.050634384155273, 2.6030983924865723, 3.0127196311950684, 0.19307520985603333, 1.433268666267395, 2.8668951988220215, 0.18550309538841248, -0.12867754697799683, 0.19278383255004883, 0.2603139579296112, 0.06386617571115494, 0.27001539188971463, 0.1568253330917173, -2.5562284161603843, 9362.0, 30146.0, 35388.0, 9362.0, 8.211570739746094, 0.06313934922218323, 0.07757212966680527, 0.20064271986484528, 0.009866907261312008, -0.03549262508749962, 0.9979429841041565, -0.0714496448636055, -0.030637741088867188, 1.493408203125, 1.292724609375, 0.060089111328125, 1.4912109375
40487, -0.17431187629699707, -8.050504684448242, 2.6027519702911377, 3.0127196311950684, 0.19307520985603333, 1.433268666267395, 2.8668951988220215, 0.18550309538841248, -0.12867754697799683, 0.19278107583522797, 0.2603096067905426, 0.06388597935438156, 0.2722219309392728, 0.15477251832908223, -2.549966392222748, 9362.0, 30146.0, 35388.0, 9362.0, 8.211570739746094, 0.20132847130298615, -0.2056603878736496, -0.2976372241973877, 0.009866907261312008, -0.03549262508749962, 0.9979429841041565, -0.0770079717040062, -0.09335899353027344, 1.48828125, 1.292724609375, 0.060089111328125, 1.4912109375
40497, -0.17419958114624023, -8.050387382507324, 2.6012604236602783, 3.0127196311950684, 0.19307520985603333, 1.433268666267395, 2.8668951988220215, 0.18550309538841248, -0.12867754697799683, 0.19277162849903107, 0.2603169083595276, 0.063857801258564, 0.26843182414057887, 0.16081345954395942, -2.558901158327174, 9362.0, 30146.0, 35388.0, 9362.0, 8.211570739746094, 0.20132847130298615, -0.2056603878736496, -0.2976372241973877, 0.009866907261312008, -0.03549262508749962, 0.9979429841041565, -0.07719718664884567, -0.07543754577636719, 1.48974609375, 1.292724609375, 0.060089111328125, 1.4912109375
