timeTick, roll, pitch, yaw, stateX, stateY, stateZ, stateVX, stateVY, stateVZ, otX0, otY0, otZ0, otRoll0, otPitch0, otYaw0, left wing, pitch motor, yaw motor, right wing, voltage, roll rate, pitch rate, yaw rate, A_x, A_y, A_z, current, i_raw, v_raw, airflow_voltage, airflow_speed, pot_Pitch
59673, 0.1451643705368042, -0.019630474969744682, -0.1242356076836586, 0, 0, 0, 0, 0, 0, 0.1743144989013672, 0.5495979189872742, 0.0561525896191597, 2.1436932837366034, 1.930177870554644, -93.47526904125304, 0, 0, 0, 0, 0, 0, 0, 0, 0, 0, 0, 0, 0, 0, 0, 0, 0
59683, 0.14536863565444946, -0.018836703151464462, -0.12484414130449295, -0.029435480013489723, -0.26140809059143066, -16.315919876098633, 0.006432872265577316, -0.09298982471227646, -3.5920426845550537, 0.17432883381843567, 0.5496164560317993, 0.056155573576688766, 2.1325653298677443, 1.933854357166524, -93.48131922536709, 9362.0, 30146.0, 35388.0, 9362.0, 8.370248794555664, 0, 0, 0, 0, 0, 0, 0, 0, 0, 0, 0, 0
59693, 0.14564763009548187, -0.01815134659409523, -0.12495125830173492, -0.029370998963713646, -0.26233917474746704, -16.35186004638672, 0.006463364697992802, -0.09322887659072876, -3.595945119857788, 0.17431369423866272, 0.5495995283126831, 0.05610274896025658, 2.151989119399033, 1.9287131126031056, -93.48212577574613, 9362.0, 30146.0, 35388.0, 9362.0, 8.370248794555664, 0.0263516828417778, -0.10586004704236984, 0.19734492897987366, -0.07690352201461792, 0.01919620856642723, 0.9609191417694092, -0.0885813906788826, -0.09335899353027344, 1.48828125, 1.29931640625, 0.0500640869140625, 0
59703, 0.14554674923419952, -0.01838858425617218, -0.12338770925998688, -0.029306218028068542, -0.2632726728916168, -16.38783836364746, 0.006492693908512592, -0.0934685543179512, -3.599787950515747, 0.17431145906448364, 0.5495848655700684, 0.056097500026226044, 2.1579605583983907, 1.9145106000922283, -93.48806966842932, 9362.0, 30146.0, 35388.0, 9362.0, 8.370248794555664, 0.2630281150341034, 0.3466058671474457, 0.13047033548355103, -0.07492978870868683, 0.016993477940559387, 0.9595957398414612, -0.08563245832920074, -0.05751800537109375, 1.4912109375, 1.298583984375, 0.051055908203125, 1.494140625
59713, 0.14687702059745789, -0.020901910960674286, -0.12451155483722687, -0.02924114279448986, -0.2642085552215576, -16.423856735229492, 0.006522181909531355, -0.09370741248130798, -3.6038429737091064, 0.1743026077747345, 0.5495925545692444, 0.05610034242272377, 2.154061163283609, 1.9228664884092836, -93.47928907113916, 9362.0, 30146.0, 35388.0, 9362.0, 8.370248794555664, 0.019705133512616158, 0.43639156222343445, -0.20051874220371246, -0.07456078380346298, 0.018905242905020714, 0.9577755928039551, -0.08667434751987457, -0.1291980743408203, 1.4853515625, 1.2978515625, 0.05224609375, 1.493408203125
59723, 0.14736764132976532, -0.022483492270112038, -0.12664386630058289, -0.02917575277388096, -0.26514682173728943, -16.459915161132812, 0.006555832456797361, -0.09394843876361847, -3.6079354286193848, 0.17432744801044464, 0.5496078133583069, 0.05613788589835167, 2.1534483219195377, 1.9305508367308732, -93.4859594352213, 9362.0, 30146.0, 35388.0, 9362.0, 8.370248794555664, 0.1815257966518402, 0.16671498119831085, 0.10568702965974808, -0.07670096307992935, 0.017688192427158356, 0.9597380757331848, -0.0847371369600296, -0.08439826965332031, 1.489013671875, 1.29345703125, 0.05889892578125, 1.490478515625
59733, 0.14730042219161987, -0.0222189761698246, -0.12504057586193085, -0.029110012575984, -0.26608753204345703, -16.496013641357422, 0.0065922727808356285, -0.09419073164463043, -3.6118695735931396, 0.174297496676445, 0.5495830178260803, 0.0561024472117424, 2.158901327657581, 1.9151051967207309, -93.47132449887665, 9362.0, 30146.0, 35388.0, 9362.0, 8.370248794555664, -0.009073142893612385, -0.42425355315208435, 0.1706601083278656, -0.076838918030262, 0.017158688977360725, 0.9602198600769043, -0.0840914398431778, -0.04855918884277344, 1.491943359375, 1.28173828125, 0.0802001953125, 1.493408203125
59743, 0.148019939661026, -0.02100098691880703, -0.12476624548435211, -0.029043909162282944, -0.26703065633773804, -16.53215217590332, 0.006628343369811773, -0.09443284571170807, -3.6158082485198975, 0.17431269586086273, 0.5495920181274414, 0.05610542371869087, 2.146637099323219, 1.9279355552196193, -93.47927361689679, 9362.0, 30146.0, 35388.0, 9362.0, 8.370248794555664, -0.04272656887769699, -0.3444969058036804, -0.08380997180938721, -0.07806413620710373, 0.017949454486370087, 0.9590973854064941, -0.0835026353597641, -0.08439826965332031, 1.489013671875, 1.29931640625, 0.0500640869140625, 1.497802734375
59753, 0.1467532515525818, -0.020088795572519302, -0.12657010555267334, -0.02897745557129383, -0.26797619462013245, -16.568330764770508, 0.00666236225515604, -0.09467612206935883, -3.6198060512542725, 0.1742258220911026, 0.5494482517242432, 0.056190744042396545, 2.252276354750104, 1.8072124246046997, -93.50798770988217, 9362.0, 30146.0, 35388.0, 9362.0, 8.370248794555664, -0.09411754459142685, 0.1427869349718094, 0.03736693039536476, -0.07722315937280655, 0.018750697374343872, 0.9587474465370178, -0.08276712149381638, -0.04855918884277344, 1.491943359375, 1.294921875, 0.0565948486328125, 1.4970703125
59763, 0.14556945860385895, -0.022849533706903458, -0.12629060447216034, -0.028910670429468155, -0.26892414689064026, -16.604549407958984, 0.006694622337818146, -0.09491720795631409, -3.623836040496826, 0.17431876063346863, 0.5495995879173279, 0.05612015351653099, 2.1518570949651163, 1.9343063651486148, -93.47608534398772, 9362.0, 30146.0, 35388.0, 9362.0, 8.370248794555664, -0.10717049986124039, -0.2224402129650116, -0.16542205214500427, -0.07593921571969986, 0.020709453150629997, 0.9593517780303955, -0.08252035826444626, -0.07543754577636719, 1.48974609375, 1.31396484375, 0.0325469970703125, 1.497802734375
59773, 0.14737017452716827, -0.02376689575612545, -0.12667562067508698, -0.028843538835644722, -0.2698745131492615, -16.64080810546875, 0.00673156650736928, -0.09515629708766937, -3.627812385559082, 0.17431078851222992, 0.549594521522522, 0.05610358342528343, 2.1535522737990407, 1.9316479108813667, -93.4922841240056, 9362.0, 30146.0, 35388.0, 9362.0, 8.370248794555664, -0.06850308179855347, 0.3974427282810211, -0.05223922058939934, -0.07453209906816483, 0.018551364541053772, 0.9607868194580078, -0.08131721615791321, -0.06647872924804688, 1.490478515625, 1.3154296875, 0.03118896484375, 1.4912109375
59783, 0.14606235921382904, -0.023922938853502274, -0.1286516785621643, -0.028776030987501144, -0.2708272933959961, -16.677104949951172, 0.006770094856619835, -0.09539880603551865, -3.6317005157470703, 0.17432460188865662, 0.5495766401290894, 0.05614832788705826, 2.1397216509598134, 1.9140966456434114, -93.48996190646453, 9362.0, 30146.0, 35388.0, 9362.0, 8.370248794555664, 0.08785935491323471, 0.35313522815704346, -0.3680291771888733, -0.07410681247711182, 0.016326820477843285, 0.9583408832550049, -0.08232906460762024, -0.05751800537109375, 1.4912109375, 1.32275390625, 0.0251312255859375, 1.494873046875
59793, 0.14818516373634338, -0.024351736530661583, -0.13128982484340668, -0.028708135709166527, -0.2717824876308441, -16.713443756103516, 0.006808731239289045, -0.09563819319009781, -3.635869026184082, 0.17426741123199463, 0.5495836138725281, 0.056107424199581146, 2.188823728168356, 1.918287349034756, -93.48264413410558, 9362.0, 30146.0, 35388.0, 9362.0, 8.370248794555664, 0.11296157538890839, -0.4593128263950348, -0.08780515193939209, -0.07787060737609863, 0.01741103269159794, 0.9561781883239746, -0.07937771081924438, -0.04855918884277344, 1.491943359375, 1.32275390625, 0.0251312255859375, 1.494873046875
59803, 0.1489163190126419, -0.022741813212633133, -0.13255786895751953, -0.02863985113799572, -0.27274009585380554, -16.74982452392578, 0.006848159711807966, -0.09588085860013962, -3.640158176422119, 0.1743018925189972, 0.5495948791503906, 0.05617349594831467, 2.159132699367269, 1.9256307459218078, -93.48324072714557, 9362.0, 30146.0, 35388.0, 9362.0, 8.370248794555664, -0.06328762322664261, -0.07472961395978928, 0.1443995237350464, -0.07793577015399933, 0.016970649361610413, 0.9572300910949707, -0.0821559876203537, -0.11127853393554688, 1.48681640625, 1.318359375, 0.028656005859375, 1.49560546875
59813, 0.1485123187303543, -0.025082353502511978, -0.12937521934509277, -0.02857118658721447, -0.27370011806488037, -16.78624725341797, 0.006884765811264515, -0.09612534940242767, -3.6442301273345947, 0.17427809536457062, 0.5495995283126831, 0.05614706873893738, 2.166887531089782, 1.9319471898860456, -93.48690392650325, 9362.0, 30146.0, 35388.0, 9362.0, 8.370248794555664, -0.049865905195474625, 0.14331160485744476, -0.0669352114200592, -0.07814887166023254, 0.017773620784282684, 0.9605888724327087, -0.08201148360967636, -0.11127853393554688, 1.48681640625, 1.3154296875, 0.03118896484375, 1.491943359375
59823, 0.14848563075065613, -0.026942552998661995, -0.12999728322029114, -0.02850213460624218, -0.274662584066391, -16.822708129882812, 0.006925348658114672, -0.09636972844600677, -3.6480817794799805, 0.17421384155750275, 0.5494787693023682, 0.056263141334056854, 2.258395093253062, 1.8350396306197183, -93.504793163455, 9362.0, 30146.0, 35388.0, 9362.0, 8.370248794555664, -0.1198447197675705, 0.13575488328933716, 0.03988024592399597, -0.07806810736656189, 0.017464280128479004, 0.9603363275527954, -0.0822378620505333, -0.10231781005859375, 1.487548828125, 1.30810546875, 0.0388031005859375, 1.494873046875
59833, 0.1479235589504242, -0.02710006758570671, -0.130161315202713, -0.028432661667466164, -0.2756274938583374, -16.859209060668945, 0.006969060283154249, -0.09661389142274857, -3.6520230770111084, 0.17430120706558228, 0.5496265888214111, 0.05617440864443779, 2.1479207526491013, 1.9446819003289022, -93.47890884067984, 9362.0, 30146.0, 35388.0, 9362.0, 8.370248794555664, -0.026434414088726044, -0.05693424120545387, -0.31476202607154846, -0.07812965661287308, 0.018689464777708054, 0.9583067297935486, -0.08197736740112305, -0.09335899353027344, 1.48828125, 1.32421875, 0.024139404296875, 1.494140625
59843, 0.14905858039855957, -0.026299597695469856, -0.13244135677814484, -0.028362751007080078, -0.2765948474407196, -16.895750045776367, 0.00701302383095026, -0.09685665369033813, -3.656104326248169, 0.17429542541503906, 0.5496105551719666, 0.056150227785110474, 2.1589728707502767, 1.9405972061504713, -93.48951336317006, 9362.0, 30146.0, 35388.0, 9362.0, 8.370248794555664, -0.00660202419385314, 0.15065108239650726, 0.2561902105808258, -0.07665162533521652, 0.017197968438267708, 0.9579058289527893, -0.08004340529441833, -0.06647872924804688, 1.490478515625, 1.317626953125, 0.0291900634765625, 1.491943359375
59853, 0.1488480418920517, -0.026696184650063515, -0.12965841591358185, -0.02829240821301937, -0.2775646448135376, -16.932331085205078, 0.007055588532239199, -0.09710130095481873, -3.6602046489715576, 0.1742224246263504, 0.5494833588600159, 0.05627679452300072, 2.244892937008849, 1.8353571105549804, -93.50666779834779, 9362.0, 30146.0, 35388.0, 9362.0, 8.370248794555664, -0.029936306178569794, 0.17371517419815063, 0.18847206234931946, -0.07600707560777664, 0.017631128430366516, 0.958721399307251, -0.08224784582853317, -0.10231781005859375, 1.487548828125, 1.317626953125, 0.0291900634765625, 1.494140625
59863, 0.14872989058494568, -0.02912718616425991, -0.1297890990972519, -0.02822163514792919, -0.2785368859767914, -16.96895408630371, 0.007098698522895575, -0.09734579175710678, -3.6642322540283203, 0.1742820292711258, 0.5496174097061157, 0.05618102476000786, 2.163666443921563, 1.931930000877088, -93.48803469166279, 9362.0, 30146.0, 35388.0, 9362.0, 8.370248794555664, -0.11514746397733688, 0.0011584380408748984, -0.05725555121898651, -0.0771588683128357, 0.01783178001642227, 0.9597131013870239, -0.082871213555336, -0.09335899353027344, 1.48828125, 1.31103515625, 0.0355682373046875, 1.494873046875
59873, 0.14887367188930511, -0.029207851737737656, -0.13110385835170746, -0.028150411322712898, -0.27951157093048096, -17.005615234375, 0.007146003656089306, -0.09759033471345901, -3.668168783187866, 0.1742888242006302, 0.5496008396148682, 0.056205976754426956, 2.1488750797441725, 1.9261778426532317, -93.48384183306328, 9362.0, 30146.0, 35388.0, 9362.0, 8.370248794555664, 0.4048685133457184, 0.04834979400038719, -0.16245776414871216, -0.07738497108221054, 0.019249292090535164, 0.9605875015258789, -0.08006136119365692, -0.11127853393554688, 1.48681640625, 1.30810546875, 0.0388031005859375, 1.494873046875
59883, 0.150098979473114, -0.029653865844011307, -0.13115377724170685, -0.0280787143856287, -0.2804886996746063, -17.042316436767578, 0.007193432655185461, -0.09783510118722916, -3.672070264816284, 0.17428983747959137, 0.5496340990066528, 0.05616990849375725, 2.1721328345657414, 1.9643058082845926, -93.48106432526274, 9362.0, 30146.0, 35388.0, 9362.0, 8.370248794555664, -0.1239602118730545, -0.06993492692708969, 0.16177956759929657, -0.07775849848985672, 0.018142692744731903, 0.9597687125205994, -0.08282165974378586, -0.07543754577636719, 1.48974609375, 1.2919921875, 0.0613250732421875, 1.49267578125
59893, 0.1506807655096054, -0.028694333508610725, -0.12919679284095764, -0.02800653874874115, -0.2814682722091675, -17.079057693481445, 0.007241677027195692, -0.09808186441659927, -3.6760058403015137, 0.1742975115776062, 0.5496191382408142, 0.056170038878917694, 2.1507402019188544, 1.938531371321318, -93.48830342616687, 9362.0, 30146.0, 35388.0, 9362.0, 8.370248794555664, -0.0005942089483141899, 0.24928046762943268, -0.0609750933945179, -0.07557857036590576, 0.01787007413804531, 0.9594389200210571, -0.08270170539617538, -0.09335899353027344, 1.48828125, 1.301513671875, 0.046966552734375, 1.49560546875
59903, 0.15023218095302582, -0.03119301237165928, -0.12926466763019562, -0.027933889999985695, -0.2824503183364868, -17.11583709716797, 0.007288084831088781, -0.09832952171564102, -3.6799871921539307, 0.174290269613266, 0.549602210521698, 0.056218601763248444, 2.157458673268506, 1.924909448451416, -93.48343579512344, 9362.0, 30146.0, 35388.0, 9362.0, 8.370248794555664, -0.040113795548677444, -0.001491280272603035, 0.04831016808748245, -0.07518737763166428, 0.017894873395562172, 0.9596783518791199, -0.08363567292690277, -0.09335899353027344, 1.48828125, 1.297119140625, 0.0532379150390625, 1.490478515625
59913, 0.15006151795387268, -0.033504895865917206, -0.12800228595733643, -0.02786075510084629, -0.28343483805656433, -17.15265655517578, 0.0073386551812291145, -0.09857659786939621, -3.68390154838562, 0.17430315911769867, 0.5496174693107605, 0.05619925633072853, 2.143126555391747, 1.9412184680712414, -93.4823228947363, 9362.0, 30146.0, 35388.0, 9362.0, 8.370248794555664, -0.02658418007194996, -0.035864345729351044, 0.06794009357690811, -0.07648805528879166, 0.018925830721855164, 0.9614827036857605, -0.08583595603704453, -0.12023735046386719, 1.486083984375, 1.2890625, 0.0663909912109375, 1.494873046875
59923, 0.14955034852027893, -0.03537340089678764, -0.12660013139247894, -0.027787094935774803, -0.2844218313694, -17.18951416015625, 0.00739310635253787, -0.09882363677024841, -3.687741279602051, 0.1743105947971344, 0.5496046543121338, 0.056198421865701675, 2.134077031458931, 1.9352623682698038, -93.48581258937264, 9362.0, 30146.0, 35388.0, 9362.0, 8.370248794555664, -0.04697562754154205, 0.31647950410842896, 0.27530384063720703, -0.07554949074983597, 0.018193786963820457, 0.9594696164131165, -0.08700086176395416, -0.10231781005859375, 1.487548828125, 1.2978515625, 0.05224609375, 1.4970703125
59933, 0.14918723702430725, -0.03721558302640915, -0.1267559677362442, -0.027712875977158546, -0.2854112982749939, -17.226411819458008, 0.007450554054230452, -0.09906948357820511, -3.6917080879211426, 0.17427392303943634, 0.5495837926864624, 0.05619579926133156, 2.1684739380083755, 1.9238081788456327, -93.48663171180678, 9362.0, 30146.0, 35388.0, 9362.0, 8.370248794555664, 0.01277338620275259, 0.5436360239982605, 0.027658840641379356, -0.07569848746061325, 0.016325263306498528, 0.9595161080360413, -0.08489523828029633, -0.08439826965332031, 1.489013671875, 1.30224609375, 0.0460052490234375, 1.494873046875
59943, 0.14950022101402283, -0.03627975285053253, -0.12733958661556244, -0.027638066560029984, -0.28640320897102356, -17.263347625732422, 0.007511241361498833, -0.09931480139493942, -3.6956310272216797, 0.17431406676769257, 0.5496197938919067, 0.05620196461677551, 2.1390885157284387, 1.9374840893777332, -93.48803454117731, 9362.0, 30146.0, 35388.0, 9362.0, 8.370248794555664, -0.1020287275314331, -0.4007780849933624, -0.35447070002555847, -0.07565221190452576, 0.018436865881085396, 0.9611503481864929, -0.08341579139232635, -0.11127853393554688, 1.48681640625, 1.3154296875, 0.03118896484375, 1.497802734375
59963, 0.14961904287338257, -0.032356683164834976, -0.13075459003448486, -0.027486665174365044, -0.28839442133903503, -17.337337493896484, 0.007628566585481167, -0.09980718046426773, -3.7032699584960938, 0.17430515587329865, 0.5496047735214233, 0.056200772523880005, 2.1457115322173754, 1.933211495478389, -93.48600775646378, 9362.0, 30146.0, 35388.0, 9362.0, 8.370248794555664, -0.11330749094486237, -0.3815901577472687, -0.09676562249660492, -0.07565221190452576, 0.018436865881085396, 0.9611503481864929, -0.08341579139232635, -0.11127853393554688, 1.48681640625, 1.317626953125, 0.0291900634765625, 1.497802734375
60003, 0.14855371415615082, -0.030025430023670197, -0.12801149487495422, -0.02717747911810875, -0.2924063801765442, -17.48578453063965, 0.00782756507396698, -0.10078731179237366, -3.7190639972686768, 0.17428860068321228, 0.549615204334259, 0.05618412792682648, 2.1635817730548395, 1.9391392533395049, -93.48288631965715, 9362.0, 30146.0, 35388.0, 9362.0, 8.370248794555664, -0.08033972978591919, 0.1982305943965912, 0.08351629972457886, -0.07577754557132721, 0.015886807814240456, 0.9597190022468567, -0.0846959576010704, 0.09480094909667969, 1.503662109375, 1.2919921875, 0.0613250732421875, 1.497802734375
60013, 0.14857985079288483, -0.028176072984933853, -0.12863506376743317, -0.02709895931184292, -0.29341548681259155, -17.522994995117188, 0.007876453921198845, -0.10103139281272888, -3.72306752204895, 0.17430761456489563, 0.5495954155921936, 0.056222833693027496, 2.1482534330400247, 1.9248386099560832, -93.47976777358657, 9362.0, 30146.0, 35388.0, 9362.0, 8.370248794555664, -0.08033972978591919, 0.1982305943965912, 0.08351629972457886, -0.07577754557132721, 0.015886807814240456, 0.9597190022468567, -0.08171528577804565, -0.06647872924804688, 1.490478515625, 1.28759765625, 0.068939208984375, 1.497802734375
60023, 0.15044096112251282, -0.030215607956051826, -0.12977084517478943, -0.027019966393709183, -0.2944270074367523, -17.560245513916016, 0.007921968586742878, -0.10127503424882889, -3.7271978855133057, 0.17430859804153442, 0.549607515335083, 0.05621108040213585, 2.143473752709625, 1.934181520536299, -93.48481836100328, 9362.0, 30146.0, 35388.0, 9362.0, 8.370248794555664, -0.08033972978591919, 0.1982305943965912, 0.08351629972457886, -0.07577754557132721, 0.015886807814240456, 0.9597190022468567, -0.08171528577804565, -0.06647872924804688, 1.490478515625, 1.32275390625, 0.0251312255859375, 1.497802734375
60043, 0.15173085033893585, -0.03289222717285156, -0.1301257461309433, -0.026860540732741356, -0.2964574694633484, -17.634872436523438, 0.008021344430744648, -0.10176952183246613, -3.7356252670288086, 0.17429113388061523, 0.549609363079071, 0.056194812059402466, 2.1565497990974567, 1.9400336791963184, -93.4793550219332, 9362.0, 30146.0, 35388.0, 9362.0, 8.370248794555664, 0.02119540609419346, 0.10283725708723068, 0.06712621450424194, -0.07577754557132721, 0.015886807814240456, 0.9597190022468567, -0.08225403726100922, -0.10231781005859375, 1.487548828125, 1.298583984375, 0.051055908203125, 1.497802734375
60053, 0.15207672119140625, -0.03369489684700966, -0.12980063259601593, -0.026780059561133385, -0.2974764108657837, -17.67224884033203, 0.008074788376688957, -0.10201899707317352, -3.7395529747009277, 0.1742895245552063, 0.5496218204498291, 0.05620275437831879, 2.16196718143001, 1.94175222965211, -93.49295228939349, 9362.0, 30146.0, 35388.0, 9362.0, 8.370248794555664, 0.02119540609419346, 0.10283725708723068, 0.06712621450424194, -0.07577754557132721, 0.015886807814240456, 0.9597190022468567, -0.07908467203378677, -0.07543754577636719, 1.48974609375, 1.301513671875, 0.046966552734375, 1.497802734375
60063, 0.1537923365831375, -0.03324100747704506, -0.12990346550941467, -0.026699038222432137, -0.29849785566329956, -17.70966339111328, 0.008129682391881943, -0.10226920247077942, -3.7433955669403076, 0.1742309182882309, 0.5494580268859863, 0.05629059672355652, 2.224171914577366, 1.8233845572069924, -93.50508698410245, 9362.0, 30146.0, 35388.0, 9362.0, 8.370248794555664, 0.02119540609419346, 0.10283725708723068, 0.06712621450424194, -0.07577754557132721, 0.015886807814240456, 0.9597190022468567, -0.07935719192028046, -0.10231781005859375, 1.487548828125, 1.30810546875, 0.0388031005859375, 1.497802734375
60073, 0.15345418453216553, -0.032542698085308075, -0.13115030527114868, -0.026699038222432137, -0.29849785566329956, -17.70966339111328, 0.008129682391881943, -0.10226920247077942, -3.7433955669403076, 0.17429864406585693, 0.5495943427085876, 0.05619785189628601, 2.1440976444653175, 1.9151819398476277, -93.4855598909235, 9362.0, 30146.0, 35388.0, 9362.0, 8.370248794555664, -0.24401694536209106, -0.023074598982930183, 0.12715178728103638, -0.07577754557132721, 0.015886807814240456, 0.9597190022468567, -0.07935719192028046, -0.10231781005859375, 1.487548828125, 1.3095703125, 0.037139892578125, 1.497802734375
60093, 0.1529199779033661, -0.03479157015681267, -0.1284978687763214, -0.026452727615833282, -0.30157729983329773, -17.822139739990234, 0.008291085250675678, -0.10302738100290298, -3.755147933959961, 0.17430876195430756, 0.5496326684951782, 0.056206114590168, 2.1400159684698665, 1.9425549528552324, -93.48850247172646, 9362.0, 30146.0, 35388.0, 9362.0, 8.370248794555664, -0.024870216846466064, 0.21592751145362854, 0.16556032001972198, -0.07577754557132721, 0.015886807814240456, 0.9597190022468567, -0.08174239844083786, -0.12023735046386719, 1.486083984375, 1.29638671875, 0.0542755126953125, 1.497802734375
60113, 0.1519317328929901, -0.033713359385728836, -0.1310156285762787, -0.026285776868462563, -0.3036428689956665, -17.897321701049805, 0.008404026739299297, -0.10352963954210281, -3.763068199157715, 0.17426902055740356, 0.5496265292167664, 0.05619282275438309, 2.168356266408075, 1.940834101449667, -93.48825833756447, 9362.0, 30146.0, 35388.0, 9362.0, 8.370248794555664, -0.024870216846466064, 0.21592751145362854, 0.16556032001972198, -0.07577754557132721, 0.015886807814240456, 0.9597190022468567, -0.08174239844083786, -0.12023735046386719, 1.486083984375, 1.31396484375, 0.0325469970703125, 1.497802734375
60123, 0.15312421321868896, -0.03409571200609207, -0.1328784078359604, -0.026201462373137474, -0.30467942357063293, -17.934972763061523, 0.008458794094622135, -0.10377924144268036, -3.767059564590454, 0.17430385947227478, 0.5496166348457336, 0.05618206411600113, 2.152072068981551, 1.935640544825361, -93.48781716519952, 9362.0, 30146.0, 35388.0, 9362.0, 8.370248794555664, -0.024870216846466064, 0.21592751145362854, 0.16556032001972198, -0.07577754557132721, 0.015886807814240456, 0.9597190022468567, -0.07887078076601028, -0.05751800537109375, 1.4912109375, 1.322021484375, 0.0257415771484375, 1.497802734375
60143, 0.1537250280380249, -0.032963670790195465, -0.13203179836273193, -0.02603117749094963, -0.3067600429058075, -18.010395050048828, 0.008569733239710331, -0.10428206622600555, -3.775062322616577, 0.1742846518754959, 0.5496145486831665, 0.056187838315963745, 2.151200886032478, 1.9352741430312506, -93.49251235345801, 9362.0, 30146.0, 35388.0, 9362.0, 8.370248794555664, 0.11912856251001358, -0.17657984793186188, 0.017257779836654663, -0.07577754557132721, 0.015886807814240456, 0.9597190022468567, -0.07808993011713028, -0.05751800537109375, 1.4912109375, 1.31689453125, 0.0298919677734375, 1.497802734375
60163, 0.15476013720035553, -0.036433372646570206, -0.13190552592277527, -0.02585870586335659, -0.3088507652282715, -18.08597183227539, 0.008677709847688675, -0.10479000955820084, -3.7827165126800537, 0.17429086565971375, 0.5496168732643127, 0.0562041699886322, 2.1645801257541932, 1.9352833458517864, -93.48886204354432, 9362.0, 30146.0, 35388.0, 9362.0, 8.370248794555664, 0.11912856251001358, -0.17657984793186188, 0.017257779836654663, -0.07577754557132721, 0.015886807814240456, 0.9597190022468567, -0.07808993011713028, -0.05751800537109375, 1.4912109375, 1.3037109375, 0.04412841796875, 1.497802734375
60203, 0.15682095289230347, -0.03834576904773712, -0.132362961769104, -0.025595685467123985, -0.3120059370994568, -18.199634552001953, 0.008856006897985935, -0.10555537045001984, -3.7947635650634766, 0.17429903149604797, 0.549610435962677, 0.0561751052737236, 2.150311269624029, 1.9327855257691056, -93.48989939555742, 9362.0, 30146.0, 35388.0, 9362.0, 8.370248794555664, -0.13391096889972687, 0.20576408505439758, 0.013111925683915615, -0.07577754557132721, 0.015886807814240456, 0.9597190022468567, -0.08286996185779572, -0.11127853393554688, 1.48681640625, 1.305908203125, 0.0413360595703125, 1.497802734375
60223, 0.15847459435462952, -0.041940923780202866, -0.13140419125556946, -0.025327172130346298, -0.31518417596817017, -18.31365966796875, 0.009047123603522778, -0.10632865875959396, -3.8070008754730225, 0.1743665188550949, 0.5497276186943054, 0.056082237511873245, 2.0774855515181514, 2.0141014801168637, -93.46284844410265, 9362.0, 30146.0, 35388.0, 9362.0, 8.370248794555664, -0.13391096889972687, 0.20576408505439758, 0.013111925683915615, -0.07577754557132721, 0.015886807814240456, 0.9597190022468567, -0.07997952401638031, -0.030637741088867188, 1.493408203125, 1.308837890625, 0.0379486083984375, 1.497802734375
60243, 0.1579575389623642, -0.04006574675440788, -0.13169535994529724, -0.025327172130346298, -0.31518417596817017, -18.31365966796875, 0.009047123603522778, -0.10632865875959396, -3.8070008754730225, 0.17427366971969604, 0.5496020317077637, 0.05616934597492218, 2.177803998017279, 1.9303630018451088, -93.4811050269625, 9362.0, 30146.0, 35388.0, 9362.0, 8.370248794555664, -0.16720084846019745, -0.20578812062740326, -0.12123233824968338, -0.07577754557132721, 0.015886807814240456, 0.9597190022468567, -0.07997952401638031, -0.030637741088867188, 1.493408203125, 1.31689453125, 0.0298919677734375, 1.497802734375
60253, 0.15786457061767578, -0.03926149755716324, -0.13178931176662445, -0.025052696466445923, -0.3183857798576355, -18.42804527282715, 0.009249268099665642, -0.10710997134447098, -3.8186943531036377, 0.17428383231163025, 0.5496004223823547, 0.05617687106132507, 2.1605259907365717, 1.9254877840081974, -93.48350594553393, 9362.0, 30146.0, 35388.0, 9362.0, 8.370248794555664, -0.16720084846019745, -0.20578812062740326, -0.12123233824968338, -0.07577754557132721, 0.015886807814240456, 0.9597190022468567, -0.07631760090589523, -0.10231781005859375, 1.487548828125, 1.31689453125, 0.0298919677734375, 1.497802734375
60263, 0.15836063027381897, -0.03867844119668007, -0.1325615644454956, -0.024959884583950043, -0.3194581866264343, -18.46625328063965, 0.009313053451478481, -0.10736881196498871, -3.8228981494903564, 0.17432190477848053, 0.5495992302894592, 0.0561792254447937, 2.141845758297346, 1.9275584006006454, -93.47873965739974, 9362.0, 30146.0, 35388.0, 9362.0, 8.370248794555664, -0.16720084846019745, -0.20578812062740326, -0.12123233824968338, -0.07577754557132721, 0.015886807814240456, 0.9597190022468567, -0.07451063394546509, -0.08439826965332031, 1.489013671875, 1.310302734375, 0.036285400390625, 1.497802734375
60273, 0.15938667953014374, -0.03892771899700165, -0.1323586106300354, -0.024866439402103424, -0.3205331861972809, -18.50450325012207, 0.009375810623168945, -0.10762836039066315, -3.827117681503296, 0.17430274188518524, 0.5496386289596558, 0.05616790056228638, 2.1559766931815396, 1.9486953368048319, -93.4787127023952, 9362.0, 30146.0, 35388.0, 9362.0, 8.370248794555664, -0.16720084846019745, -0.20578812062740326, -0.12123233824968338, -0.07577754557132721, 0.015886807814240456, 0.9597190022468567, -0.07451063394546509, -0.08439826965332031, 1.489013671875, 1.318359375, 0.028656005859375, 1.497802734375
60283, 0.16007404029369354, -0.042691703885793686, -0.13350409269332886, -0.024772364646196365, -0.32161077857017517, -18.54279327392578, 0.009438922628760338, -0.10789038985967636, -3.8310554027557373, 0.17429301142692566, 0.5496124029159546, 0.05615874379873276, 2.1574158167060773, 1.935242840610158, -93.48328088579353, 9362.0, 30146.0, 35388.0, 9362.0, 8.370248794555664, -0.16720084846019745, -0.20578812062740326, -0.12123233824968338, -0.07577754557132721, 0.015886807814240456, 0.9597190022468567, -0.07451063394546509, -0.08439826965332031, 1.489013671875, 1.30810546875, 0.0388031005859375, 1.497802734375
60303, 0.15847255289554596, -0.04121558368206024, -0.13240526616573334, -0.02458219602704048, -0.3237738311290741, -18.619491577148438, 0.009577601216733456, -0.10841592401266098, -3.838865041732788, 0.17429597675800323, 0.5496249198913574, 0.05615367367863655, 2.166041288171592, 1.9425153797145072, -93.4813099366196, 9362.0, 30146.0, 35388.0, 9362.0, 8.370248794555664, 0.011677194386720657, 0.17196689546108246, 0.06586093455553055, -0.07577754557132721, 0.015886807814240456, 0.9597190022468567, -0.07157167047262192, -0.04855918884277344, 1.491943359375, 1.307373046875, 0.039581298828125, 1.497802734375
60333, 0.16016530990600586, -0.04237840697169304, -0.13282403349876404, -0.02438930794596672, -0.3259473741054535, -18.696346282958984, 0.009710128419101238, -0.10893737524747849, -3.8466241359710693, 0.17428402602672577, 0.5495936870574951, 0.056114476174116135, 2.166961540851971, 1.9272935744789663, -93.48775190445586, 9362.0, 30146.0, 35388.0, 9362.0, 8.370248794555664, 0.13380008935928345, -0.03234299272298813, 0.010678340680897236, -0.07577754557132721, 0.015886807814240456, 0.9597190022468567, -0.0687195286154747, -0.01271820068359375, 1.494873046875, 1.3154296875, 0.03118896484375, 1.497802734375
60363, 0.16127702593803406, -0.04031989723443985, -0.13133791089057922, -0.023995554074645042, -0.3303258717060089, -18.850528717041016, 0.009979301132261753, -0.10999012738466263, -3.8625216484069824, 0.17432062327861786, 0.5496281981468201, 0.05616006627678871, 2.154630816306445, 1.945164175629003, -93.48048628841516, 9362.0, 30146.0, 35388.0, 9362.0, 8.370248794555664, 0.03879397362470627, 0.2537638247013092, 0.1377781331539154, -0.07577754557132721, 0.015886807814240456, 0.9597190022468567, -0.07344440370798111, -0.08439826965332031, 1.489013671875, 1.288330078125, 0.0676116943359375, 1.497802734375
60383, 0.16123513877391815, -0.04016809165477753, -0.13315171003341675, -0.023794639855623245, -0.3325309753417969, -18.9278564453125, 0.010114039294421673, -0.11052144318819046, -3.870232343673706, 0.17432138323783875, 0.5496128797531128, 0.05614189803600311, 2.1491369743880884, 1.9350071913199542, -93.48703106152094, 9362.0, 30146.0, 35388.0, 9362.0, 8.370248794555664, 0.03879397362470627, 0.2537638247013092, 0.1377781331539154, -0.07577754557132721, 0.015886807814240456, 0.9597190022468567, -0.0737808495759964, -0.09335899353027344, 1.48828125, 1.305908203125, 0.0413360595703125, 1.497802734375
60393, 0.1605646312236786, -0.038892410695552826, -0.1321732997894287, -0.023794639855623245, -0.3325309753417969, -18.9278564453125, 0.010114039294421673, -0.11052144318819046, -3.870232343673706, 0.1742984652519226, 0.5495925545692444, 0.05613085255026817, 2.15574708758646, 1.9168356691661472, -93.4810108307878, 9362.0, 30146.0, 35388.0, 9362.0, 8.370248794555664, 0.03879397362470627, 0.2537638247013092, 0.1377781331539154, -0.07577754557132721, 0.015886807814240456, 0.9597190022468567, -0.0737808495759964, -0.09335899353027344, 1.48828125, 1.29638671875, 0.0542755126953125, 1.497802734375
60403, 0.16029559075832367, -0.04091997444629669, -0.131428524851799, -0.02359105832874775, -0.33474668860435486, -19.00533676147461, 0.010242914780974388, -0.1110515221953392, -3.8778040409088135, 0.17429979145526886, 0.5496108531951904, 0.05609145015478134, 2.16690578069577, 1.9347939798807374, -93.48968866055306, 9362.0, 30146.0, 35388.0, 9362.0, 8.370248794555664, 0.03879397362470627, 0.2537638247013092, 0.1377781331539154, -0.07577754557132721, 0.015886807814240456, 0.9597190022468567, -0.0737808495759964, -0.09335899353027344, 1.48828125, 1.297119140625, 0.0532379150390625, 1.497802734375
60433, 0.1596624255180359, -0.03835723549127579, -0.12950445711612701, -0.023280857130885124, -0.33809006214141846, -19.121843338012695, 0.010434183292090893, -0.11184047907590866, -3.889392614364624, 0.1742837131023407, 0.5496119260787964, 0.05610940605401993, 2.1803544353549555, 1.9406089684333665, -93.47422763312136, 9362.0, 30146.0, 35388.0, 9362.0, 8.370248794555664, 7.041818753350526e-05, 0.029990820214152336, -0.113963283598423, -0.07617367058992386, 0.02068457193672657, 0.9602999091148376, -0.07431619614362717, -0.04855918884277344, 1.491943359375, 1.3037109375, 0.04412841796875, 1.497802734375
60463, 0.16033011674880981, -0.04397902637720108, -0.1313181221485138, -0.02296491526067257, -0.3414571285247803, -19.23870086669922, 0.010632808320224285, -0.11262916028499603, -3.9010660648345947, 0.17431245744228363, 0.5496016144752502, 0.05613667145371437, 2.1491060574338405, 1.927371284140662, -93.48878533255018, 9362.0, 30146.0, 35388.0, 9362.0, 8.370248794555664, -0.036918383091688156, 0.5179271101951599, 0.21490341424942017, -0.07617367058992386, 0.02068457193672657, 0.9602999091148376, -0.07431619614362717, -0.04855918884277344, 1.491943359375, 1.31103515625, 0.0355682373046875, 1.497802734375
60483, 0.15986347198486328, -0.0494685173034668, -0.12870602309703827, -0.02275078184902668, -0.34371498227119446, -19.316801071166992, 0.010785393416881561, -0.11315523087978363, -3.9090123176574707, 0.17428267002105713, 0.5496219396591187, 0.05612185597419739, 2.1698378160638865, 1.9391391383096561, -93.48128082938743, 9362.0, 30146.0, 35388.0, 9362.0, 8.370248794555664, -0.036918383091688156, 0.5179271101951599, 0.21490341424942017, -0.07617367058992386, 0.02068457193672657, 0.9602999091148376, -0.07431619614362717, -0.04855918884277344, 1.491943359375, 1.31982421875, 0.0273590087890625, 1.493408203125
60493, 0.16007821261882782, -0.04905117675662041, -0.13155952095985413, -0.022642524912953377, -0.3448478579521179, -19.355911254882812, 0.010866161435842514, -0.11341826617717743, -3.912895441055298, 0.1743030697107315, 0.5496167540550232, 0.05616654455661774, 2.1608430540026924, 1.9368200248709684, -93.48797164113473, 9362.0, 30146.0, 35388.0, 9362.0, 8.370248794555664, -0.036918383091688156, 0.5179271101951599, 0.21490341424942017, -0.07617367058992386, 0.02068457193672657, 0.9602999091148376, -0.09797219932079315, -0.12023735046386719, 1.486083984375, 1.313232421875, 0.0333251953125, 1.493408203125
60523, 0.16070403158664703, -0.05257603898644447, -0.1284954696893692, -0.022533463314175606, -0.3459833562374115, -19.39505958557129, 0.010946008376777172, -0.11368147283792496, -3.9168505668640137, 0.17433446645736694, 0.5496053695678711, 0.0561702586710453, 2.132220160742071, 1.9268202482749928, -93.48491260411333, 9362.0, 30146.0, 35388.0, 9362.0, 8.370248794555664, -0.09601850807666779, 0.3725152611732483, 0.139083594083786, -0.07617367058992386, 0.02068457193672657, 0.9602999091148376, -0.09457790106534958, -0.05751800537109375, 1.4912109375, 1.30810546875, 0.0388031005859375, 1.493408203125
60533, 0.16010628640651703, -0.05429646000266075, -0.12796495854854584, -0.022201331332325935, -0.3494056165218353, -19.51274871826172, 0.01119744498282671, -0.11447159200906754, -3.9290831089019775, 0.17431913316249847, 0.5496305227279663, 0.056141071021556854, 2.142278274595694, 1.9414713232632153, -93.48526592934095, 9362.0, 30146.0, 35388.0, 9362.0, 8.370248794555664, -0.09601850807666779, 0.3725152611732483, 0.139083594083786, -0.07617367058992386, 0.02068457193672657, 0.9602999091148376, -0.09457790106534958, -0.05751800537109375, 1.4912109375, 1.31689453125, 0.0298919677734375, 1.493408203125
60563, 0.16206473112106323, -0.05564916133880615, -0.1294528692960739, -0.021975595504045486, -0.3517003059387207, -19.59140968322754, 0.011377657763659954, -0.11499734967947006, -3.9370229244232178, 0.17428426444530487, 0.5495983958244324, 0.05614381283521652, 2.161269438486985, 1.9235314506129555, -93.47427360463902, 9362.0, 30146.0, 35388.0, 9362.0, 8.370248794555664, 0.04457922652363777, 0.15350154042243958, -0.0011123748263344169, -0.07617367058992386, 0.02068457193672657, 0.9602999091148376, -0.0881924256682396, -0.10231781005859375, 1.487548828125, 1.31396484375, 0.0325469970703125, 1.494873046875
60603, 0.16332632303237915, -0.05932742729783058, -0.127653568983078, -0.021395184099674225, -0.35748347640037537, -19.788766860961914, 0.011845685541629791, -0.1163330152630806, -3.9569993019104004, 0.17428115010261536, 0.5496073365211487, 0.05615614354610443, 2.1746949291766473, 1.9330532504683617, -93.48591545863114, 9362.0, 30146.0, 35388.0, 9362.0, 8.370248794555664, 0.12823966145515442, 0.12357480823993683, 0.26201963424682617, -0.07617367058992386, 0.02068457193672657, 0.9602999091148376, -0.08036131411790848, -0.05751800537109375, 1.4912109375, 1.313232421875, 0.0333251953125, 1.494873046875
60623, 0.16382215917110443, -0.05754903703927994, -0.1285538673400879, -0.02115633524954319, -0.3598155081272125, -19.86798667907715, 0.012038917280733585, -0.1168697327375412, -3.9649667739868164, 0.17431114614009857, 0.5496074557304382, 0.056192319840192795, 2.1382819709612746, 1.9288164479724799, -93.48211017945843, 9362.0, 30146.0, 35388.0, 9362.0, 8.370248794555664, 0.0799381285905838, 0.019269486889243126, 0.08262476325035095, -0.07549481838941574, 0.018536100164055824, 0.9591208696365356, -0.08164968341588974, -0.03959846496582031, 1.49267578125, 1.318359375, 0.028656005859375, 1.494873046875
60643, 0.1637301743030548, -0.0587843582034111, -0.1288343220949173, -0.02091364935040474, -0.36215829849243164, -19.947362899780273, 0.012232602573931217, -0.11740871518850327, -3.972839593887329, 0.17430080473423004, 0.5495994687080383, 0.056161314249038696, 2.149927881660221, 1.9207705904075851, -93.49723953689656, 9362.0, 30146.0, 35388.0, 9362.0, 8.370248794555664, -0.014602002687752247, 0.006133077200502157, -0.11095256358385086, -0.07549481838941574, 0.018536100164055824, 0.9591208696365356, -0.08164968341588974, -0.03959846496582031, 1.49267578125, 1.3095703125, 0.037139892578125, 1.494873046875
60653, 0.1648595929145813, -0.05824511498212814, -0.12778495252132416, -0.02091364935040474, -0.36215829849243164, -19.947362899780273, 0.012232602573931217, -0.11740871518850327, -3.972839593887329, 0.1743113398551941, 0.5496072173118591, 0.05617499351501465, 2.145338059840899, 1.930091052816806, -93.48141616317739, 9362.0, 30146.0, 35388.0, 9362.0, 8.370248794555664, -0.12853775918483734, 0.2550170421600342, 0.4047170579433441, -0.07549481838941574, 0.018536100164055824, 0.9591208696365356, -0.08164968341588974, -0.03959846496582031, 1.49267578125, 1.32568359375, 0.0232086181640625, 1.494873046875
60683, 0.1634882390499115, -0.06492278724908829, -0.1263102889060974, -0.020416611805558205, -0.36687618494033813, -20.106599807739258, 0.012624355964362621, -0.11848428100347519, -3.9889700412750244, 0.17428158223628998, 0.5496281385421753, 0.056183185428380966, 2.16946428778095, 1.941823073412337, -93.48233471719873, 9362.0, 30146.0, 35388.0, 9362.0, 8.370248794555664, 0.06320270150899887, -0.0036724864039570093, -0.4273982644081116, -0.07549481838941574, 0.018536100164055824, 0.9591208696365356, -0.0775708481669426, -0.07543754577636719, 1.48974609375, 1.308837890625, 0.0379486083984375, 1.494873046875
60693, 0.16373206675052643, -0.06435699015855789, -0.12787514925003052, -0.020289838314056396, -0.3680623769760132, -20.14651107788086, 0.012730281800031662, -0.1187526285648346, -3.9930927753448486, 0.17429186403751373, 0.5496301054954529, 0.056172408163547516, 2.166910736882428, 1.9487836938419605, -93.48341820142099, 9362.0, 30146.0, 35388.0, 9362.0, 8.370248794555664, 0.06320270150899887, -0.0036724864039570093, -0.4273982644081116, -0.07549481838941574, 0.018536100164055824, 0.9591208696365356, -0.0775708481669426, -0.07543754577636719, 1.48974609375, 1.31103515625, 0.0355682373046875, 1.494873046875
60723, 0.16395358741283417, -0.0686102956533432, -0.12995436787605286, -0.019903171807527542, -0.3716370463371277, -20.266489028930664, 0.013048188760876656, -0.11955955624580383, -4.005221366882324, 0.1743285357952118, 0.5496279001235962, 0.056179583072662354, 2.127021806922545, 1.9545371486806289, -93.4815483323159, 9362.0, 30146.0, 35388.0, 9362.0, 8.370248794555664, -0.0924752876162529, 0.21439416706562042, -0.1300630420446396, -0.07549481838941574, 0.018536100164055824, 0.9591208696365356, -0.0757090300321579, -0.09335899353027344, 1.48828125, 1.32421875, 0.024139404296875, 1.494873046875
60733, 0.16373972594738007, -0.06776073575019836, -0.13056834042072296, -0.019903171807527542, -0.3716370463371277, -20.266489028930664, 0.013048188760876656, -0.11955955624580383, -4.005221366882324, 0.17430293560028076, 0.5495855808258057, 0.05619298666715622, 2.151639561617083, 1.9172545282946487, -93.48698088767087, 9362.0, 30146.0, 35388.0, 9362.0, 8.370248794555664, -0.0924752876162529, 0.21439416706562042, -0.1300630420446396, -0.07549481838941574, 0.018536100164055824, 0.9591208696365356, -0.0757090300321579, -0.09335899353027344, 1.48828125, 1.32421875, 0.024139404296875, 1.494873046875
60763, 0.16406124830245972, -0.06818265467882156, -0.12965306639671326, -0.01963997259736061, -0.3740336298942566, -20.346675872802734, 0.013270851224660873, -0.12009794265031815, -4.013321876525879, 0.17428439855575562, 0.5496187806129456, 0.05617394298315048, 2.166879591143167, 1.933552937352573, -93.48783657416674, 9362.0, 30146.0, 35388.0, 9362.0, 8.370248794555664, 0.06583892554044724, -0.03667408600449562, -0.08944480121135712, -0.07549481838941574, 0.018536100164055824, 0.9591208696365356, -0.0748748853802681, -0.09335899353027344, 1.48828125, 1.32568359375, 0.0232086181640625, 1.494873046875
60773, 0.16348883509635925, -0.06414775550365448, -0.13245855271816254, -0.019236823543906212, -0.3776487410068512, -20.467252731323242, 0.013606141321361065, -0.12090946733951569, -4.025185585021973, 0.17430701851844788, 0.5496019124984741, 0.056154537945985794, 2.14802846852316, 1.9325252641970394, -93.48309672092773, 9362.0, 30146.0, 35388.0, 9362.0, 8.370248794555664, 0.06583892554044724, -0.03667408600449562, -0.08944480121135712, -0.07549481838941574, 0.018536100164055824, 0.9591208696365356, -0.0748748853802681, -0.09335899353027344, 1.48828125, 1.308837890625, 0.0379486083984375, 1.494873046875
60803, 0.1638309806585312, -0.06703215092420578, -0.13477815687656403, -0.01882384531199932, -0.3812881410121918, -20.58818817138672, 0.013929691165685654, -0.12171584367752075, -4.037221431732178, 0.1743033230304718, 0.549615740776062, 0.056155726313591, 2.1560747885386786, 1.9355875521251846, -93.48434537971062, 9362.0, 30146.0, 35388.0, 9362.0, 8.370248794555664, -0.003781168721616268, 0.1597857028245926, 0.20036910474300385, -0.07549481838941574, 0.018536100164055824, 0.9591208696365356, -0.0726158544421196, -0.07543754577636719, 1.48974609375, 1.30810546875, 0.0388031005859375, 1.494873046875
60813, 0.1651778668165207, -0.06692440062761307, -0.1335080862045288, -0.01868400163948536, -0.3825066387653351, -20.62858009338379, 0.014039149507880211, -0.12198502570390701, -4.041230201721191, 0.17430537939071655, 0.5495834946632385, 0.05617237091064453, 2.149991246163607, 1.9159624947836278, -93.47848570242823, 9362.0, 30146.0, 35388.0, 9362.0, 8.370248794555664, -0.003781168721616268, 0.1597857028245926, 0.20036910474300385, -0.07549481838941574, 0.018536100164055824, 0.9591208696365356, -0.07307586073875427, -0.05751800537109375, 1.4912109375, 1.32568359375, 0.0232086181640625, 1.494873046875
60843, 0.1661195307970047, -0.06441356241703033, -0.13381034135818481, -0.018401039764285088, -0.38495177030563354, -20.709484100341797, 0.014256471768021584, -0.12252731621265411, -4.049203872680664, 0.1742868572473526, 0.5496097803115845, 0.05614638328552246, 2.163571620624818, 1.9308491966319252, -93.48811873891276, 9362.0, 30146.0, 35388.0, 9362.0, 8.370248794555664, -0.09772362560033798, -0.19580568373203278, -0.3464687168598175, -0.07343550026416779, 0.019558578729629517, 0.9572071433067322, -0.07093127816915512, -0.030637741088867188, 1.493408203125, 1.313232421875, 0.0333251953125, 1.494873046875
60863, 0.16705410182476044, -0.062474243342876434, -0.13886786997318268, -0.01811380311846733, -0.38740774989128113, -20.79054832458496, 0.01446694228798151, -0.12307124584913254, -4.057379722595215, 0.17432135343551636, 0.5496228933334351, 0.056142888963222504, 2.1421203471028556, 1.941073378266907, -93.48542559656075, 9362.0, 30146.0, 35388.0, 9362.0, 8.370248794555664, 0.01489231176674366, 0.2185041457414627, 0.09661322087049484, -0.07343550026416779, 0.019558578729629517, 0.9572071433067322, -0.0805320292711258, -0.10231781005859375, 1.487548828125, 1.311767578125, 0.0348052978515625, 1.494873046875
60883, 0.16819977760314941, -0.0626014918088913, -0.13760249316692352, -0.017660360783338547, -0.39123615622520447, -20.916515350341797, 0.014787085354328156, -0.12392245978116989, -4.0695624351501465, 0.17431335151195526, 0.5496048331260681, 0.056151073426008224, 2.1437125949036955, 1.9286151798059734, -93.47530673120731, 9362.0, 30146.0, 35388.0, 9362.0, 8.370248794555664, 0.21241624653339386, 0.04304569214582443, 0.02458895742893219, -0.07343550026416779, 0.019558578729629517, 0.9572071433067322, -0.0805320292711258, -0.10231781005859375, 1.487548828125, 1.317626953125, 0.0291900634765625, 1.494873046875
60893, 0.1680651158094406, -0.06179771572351456, -0.13766983151435852, -0.01751197874546051, -0.39247676730155945, -20.957231521606445, 0.014889253303408623, -0.12419884651899338, -4.073596954345703, 0.1742895543575287, 0.5496088266372681, 0.056133344769477844, 2.15774292162426, 1.9329793954655656, -93.48251461258268, 9362.0, 30146.0, 35388.0, 9362.0, 8.370248794555664, 0.21241624653339386, 0.04304569214582443, 0.02458895742893219, -0.07343550026416779, 0.019558578729629517, 0.9572071433067322, -0.0805320292711258, -0.10231781005859375, 1.487548828125, 1.322021484375, 0.0257415771484375, 1.494873046875
60923, 0.17013727128505707, -0.06518632173538208, -0.13816796243190765, -0.0172121562063694, -0.3949662744998932, -21.03878402709961, 0.015095546841621399, -0.12475183606147766, -4.081727027893066, 0.17431215941905975, 0.549603283405304, 0.05614859238266945, 2.1427607657904573, 1.9194585547377585, -93.48816698306754, 9362.0, 30146.0, 35388.0, 9362.0, 8.370248794555664, 0.11420142650604248, 0.06043074652552605, -0.11417892575263977, -0.07343550026416779, 0.019558578729629517, 0.9572071433067322, -0.07531315088272095, -0.05751800537109375, 1.4912109375, 1.31396484375, 0.0325469970703125, 1.494873046875
60963, 0.17123331129550934, -0.06268349289894104, -0.13920491933822632, -0.016908107325434685, -0.39746686816215515, -21.12049674987793, 0.015308966860175133, -0.12530958652496338, -4.089663505554199, 0.17432326078414917, 0.5495879650115967, 0.056112296879291534, 2.1439425618531405, 1.912033171138745, -93.48589533085254, 9362.0, 30146.0, 35388.0, 9362.0, 8.370248794555664, 0.21790969371795654, -0.2887541353702545, -0.2302016317844391, -0.07896281778812408, 0.017248157411813736, 0.9599137306213379, -0.08169450610876083, -0.09335899353027344, 1.48828125, 1.318359375, 0.028656005859375, 1.4912109375
60973, 0.1720704436302185, -0.06333760917186737, -0.13828732073307037, -0.016908107325434685, -0.39746686816215515, -21.12049674987793, 0.015308966860175133, -0.12530958652496338, -4.089663505554199, 0.17424578964710236, 0.5494663715362549, 0.05623365938663483, 2.231344736434013, 1.8168063010361095, -93.50867879430474, 9362.0, 30146.0, 35388.0, 9362.0, 8.370248794555664, -0.12969091534614563, -0.0015590749680995941, -0.27649253606796265, -0.07896281778812408, 0.017248157411813736, 0.9599137306213379, -0.08015404641628265, -0.09335899353027344, 1.48828125, 1.31982421875, 0.0273590087890625, 1.4912109375
61023, 0.17382466793060303, -0.07003113627433777, -0.13742652535438538, -0.015487714670598507, -0.40885889530181885, -21.490156173706055, 0.01627655327320099, -0.12785355746746063, -4.124959945678711, 0.17432503402233124, 0.5496252179145813, 0.056122370064258575, 2.1482940966179145, 1.9396380641920814, -93.49045496384103, 9362.0, 30146.0, 35388.0, 9362.0, 8.370248794555664, -0.17452287673950195, -0.12971244752407074, 0.01567281410098076, -0.07896281778812408, 0.017248157411813736, 0.9599137306213379, -0.07626945525407791, -0.07543754577636719, 1.48974609375, 1.308837890625, 0.0379486083984375, 1.4912109375
61043, 0.1726006418466568, -0.07126947492361069, -0.13534119725227356, -0.01515988726168871, -0.41142165660858154, -21.572734832763672, 0.016507195308804512, -0.1284242570400238, -4.132841110229492, 0.17433300614356995, 0.5496339797973633, 0.05610412731766701, 2.1295479793240393, 1.954854416170292, -93.48666344946756, 9362.0, 30146.0, 35388.0, 9362.0, 8.370248794555664, -0.03256215155124664, -0.09267601370811462, 0.19245024025440216, -0.07896281778812408, 0.017248157411813736, 0.9599137306213379, -0.07882065325975418, -0.030637741088867188, 1.493408203125, 1.318359375, 0.028656005859375, 1.4912109375
61063, 0.17267759144306183, -0.07211869955062866, -0.13489586114883423, -0.014827403239905834, -0.4139958322048187, -21.655473709106445, 0.016742900013923645, -0.12899243831634521, -4.140931606292725, 0.174326092004776, 0.5496232509613037, 0.05610920861363411, 2.1436419268340385, 1.9402488959315747, -93.4838401189537, 9362.0, 30146.0, 35388.0, 9362.0, 8.370248794555664, 0.18025049567222595, -0.07783294469118118, -0.14845973253250122, -0.07896281778812408, 0.017248157411813736, 0.9599137306213379, -0.07733205705881119, -0.04855918884277344, 1.491943359375, 1.313232421875, 0.0333251953125, 1.4912109375
61073, 0.17308467626571655, -0.07274893671274185, -0.13477081060409546, -0.014659385196864605, -0.41528716683387756, -21.696903228759766, 0.016860732808709145, -0.12927652895450592, -4.144853115081787, 0.17430080473423004, 0.549592137336731, 0.056114524602890015, 2.1649017979747436, 1.91938946634005, -93.4866645308448, 9362.0, 30146.0, 35388.0, 9362.0, 8.370248794555664, -0.17982447147369385, 0.034367047250270844, 0.0238980483263731, -0.07896281778812408, 0.017248157411813736, 0.9599137306213379, -0.07573993504047394, -0.021678924560546875, 1.494140625, 1.3125, 0.034027099609375, 1.496337890625
61083, 0.1734987497329712, -0.07241418957710266, -0.13492432236671448, -0.014490184374153614, -0.4165813624858856, -21.738372802734375, 0.016979491338133812, -0.12956087291240692, -4.14891242980957, 0.1743222326040268, 0.5495908856391907, 0.05612429976463318, 2.1477704209407102, 1.9272794606087302, -93.48376249112474, 9362.0, 30146.0, 35388.0, 9362.0, 8.370248794555664, -0.06161576136946678, -0.0072726416401565075, 0.1959129422903061, -0.07896281778812408, 0.017248157411813736, 0.9599137306213379, -0.07663773745298386, -0.07543754577636719, 1.48974609375, 1.3154296875, 0.03118896484375, 1.496337890625
61103, 0.1731882393360138, -0.07135844975709915, -0.13439224660396576, -0.014148233458399773, -0.4191782772541046, -21.821430206298828, 0.017215058207511902, -0.13013112545013428, -4.156741142272949, 0.17429952323436737, 0.5496004223823547, 0.0561186820268631, 2.1694556045848743, 1.9232256142745996, -93.4796420594056, 9362.0, 30146.0, 35388.0, 9362.0, 8.370248794555664, 0.026384448632597923, 0.1925564557313919, 0.004335759207606316, -0.07896281778812408, 0.017248157411813736, 0.9599137306213379, -0.07950278371572495, -0.09335899353027344, 1.48828125, 1.32421875, 0.024139404296875, 1.496337890625
61143, 0.17523379623889923, -0.07642796635627747, -0.13452117145061493, -0.013450014404952526, -0.4244064688682556, -21.98801040649414, 0.017704276368021965, -0.13127970695495605, -4.172074794769287, 0.17432774603366852, 0.5496014952659607, 0.056127648800611496, 2.1333783065956458, 1.9309138117770601, -93.48168276594897, 9362.0, 30146.0, 35388.0, 9362.0, 8.370248794555664, 0.002533723833039403, -0.050057753920555115, 0.042659468948841095, -0.07896281778812408, 0.017248157411813736, 0.9599137306213379, -0.07897105067968369, -0.07543754577636719, 1.48974609375, 1.3095703125, 0.037139892578125, 1.496337890625
61153, 0.17386028170585632, -0.07644651085138321, -0.13475601375102997, -0.013272346928715706, -0.4257207214832306, -22.02975082397461, 0.017829276621341705, -0.13156820833683014, -4.175957202911377, 0.17432668805122375, 0.5495975017547607, 0.05612646043300629, 2.1496302555540012, 1.923459326250054, -93.48747056393218, 9362.0, 30146.0, 35388.0, 9362.0, 8.370248794555664, 0.002533723833039403, -0.050057753920555115, 0.042659468948841095, -0.07896281778812408, 0.017248157411813736, 0.9599137306213379, -0.07632851600646973, -0.03959846496582031, 1.49267578125, 1.307373046875, 0.039581298828125, 1.496337890625
61173, 0.1738077998161316, -0.07525758445262909, -0.1311994045972824, -0.012913254089653492, -0.4283578097820282, -22.11334800720215, 0.01808100938796997, -0.13214117288589478, -4.183785915374756, 0.17431692779064178, 0.5495997667312622, 0.05610673129558563, 2.1488234860955973, 1.914234590439321, -93.48945493129155, 9362.0, 30146.0, 35388.0, 9362.0, 8.370248794555664, 0.08691434562206268, -0.2439338117837906, -0.11397313326597214, -0.07896281778812408, 0.017248157411813736, 0.9599137306213379, -0.07827174663543701, -0.030637741088867188, 1.493408203125, 1.3095703125, 0.037139892578125, 1.496337890625
61183, 0.17490950226783752, -0.07415337860584259, -0.13360708951950073, -0.012913254089653492, -0.4283578097820282, -22.11334800720215, 0.01808100938796997, -0.13214117288589478, -4.183785915374756, 0.1743168979883194, 0.5495941042900085, 0.05611259490251541, 2.148201151840364, 1.91898909001128, -93.47913114299473, 9362.0, 30146.0, 35388.0, 9362.0, 8.370248794555664, -0.0559757761657238, 0.34337180852890015, 0.16412946581840515, -0.07896281778812408, 0.017248157411813736, 0.9599137306213379, -0.0796303078532219, -0.09335899353027344, 1.48828125, 1.311767578125, 0.0348052978515625, 1.496337890625
61203, 0.1750500351190567, -0.07565033435821533, -0.130960613489151, -0.012549181468784809, -0.4310063421726227, -22.197101593017578, 0.018325166776776314, -0.13271474838256836, -4.191675662994385, 0.1742999106645584, 0.549583911895752, 0.05611034110188484, 2.162606610342771, 1.9244585330680195, -93.48917984437952, 9362.0, 30146.0, 35388.0, 9362.0, 8.370248794555664, 0.05750162899494171, 0.0331408716738224, -0.02305607497692108, -0.07896281778812408, 0.017248157411813736, 0.9599137306213379, -0.08335579186677933, -0.04855918884277344, 1.491943359375, 1.292724609375, 0.060089111328125, 1.496337890625
61233, 0.1767261028289795, -0.07362352311611176, -0.13189545273780823, -0.011993851512670517, -0.4350007176399231, -22.323026657104492, 0.01869605854153633, -0.13357777893543243, -4.203369617462158, 0.1743079125881195, 0.5496330261230469, 0.05611484497785568, 2.16062983474302, 1.944868258979369, -93.48566682948245, 9362.0, 30146.0, 35388.0, 9362.0, 8.370248794555664, 0.0681334137916565, 0.1365901529788971, 0.08862929791212082, -0.07896281778812408, 0.017248157411813736, 0.9599137306213379, -0.08335579186677933, -0.04855918884277344, 1.491943359375, 1.29345703125, 0.05889892578125, 1.496337890625
61253, 0.17674298584461212, -0.07307058572769165, -0.13228139281272888, -0.011427577584981918, -0.43902111053466797, -22.44930648803711, 0.019054774194955826, -0.13444983959197998, -4.215328216552734, 0.17430149018764496, 0.5496084690093994, 0.056128859519958496, 2.15182291341626, 1.9369970593336916, -93.48272135664021, 9362.0, 30146.0, 35388.0, 9362.0, 8.370248794555664, 0.0681334137916565, 0.1365901529788971, 0.08862929791212082, -0.07896281778812408, 0.017248157411813736, 0.9599137306213379, -0.08335579186677933, -0.04855918884277344, 1.491943359375, 1.297119140625, 0.0532379150390625, 1.496337890625
61263, 0.17664992809295654, -0.07447002083063126, -0.13118790090084076, -0.011427577584981918, -0.43902111053466797, -22.44930648803711, 0.019054774194955826, -0.13444983959197998, -4.215328216552734, 0.17430804669857025, 0.5495728850364685, 0.05611653998494148, 2.1533432711333216, 1.905860475189968, -93.48549420558781, 9362.0, 30146.0, 35388.0, 9362.0, 8.370248794555664, 0.0681334137916565, 0.1365901529788971, 0.08862929791212082, -0.07896281778812408, 0.017248157411813736, 0.9599137306213379, -0.08335579186677933, -0.04855918884277344, 1.491943359375, 1.2919921875, 0.0613250732421875, 1.496337890625
61333, 0.1816626787185669, -0.07535210996866226, -0.12951655685901642, -0.009864786639809608, -0.44987058639526367, -22.787796020507812, 0.020008929073810577, -0.13680003583431244, -4.2465596199035645, 0.17430837452411652, 0.5496145486831665, 0.05615846440196037, 2.1540058998623257, 1.9389284830656948, -93.47441894719977, 9362.0, 30146.0, 35388.0, 9362.0, 8.370248794555664, -0.128043070435524, 0.1559750884771347, -0.14574231207370758, -0.07896281778812408, 0.017248157411813736, 0.9599137306213379, -0.08049167692661285, -0.1650371551513672, 1.482421875, 1.2978515625, 0.05224609375, 1.496337890625
61363, 0.18028566241264343, -0.0749145895242691, -0.12792755663394928, -0.009259008802473545, -0.4539880156517029, -22.915372848510742, 0.02037469670176506, -0.13769297301769257, -4.258481025695801, 0.17431920766830444, 0.549612820148468, 0.056144777685403824, 2.1424614122489465, 1.934129596046887, -93.48157816946885, 9362.0, 30146.0, 35388.0, 9362.0, 8.370248794555664, 0.021427758038043976, -0.38583892583847046, -0.03364427387714386, -0.07896281778812408, 0.017248157411813736, 0.9599137306213379, -0.08049167692661285, -0.1650371551513672, 1.482421875, 1.29052734375, 0.06378173828125, 1.496337890625
61383, 0.18053115904331207, -0.07665493339300156, -0.12921388447284698, -0.008849081583321095, -0.45674780011177063, -23.000625610351562, 0.02061663195490837, -0.13828550279140472, -4.266609191894531, 0.17431677877902985, 0.5496103167533875, 0.0561552569270134, 2.133174402543947, 1.9266995504330282, -93.48493304713706, 9362.0, 30146.0, 35388.0, 9362.0, 8.370248794555664, -0.2062644064426422, 0.23307742178440094, 0.06078444793820381, -0.07896281778812408, 0.017248157411813736, 0.9599137306213379, -0.08049167692661285, -0.1650371551513672, 1.482421875, 1.300048828125, 0.0489654541015625, 1.496337890625
61413, 0.1802164912223816, -0.0746164545416832, -0.13036476075649261, -0.008225010707974434, -0.46090972423553467, -23.128803253173828, 0.020986735820770264, -0.13917699456214905, -4.2785325050354, 0.17434610426425934, 0.5497128367424011, 0.05607041344046593, 2.089406016167982, 2.0049702362774156, -93.4590130408962, 9362.0, 30146.0, 35388.0, 9362.0, 8.370248794555664, -0.2062644064426422, 0.23307742178440094, 0.06078444793820381, -0.07896281778812408, 0.017248157411813736, 0.9599137306213379, -0.07843956351280212, -0.05751800537109375, 1.4912109375, 1.3037109375, 0.04412841796875, 1.496337890625
