timeTick, roll, pitch, yaw, stateX, stateY, stateZ, stateVX, stateVY, stateVZ, otX0, otY0, otZ0, otRoll0, otPitch0, otYaw0, left wing, pitch motor, yaw motor, right wing, voltage, roll rate, pitch rate, yaw rate, A_x, A_y, A_z, current, i_raw, v_raw, airflow_voltage, airflow_speed, pot_Pitch
22829, 0.21755728125572205, -4.567933082580566, -1.2252100706100464, 0, 0, 0, 0, 0, 0, -0.08106920123100281, 0.4750439524650574, 0.05986542999744415, -0.8332597743041856, 0.09479126752208344, -2.991502323559797, 0, 0, 0, 0, 0, 0, 0, 0, 0, 0, 0, 0, 0, 0, 0, 0, 0
22839, 0.21812409162521362, -4.565317630767822, -1.2242975234985352, -0.006029652897268534, 0.0004167544830124825, -80.90055084228516, -0.5992138981819153, 0.041416022926568985, -7.610804557800293, -0.08106176555156708, 0.47505640983581543, 0.05988144129514694, -0.8390173933400407, 0.09040553712839028, -2.985716077861903, 9362.0, 30146.0, 35388.0, 9362.0, 7.854546070098877, -0.2316785305738449, -0.18370042741298676, 0.19550259411334991, 0.00648216949775815, -0.06020380184054375, 0.9620246291160583, -0.08391628414392471, -0.07543754577636719, 1.48974609375, 0, 0, 0
22849, 0.21714861690998077, -4.565383434295654, -1.2244665622711182, -0.011984219774603844, 0.0008283171919174492, -80.97667694091797, -0.591699481010437, 0.04089666157960892, -7.614733695983887, -0.08105101436376572, 0.47505971789360046, 0.05985669046640396, -0.8341800779234495, 0.09160498512616755, -2.9835695854015865, 9362.0, 30146.0, 35388.0, 9362.0, 7.854546070098877, 0.13800360262393951, 0.09262628108263016, 0.19548292458057404, 0.00612207967787981, -0.06095143035054207, 0.9636679887771606, -0.08251918852329254, -0.08439826965332031, 1.489013671875, 1.301513671875, 0.046966552734375, 1.491943359375
22859, 0.21748735010623932, -4.56473445892334, -1.2226979732513428, -0.017863702028989792, 0.0012346853036433458, -81.05284118652344, -0.5841968655586243, 0.04037686809897423, -7.618756294250488, -0.08106494694948196, 0.4750279486179352, 0.05985809117555618, -0.8255783471090199, 0.09811531772001558, -2.9938764107648415, 9362.0, 30146.0, 35388.0, 9362.0, 7.854546070098877, -0.13910417258739471, 0.15849195420742035, 0.1152925193309784, 0.006299915723502636, -0.06020684540271759, 0.9646469950675964, -0.0784854143857956, -0.07543754577636719, 1.48974609375, 1.30517578125, 0.0422515869140625, 1.49267578125
22869, 0.21809573471546173, -4.565155029296875, -1.223535418510437, -0.02366810105741024, 0.0016358594875782728, -81.1290512084961, -0.5766831040382385, 0.03985822945833206, -7.622641086578369, -0.08104066550731659, 0.4750635027885437, 0.059894103556871414, -0.830824925788503, 0.09860908827243975, -2.991642678727071, 9362.0, 30146.0, 35388.0, 9362.0, 7.854546070098877, -0.06480629742145538, -0.07745666801929474, -0.08138889819383621, 0.008102744817733765, -0.06080393120646477, 0.9646603465080261, -0.08145936578512192, -0.1739978790283203, 1.481689453125, 1.301513671875, 0.046966552734375, 1.4912109375
22879, 0.21735826134681702, -4.566049098968506, -1.2239474058151245, -0.02939732000231743, 0.002031842479482293, -81.2052993774414, -0.5691609382629395, 0.03933829069137573, -7.626406192779541, -0.08105532079935074, 0.4750557541847229, 0.05984879285097122, -0.83441682854036, 0.0942330645218874, -2.9884491375329705, 9362.0, 30146.0, 35388.0, 9362.0, 7.854546070098877, -0.4038446843624115, 0.11592110991477966, 0.03987686708569527, 0.006903090514242649, -0.06271794438362122, 0.9635602235794067, -0.07838845998048782, -0.10231781005859375, 1.487548828125, 1.30078125, 0.048004150390625, 1.48974609375
22889, 0.21587741374969482, -4.567481517791748, -1.2239339351654053, -0.035051316022872925, 0.002422620775178075, -81.28158569335938, -0.5616387128829956, 0.03881725296378136, -7.630178451538086, -0.08107296377420425, 0.47504428029060364, 0.05984048545360565, -0.8387202552815978, 0.09401334740400102, -2.9854913901074323, 9362.0, 30146.0, 35388.0, 9362.0, 7.854546070098877, 0.06977618485689163, 0.264940083026886, 0.013420294038951397, 0.007900858297944069, -0.0607595257461071, 0.9617618918418884, -0.07302846759557724, 0.014162063598632812, 1.4970703125, 1.30810546875, 0.0388031005859375, 1.49267578125
22899, 0.21682818233966827, -4.569242000579834, -1.2245206832885742, -0.04063013195991516, 0.0028081974014639854, -81.35791015625, -0.5541243553161621, 0.03829801082611084, -7.634068012237549, -0.08105804771184921, 0.4750523567199707, 0.05983853340148926, -0.83557295913948, 0.09920916453418727, -2.986448696049043, 9362.0, 30146.0, 35388.0, 9362.0, 7.854546070098877, -0.1166943684220314, -0.0271109901368618, 0.11869563907384872, 0.008579573594033718, -0.06050819903612137, 0.9623938202857971, -0.07462240010499954, -0.07543754577636719, 1.48974609375, 1.294189453125, 0.0578155517578125, 1.496337890625
22909, 0.21641534566879272, -4.569106101989746, -1.2227619886398315, -0.0461338609457016, 0.003188598435372114, -81.43427276611328, -0.546621561050415, 0.03778216615319252, -7.638131618499756, -0.08105713874101639, 0.4750649929046631, 0.0598539263010025, -0.841373350368545, 0.09027983391706584, -2.986959898725256, 9362.0, 30146.0, 35388.0, 9362.0, 7.854546070098877, -0.1575704663991928, -0.24838542938232422, -0.018641643226146698, 0.0072206761687994, -0.060095902532339096, 0.9659199118614197, -0.07473961263895035, -0.05751800537109375, 1.4912109375, 1.30078125, 0.048004150390625, 1.493408203125
22919, 0.21626853942871094, -4.566573143005371, -1.2249113321304321, -0.051562510430812836, 0.003563829930499196, -81.51067352294922, -0.539108157157898, 0.03726433962583542, -7.6421027183532715, -0.08107469230890274, 0.47505369782447815, 0.059842441231012344, -0.8346178793560081, 0.08967141713554838, -2.9851947637590204, 9362.0, 30146.0, 35388.0, 9362.0, 7.854546070098877, -0.08987190574407578, -0.22186900675296783, -0.041143935173749924, 0.006768959574401379, -0.06029282137751579, 0.9665597081184387, -0.07770492881536484, -0.04855918884277344, 1.491943359375, 1.29931640625, 0.0500640869140625, 1.491943359375
22929, 0.21609513461589813, -4.565759658813477, -1.2245054244995117, -0.056915897876024246, 0.00393387908115983, -81.58711242675781, -0.5315691828727722, 0.03674515709280968, -7.645750522613525, -0.08105531334877014, 0.47504866123199463, 0.05985388532280922, -0.8242988068678607, 0.10069351392516523, -2.9942004829778357, 9362.0, 30146.0, 35388.0, 9362.0, 7.854546070098877, 0.06464218348264694, -0.36174502968788147, -0.11948861181735992, 0.006487678736448288, -0.06084369868040085, 0.9633685350418091, -0.07735517621040344, -0.07543754577636719, 1.48974609375, 1.29931640625, 0.0500640869140625, 1.493408203125
22939, 0.21579860150814056, -4.562991619110107, -1.2259948253631592, -0.062193918973207474, 0.0042987363412976265, -81.66358947753906, -0.5240347385406494, 0.03622637689113617, -7.649401664733887, -0.08105412870645523, 0.47505438327789307, 0.059836871922016144, -0.8324461858599996, 0.09887253797560902, -2.9838294998084134, 9362.0, 30146.0, 35388.0, 9362.0, 7.854546070098877, 0.1515812873840332, -0.11558433622121811, 0.10992174595594406, 0.0067215608432888985, -0.06118899583816528, 0.9639548063278198, -0.0804106742143631, -0.11127853393554688, 1.48681640625, 1.300048828125, 0.0489654541015625, 1.494140625
22949, 0.21655170619487762, -4.564601421356201, -1.2251814603805542, -0.06739670783281326, 0.0046584149822592735, -81.74010467529297, -0.5165221691131592, 0.03570912405848503, -7.6533098220825195, -0.08105253428220749, 0.4750525951385498, 0.05984519049525261, -0.8339633416366725, 0.10005450845346786, -2.9901550795361223, 9362.0, 30146.0, 35388.0, 9362.0, 7.854546070098877, -0.27333736419677734, 0.06354428082704544, -0.039904121309518814, 0.006860996130853891, -0.05936460569500923, 0.9627504944801331, -0.08152508735656738, -0.1291980743408203, 1.4853515625, 1.2861328125, 0.0716094970703125, 1.4912109375
22959, 0.215840145945549, -4.563921928405762, -1.2256484031677246, -0.07252436876296997, 0.0050129215233027935, -81.81665802001953, -0.5090107917785645, 0.035192377865314484, -7.657173156738281, -0.08105459064245224, 0.4750470221042633, 0.05982430279254913, -0.8384547242922544, 0.09686440542495234, -2.992512429707327, 9362.0, 30146.0, 35388.0, 9362.0, 7.854546070098877, 0.09282338619232178, 0.19806699454784393, -0.1749674677848816, 0.006529130972921848, -0.06050879880785942, 0.9615844488143921, -0.08236052095890045, -0.08439826965332031, 1.489013671875, 1.302978515625, 0.0450897216796875, 1.49267578125
22969, 0.21536369621753693, -4.564180374145508, -1.226995587348938, -0.07757694274187088, 0.005362257361412048, -81.89324951171875, -0.5015040636062622, 0.03467470034956932, -7.661129474639893, -0.0810532495379448, 0.47505295276641846, 0.05981738120317459, -0.8348945575565012, 0.09547015697992833, -2.9872226297395867, 9362.0, 30146.0, 35388.0, 9362.0, 7.854546070098877, 0.029684875160455704, -0.11287330090999603, -0.032218437641859055, 0.006927092093974352, -0.05916554108262062, 0.9632295370101929, -0.08366438001394272, -0.12023735046386719, 1.486083984375, 1.304443359375, 0.043182373046875, 1.49560546875
22979, 0.21540328860282898, -4.565624237060547, -1.2257928848266602, -0.08255448937416077, 0.005706424359232187, -81.96987915039062, -0.49400511384010315, 0.03415851294994354, -7.6651692390441895, -0.08105156570672989, 0.47506698966026306, 0.05980054661631584, -0.8420582928434053, 0.09233960022828569, -2.9819957845339733, 9362.0, 30146.0, 35388.0, 9362.0, 7.854546070098877, -0.10978443920612335, 0.32197490334510803, 0.14249207079410553, 0.007797030732035637, -0.05995505303144455, 0.9654443860054016, -0.08292342722415924, -0.07543754577636719, 1.48974609375, 1.302978515625, 0.0450897216796875, 1.491943359375
22989, 0.21434752643108368, -4.5675740242004395, -1.2257217168807983, -0.08745698630809784, 0.006045428570359945, -82.04654693603516, -0.48649370670318604, 0.03364245593547821, -7.6690568923950195, -0.08104916661977768, 0.4750414490699768, 0.05979722738265991, -0.829404785731582, 0.09217718086622995, -2.9787955697335975, 9362.0, 30146.0, 35388.0, 9362.0, 7.854546070098877, -0.005579362157732248, -0.07306704670190811, -0.11345306038856506, 0.008200649172067642, -0.06058644503355026, 0.9640538096427917, -0.08395630121231079, -0.06647872924804688, 1.490478515625, 1.301513671875, 0.046966552734375, 1.491943359375
22999, 0.21411465108394623, -4.566739559173584, -1.226292371749878, -0.09228429198265076, 0.006379268132150173, -82.12325286865234, -0.4789680242538452, 0.03312541916966438, -7.672796249389648, -0.08104817569255829, 0.4750550091266632, 0.0597950741648674, -0.8310623683936521, 0.09172664663614682, -2.986744621762763, 9362.0, 30146.0, 35388.0, 9362.0, 7.854546070098877, 0.02723517082631588, -0.06789098680019379, 0.022123973816633224, 0.008212200365960598, -0.06135009601712227, 0.9635226726531982, -0.08722717314958572, -0.10231781005859375, 1.487548828125, 1.30078125, 0.048004150390625, 1.493408203125
23009, 0.21471385657787323, -4.565740585327148, -1.22653067111969, -0.09703636169433594, 0.006707948166877031, -82.19999694824219, -0.471445769071579, 0.032610487192869186, -7.6766204833984375, -0.08104068785905838, 0.4750650227069855, 0.05976574867963791, -0.844924228572465, 0.08697553800581659, -2.9842446979183066, 9362.0, 30146.0, 35388.0, 9362.0, 7.854546070098877, -0.12365506589412689, 0.20306511223316193, -0.03583838790655136, 0.006825615651905537, -0.060183875262737274, 0.9616692662239075, -0.08757680654525757, -0.10231781005859375, 1.487548828125, 1.294189453125, 0.0578155517578125, 1.49267578125
23019, 0.21464721858501434, -4.565977573394775, -1.227278709411621, -0.10171324759721756, 0.007031482644379139, -82.27677917480469, -0.46393078565597534, 0.032096393406391144, -7.680521011352539, -0.08104671537876129, 0.47504061460494995, 0.05979521945118904, -0.8322423017490256, 0.10342958380334721, -2.990130292966923, 9362.0, 30146.0, 35388.0, 9362.0, 7.854546070098877, -0.12255308032035828, -0.06967835128307343, 0.19159376621246338, 0.005526890512555838, -0.05998707935214043, 0.9615171551704407, -0.08792053908109665, -0.07543754577636719, 1.48974609375, 1.2861328125, 0.0716094970703125, 1.4912109375
23029, 0.2146289348602295, -4.566864013671875, -1.2254905700683594, -0.10631505399942398, 0.007349875755608082, -82.35360717773438, -0.4564310610294342, 0.03158213198184967, -7.68458890914917, -0.0810500755906105, 0.47505277395248413, 0.059777647256851196, -0.8358712138144576, 0.08714602157289164, -2.9847907554681923, 9362.0, 30146.0, 35388.0, 9362.0, 7.854546070098877, -0.10308995842933655, -0.41357502341270447, -0.25552618503570557, 0.006575010251253843, -0.06066286563873291, 0.9632211327552795, -0.08774314075708389, -0.03959846496582031, 1.49267578125, 1.288330078125, 0.0676116943359375, 1.491943359375
23039, 0.2145773023366928, -4.563992500305176, -1.225534439086914, -0.11084185540676117, 0.007663125637918711, -82.43047332763672, -0.44892942905426025, 0.031068116426467896, -7.688638210296631, -0.08104810118675232, 0.47505679726600647, 0.059770844876766205, -0.8388508296239887, 0.09740776970093634, -2.987391644233588, 9362.0, 30146.0, 35388.0, 9362.0, 7.854546070098877, 0.001383354188874364, 0.228566974401474, -0.1106579378247261, 0.0076353466138243675, -0.06058259680867195, 0.9658361077308655, -0.08731686323881149, -0.05751800537109375, 1.4912109375, 1.3037109375, 0.04412841796875, 1.490478515625
23049, 0.2146870344877243, -4.565737724304199, -1.2252393960952759, -0.11529357731342316, 0.007971232756972313, -82.50737762451172, -0.4414139688014984, 0.030553244054317474, -7.692534446716309, -0.0810462161898613, 0.4750378131866455, 0.059791456907987595, -0.8306598860925785, 0.09214645133968702, -2.9874166343663937, 9362.0, 30146.0, 35388.0, 9362.0, 7.854546070098877, 0.10316462069749832, 0.0983697772026062, 0.0933535024523735, 0.009407051838934422, -0.06193097308278084, 0.963568389415741, -0.0874486193060875, -0.11127853393554688, 1.48681640625, 1.3037109375, 0.04412841796875, 1.4912109375
23059, 0.21565255522727966, -4.567039489746094, -1.223460078239441, -0.1196700930595398, 0.00827418640255928, -82.58432006835938, -0.4338890314102173, 0.03003762848675251, -7.696249961853027, -0.08104758709669113, 0.4750574827194214, 0.05979718267917633, -0.838109608490223, 0.09168627329214019, -2.978870566880119, 9362.0, 30146.0, 35388.0, 9362.0, 7.854546070098877, -0.000633290852420032, 0.2624191641807556, -0.0006373859941959381, 0.006459543481469154, -0.06204863265156746, 0.9637696146965027, -0.1354289948940277, -0.10231781005859375, 1.487548828125, 1.300048828125, 0.0489654541015625, 1.48974609375
23069, 0.21605058014392853, -4.567193031311035, -1.223786473274231, -0.12397141754627228, 0.008571987971663475, -82.66130065917969, -0.4263756573200226, 0.029523033648729324, -7.700145721435547, -0.08104387670755386, 0.4750605523586273, 0.05980788543820381, -0.8394997633660579, 0.09856180977641316, -2.988543746124497, 9362.0, 30146.0, 35388.0, 9362.0, 7.854546070098877, -0.11195377260446548, -0.18168359994888306, -0.2024296224117279, 0.005782452877610922, -0.060184791684150696, 0.9627541899681091, -0.12273231148719788, -0.04855918884277344, 1.491943359375, 1.329345703125, 0.02105712890625, 1.496337890625
23079, 0.2151378095149994, -4.565361976623535, -1.225156307220459, -0.128197580575943, 0.008864635601639748, -82.73831939697266, -0.4188564121723175, 0.02900647185742855, -7.703996181488037, -0.08105302602052689, 0.47506898641586304, 0.059808313846588135, -0.8448589468768913, 0.08447667804554726, -2.988974928060628, 9362.0, 30146.0, 35388.0, 9362.0, 7.854546070098877, 0.08363760262727737, -0.10839766263961792, -0.20348703861236572, 0.007936853915452957, -0.05821789428591728, 0.964276909828186, -0.11417315900325775, -0.07543754577636719, 1.48974609375, 1.316162109375, 0.030517578125, 1.491943359375
23089, 0.21507762372493744, -4.564979076385498, -1.2249194383621216, -0.13234856724739075, 0.009152115322649479, -82.81537628173828, -0.41134151816368103, 0.02848932333290577, -7.7079057693481445, -0.081060491502285, 0.4750560522079468, 0.059813566505908966, -0.8379578973048811, 0.0960423949832716, -2.989371670940917, 9362.0, 30146.0, 35388.0, 9362.0, 7.854546070098877, -0.3526934087276459, 0.3099265694618225, 0.35612091422080994, 0.0065819937735795975, -0.059524014592170715, 0.9644272327423096, -0.1073484942317009, -0.11127853393554688, 1.48681640625, 1.319091796875, 0.0279998779296875, 1.4970703125
23099, 0.21268881857395172, -4.566173076629639, -1.2226682901382446, -0.13642439246177673, 0.009434428066015244, -82.89247131347656, -0.4038222134113312, 0.02797330543398857, -7.711719512939453, -0.08105852454900742, 0.4750552475452423, 0.059821717441082, -0.8447135093680763, 0.09381839543658543, -2.994256590517164, 9362.0, 30146.0, 35388.0, 9362.0, 7.854546070098877, 0.2615913152694702, -0.13942962884902954, 0.32655197381973267, 0.005912816151976585, -0.05927646905183792, 0.9619987607002258, -0.10132483392953873, -0.11127853393554688, 1.48681640625, 1.3271484375, 0.022308349609375, 1.491943359375
23109, 0.2142208367586136, -4.566115379333496, -1.2205134630203247, -0.14042502641677856, 0.009711581282317638, -82.9696044921875, -0.3963031768798828, 0.027457553893327713, -7.7155303955078125, -0.08106321841478348, 0.47505515813827515, 0.059821583330631256, -0.8441156770387235, 0.09210775966244, -2.988867644735585, 9362.0, 30146.0, 35388.0, 9362.0, 7.854546070098877, -0.008571313694119453, 0.47022923827171326, 0.31812241673469543, 0.006820935755968094, -0.059798505157232285, 0.962700605392456, -0.0942700058221817, -0.07543754577636719, 1.48974609375, 1.323486328125, 0.024688720703125, 1.4912109375
23119, 0.21373285353183746, -4.5681843757629395, -1.2171714305877686, -0.1443505436182022, 0.009983603842556477, -83.04678344726562, -0.388799786567688, 0.026947395876049995, -7.719561576843262, -0.08107103407382965, 0.47505491971969604, 0.05985342711210251, -0.846599715608198, 0.08702556866140299, -2.9854318616738573, 9362.0, 30146.0, 35388.0, 9362.0, 7.854546070098877, -0.003334605600684881, 0.07262971997261047, 0.17625874280929565, 0.006944050081074238, -0.05883483588695526, 0.9630932807922363, -0.09163638204336166, -0.06647872924804688, 1.490478515625, 1.314697265625, 0.0319061279296875, 1.4912109375
23149, 0.2160767912864685, -4.5693559646606445, -1.216551661491394, -0.15567658841609955, 0.010768959298729897, -83.27854919433594, -0.36626821756362915, 0.02540929988026619, -7.731482028961182, -0.08106078207492828, 0.47505900263786316, 0.05985521525144577, -0.8321847720056195, 0.0941430821788174, -2.9884819615036577, 9362.0, 30146.0, 35388.0, 9362.0, 7.854546070098877, 0.04915758967399597, -0.01018471922725439, 0.07812760025262833, 0.007022100035101175, -0.06022612750530243, 0.9644513130187988, -0.08610334992408752, -0.0037593841552734375, 1.49560546875, 1.32861328125, 0.0214385986328125, 1.490478515625
23169, 0.2151448279619217, -4.56945276260376, -1.2170305252075195, -0.15567658841609955, 0.010768959298729897, -83.27854919433594, -0.36626821756362915, 0.02540929988026619, -7.731482028961182, -0.08106634020805359, 0.47507014870643616, 0.05985850468277931, -0.8359724701170861, 0.09669692861916701, -2.9924298036435797, 9362.0, 30146.0, 35388.0, 9362.0, 7.854546070098877, 0.04915758967399597, -0.01018471922725439, 0.07812760025262833, 0.008065344765782356, -0.05958656594157219, 0.9639604687690735, -0.07688093185424805, -0.08439826965332031, 1.489013671875, 1.32861328125, 0.0214385986328125, 1.490478515625
23189, 0.21436303853988647, -4.570392608642578, -1.2160247564315796, -0.16972500085830688, 0.011744076386094093, -83.58810424804688, -0.33617302775382996, 0.023347072303295135, -7.746875286102295, -0.08108077943325043, 0.475052148103714, 0.05987005680799484, -0.8286848338335272, 0.08952058677218133, -2.995484811129825, 9362.0, 30146.0, 35388.0, 9362.0, 7.854546070098877, 0.04915758967399597, -0.01018471922725439, 0.07812760025262833, 0.008933020755648613, -0.05866318196058273, 0.9633802175521851, -0.07688093185424805, -0.08439826965332031, 1.489013671875, 1.32861328125, 0.0214385986328125, 1.490478515625
23199, 0.2138114869594574, -4.570502758026123, -1.2180320024490356, -0.1730491816997528, 0.011974976398050785, -83.66559600830078, -0.32866209745407104, 0.022833088412880898, -7.750890731811523, -0.08107738941907883, 0.47505906224250793, 0.05985619127750397, -0.8409923026381234, 0.09637867938764089, -2.9858383966103825, 9362.0, 30146.0, 35388.0, 9362.0, 7.854546070098877, 0.10525880753993988, -0.07717250287532806, -0.17840421199798584, 0.008377273567020893, -0.06011057272553444, 0.9621837139129639, -0.07688093185424805, -0.08439826965332031, 1.489013671875, 1.32861328125, 0.0214385986328125, 1.490478515625
23259, 0.21324914693832397, -4.57566499710083, -1.2167361974716187, -0.19141517579555511, 0.013252699747681618, -84.13135528564453, -0.28352034091949463, 0.019758639857172966, -7.774487018585205, -0.08107325434684753, 0.4750550389289856, 0.05985163152217865, -0.8409329262468208, 0.0819933371966215, -2.987565293463478, 9362.0, 30146.0, 35388.0, 9362.0, 7.854546070098877, -0.0024115422274917364, 0.04852588102221489, -0.06192024424672127, 0.006441762205213308, -0.06001199036836624, 0.9623944759368896, -0.07911603897809982, -0.06647872924804688, 1.490478515625, 1.32861328125, 0.0214385986328125, 1.490478515625
23309, 0.21302863955497742, -4.5698561668396, -1.2177143096923828, -0.20215380191802979, 0.01400209590792656, -84.4426498413086, -0.25340476632118225, 0.017711715772747993, -7.790096282958984, -0.08107488602399826, 0.4750623106956482, 0.05985236167907715, -0.8438132796803843, 0.09274890503746747, -2.98749623307213, 9362.0, 30146.0, 35388.0, 9362.0, 7.854546070098877, -0.22788727283477783, -0.344143807888031, 0.09828148782253265, 0.0075681572780013084, -0.05981122702360153, 0.9637219309806824, -0.07845073193311691, -0.07543754577636719, 1.48974609375, 1.32861328125, 0.0214385986328125, 1.490478515625
23329, 0.21282634139060974, -4.571878433227539, -1.217642903327942, -0.20215380191802979, 0.01400209590792656, -84.4426498413086, -0.25340476632118225, 0.017711715772747993, -7.790096282958984, -0.08106483519077301, 0.47506213188171387, 0.05986635759472847, -0.8447759673927129, 0.09509994994846238, -2.9911130184337016, 9362.0, 30146.0, 35388.0, 9362.0, 7.854546070098877, -0.22788727283477783, -0.344143807888031, 0.09828148782253265, 0.0073824976570904255, -0.05969511717557907, 0.9629666209220886, -0.07845073193311691, -0.07543754577636719, 1.48974609375, 1.32861328125, 0.0214385986328125, 1.490478515625
23359, 0.21263468265533447, -4.573424339294434, -1.2123483419418335, -0.2160026580095291, 0.014972804114222527, -84.91073608398438, -0.20824436843395233, 0.014647355303168297, -7.8131537437438965, -0.08105403184890747, 0.4750664234161377, 0.05986006185412407, -0.84329125738582, 0.09794819206652505, -2.988914408824171, 9362.0, 30146.0, 35388.0, 9362.0, 7.854546070098877, -0.030222676694393158, -0.16209003329277039, 0.23253053426742554, 0.0066662924364209175, -0.05991867184638977, 0.9642316699028015, -0.07666876912117004, -0.12023735046386719, 1.486083984375, 1.32861328125, 0.0214385986328125, 1.490478515625
23369, 0.21353092789649963, -4.570613384246826, -1.2120633125305176, -0.21804749965667725, 0.015116728842258453, -84.98888397216797, -0.20072470605373383, 0.014137765392661095, -7.817128658294678, -0.08106470108032227, 0.47505050897598267, 0.05986233428120613, -0.8335947935400446, 0.09058099743424464, -2.9905800214502865, 9362.0, 30146.0, 35388.0, 9362.0, 7.854546070098877, 0.07603207975625992, 0.3703848719596863, 0.24624520540237427, 0.007000587414950132, -0.059967972338199615, 0.9647477269172668, -0.07666876912117004, -0.12023735046386719, 1.486083984375, 1.32861328125, 0.0214385986328125, 1.490478515625
23429, 0.21445918083190918, -4.565401077270508, -1.2115591764450073, -0.2287357896566391, 0.01587287336587906, -85.4586181640625, -0.15557070076465607, 0.01106379833072424, -7.840088367462158, -0.08106352388858795, 0.47506123781204224, 0.05985519662499428, -0.8427065921831653, 0.09199545174942614, -2.985028031152048, 9362.0, 30146.0, 35388.0, 9362.0, 7.854546070098877, -0.036078695207834244, -0.03177446499466896, -0.18550311028957367, 0.008230160921812057, -0.05939255654811859, 0.965596616268158, -0.0778384581208229, -0.09335899353027344, 1.48828125, 1.32861328125, 0.0214385986328125, 1.490478515625
23449, 0.21386311948299408, -4.565942764282227, -1.2137759923934937, -0.2302539348602295, 0.01598094403743744, -85.53704071044922, -0.14805977046489716, 0.010550551116466522, -7.84397554397583, -0.08106142282485962, 0.47506919503211975, 0.05985235795378685, -0.8411009693907247, 0.08892044483218342, -2.9826157724867928, 9362.0, 30146.0, 35388.0, 9362.0, 7.854546070098877, -0.036078695207834244, -0.03177446499466896, -0.18550311028957367, 0.007065081503242254, -0.058992378413677216, 0.96241694688797, -0.0778384581208229, -0.09335899353027344, 1.48828125, 1.32861328125, 0.0214385986328125, 1.490478515625
23459, 0.2132139950990677, -4.564189910888672, -1.2139534950256348, -0.2302539348602295, 0.01598094403743744, -85.53704071044922, -0.14805977046489716, 0.010550551116466522, -7.84397554397583, -0.08106918632984161, 0.4750579595565796, 0.05984435975551605, -0.8414196545892042, 0.08641885398685645, -2.987044247310317, 9362.0, 30146.0, 35388.0, 9362.0, 7.854546070098877, -0.036078695207834244, -0.03177446499466896, -0.18550311028957367, 0.008159094490110874, -0.060551032423973083, 0.9636334776878357, -0.0778384581208229, -0.09335899353027344, 1.48828125, 1.32861328125, 0.0214385986328125, 1.490478515625
23499, 0.21115323901176453, -4.564542293548584, -1.2154425382614136, -0.23671722412109375, 0.016444377601146698, -85.92972564697266, -0.11048988252878189, 0.007990295067429543, -7.8633198738098145, -0.08107031881809235, 0.4750653803348541, 0.05983772501349449, -0.8432919612093379, 0.09468888701755418, -2.983165271599718, 9362.0, 30146.0, 35388.0, 9362.0, 7.854546070098877, -0.016615036875009537, 0.025823498144745827, -0.06753943860530853, 0.007040736731141806, -0.06077351048588753, 0.962661623954773, -0.08388266712427139, -0.021678924560546875, 1.494140625, 1.32861328125, 0.0214385986328125, 1.490478515625
23509, 0.21119984984397888, -4.563784599304199, -1.2144399881362915, -0.23671722412109375, 0.016444377601146698, -85.92972564697266, -0.11048988252878189, 0.007990295067429543, -7.8633198738098145, -0.0810641348361969, 0.4750553071498871, 0.059842243790626526, -0.8443780566448252, 0.09104407403978598, -2.9881557317357137, 9362.0, 30146.0, 35388.0, 9362.0, 7.854546070098877, -0.12159141898155212, -0.031876277178525925, 0.09698985517024994, 0.007040736731141806, -0.06077351048588753, 0.962661623954773, -0.08045321702957153, -0.09335899353027344, 1.48828125, 1.32861328125, 0.0214385986328125, 1.490478515625
23519, 0.2098599374294281, -4.563005447387695, -1.2136396169662476, -0.23671722412109375, 0.016444377601146698, -85.92972564697266, -0.11048988252878189, 0.007990295067429543, -7.8633198738098145, -0.08106239140033722, 0.47506681084632874, 0.05983282998204231, -0.8454054117453681, 0.08633193944575623, -2.987968152095361, 9362.0, 30146.0, 35388.0, 9362.0, 7.854546070098877, -0.12159141898155212, -0.031876277178525925, 0.09698985517024994, 0.006993228103965521, -0.06100207939743996, 0.9653015732765198, -0.07811830192804337, -0.03959846496582031, 1.49267578125, 1.32861328125, 0.0214385986328125, 1.490478515625
23549, 0.20900370180606842, -4.561829090118408, -1.2135213613510132, -0.2413032203912735, 0.016780249774456024, -86.3233871459961, -0.0729340985417366, 0.005448825191706419, -7.88279390335083, -0.0810663029551506, 0.4750543534755707, 0.05983570218086243, -0.8397123402347796, 0.09355363475589229, -2.9919438763352586, 9362.0, 30146.0, 35388.0, 9362.0, 7.854546070098877, 0.056733932346105576, -0.33620408177375793, 0.2426702082157135, 0.006207420025020838, -0.06223922595381737, 0.9609814286231995, -0.08269236236810684, -0.07543754577636719, 1.48974609375, 1.32861328125, 0.0214385986328125, 1.490478515625
23569, 0.20834052562713623, -4.56112003326416, -1.2158435583114624, -0.2413032203912735, 0.016780249774456024, -86.3233871459961, -0.0729340985417366, 0.005448825191706419, -7.88279390335083, -0.08109044283628464, 0.47504138946533203, 0.05981910601258278, -0.8405481733815171, 0.09387523467222536, -2.985567945824861, 9362.0, 30146.0, 35388.0, 9362.0, 7.854546070098877, -0.06208350509405136, -0.3835552930831909, -0.15117767453193665, 0.006985610816627741, -0.05920905992388725, 0.9640253782272339, -0.0834067091345787, -0.01271820068359375, 1.494873046875, 1.32861328125, 0.0214385986328125, 1.490478515625
23599, 0.2094743549823761, -4.561118125915527, -1.2151280641555786, -0.24432846903800964, 0.01701643504202366, -86.79706573486328, -0.02791823260486126, 0.002426708582788706, -7.906444072723389, -0.08106063306331635, 0.47506988048553467, 0.059841305017471313, -0.8384184509087039, 0.0932796574833219, -2.9822857973401384, 9362.0, 30146.0, 35388.0, 9362.0, 7.854546070098877, 0.15975764393806458, 0.20967437326908112, 0.1621532440185547, 0.00793949980288744, -0.05941637605428696, 0.9659180045127869, -0.08521334826946259, -0.07543754577636719, 1.48974609375, 1.32861328125, 0.0214385986328125, 1.490478515625
23629, 0.20812144875526428, -4.560762405395508, -1.2158021926879883, -0.24482807517051697, 0.017066502943634987, -87.03443908691406, -0.005382658448070288, 0.0009104859200306237, -7.917891502380371, -0.08108974248170853, 0.4750646650791168, 0.05980580300092697, -0.8431910312180508, 0.09544871596838789, -2.9845688248319555, 9362.0, 30146.0, 35388.0, 9362.0, 7.854546070098877, -0.024850046262145042, -0.34010371565818787, 0.3267909288406372, 0.005089827813208103, -0.06031004711985588, 0.9653932452201843, -0.08521334826946259, -0.07543754577636719, 1.48974609375, 1.32861328125, 0.0214385986328125, 1.490478515625
23639, 0.2079770714044571, -4.560215950012207, -1.2149969339370728, -0.24482807517051697, 0.017066502943634987, -87.03443908691406, -0.005382658448070288, 0.0009104859200306237, -7.917891502380371, -0.0810670554637909, 0.4750719964504242, 0.05983204394578934, -0.8515307106271892, 0.09520425318058301, -2.9873843085091636, 9362.0, 30146.0, 35388.0, 9362.0, 7.854546070098877, 0.029593348503112793, 0.6030584573745728, 0.19997048377990723, 0.007384646218270063, -0.060137975960969925, 0.9641426205635071, -0.08521334826946259, -0.07543754577636719, 1.48974609375, 1.32861328125, 0.0214385986328125, 1.490478515625
23669, 0.20837707817554474, -4.562920570373535, -1.2121704816818237, -0.24444234371185303, 0.017062662169337273, -87.35147094726562, 0.024659866467118263, -0.001101164729334414, -7.933237075805664, -0.08109236508607864, 0.4750537872314453, 0.05981149151921272, -0.8406439679798359, 0.0968236267057705, -2.987995763166506, 9362.0, 30146.0, 35388.0, 9362.0, 7.854546070098877, -0.17599765956401825, 0.04028008505702019, 0.0258405189961195, 0.0070291622541844845, -0.060857776552438736, 0.9638892412185669, -0.08659453690052032, -0.09335899353027344, 1.48828125, 1.32861328125, 0.0214385986328125, 1.490478515625
23699, 0.2085849642753601, -4.562947750091553, -1.2125022411346436, -0.24336491525173187, 0.017006991431117058, -87.58964538574219, 0.04718652740120888, -0.0026096005458384752, -7.944916725158691, -0.08106082677841187, 0.47506773471832275, 0.05980559438467026, -0.8486922205394364, 0.09707346250368687, -2.9888557904861317, 9362.0, 30146.0, 35388.0, 9362.0, 7.854546070098877, -0.025189314037561417, -0.2289092093706131, -0.37285712361335754, 0.008046909235417843, -0.06154928356409073, 0.9624183773994446, -0.08886411041021347, -0.05751800537109375, 1.4912109375, 1.32861328125, 0.0214385986328125, 1.490478515625
23759, 0.20388783514499664, -4.562430381774902, -1.2151517868041992, -0.24006697535514832, 0.016813773661851883, -87.98738098144531, 0.08472619205713272, -0.005116229876875877, -7.964526653289795, -0.08107204735279083, 0.47506484389305115, 0.059785373508930206, -0.8450783042958369, 0.09359162091624285, -2.987156094531112, 9362.0, 30146.0, 35388.0, 9362.0, 7.854546070098877, 0.12886689603328705, 0.28815892338752747, 0.17889706790447235, 0.007422240916639566, -0.05939209833741188, 0.9626957178115845, -0.1059063971042633, -0.07543754577636719, 1.48974609375, 1.32861328125, 0.0214385986328125, 1.490478515625
23789, 0.2027021199464798, -4.559717178344727, -1.2113183736801147, -0.23607710003852844, 0.016569290310144424, -88.3062744140625, 0.1147528737783432, -0.007104367017745972, -7.980158805847168, -0.0810798779129982, 0.4750589430332184, 0.05977880209684372, -0.8569239979779651, 0.08815804206386701, -2.980260442062259, 9362.0, 30146.0, 35388.0, 9362.0, 7.854546070098877, 0.11953809857368469, -0.1504649668931961, -0.03136448189616203, 0.006366429850459099, -0.062246400862932205, 0.9651790261268616, -0.0885680541396141, -0.021678924560546875, 1.494140625, 1.32861328125, 0.0214385986328125, 1.490478515625
23839, 0.20109114050865173, -4.567239761352539, -1.2099775075912476, -0.22940050065517426, 0.01615240052342415, -88.70574951171875, 0.15232469141483307, -0.00956764817237854, -7.99902868270874, -0.0810697004199028, 0.4750520884990692, 0.05978233367204666, -0.8397038078171588, 0.0997895202722816, -2.9917688991303795, 9362.0, 30146.0, 35388.0, 9362.0, 7.854546070098877, -0.2734312415122986, -0.11097153276205063, -0.08142730593681335, 0.008267523720860481, -0.06202506273984909, 0.9657801389694214, -0.07983659952878952, -0.08439826965332031, 1.489013671875, 1.32861328125, 0.0214385986328125, 1.490478515625
23859, 0.19860738515853882, -4.5659894943237305, -1.2110434770584106, -0.22620336711406708, 0.015951208770275116, -88.86580657958984, 0.1673908531665802, -0.010551394894719124, -8.006343841552734, -0.08106763660907745, 0.4750516712665558, 0.059786275029182434, -0.8430360840046012, 0.09863952562344025, -2.9838222355720014, 9362.0, 30146.0, 35388.0, 9362.0, 7.854546070098877, -0.11584632098674774, 0.04009907320141792, 0.04218719154596329, 0.006893663667142391, -0.05870461463928223, 0.964147686958313, -0.08251307904720306, -0.030637741088867188, 1.493408203125, 1.32861328125, 0.0214385986328125, 1.490478515625
23879, 0.1975954920053482, -4.568170070648193, -1.2077419757843018, -0.22449183464050293, 0.01584324985742569, -88.94589233398438, 0.17491523921489716, -0.011040426790714264, -8.010123252868652, -0.08106733113527298, 0.4750571846961975, 0.05977621302008629, -0.8535055157790574, 0.09705912072894307, -2.985261514030184, 9362.0, 30146.0, 35388.0, 9362.0, 7.854546070098877, 0.21540771424770355, 0.15086060762405396, 0.07042735815048218, 0.007042243145406246, -0.0577382855117321, 0.9639750719070435, -0.08077426254749298, -0.09335899353027344, 1.48828125, 1.32861328125, 0.0214385986328125, 1.490478515625
23889, 0.19830167293548584, -4.569880485534668, -1.2078239917755127, -0.22449183464050293, 0.01584324985742569, -88.94589233398438, 0.17491523921489716, -0.011040426790714264, -8.010123252868652, -0.08106234669685364, 0.47506484389305115, 0.05981871485710144, -0.8541254083165357, 0.09308197474277335, -2.9905174241219976, 9362.0, 30146.0, 35388.0, 9362.0, 7.854546070098877, 0.0799214318394661, 0.4707736670970917, -0.014577860943973064, 0.006273491773754358, -0.06128505989909172, 0.9647076725959778, -0.08077426254749298, -0.09335899353027344, 1.48828125, 1.32861328125, 0.0214385986328125, 1.490478515625
23929, 0.19747456908226013, -4.574493408203125, -1.2040163278579712, -0.21264344453811646, 0.015093433670699596, -89.42720794677734, 0.22005502879619598, -0.013953881338238716, -8.033263206481934, -0.08105981349945068, 0.4750668406486511, 0.059794675558805466, -0.8458844753660527, 0.08885529919217561, -2.9919103248865015, 9362.0, 30146.0, 35388.0, 9362.0, 7.854546070098877, 0.03824495151638985, -0.06680463254451752, 0.020872369408607483, 0.008284413255751133, -0.06290595978498459, 0.9650626182556152, -0.08927517384290695, -0.10231781005859375, 1.487548828125, 1.32861328125, 0.0214385986328125, 1.490478515625
23949, 0.1971726417541504, -4.5733723640441895, -1.2026512622833252, -0.21264344453811646, 0.015093433670699596, -89.42720794677734, 0.22005502879619598, -0.013953881338238716, -8.033263206481934, -0.08107610791921616, 0.47508102655410767, 0.05980958417057991, -0.8473498260935907, 0.08657994346646092, -2.9831731727104267, 9362.0, 30146.0, 35388.0, 9362.0, 7.854546070098877, 0.13434885442256927, 0.26940447092056274, -0.12803687155246735, 0.00796008761972189, -0.0615268312394619, 0.96390300989151, -0.08398137241601944, -0.07543754577636719, 1.48974609375, 1.32861328125, 0.0214385986328125, 1.490478515625
23989, 0.19919829070568085, -4.576490879058838, -1.2023141384124756, -0.1980837881565094, 0.014168974943459034, -89.90989685058594, 0.26525530219078064, -0.016862424090504646, -8.056282043457031, -0.08106912672519684, 0.47506970167160034, 0.05980531498789787, -0.8519705645098224, 0.09835197607134205, -2.9861542028146353, 9362.0, 30146.0, 35388.0, 9362.0, 7.854546070098877, -0.19591788947582245, 0.3020862638950348, -0.09075547754764557, 0.006888983305543661, -0.06035709008574486, 0.9638002514839172, -0.0838472992181778, -0.07543754577636719, 1.48974609375, 1.32861328125, 0.0214385986328125, 1.490478515625
24079, 0.1999559849500656, -4.5773444175720215, -1.2042131423950195, -0.1711616963148117, 0.012454478070139885, -90.63654327392578, 0.3330231010913849, -0.02123621664941311, -8.091625213623047, -0.08107258379459381, 0.4750843644142151, 0.05977983400225639, -0.8558944610400965, 0.08752839842105686, -2.9889435553206303, 9362.0, 30146.0, 35388.0, 9362.0, 7.854546070098877, 0.1317327916622162, 0.16065382957458496, 0.1368209570646286, 0.006241296883672476, -0.057706404477357864, 0.9645203351974487, -0.07528315484523773, -0.10231781005859375, 1.487548828125, 1.32861328125, 0.0214385986328125, 1.49267578125
24119, 0.19909828901290894, -4.578656196594238, -1.204876184463501, -0.1608317792415619, 0.011795444414019585, -90.87945556640625, 0.35563862323760986, -0.022700849920511246, -8.103200912475586, -0.08108452707529068, 0.4750603437423706, 0.05979954078793526, -0.8403241245373653, 0.09690696667851739, -2.9868430150763903, 9362.0, 30146.0, 35388.0, 9362.0, 7.854546070098877, -0.057146284729242325, -0.19712752103805542, 0.20570404827594757, 0.007900229655206203, -0.061108194291591644, 0.9638990163803101, -0.07920785993337631, -0.07543754577636719, 1.48974609375, 1.32861328125, 0.0214385986328125, 1.49267578125
24129, 0.1983615607023239, -4.578138828277588, -1.2032636404037476, -0.15356828272342682, 0.011331655085086823, -91.0416030883789, 0.3707095980644226, -0.023677611723542213, -8.111091613769531, -0.08107828348875046, 0.475070595741272, 0.05979981645941734, -0.853683071971465, 0.09202517979716163, -2.9845871247016804, 9362.0, 30146.0, 35388.0, 9362.0, 7.854546070098877, -0.1382933109998703, 0.2956840395927429, 0.055404309183359146, 0.007311063818633556, -0.060548003762960434, 0.9648340344429016, -0.07920785993337631, -0.07543754577636719, 1.48974609375, 1.32861328125, 0.0214385986328125, 1.49267578125
24219, 0.19659732282161713, -4.58148717880249, -1.202248454093933, -0.1214972585439682, 0.009282260201871395, -91.69171905517578, 0.43106043338775635, -0.027549659833312035, -8.141448974609375, -0.0810784325003624, 0.4750591814517975, 0.05982649326324463, -0.8398749501514031, 0.09701492094174569, -2.9877302919852915, 9362.0, 30146.0, 35388.0, 9362.0, 7.854546070098877, 0.09674883633852005, 0.18289980292320251, 0.23149047791957855, 0.008124587126076221, -0.06066945195198059, 0.9635891914367676, -0.08552499860525131, -0.10231781005859375, 1.487548828125, 1.32861328125, 0.0214385986328125, 1.49267578125
24289, 0.19654321670532227, -4.580576419830322, -1.1989502906799316, -0.08947569131851196, 0.007235617842525244, -92.2625732421875, 0.48383286595344543, -0.030921300873160362, -8.168704986572266, -0.08107476681470871, 0.47506842017173767, 0.05981843173503876, -0.8525439588293795, 0.08969857707086248, -2.9924749461495974, 9362.0, 30146.0, 35388.0, 9362.0, 7.854546070098877, -0.08258036524057388, 0.008842079900205135, 0.16513778269290924, 0.0075487131252884865, -0.05853172391653061, 0.9626787900924683, -0.08815877139568329, -0.09335899353027344, 1.48828125, 1.32861328125, 0.0214385986328125, 1.49267578125
24299, 0.19511549174785614, -4.580726623535156, -1.1991102695465088, -0.08947569131851196, 0.007235617842525244, -92.2625732421875, 0.48383286595344543, -0.030921300873160362, -8.168704986572266, -0.08107613772153854, 0.4750756025314331, 0.059789203107357025, -0.8524863749612288, 0.0869256073885083, -2.9839015862756444, 9362.0, 30146.0, 35388.0, 9362.0, 7.854546070098877, -0.08258036524057388, 0.008842079900205135, 0.16513778269290924, 0.007251221686601639, -0.06138399988412857, 0.9613860845565796, -0.08815877139568329, -0.09335899353027344, 1.48828125, 1.32861328125, 0.0214385986328125, 1.49267578125
24329, 0.19487425684928894, -4.5841288566589355, -1.196433663368225, -0.0643414556980133, 0.0056295450776815414, -92.67149353027344, 0.5215176343917847, -0.03332027792930603, -8.188375473022461, -0.08108215034008026, 0.47506579756736755, 0.05979806184768677, -0.8372051879830832, 0.094398325338517, -2.983972080720223, 9362.0, 30146.0, 35388.0, 9362.0, 7.854546070098877, -0.05864657834172249, -0.02744348719716072, -0.0028218375518918037, 0.006891231052577496, -0.05833369493484497, 0.962018609046936, -0.08680734783411026, -0.10231781005859375, 1.487548828125, 1.32861328125, 0.0214385986328125, 1.49267578125
24339, 0.19451867043972015, -4.584906578063965, -1.194881558418274, -0.0643414556980133, 0.0056295450776815414, -92.67149353027344, 0.5215176343917847, -0.03332027792930603, -8.188375473022461, -0.08106523752212524, 0.47506892681121826, 0.05981708690524101, -0.8521571860239637, 0.08711121979260383, -2.985817953579338, 9362.0, 30146.0, 35388.0, 9362.0, 7.854546070098877, 0.2956686317920685, -0.2942661941051483, -0.13833309710025787, 0.006891231052577496, -0.05833369493484497, 0.962018609046936, -0.08680734783411026, -0.10231781005859375, 1.487548828125, 1.32861328125, 0.0214385986328125, 1.49267578125
24399, 0.19584698975086212, -4.583837509155273, -1.1957755088806152, -0.0316929817199707, 0.00354399043135345, -93.16350555419922, 0.566765308380127, -0.03619855269789696, -8.211945533752441, -0.0810665562748909, 0.4750760495662689, 0.0597648024559021, -0.8513888827411631, 0.08955994173396675, -2.9822669392218413, 9362.0, 30146.0, 35388.0, 9362.0, 7.854546070098877, -0.022085970267653465, -0.06599801033735275, -0.31101086735725403, 0.007548022549599409, -0.062328092753887177, 0.9651583433151245, -0.08719529211521149, -0.030637741088867188, 1.493408203125, 1.32861328125, 0.0214385986328125, 1.49267578125
24459, 0.19259357452392578, -4.583889007568359, -1.1936278343200684, -0.002411292865872383, 0.0016739452257752419, -93.57457733154297, 0.6044822931289673, -0.038602348417043686, -8.231393814086914, -0.08107161521911621, 0.47508031129837036, 0.059784263372421265, -0.851516159875104, 0.09870118277865458, -2.981224233186697, 9362.0, 30146.0, 35388.0, 9362.0, 7.854546070098877, -0.0797724723815918, 0.21030111610889435, -0.025756508111953735, 0.00853651948273182, -0.06104433909058571, 0.9637996554374695, -0.08886707574129105, -0.07543754577636719, 1.48974609375, 1.32861328125, 0.0214385986328125, 1.49267578125
24509, 0.1898772418498993, -4.587743759155273, -1.1872100830078125, 0.04175165295600891, -0.0011452526086941361, -94.1517333984375, 0.6573355197906494, -0.041934896260499954, -8.258089065551758, -0.08106786012649536, 0.4750744104385376, 0.059766121208667755, -0.8526050431667986, 0.08871833998472312, -2.9796237541664503, 9362.0, 30146.0, 35388.0, 9362.0, 7.854546070098877, -0.21314385533332825, 0.1442454606294632, 0.06218593567609787, 0.007245760411024094, -0.061364077031612396, 0.9629805684089661, -0.08687341213226318, -0.1291980743408203, 1.4853515625, 1.32861328125, 0.0214385986328125, 1.49267578125
24539, 0.18732872605323792, -4.589523792266846, -1.1810444593429565, 0.06181132048368454, -0.0024244606029242277, -94.399658203125, 0.6799769401550293, -0.043342940509319305, -8.269927024841309, -0.0810660719871521, 0.47507616877555847, 0.05977237597107887, -0.8527228571548743, 0.09402750950442851, -2.986968387622084, 9362.0, 30146.0, 35388.0, 9362.0, 7.854546070098877, 0.01777658425271511, 0.31488993763923645, -0.0360691212117672, 0.008160792291164398, -0.05966382473707199, 0.9639772772789001, -0.08426456153392792, -0.10231781005859375, 1.487548828125, 1.32861328125, 0.0214385986328125, 1.49267578125
24559, 0.1857375055551529, -4.595148086547852, -1.1795504093170166, 0.07556195557117462, -0.003300632582977414, -94.56513214111328, 0.6950874328613281, -0.044273700565099716, -8.27762222290039, -0.08107446134090424, 0.4750848114490509, 0.059761904180049896, -0.848001058190226, 0.09279596537231782, -2.9895097343657246, 9362.0, 30146.0, 35388.0, 9362.0, 7.854546070098877, -0.4018276035785675, -0.20713315904140472, -0.05555012449622154, 0.006926706060767174, -0.05949607864022255, 0.9632835388183594, -0.08426456153392792, -0.10231781005859375, 1.487548828125, 1.32861328125, 0.0214385986328125, 1.49267578125
24589, 0.18230727314949036, -4.597160816192627, -1.177915096282959, 0.09675471484661102, -0.00464966893196106, -94.81362915039062, 0.7177660465240479, -0.04565887525677681, -8.289395332336426, -0.08106017112731934, 0.4750742018222809, 0.05976418778300285, -0.8544590587264189, 0.09153695796908323, -2.985346361390664, 9362.0, 30146.0, 35388.0, 9362.0, 7.854546070098877, -0.39999663829803467, 0.06114335358142853, 0.0482185073196888, 0.008019236847758293, -0.06103040277957916, 0.9629105925559998, -0.08426456153392792, -0.10231781005859375, 1.487548828125, 1.32861328125, 0.0214385986328125, 1.49267578125
24649, 0.1881411075592041, -4.603832244873047, -1.1719852685928345, 0.13358883559703827, -0.006989923771470785, -95.22859191894531, 0.7556096315383911, -0.047952618449926376, -8.308914184570312, -0.08106815814971924, 0.4750811457633972, 0.05977156385779381, -0.8493140284894678, 0.0964493946621019, -2.9904723252682808, 9362.0, 30146.0, 35388.0, 9362.0, 7.854546070098877, -0.009847008623182774, 0.12835253775119781, -0.1511469930410385, 0.007004103157669306, -0.06136024743318558, 0.9622079133987427, -0.08896785974502563, -0.07543754577636719, 1.48974609375, 1.32861328125, 0.0214385986328125, 1.493408203125
24699, 0.18759872019290924, -4.6005659103393555, -1.1750808954238892, 0.18028946220874786, -0.009950417093932629, -95.72782135009766, 0.8010608553886414, -0.050736986100673676, -8.332454681396484, -0.08107881247997284, 0.4750719368457794, 0.05978056415915489, -0.8542330149205206, 0.09324500294363247, -2.984441499175272, 9362.0, 30146.0, 35388.0, 9362.0, 7.854546070098877, 0.19053201377391815, 0.40802592039108276, 0.11841478198766708, 0.006797303911298513, -0.06202482804656029, 0.9635275602340698, -0.08748636394739151, -0.05751800537109375, 1.4912109375, 1.32861328125, 0.0214385986328125, 1.48974609375
24719, 0.18887042999267578, -4.6029887199401855, -1.1716077327728271, 0.18028946220874786, -0.009950417093932629, -95.72782135009766, 0.8010608553886414, -0.050736986100673676, -8.332454681396484, -0.08107450604438782, 0.47507911920547485, 0.05976278334856033, -0.8552128900735099, 0.0914780050976276, -2.9895204634123864, 9362.0, 30146.0, 35388.0, 9362.0, 7.854546070098877, 0.044000498950481415, 0.07877732813358307, -0.06376057118177414, 0.008479287847876549, -0.057842496782541275, 0.9623533487319946, -0.08748636394739151, -0.05751800537109375, 1.4912109375, 1.32861328125, 0.0214385986328125, 1.48974609375
24729, 0.18910007178783417, -4.603450775146484, -1.17103910446167, 0.18028946220874786, -0.009950417093932629, -95.72782135009766, 0.8010608553886414, -0.050736986100673676, -8.332454681396484, -0.08106826990842819, 0.4750796854496002, 0.05976996198296547, -0.851944466287557, 0.09325900122908592, -2.9900214704208286, 9362.0, 30146.0, 35388.0, 9362.0, 7.854546070098877, 0.044000498950481415, 0.07877732813358307, -0.06376057118177414, 0.00648809177801013, -0.0611785463988781, 0.9607335925102234, -0.08748636394739151, -0.05751800537109375, 1.4912109375, 1.32861328125, 0.0214385986328125, 1.48974609375
24769, 0.18721309304237366, -4.604404926300049, -1.1701356172561646, 0.22971564531326294, -0.013078441843390465, -96.22848510742188, 0.84647536277771, -0.0535319522023201, -8.356330871582031, -0.08107499033212662, 0.47507575154304504, 0.05976555123925209, -0.8549483663434528, 0.08683427899745766, -2.9897719219288352, 9362.0, 30146.0, 35388.0, 9362.0, 7.854546070098877, -0.04787922650575638, 0.28995442390441895, 0.49287834763526917, 0.007226068060845137, -0.05953365936875343, 0.9613599181175232, -0.08433563262224197, -0.12023735046386719, 1.486083984375, 1.32861328125, 0.0214385986328125, 1.48974609375
24819, 0.18623173236846924, -4.604868412017822, -1.1654633283615112, 0.2641803026199341, -0.015256819315254688, -96.56305694580078, 0.8767558336257935, -0.055386196821928024, -8.372410774230957, -0.0810738056898117, 0.47508442401885986, 0.05977914109826088, -0.8505896852184051, 0.09329437827162224, -2.9880670213607603, 9362.0, 30146.0, 35388.0, 9362.0, 7.854546070098877, 0.18473081290721893, -0.17179451882839203, 0.03379708528518677, 0.006161146331578493, -0.05777660384774208, 0.9643876552581787, -0.08006391674280167, -0.030637741088867188, 1.493408203125, 1.32861328125, 0.0214385986328125, 1.48974609375
24889, 0.18602776527404785, -4.606733322143555, -1.1608763933181763, 0.2641803026199341, -0.015256819315254688, -96.56305694580078, 0.8767558336257935, -0.055386196821928024, -8.372410774230957, -0.08107151836156845, 0.47506991028785706, 0.05978302285075188, -0.8510589193204273, 0.08969513761348935, -2.9931618976502135, 9362.0, 30146.0, 35388.0, 9362.0, 7.854546070098877, 0.14680735766887665, 0.5757297873497009, 0.5281165838241577, 0.007614770904183388, -0.060672469437122345, 0.9604076743125916, -0.08571325987577438, -0.06647872924804688, 1.490478515625, 1.32861328125, 0.0214385986328125, 1.48974609375
24899, 0.1864946484565735, -4.610128879547119, -1.1570645570755005, 0.2641803026199341, -0.015256819315254688, -96.56305694580078, 0.8767558336257935, -0.055386196821928024, -8.372410774230957, -0.08105029165744781, 0.47508400678634644, 0.05977918207645416, -0.8509870420285884, 0.08894934928636644, -2.991096645656848, 9362.0, 30146.0, 35388.0, 9362.0, 7.854546070098877, 0.14680735766887665, 0.5757297873497009, 0.5281165838241577, 0.007614770904183388, -0.060672469437122345, 0.9604076743125916, -0.08331624418497086, -0.08439826965332031, 1.489013671875, 1.32861328125, 0.0214385986328125, 1.48974609375
24919, 0.1869942992925644, -4.612459182739258, -1.155399203300476, 0.3748466968536377, -0.022235851734876633, -97.5705795288086, 0.9677000045776367, -0.06092802807688713, -8.419451713562012, -0.08106540888547897, 0.47508278489112854, 0.059769805520772934, -0.8537248677980076, 0.08749590346701552, -2.9888897330958692, 9362.0, 30146.0, 35388.0, 9362.0, 7.854546070098877, -0.04976741224527359, -0.30894944071769714, 0.01823786459863186, 0.007691105827689171, -0.060068435966968536, 0.9631686806678772, -0.08331624418497086, -0.08439826965332031, 1.489013671875, 1.32861328125, 0.0214385986328125, 1.48974609375
24949, 0.18690748512744904, -4.612250804901123, -1.1520984172821045, 0.40421926975250244, -0.024084441363811493, -97.82333374023438, 0.9904688000679016, -0.06231079623103142, -8.431194305419922, -0.08104369789361954, 0.47508302330970764, 0.059786465018987656, -0.8562548789936467, 0.09341495847760939, -2.9908136142434207, 9362.0, 30146.0, 35388.0, 9362.0, 7.854546070098877, -0.04976741224527359, -0.30894944071769714, 0.01823786459863186, 0.006068937014788389, -0.06014597415924072, 0.9639663100242615, -0.07913609594106674, -0.07543754577636719, 1.48974609375, 1.32861328125, 0.0214385986328125, 1.48974609375
24959, 0.18758346140384674, -4.609196186065674, -1.1513783931732178, 0.40421926975250244, -0.024084441363811493, -97.82333374023438, 0.9904688000679016, -0.06231079623103142, -8.431194305419922, -0.08105263113975525, 0.47507908940315247, 0.05976399779319763, -0.8521657592219082, 0.08653151829378203, -2.990871502578046, 9362.0, 30146.0, 35388.0, 9362.0, 7.854546070098877, 0.15033306181430817, 0.11464172601699829, 0.07038503140211105, 0.00874966662377119, -0.05995573475956917, 0.9630547761917114, -0.07913609594106674, -0.07543754577636719, 1.48974609375, 1.32861328125, 0.0214385986328125, 1.48974609375
25019, 0.18671783804893494, -4.61536979675293, -1.1485072374343872, 0.4754129648208618, -0.028559377416968346, -98.41444396972656, 1.0436383485794067, -0.06554672867059708, -8.457889556884766, -0.08105858415365219, 0.47508570551872253, 0.0597771517932415, -0.8512274661059065, 0.09140364808067147, -2.9911246308581236, 9362.0, 30146.0, 35388.0, 9362.0, 7.854546070098877, 0.10061438381671906, -0.020419394597411156, 0.07769624888896942, 0.005514230579137802, -0.06064722687005997, 0.9624912738800049, -0.07561991363763809, -0.08439826965332031, 1.489013671875, 1.32861328125, 0.0214385986328125, 1.48974609375
25029, 0.18707111477851868, -4.617035865783691, -1.1477829217910767, 0.4754129648208618, -0.028559377416968346, -98.41444396972656, 1.0436383485794067, -0.06554672867059708, -8.457889556884766, -0.0810621976852417, 0.4750767648220062, 0.059766411781311035, -0.8560719662149017, 0.08894838335635313, -2.9924478515501307, 9362.0, 30146.0, 35388.0, 9362.0, 7.854546070098877, -0.031457431614398956, -0.07778710871934891, -0.2176537960767746, 0.008112759329378605, -0.06263624131679535, 0.9640851020812988, -0.07561991363763809, -0.08439826965332031, 1.489013671875, 1.32861328125, 0.0214385986328125, 1.48974609375
25039, 0.1861795336008072, -4.6163153648376465, -1.1483519077301025, 0.4754129648208618, -0.028559377416968346, -98.41444396972656, 1.0436383485794067, -0.06554672867059708, -8.457889556884766, -0.08105462044477463, 0.47506675124168396, 0.059769243001937866, -0.8496049027341258, 0.09349577020250877, -2.9848374336304846, 9362.0, 30146.0, 35388.0, 9362.0, 7.854546070098877, 0.09228495508432388, 0.08777090907096863, 0.09405506402254105, 0.006533415522426367, -0.06095227226614952, 0.9631969928741455, -0.07561991363763809, -0.08439826965332031, 1.489013671875, 1.32861328125, 0.0214385986328125, 1.48974609375
25059, 0.18587106466293335, -4.621843338012695, -1.146816372871399, 0.4754129648208618, -0.028559377416968346, -98.41444396972656, 1.0436383485794067, -0.06554672867059708, -8.457889556884766, -0.08106324821710587, 0.47507092356681824, 0.059753067791461945, -0.8552560864832733, 0.10084537072771127, -2.9878884820731733, 9362.0, 30146.0, 35388.0, 9362.0, 7.854546070098877, 0.02982872910797596, 0.3728776276111603, -0.06112043559551239, 0.008369777351617813, -0.05971558392047882, 0.9649667143821716, -0.074373759329319, -0.03959846496582031, 1.49267578125, 1.32861328125, 0.0214385986328125, 1.48974609375
25079, 0.18571583926677704, -4.622267246246338, -1.145499587059021, 0.4754129648208618, -0.028559377416968346, -98.41444396972656, 1.0436383485794067, -0.06554672867059708, -8.457889556884766, -0.08104769140481949, 0.47507867217063904, 0.0597592368721962, -0.8524473840763881, 0.09791816461446956, -2.979469482636318, 9362.0, 30146.0, 35388.0, 9362.0, 7.854546070098877, 0.03623981401324272, 0.3583373427391052, 0.5580306053161621, 0.006494151894003153, -0.05865735933184624, 0.965522289276123, -0.0786241888999939, -0.06647872924804688, 1.490478515625, 1.32861328125, 0.0214385986328125, 1.48974609375
25129, 0.18456923961639404, -4.623001575469971, -1.1401268243789673, 0.5724189877510071, -0.034644875675439835, -99.17723846435547, 1.1120942831039429, -0.06968294084072113, -8.49260425567627, -0.08106110990047455, 0.47507578134536743, 0.05973007529973984, -0.8499912313052453, 0.08915778652260542, -2.98304464169924, 9362.0, 30146.0, 35388.0, 9362.0, 7.854546070098877, 0.04501189664006233, -0.06253889948129654, 0.13385920226573944, 0.005949786398559809, -0.06075445935130119, 0.9639766812324524, -0.07984384149312973, -0.06647872924804688, 1.490478515625, 1.32861328125, 0.0214385986328125, 1.48974609375
25199, 0.0, 0.0, 0.0, 0.6521307826042175, -0.039634618908166885, -99.77265930175781, 1.165393590927124, -0.07287649810314178, -8.51962661743164, -0.08105332404375076, 0.47509339451789856, 0.05977638065814972, -0.8497028913516943, 0.09064595603379644, -2.988239553410613, 9362.0, 30146.0, 35388.0, 9362.0, 7.854546070098877, 0.03914681449532509, -0.01631358079612255, -0.10668408870697021, 0.006732929963618517, -0.06003420799970627, 0.9629589915275574, -0.08234346657991409, -0.03959846496582031, 1.49267578125, 1.32861328125, 0.0214385986328125, 1.48974609375
25219, 0.000676300551276654, -0.004512116312980652, 0.0020811876747757196, 0.0, 0.0, 0.0, 0.0, 0.0, 0.0, -0.08104873448610306, 0.4750811457633972, 0.05975610390305519, -0.8511153247648334, 0.09238710624978808, -2.987980480859156, 9362.0, 30146.0, 35388.0, 9362.0, 7.854546070098877, -0.17752674221992493, 0.15363627672195435, 0.11880828440189362, 0.008642300963401794, -0.06168137490749359, 0.9644787907600403, -0.07777077704668045, -0.07543754577636719, 1.48974609375, 1.32861328125, 0.0214385986328125, 1.48974609375
25229, 0.0007074878667481244, -0.0035827788524329662, 0.0012316808570176363, 0.0, 0.0, 0.0, 0.0, 0.0, 0.0, -0.0810534656047821, 0.4750748574733734, 0.059752456843853, -0.8476061409564982, 0.09420363784929009, -2.9915293755381382, 9362.0, 30146.0, 35388.0, 9362.0, 7.854546070098877, -0.17752674221992493, 0.15363627672195435, 0.11880828440189362, 0.009477346204221249, -0.05977151542901993, 0.963108479976654, -0.07777077704668045, -0.07543754577636719, 1.48974609375, 1.32861328125, 0.0214385986328125, 1.48974609375
25249, -0.0008970817434601486, -0.0021794724743813276, 0.002482193987816572, 0.0, 0.0, 0.0, 0.0, 0.0, 0.0, -0.08106063306331635, 0.47508418560028076, 0.05974479392170906, -0.8552558628631901, 0.09326682300257971, -2.9912404032137005, 9362.0, 30146.0, 35388.0, 9362.0, 7.854546070098877, -0.11133762449026108, 0.08843685686588287, -0.047307439148426056, 0.005653704050928354, -0.059932880103588104, 0.9629586338996887, -0.07905074954032898, -0.12023735046386719, 1.486083984375, 1.32861328125, 0.0214385986328125, 1.49267578125
25259, -0.001473825192078948, -0.004965276923030615, 0.002412471454590559, 0.0, 0.0, 0.0, 0.0, 0.0, 0.0, -0.08104895055294037, 0.4750834107398987, 0.0597347691655159, -0.8578537659626528, 0.08955178704039213, -2.9891152541686608, 9362.0, 30146.0, 35388.0, 9362.0, 7.854546070098877, -0.11133762449026108, 0.08843685686588287, -0.047307439148426056, 0.007665205281227827, -0.06056663766503334, 0.9667433500289917, -0.07905074954032898, -0.12023735046386719, 1.486083984375, 1.32861328125, 0.0214385986328125, 1.49267578125
25349, 3.510610622470267e-05, -0.011713549494743347, 0.005265149753540754, 5.914105713600293e-06, 4.819380023945996e-07, -0.003487303853034973, 0.00011716970766428858, 1.6768010027590208e-05, -0.049911074340343475, -0.0810617133975029, 0.47507739067077637, 0.05974867194890976, -0.8605414224007151, 0.09367907262944186, -2.988265609427195, 9362.0, 30146.0, 35388.0, 9362.0, 7.854546070098877, 0.11491745710372925, 0.002738188486546278, 0.07707659900188446, 0.005807183682918549, -0.061436403542757034, 0.9649443626403809, -0.07945103943347931, -0.06647872924804688, 1.490478515625, 1.32861328125, 0.0214385986328125, 1.49267578125
25369, -0.0011386108817532659, -0.014718033373355865, 0.007380278315395117, 5.914105713600293e-06, 4.819380023945996e-07, -0.003487303853034973, 0.00011716970766428858, 1.6768010027590208e-05, -0.049911074340343475, -0.08104383945465088, 0.4750908315181732, 0.05973424017429352, -0.8561537591530936, 0.09084814386187645, -2.9909249404477403, 9362.0, 30146.0, 35388.0, 9362.0, 7.854546070098877, 0.006093971896916628, 0.11567579954862595, 0.007471056655049324, 0.0060095167718827724, -0.05909905210137367, 0.9633997082710266, -0.0778493583202362, -0.09335899353027344, 1.48828125, 1.32861328125, 0.0214385986328125, 1.49267578125
