timeTick, roll, pitch, yaw, stateX, stateY, stateZ, stateVX, stateVY, stateVZ, otX0, otY0, otZ0, otRoll0, otPitch0, otYaw0, left wing, pitch motor, yaw motor, right wing, voltage, roll rate, pitch rate, yaw rate, A_x, A_y, A_z, current, i_raw, v_raw, airflow_voltage, airflow_speed, pot_Pitch
20807, 1.946036458015442, 6.871070384979248, -55.66048812866211, 0, 0, 0, 0, 0, 0, 0.17184455692768097, 0.5223473906517029, 0.05766994506120682, -0.4884187944606906, 0.42838656767995076, -9.239090593105006, 0, 0, 0, 0, 0, 0, 0, 0, 0, 0, 0, 0, 0, 0, 0, 0, 0
20817, 1.95426344871521, 6.870758056640625, -55.750267028808594, 0.006513141095638275, -0.00543216522783041, -65.85630798339844, 0.6467792391777039, -0.5394546985626221, -6.82440710067749, 0.1718425154685974, 0.5223500728607178, 0.057673051953315735, -0.4915074793349832, 0.4284497690921967, -9.238806558930854, 9362.0, 30146.0, 35388.0, 9362.0, 7.83471155166626, 0, 0, 0, 0, 0, 0, 0, 0, 0, 0, 0, 0
20827, 1.943114161491394, 6.871933937072754, -55.639190673828125, 0.012935779057443142, -0.010789083316922188, -65.92457580566406, 0.6377609372138977, -0.5319147109985352, -6.8286638259887695, 0.1718338578939438, 0.5223599672317505, 0.05765274167060852, -0.49494129651601404, 0.43318755900594397, -9.246200132097247, 9362.0, 30146.0, 35388.0, 9362.0, 7.83471155166626, 0.24428601562976837, 0.8656280040740967, 22.20937156677246, 0.0009950572857633233, -0.047191321849823, 0.9684687852859497, 0, 0, 0, 0, 0, 0
20837, 1.9505469799041748, 6.867715358734131, -55.71794128417969, 0.019268205389380455, -0.016070544719696045, -65.99288177490234, 0.6287095546722412, -0.5243952870368958, -6.832849502563477, 0.1718320995569229, 0.5223616361618042, 0.05767130106687546, -0.491147641915528, 0.43032382090481747, -9.23408794621339, 9362.0, 30146.0, 35388.0, 9362.0, 7.83471155166626, -0.9371200203895569, 0.6984764337539673, -11.567310333251953, 0.0032693350221961737, -0.050720203667879105, 0.9605188965797424, -0.048788588494062424, -0.05751800537109375, 1.4912109375, 1.3505859375, 0.0153045654296875, 1.49267578125
20847, 1.9513185024261475, 6.870500564575195, -55.71649169921875, 0.025510050356388092, -0.02127678319811821, -66.06123352050781, 0.6196697950363159, -0.5168399810791016, -6.836899280548096, 0.17184710502624512, 0.5223475694656372, 0.057675860822200775, -0.49103400032384303, 0.4372270176179711, -9.243356597562883, 9362.0, 30146.0, 35388.0, 9362.0, 7.83471155166626, 0.37483975291252136, -0.23560082912445068, -5.887289524078369, 0.010338826104998589, -0.04255985468626022, 0.9662708044052124, -0.05183194950222969, -0.09335899353027344, 1.48828125, 1.33154296875, 0.0198516845703125, 1.490478515625
20857, 1.9492312669754028, 6.873016834259033, -55.66184997558594, 0.031661711633205414, -0.026407631114125252, -66.12962341308594, 0.6106622815132141, -0.5093300938606262, -6.841351509094238, 0.1718500852584839, 0.5223451256752014, 0.05765291675925255, -0.4895300813219079, 0.4285021729469065, -9.244441075058493, 9362.0, 30146.0, 35388.0, 9362.0, 7.83471155166626, 0.7896728515625, -0.5053967833518982, 2.9411587715148926, 0.008866838179528713, -0.05179130658507347, 0.9619771838188171, -0.057143986225128174, -0.10231781005859375, 1.487548828125, 1.341796875, 0.0162811279296875, 1.49560546875
20867, 1.9555789232254028, 6.867430210113525, -55.74257278442383, 0.03772307187318802, -0.03146319463849068, -66.19805908203125, 0.6016024351119995, -0.5017915368080139, -6.84537410736084, 0.1718435287475586, 0.5223489999771118, 0.05762842670083046, -0.4917485474848124, 0.43809593792090595, -9.234258212443379, 9362.0, 30146.0, 35388.0, 9362.0, 7.83471155166626, -0.4903436303138733, 0.16351641714572906, -4.687859058380127, 0.02866244874894619, -0.05150768533349037, 0.962526261806488, -0.05461432784795761, 0.05896186828613281, 1.500732421875, 1.3212890625, 0.026214599609375, 1.493408203125
20877, 1.9436438083648682, 6.870785713195801, -55.633480072021484, 0.043694037944078445, -0.03644358739256859, -66.26653289794922, 0.5926015377044678, -0.49427419900894165, -6.849892616271973, 0.17184598743915558, 0.5223498344421387, 0.05766163766384125, -0.4903048190501683, 0.4321906965703022, -9.24087595687396, 9362.0, 30146.0, 35388.0, 9362.0, 7.83471155166626, 0.22232913970947266, 0.6838068962097168, 21.661529541015625, -0.005085319746285677, -0.05074133723974228, 0.9671126008033752, -0.06206446886062622, -0.07543754577636719, 1.48974609375, 1.333740234375, 0.0189361572265625, 1.4970703125
20887, 1.9532508850097656, 6.8685503005981445, -55.72454071044922, 0.049574922770261765, -0.04134872183203697, -66.33505249023438, 0.5835608839988708, -0.486770361661911, -6.854187488555908, 0.17184896767139435, 0.522351861000061, 0.057661719620227814, -0.4844076224700368, 0.4354101481881685, -9.241508335252243, 9362.0, 30146.0, 35388.0, 9362.0, 7.83471155166626, -0.8175341486930847, 0.18980424106121063, -13.975759506225586, 0.011752214282751083, -0.05910060927271843, 0.9598168134689331, -0.040341075509786606, 0.05896186828613281, 1.500732421875, 1.34619140625, 0.015594482421875, 1.493408203125
20897, 1.9508284330368042, 6.870018005371094, -55.697410583496094, 0.055365320295095444, -0.04617876186966896, -66.40361785888672, 0.5745311975479126, -0.47922295331954956, -6.858327388763428, 0.17184969782829285, 0.5223585367202759, 0.05765484273433685, -0.4929569711566434, 0.4310778201462995, -9.237923917497389, 9362.0, 30146.0, 35388.0, 9362.0, 7.854546070098877, -0.04517346993088722, -0.25522056221961975, -1.6971776485443115, 0.004277389030903578, -0.04695332422852516, 0.9666865468025208, -0.005646073259413242, 0.05000114440917969, 1.5, 1.332275390625, 0.019561767578125, 1.493408203125
20907, 1.9511178731918335, 6.8722381591796875, -55.68401336669922, 0.061065636575222015, -0.05093349143862724, -66.47222137451172, 0.5655285120010376, -0.47172755002975464, -6.862903118133545, 0.17183788120746613, 0.5223449468612671, 0.057667773216962814, -0.48954562213953073, 0.4307256260997008, -9.23503207152848, 9362.0, 30146.0, 35388.0, 9362.0, 7.83471155166626, 0.6755830645561218, -0.707463264465332, -3.6302225589752197, 0.005151212215423584, -0.04337446391582489, 0.9629820585250854, -0.00019412915571592748, 0.023120880126953125, 1.497802734375, 1.345458984375, 0.0156707763671875, 1.491943359375
20917, 1.9571737051010132, 6.871922016143799, -55.75738525390625, 0.0666755959391594, -0.055612996220588684, -66.5408706665039, 0.5564613342285156, -0.46417590975761414, -6.866806507110596, 0.1718379706144333, 0.5223544836044312, 0.05766060948371887, -0.4916620497925058, 0.432801421724065, -9.241052145350832, 9362.0, 30146.0, 35388.0, 9362.0, 7.83471155166626, 0.22392107546329498, -0.41603824496269226, -4.339252948760986, 0.023279782384634018, -0.04350663349032402, 0.964210569858551, 0.00042030407348647714, -0.0037593841552734375, 1.49560546875, 1.338134765625, 0.01727294921875, 1.493408203125
20927, 1.9444247484207153, 6.8757429122924805, -55.642494201660156, 0.07219512015581131, -0.060217197984457016, -66.60955810546875, 0.5474537014961243, -0.45665299892425537, -6.871251583099365, 0.17183959484100342, 0.5223640203475952, 0.05763709917664528, -0.49114950705652705, 0.4396979656680742, -9.239677504726473, 9362.0, 30146.0, 35388.0, 9362.0, 7.83471155166626, 0.30563652515411377, 0.6844300627708435, 18.531591415405273, 0.0035614515654742718, -0.04634062945842743, 0.9695995450019836, -0.016433045268058777, -0.09335899353027344, 1.48828125, 1.341064453125, 0.01654052734375, 1.497802734375
20937, 1.9530352354049683, 6.870865821838379, -55.735897064208984, 0.07762439548969269, -0.06474599242210388, -66.67829132080078, 0.5383864045143127, -0.44912517070770264, -6.8753252029418945, 0.171876460313797, 0.5223372578620911, 0.05772171914577484, -0.5140881100934678, 0.4621030384143694, -9.23181236691622, 9362.0, 30146.0, 35388.0, 9362.0, 7.83471155166626, -0.9705055356025696, 0.5123156905174255, -10.975436210632324, 0.030562814325094223, -0.05832720547914505, 0.9620710015296936, -0.01872112788259983, 0.12168121337890625, 1.505859375, 1.32421875, 0.024139404296875, 1.493408203125
20947, 1.9452447891235352, 6.871654987335205, -55.656368255615234, 0.08296292275190353, -0.06919945776462555, -66.74706268310547, 0.5293313264846802, -0.4415528178215027, -6.87924861907959, 0.1718367636203766, 0.5223513245582581, 0.05763748660683632, -0.4980169104397778, 0.4324356117780326, -9.24298376829085, 9362.0, 30146.0, 35388.0, 9362.0, 7.83471155166626, -0.2848432660102844, 0.37564167380332947, 14.11225414276123, 8.42465760797495e-06, -0.047992169857025146, 0.9666098952293396, -0.03160315379500389, -0.09335899353027344, 1.48828125, 1.3330078125, 0.0191650390625, 1.4912109375
20957, 1.9507919549942017, 6.869843482971191, -55.70491409301758, 0.08821114897727966, -0.0735773891210556, -66.81587982177734, 0.5203032493591309, -0.4340454936027527, -6.883638381958008, 0.17184516787528992, 0.5223513245582581, 0.05763477087020874, -0.48907804816645306, 0.4316442482067089, -9.244367943810994, 9362.0, 30146.0, 35388.0, 9362.0, 7.854546070098877, 0.15839579701423645, -0.032331760972738266, -10.181604385375977, -0.002966800471767783, -0.04439090937376022, 0.9581555724143982, -0.04008015617728233, -0.07543754577636719, 1.48974609375, 1.33447265625, 0.0186309814453125, 1.494140625
20967, 1.9557549953460693, 6.87453556060791, -55.742759704589844, 0.09336896240711212, -0.07788015902042389, -66.88473510742188, 0.5112655758857727, -0.4264999330043793, -6.887755870819092, 0.17184309661388397, 0.522355854511261, 0.057625237852334976, -0.48810142775325105, 0.43095715973362303, -9.242685202706008, 9362.0, 30146.0, 35388.0, 9362.0, 7.83471155166626, 0.8855409622192383, -0.951137363910675, -7.97711706161499, 0.01390813197940588, -0.04646218195557594, 0.9651806950569153, -0.04975578561425209, -0.09335899353027344, 1.48828125, 1.330810546875, 0.0203399658203125, 1.49267578125
20977, 1.949336290359497, 6.87898588180542, -55.65210723876953, 0.09843665361404419, -0.08210767805576324, -66.9536361694336, 0.5022777915000916, -0.41899824142456055, -6.892397880554199, 0.17184311151504517, 0.5223492383956909, 0.05765976756811142, -0.4899109488299715, 0.4286446630870273, -9.243173052961552, 9362.0, 30146.0, 35388.0, 9362.0, 7.83471155166626, 0.5604504346847534, -0.5305681228637695, 8.17455005645752, 0.0053490460850298405, -0.050077058374881744, 0.9648242592811584, -0.054215509444475174, -0.07543754577636719, 1.48974609375, 1.35205078125, 0.015380859375, 1.493408203125
20987, 1.9577933549880981, 6.872628211975098, -55.74488830566406, 0.10341417044401169, -0.08625992387533188, -67.0225830078125, 0.4932139813899994, -0.4114662706851959, -6.896496295928955, 0.17184162139892578, 0.5223566889762878, 0.05763896554708481, -0.48963631589911877, 0.43717492491330745, -9.245696271955662, 9362.0, 30146.0, 35388.0, 9362.0, 7.83471155166626, -0.5457528233528137, 0.2215103656053543, -8.18942642211914, 0.03358802571892738, -0.05045199394226074, 0.9644627571105957, -0.050942312926054, -0.01271820068359375, 1.494873046875, 1.32568359375, 0.0232086181640625, 1.491943359375
20997, 1.9466819763183594, 6.874629497528076, -55.63861846923828, 0.10830110311508179, -0.09033693373203278, -67.09156799316406, 0.48418423533439636, -0.4039210379123688, -6.900774955749512, 0.17185425758361816, 0.5223531126976013, 0.05766318738460541, -0.4940776878283185, 0.43300287538747284, -9.243993811005655, 9362.0, 30146.0, 35388.0, 9362.0, 7.83471155166626, 0.083885058760643, 0.6760419011116028, 21.142316818237305, -0.00014274587738327682, -0.05005074664950371, 0.9698021411895752, -0.05383162572979927, -0.06647872924804688, 1.490478515625, 1.33447265625, 0.0186309814453125, 1.49560546875
21007, 1.952640175819397, 6.8750996589660645, -55.71602249145508, 0.11309769004583359, -0.09433843940496445, -67.16059875488281, 0.4751194417476654, -0.39639681577682495, -6.904895305633545, 0.17183594405651093, 0.522362470626831, 0.05763509124517441, -0.4920611381019154, 0.4323209395609524, -9.234514292551552, 9362.0, 30146.0, 35388.0, 9362.0, 7.854546070098877, -0.9418007135391235, -0.15999406576156616, -11.329681396484375, 0.007346488069742918, -0.05567605420947075, 0.960206925868988, -0.025874681770801544, 0.014162063598632812, 1.4970703125, 1.3388671875, 0.017120361328125, 1.49560546875
21017, 1.9522278308868408, 6.877688407897949, -55.702667236328125, 0.11780355870723724, -0.0982646569609642, -67.22966766357422, 0.4660641849040985, -0.388834685087204, -6.90886116027832, 0.17183224856853485, 0.5223493576049805, 0.0576416440308094, -0.49250290438672195, 0.4291012606993547, -9.240988658080578, 9362.0, 30146.0, 35388.0, 9362.0, 7.83471155166626, 0.06136046350002289, -0.36189794540405273, -3.1175811290740967, 0.005527710076421499, -0.04628240317106247, 0.9662259817123413, -0.0013210352044552565, -0.030637741088867188, 1.493408203125, 1.333740234375, 0.0189361572265625, 1.493408203125
21057, 1.9520734548568726, 6.873599052429199, -55.722347259521484, 0.1269443929195404, -0.10589094460010529, -67.36793518066406, 0.44798675179481506, -0.3737756907939911, -6.917418479919434, 0.1718461811542511, 0.5223554968833923, 0.05762426182627678, -0.4963950854176448, 0.4331567293540104, -9.239086206225, 9362.0, 30146.0, 35388.0, 9362.0, 7.854546070098877, 0.7685461044311523, -0.5500149726867676, -1.6771999597549438, 0.013802487403154373, -0.05870477855205536, 0.9596579670906067, -0.028887124732136726, -0.10231781005859375, 1.487548828125, 1.336669921875, 0.0177764892578125, 1.493408203125
21077, 1.9514707326889038, 6.877679824829102, -55.68268585205078, 0.13997748494148254, -0.11676545441150665, -67.57565307617188, 0.42088159918785095, -0.35117965936660767, -6.930360794067383, 0.17183417081832886, 0.5223509073257446, 0.05764619633555412, -0.49621483760016655, 0.42859954655878596, -9.23454758800527, 9362.0, 30146.0, 35388.0, 9362.0, 7.83471155166626, 0.7685461044311523, -0.5500149726867676, -1.6771999597549438, 0.006729149259626865, -0.05298979952931404, 0.963414192199707, -0.039368610829114914, 0.04104042053222656, 1.499267578125, 1.336669921875, 0.0177764892578125, 1.4970703125
21097, 1.9476983547210693, 6.8801374435424805, -55.64097595214844, 0.13997748494148254, -0.11676545441150665, -67.57565307617188, 0.42088159918785095, -0.35117965936660767, -6.930360794067383, 0.1718340665102005, 0.5223559141159058, 0.05766252428293228, -0.4963724184494898, 0.43100970448040243, -9.235318967762938, 9362.0, 30146.0, 35388.0, 9362.0, 7.854546070098877, 0.7685461044311523, -0.5500149726867676, -1.6771999597549438, -0.0012843218864873052, -0.0449749156832695, 0.9644603133201599, -0.05192111060023308, -0.06647872924804688, 1.490478515625, 1.339599609375, 0.0168914794921875, 1.494873046875
21147, 1.9496983289718628, 6.883603572845459, -55.65521240234375, 0.1707572638988495, -0.14245067536830902, -68.13146209716797, 0.34861183166503906, -0.29093214869499207, -6.9648332595825195, 0.17183494567871094, 0.5223613977432251, 0.0576387457549572, -0.49135664843920074, 0.42931117015561426, -9.24523835601224, 9362.0, 30146.0, 35388.0, 9362.0, 7.83471155166626, 0.7685461044311523, -0.5500149726867676, -1.6771999597549438, 0.005869668442755938, -0.04800165072083473, 0.965603768825531, -0.06205539405345917, -0.05751800537109375, 1.4912109375, 1.33740234375, 0.0175323486328125, 1.4912109375
21207, 1.9607988595962524, 6.883214473724365, -55.75827407836914, 0.19004522264003754, -0.15854981541633606, -68.55012512207031, 0.2943132221698761, -0.24569371342658997, -6.990320682525635, 0.17183832824230194, 0.522354245185852, 0.05764325335621834, -0.4932811172076555, 0.4327373507301786, -9.244261681109576, 9362.0, 30146.0, 35388.0, 9362.0, 7.83471155166626, 0.7685461044311523, -0.5500149726867676, -1.6771999597549438, 0.0328206829726696, -0.05193791538476944, 0.9634042978286743, -0.03873487189412117, 0.10376167297363281, 1.50439453125, 1.31396484375, 0.0325469970703125, 1.49560546875
21247, 1.9531968832015991, 6.886910915374756, -55.68647384643555, 0.19575068354606628, -0.16331280767917633, -68.69001770019531, 0.27621057629585266, -0.23061621189117432, -6.998920440673828, 0.17182493209838867, 0.5223521590232849, 0.05763360112905502, -0.4922359391804088, 0.43449575387435857, -9.23828895436503, 9362.0, 30146.0, 35388.0, 9362.0, 7.854546070098877, 0.7685461044311523, -0.5500149726867676, -1.6771999597549438, 0.005543948616832495, -0.04879811033606529, 0.9612624049186707, -0.044285424053668976, 0.05000114440917969, 1.5, 1.335205078125, 0.018280029296875, 1.494873046875
21257, 1.959897518157959, 6.886305332183838, -55.757991790771484, 0.20362959802150726, -0.16989125311374664, -68.9001693725586, 0.24903909862041473, -0.2079489678144455, -7.011379241943359, 0.17186754941940308, 0.5223395228385925, 0.05769556388258934, -0.5160319873433483, 0.4573223608558692, -9.231090238134987, 9362.0, 30146.0, 35388.0, 9362.0, 7.854546070098877, 0.7685461044311523, -0.5500149726867676, -1.6771999597549438, 0.02562570571899414, -0.048755571246147156, 0.9658676385879517, -0.044285424053668976, 0.05000114440917969, 1.5, 1.33154296875, 0.0198516845703125, 1.494873046875
21277, 1.95606529712677, 6.888323783874512, -55.73488998413086, 0.20842954516410828, -0.17389929294586182, -69.04048156738281, 0.23091790080070496, -0.19285254180431366, -7.019776821136475, 0.17183572053909302, 0.5223567485809326, 0.05763441324234009, -0.4944452086407492, 0.4285107044309484, -9.242763130303441, 9362.0, 30146.0, 35388.0, 9362.0, 7.83471155166626, 0.7685461044311523, -0.5500149726867676, -1.6771999597549438, 0.02543642930686474, -0.05446485057473183, 0.9651811122894287, -0.044285424053668976, 0.05000114440917969, 1.5, 1.33740234375, 0.0175323486328125, 1.49853515625
21287, 1.9483674764633179, 6.889747142791748, -55.659793853759766, 0.20842954516410828, -0.17389929294586182, -69.04048156738281, 0.23091790080070496, -0.19285254180431366, -7.019776821136475, 0.1718178689479828, 0.5223521590232849, 0.057664982974529266, -0.49389312410431474, 0.42470289391224014, -9.23433043445663, 9362.0, 30146.0, 35388.0, 9362.0, 7.83471155166626, 0.7685461044311523, -0.5500149726867676, -1.6771999597549438, 0.0018951942911371589, -0.04754447191953659, 0.9695764183998108, -0.044285424053668976, 0.05000114440917969, 1.5, 1.33740234375, 0.0175323486328125, 1.49853515625
21307, 1.9557644128799438, 6.883769989013672, -55.744136810302734, 0.20842954516410828, -0.17389929294586182, -69.04048156738281, 0.23091790080070496, -0.19285254180431366, -7.019776821136475, 0.17186948657035828, 0.5223422050476074, 0.057689081877470016, -0.5138238284873858, 0.46539471865676774, -9.238349151600502, 9362.0, 30146.0, 35388.0, 9362.0, 7.83471155166626, 0.7685461044311523, -0.5500149726867676, -1.6771999597549438, 0.0027544128242880106, -0.051257893443107605, 0.9590396285057068, -0.024502193555235863, 0.10376167297363281, 1.50439453125, 1.341064453125, 0.01654052734375, 1.49853515625
21337, 1.9436616897583008, 6.886054039001465, -55.63892364501953, 0.21884219348430634, -0.1825961321592331, -69.39198303222656, 0.18560288846492767, -0.15505313873291016, -7.040386199951172, 0.17183817923069, 0.5223483443260193, 0.057629045099020004, -0.4938494362109108, 0.436876503071602, -9.246594205838413, 9362.0, 30146.0, 35388.0, 9362.0, 7.83471155166626, 0.7685461044311523, -0.5500149726867676, -1.6771999597549438, 0.033976707607507706, -0.047469113022089005, 0.9650812745094299, -0.0025217749644070864, -0.10231781005859375, 1.487548828125, 1.34619140625, 0.015594482421875, 1.494873046875
21347, 1.9506031274795532, 6.883894443511963, -55.72301483154297, 0.21884219348430634, -0.1825961321592331, -69.39198303222656, 0.18560288846492767, -0.15505313873291016, -7.040386199951172, 0.17184966802597046, 0.5223478078842163, 0.0576837956905365, -0.49161286920882996, 0.4285831106279545, -9.22994657502219, 9362.0, 30146.0, 35388.0, 9362.0, 7.83471155166626, 0.7685461044311523, -0.5500149726867676, -1.6771999597549438, 0.006403130479156971, -0.05565793067216873, 0.9599171876907349, -0.0025217749644070864, -0.10231781005859375, 1.487548828125, 1.341064453125, 0.01654052734375, 1.494873046875
21357, 1.949180245399475, 6.8863019943237305, -55.710044860839844, 0.22400304675102234, -0.18690796196460724, -69.60338592529297, 0.15842999517917633, -0.1323731690645218, -7.052734375, 0.17186924815177917, 0.5223476886749268, 0.05767985060811043, -0.5147669995020292, 0.45841682487653657, -9.235363877535102, 9362.0, 30146.0, 35388.0, 9362.0, 7.854546070098877, 0.7685461044311523, -0.5500149726867676, -1.6771999597549438, 0.009327622130513191, -0.04369033873081207, 0.9650354981422424, -0.0025217749644070864, -0.10231781005859375, 1.487548828125, 1.341064453125, 0.01654052734375, 1.494873046875
21367, 1.9487476348876953, 6.88970947265625, -55.676422119140625, 0.22400304675102234, -0.18690796196460724, -69.60338592529297, 0.15842999517917633, -0.1323731690645218, -7.052734375, 0.1718311309814453, 0.5223414301872253, 0.05764356255531311, -0.49335446138867456, 0.4301936104954507, -9.232176448158716, 9362.0, 30146.0, 35388.0, 9362.0, 7.854546070098877, 0.7685461044311523, -0.5500149726867676, -1.6771999597549438, 0.009327622130513191, -0.04369033873081207, 0.9650354981422424, -0.0025217749644070864, -0.10231781005859375, 1.487548828125, 1.341064453125, 0.01654052734375, 1.4970703125
21407, 1.9487041234970093, 6.883927822113037, -55.68844985961914, 0.22400304675102234, -0.18690796196460724, -69.60338592529297, 0.15842999517917633, -0.1323731690645218, -7.052734375, 0.17183107137680054, 0.522354245185852, 0.057642482221126556, -0.4910448100353168, 0.4276699218821989, -9.237009365107413, 9362.0, 30146.0, 35388.0, 9362.0, 7.83471155166626, 0.7685461044311523, -0.5500149726867676, -1.6771999597549438, 0.004983716644346714, -0.04540742188692093, 0.9673677682876587, -0.03748383745551109, -0.03959846496582031, 1.49267578125, 1.310302734375, 0.036285400390625, 1.497802734375
21427, 1.958770990371704, 6.881011486053467, -55.75018310546875, 0.2318829894065857, -0.1934933364391327, -70.02734375, 0.1042000874876976, -0.08711349964141846, -7.078785419464111, 0.171841099858284, 0.5223572254180908, 0.05764347314834595, -0.493960105480892, 0.42808067898613444, -9.243228568637246, 9362.0, 30146.0, 35388.0, 9362.0, 7.83471155166626, 0.7685461044311523, -0.5500149726867676, -1.6771999597549438, 0.022555701434612274, -0.04377831518650055, 0.9663395285606384, -0.03748383745551109, -0.03959846496582031, 1.49267578125, 1.323486328125, 0.024688720703125, 1.4970703125
21437, 1.9463977813720703, 6.88386869430542, -55.64417266845703, 0.2318829894065857, -0.1934933364391327, -70.02734375, 0.1042000874876976, -0.08711349964141846, -7.078785419464111, 0.17183639109134674, 0.522362470626831, 0.057650126516819, -0.4879026582823142, 0.42904482819764667, -9.23320023612177, 9362.0, 30146.0, 35388.0, 9362.0, 7.83471155166626, 0.7685461044311523, -0.5500149726867676, -1.6771999597549438, -0.0008240957977250218, -0.04240771383047104, 0.9689085483551025, -0.03748383745551109, -0.03959846496582031, 1.49267578125, 1.3212890625, 0.026214599609375, 1.4970703125
21487, 1.9468772411346436, 6.885633945465088, -55.63922119140625, 0.23695649206638336, -0.19773948192596436, -70.52385711669922, 0.04080372676253319, -0.034236207604408264, -7.107639789581299, 0.17182929813861847, 0.5223610401153564, 0.057665660977363586, -0.49970083925018277, 0.42849738918826574, -9.23973125744273, 9362.0, 30146.0, 35388.0, 9362.0, 7.83471155166626, 0.7685461044311523, -0.5500149726867676, -1.6771999597549438, 0.002760866889730096, -0.04977342486381531, 0.965172529220581, -0.03374679014086723, -0.03959846496582031, 1.49267578125, 1.329345703125, 0.02105712890625, 1.494873046875
21507, 1.9493964910507202, 6.883235931396484, -55.68318176269531, 0.2373191863298416, -0.1980440467596054, -70.59495544433594, 0.03171747550368309, -0.02669372409582138, -7.111677169799805, 0.17182567715644836, 0.5223557949066162, 0.057668786495923996, -0.4910002590717262, 0.4355426189995626, -9.236838937136323, 9362.0, 30146.0, 35388.0, 9362.0, 7.83471155166626, 0.7685461044311523, -0.5500149726867676, -1.6771999597549438, 0.003208026522770524, -0.04361053928732872, 0.9699093103408813, -0.038976769894361496, -0.12023735046386719, 1.486083984375, 1.33447265625, 0.0186309814453125, 1.493408203125
21517, 1.9534850120544434, 6.88368034362793, -55.698631286621094, 0.23777291178703308, -0.19842711091041565, -70.73727416992188, 0.013655883260071278, -0.011621308512985706, -7.120439529418945, 0.17183081805706024, 0.522360622882843, 0.0576372891664505, -0.49073528022461693, 0.43223566568525484, -9.23600925367243, 9362.0, 30146.0, 35388.0, 9362.0, 7.854546070098877, 0.7685461044311523, -0.5500149726867676, -1.6771999597549438, -0.002064318861812353, -0.050745874643325806, 0.9606308341026306, -0.038976769894361496, -0.12023735046386719, 1.486083984375, 1.33447265625, 0.0186309814453125, 1.493408203125
21547, 1.9549903869628906, 6.879829406738281, -55.745361328125, 0.23777291178703308, -0.19842711091041565, -70.73727416992188, 0.013655883260071278, -0.011621308512985706, -7.120439529418945, 0.17181017994880676, 0.522359311580658, 0.05764726921916008, -0.500156614051194, 0.43618570046746186, -9.236820824423546, 9362.0, 30146.0, 35388.0, 9362.0, 7.83471155166626, 0.7685461044311523, -0.5500149726867676, -1.6771999597549438, 0.0033096326515078545, -0.04347464069724083, 0.9669225215911865, -0.013299093581736088, 0.16648101806640625, 1.509521484375, 1.33447265625, 0.0186309814453125, 1.493408203125
21577, 1.9582949876785278, 6.882931709289551, -55.753662109375, 0.2369627058506012, -0.19776512682437897, -71.16525268554688, -0.04063839837908745, 0.03367046266794205, -7.145630359649658, 0.17181611061096191, 0.5223631858825684, 0.057670269161462784, -0.4926373778176499, 0.42994401129558923, -9.241663529546058, 9362.0, 30146.0, 35388.0, 9362.0, 7.83471155166626, 0.7157098650932312, -0.3518722951412201, -8.736660957336426, 0.01587572880089283, -0.0446145199239254, 0.9665992259979248, 0.014394772239029408, 0.05000114440917969, 1.5, 1.31982421875, 0.0273590087890625, 1.494873046875
21627, 1.9613683223724365, 6.885171890258789, -55.754783630371094, 0.2337995171546936, -0.1951385736465454, -71.52306365966797, -0.08592531085014343, 0.07142414897680283, -7.166382789611816, 0.17181383073329926, 0.5223577618598938, 0.057661887258291245, -0.4914530202603838, 0.42863069232211615, -9.245195250731356, 9362.0, 30146.0, 35388.0, 9362.0, 7.83471155166626, 0.7157098650932312, -0.3518722951412201, -8.736660957336426, 0.018390558660030365, -0.04740804433822632, 0.9663752913475037, 0.018111679702997208, 0.04104042053222656, 1.499267578125, 1.341064453125, 0.01654052734375, 1.4912109375
21637, 1.9558136463165283, 6.885378837585449, -55.67163848876953, 0.2337995171546936, -0.1951385736465454, -71.52306365966797, -0.08592531085014343, 0.07142414897680283, -7.166382789611816, 0.17181947827339172, 0.5223564505577087, 0.05767890810966492, -0.4919184259920486, 0.4380891260546491, -9.234683384921631, 9362.0, 30146.0, 35388.0, 9362.0, 7.83471155166626, 0.7157098650932312, -0.3518722951412201, -8.736660957336426, 0.006352377124130726, -0.048236869275569916, 0.9662050008773804, 0.018111679702997208, 0.04104042053222656, 1.499267578125, 1.339599609375, 0.0168914794921875, 1.4912109375
21647, 1.9632741212844849, 6.878699779510498, -55.75923156738281, 0.23190031945705414, -0.1935594081878662, -71.6664810180664, -0.1040339320898056, 0.08650395274162292, -7.174891948699951, 0.1718660444021225, 0.5223478078842163, 0.05770277604460716, -0.5125687840090284, 0.45516346105617345, -9.23627168841365, 9362.0, 30146.0, 35388.0, 9362.0, 7.83471155166626, 0.7157098650932312, -0.3518722951412201, -8.736660957336426, 0.03882035240530968, -0.05433499068021774, 0.962293803691864, 0.018111679702997208, 0.04104042053222656, 1.499267578125, 1.339599609375, 0.0168914794921875, 1.4912109375
21687, 1.957056999206543, 6.882739067077637, -55.674556732177734, 0.22837209701538086, -0.1906251162290573, -71.88191986083984, -0.13118545711040497, 0.10912325233221054, -7.187638282775879, 0.17183351516723633, 0.5223497748374939, 0.057670287787914276, -0.49091395199153687, 0.4368573282307864, -9.236117028345973, 9362.0, 30146.0, 35388.0, 9362.0, 7.83471155166626, 0.7157098650932312, -0.3518722951412201, -8.736660957336426, 0.008587629534304142, -0.05041390284895897, 0.9633297920227051, -0.03470243886113167, -0.08439826965332031, 1.489013671875, 1.336669921875, 0.0177764892578125, 1.49560546875
21707, 1.954388976097107, 6.880967140197754, -55.66438293457031, 0.22837209701538086, -0.1906251162290573, -71.88191986083984, -0.13118545711040497, 0.10912325233221054, -7.187638282775879, 0.17181159555912018, 0.5223525166511536, 0.05766189843416214, -0.49821804277488324, 0.4345714905724094, -9.236692744203774, 9362.0, 30146.0, 35388.0, 9362.0, 7.83471155166626, 0.7157098650932312, -0.3518722951412201, -8.736660957336426, -0.0021786759607493877, -0.04792781174182892, 0.9682298302650452, -0.043722305446863174, -0.05751800537109375, 1.4912109375, 1.33447265625, 0.0186309814453125, 1.49560546875
21757, 1.9501079320907593, 6.878180503845215, -55.66667556762695, 0.21498151123523712, -0.17948518693447113, -72.45829772949219, -0.20360848307609558, 0.16940125823020935, -7.221472263336182, 0.1718234121799469, 0.5223421454429626, 0.057662758976221085, -0.49460076795783287, 0.4272756622749512, -9.239481798690525, 9362.0, 30146.0, 35388.0, 9362.0, 7.83471155166626, 0.7157098650932312, -0.3518722951412201, -8.736660957336426, -0.002730471547693014, -0.04767773300409317, 0.9649850726127625, -0.05950877442955971, -0.11127853393554688, 1.48681640625, 1.31103515625, 0.0355682373046875, 1.493408203125
21837, 1.959631323814392, 6.87811279296875, -55.676265716552734, 0.1957961767911911, -0.16352206468582153, -73.03736877441406, -0.27597662806510925, 0.22964578866958618, -7.255576133728027, 0.17180977761745453, 0.5223623514175415, 0.057661041617393494, -0.496170948501353, 0.43796140540197825, -9.239437654107661, 9362.0, 30146.0, 35388.0, 9362.0, 7.83471155166626, 0.7157098650932312, -0.3518722951412201, -8.736660957336426, 0.004264295566827059, -0.0509677492082119, 0.9634726047515869, -0.06553816050291061, -0.03959846496582031, 1.49267578125, 1.323486328125, 0.024688720703125, 1.491943359375
21867, 1.9613275527954102, 6.877415180206299, -55.73966979980469, 0.19009561836719513, -0.15877877175807953, -73.18256378173828, -0.2940678596496582, 0.2446952611207962, -7.26419734954834, 0.1718244105577469, 0.5223582983016968, 0.057661887258291245, -0.4942995215641841, 0.4337175330425964, -9.242754358158292, 9362.0, 30146.0, 35388.0, 9362.0, 7.854546070098877, 0.7157098650932312, -0.3518722951412201, -8.736660957336426, -0.00026515231002122164, -0.047380901873111725, 0.9705199003219604, -0.06621339917182922, -0.04855918884277344, 1.491943359375, 1.3388671875, 0.017120361328125, 1.49560546875
21897, 1.9701007604599, 6.878085613250732, -55.78619384765625, 0.1808651089668274, -0.15109825134277344, -73.40067291259766, -0.3212684094905853, 0.2673289477825165, -7.276498317718506, 0.1718139797449112, 0.52234947681427, 0.05765227600932121, -0.49235990984861333, 0.43301558772645876, -9.237711587472393, 9362.0, 30146.0, 35388.0, 9362.0, 7.83471155166626, 0.7157098650932312, -0.3518722951412201, -8.736660957336426, 0.004034282173961401, -0.049350615590810776, 0.9649310111999512, -0.0688619539141655, -0.14711761474609375, 1.48388671875, 1.327880859375, 0.0218353271484375, 1.49560546875
21937, 1.963956594467163, 6.882044792175293, -55.722660064697266, 0.1636677086353302, -0.1367885321378708, -73.76500701904297, -0.3666144609451294, 0.3050459027290344, -7.29704475402832, 0.17182378470897675, 0.5223605632781982, 0.057655274868011475, -0.49156262197617245, 0.434934909882287, -9.243358443842055, 9362.0, 30146.0, 35388.0, 9362.0, 7.83471155166626, 0.7157098650932312, -0.3518722951412201, -8.736660957336426, 0.0047206152230501175, -0.047265373170375824, 0.9631087779998779, -0.07052972912788391, -0.03959846496582031, 1.49267578125, 1.333740234375, 0.0189361572265625, 1.5029296875
21967, 1.967302680015564, 6.8832807540893555, -55.76932907104492, 0.15226046741008759, -0.12729671597480774, -73.98409271240234, -0.3938603103160858, 0.32770615816116333, -7.309064865112305, 0.1718122512102127, 0.5223694443702698, 0.057645540684461594, -0.4917505903845424, 0.42575205594201293, -9.239631431487595, 9362.0, 30146.0, 35388.0, 9362.0, 7.854546070098877, 0.7157098650932312, -0.3518722951412201, -8.736660957336426, 0.002547049894928932, -0.045969150960445404, 0.9653502702713013, -0.07052972912788391, -0.03959846496582031, 1.49267578125, 1.33740234375, 0.0175323486328125, 1.491943359375
21997, 1.9649832248687744, 6.89040994644165, -55.75942611694336, 0.15226046741008759, -0.12729671597480774, -73.98409271240234, -0.3938603103160858, 0.32770615816116333, -7.309064865112305, 0.17181426286697388, 0.5223529934883118, 0.057659395039081573, -0.49506637782514795, 0.4352562353416545, -9.23978793062493, 9362.0, 30146.0, 35388.0, 9362.0, 7.854546070098877, 0.7157098650932312, -0.3518722951412201, -8.736660957336426, 0.011041512712836266, -0.04426475241780281, 0.9666324257850647, -0.030596207827329636, -0.08439826965332031, 1.489013671875, 1.304443359375, 0.043182373046875, 1.49560546875
22047, 1.9622094631195068, 6.888976097106934, -55.72834777832031, 0.1224687322974205, -0.10250739008188248, -74.49674987792969, -0.457358181476593, 0.3805641829967499, -7.338258266448975, 0.17182989418506622, 0.5223506689071655, 0.05764494836330414, -0.4969048722329427, 0.43342903666274424, -9.239514167653926, 9362.0, 30146.0, 35388.0, 9362.0, 7.83471155166626, 0.7157098650932312, -0.3518722951412201, -8.736660957336426, 0.006327868439257145, -0.05218271166086197, 0.968408465385437, -0.05866052955389023, -0.10231781005859375, 1.487548828125, 1.304443359375, 0.043182373046875, 1.4970703125
22057, 1.9617589712142944, 6.890779495239258, -55.70685958862305, 0.1131402850151062, -0.09474495053291321, -74.64360046386719, -0.47546470165252686, 0.395657479763031, -7.346880912780762, 0.17183582484722137, 0.5223526358604431, 0.05764554813504219, -0.49354719205712627, 0.4301073839265541, -9.233131732178421, 9362.0, 30146.0, 35388.0, 9362.0, 7.83471155166626, 0.7157098650932312, -0.3518722951412201, -8.736660957336426, 0.008964876644313335, -0.04960181936621666, 0.9627950191497803, -0.05866052955389023, -0.10231781005859375, 1.487548828125, 1.304443359375, 0.043182373046875, 1.4970703125
22077, 1.9558449983596802, 6.890474319458008, -55.66957092285156, 0.10344920307397842, -0.08668048679828644, -74.79061889648438, -0.4936068058013916, 0.4107777774333954, -7.355151653289795, 0.17181560397148132, 0.5223576426506042, 0.05763424560427666, -0.4931340584617485, 0.44040908246475396, -9.235376119187505, 9362.0, 30146.0, 35388.0, 9362.0, 7.83471155166626, 0.7157098650932312, -0.3518722951412201, -8.736660957336426, -0.001799801248125732, -0.05121409520506859, 0.9680967330932617, -0.05866052955389023, -0.10231781005859375, 1.487548828125, 1.32568359375, 0.0232086181640625, 1.493408203125
22087, 1.9625749588012695, 6.888767719268799, -55.76047134399414, 0.10344920307397842, -0.08668048679828644, -74.79061889648438, -0.4936068058013916, 0.4107777774333954, -7.355151653289795, 0.17182211577892303, 0.5223689079284668, 0.05766012892127037, -0.49141385886210387, 0.43591004809383094, -9.24095190446979, 9362.0, 30146.0, 35388.0, 9362.0, 7.83471155166626, 0.7157098650932312, -0.3518722951412201, -8.736660957336426, 0.013979673385620117, -0.06635119765996933, 0.9645023345947266, -0.05866052955389023, -0.10231781005859375, 1.487548828125, 1.32568359375, 0.0232086181640625, 1.493408203125
22097, 1.9600433111190796, 6.889917850494385, -55.72274398803711, 0.09339531511068344, -0.07831385731697083, -74.93780517578125, -0.5117756128311157, 0.4259028434753418, -7.363254547119141, 0.17183361947536469, 0.5223585963249207, 0.05765519291162491, -0.5001239882853347, 0.42920965258031174, -9.246409958917848, 9362.0, 30146.0, 35388.0, 9362.0, 7.83471155166626, 0.7157098650932312, -0.3518722951412201, -8.736660957336426, 0.0038084734696894884, -0.04381394013762474, 0.9664217233657837, -0.05866052955389023, -0.10231781005859375, 1.487548828125, 1.32568359375, 0.0232086181640625, 1.493408203125
22127, 1.9593067169189453, 6.892429351806641, -55.6707649230957, 0.07763416320085526, -0.06519705802202225, -75.15888977050781, -0.5389367938041687, 0.4485422372817993, -7.376183986663818, 0.1718171089887619, 0.5223690867424011, 0.0576457753777504, -0.4958951346089868, 0.43391554684609446, -9.244509425927955, 9362.0, 30146.0, 35388.0, 9362.0, 7.83471155166626, 0.7157098650932312, -0.3518722951412201, -8.736660957336426, 0.0005554077797569335, -0.051361195743083954, 0.968467116355896, -0.020881082862615585, -0.07543754577636719, 1.48974609375, 1.335205078125, 0.018280029296875, 1.49560546875
22137, 1.9660643339157104, 6.886852264404297, -55.773216247558594, 0.07763416320085526, -0.06519705802202225, -75.15888977050781, -0.5389367938041687, 0.4485422372817993, -7.376183986663818, 0.17182880640029907, 0.5223565697669983, 0.05765724554657936, -0.49700439696390236, 0.4308911731079661, -9.243313903217622, 9362.0, 30146.0, 35388.0, 9362.0, 7.83471155166626, 0.7157098650932312, -0.3518722951412201, -8.736660957336426, 0.027837354689836502, -0.059196680784225464, 0.9637308716773987, -0.03607771918177605, 0.05000114440917969, 1.5, 1.335205078125, 0.018280029296875, 1.49560546875
22157, 1.9640384912490845, 6.889011383056641, -55.74561309814453, 0.06667359918355942, -0.05607515946030617, -75.3064956665039, -0.5571140646934509, 0.46366646885871887, -7.38428258895874, 0.17182567715644836, 0.5223659873008728, 0.05763930827379227, -0.4930702974629436, 0.4337997634406463, -9.233688071203828, 9362.0, 30146.0, 35388.0, 9362.0, 7.83471155166626, 0.7157098650932312, -0.3518722951412201, -8.736660957336426, 0.0008840484078973532, -0.052545301616191864, 0.9605332016944885, -0.04586409404873848, -0.09335899353027344, 1.48828125, 1.338134765625, 0.01727294921875, 1.499267578125
22177, 1.9631017446517944, 6.889963626861572, -55.69407653808594, 0.049551915377378464, -0.041825372725725174, -75.52821350097656, -0.5843119621276855, 0.4863232672214508, -7.396869659423828, 0.1718304604291916, 0.5223512649536133, 0.057656921446323395, -0.4962754439868264, 0.434009586229422, -9.227521385034331, 9362.0, 30146.0, 35388.0, 9362.0, 7.83471155166626, 0.7157098650932312, -0.3518722951412201, -8.736660957336426, 0.007229994051158428, -0.045972760766744614, 0.9644720554351807, -0.04586409404873848, -0.09335899353027344, 1.48828125, 1.33154296875, 0.0198516845703125, 1.491943359375
22207, 1.9671902656555176, 6.884611129760742, -55.75226593017578, 0.03768414258956909, -0.03194800764322281, -75.67623901367188, -0.6024485230445862, 0.5014182329177856, -7.405355930328369, 0.1718115359544754, 0.5223626494407654, 0.05763450637459755, -0.5015785017560215, 0.43029854114931254, -9.238697619104265, 9362.0, 30146.0, 35388.0, 9362.0, 7.83471155166626, 0.7157098650932312, -0.3518722951412201, -8.736660957336426, 0.010172831825911999, -0.05979393050074577, 0.9607341289520264, -0.06275533884763718, -0.07543754577636719, 1.48974609375, 1.33154296875, 0.0198516845703125, 1.49560546875
22227, 1.9658762216567993, 6.888011455535889, -55.709571838378906, 0.019202275201678276, -0.016566086560487747, -75.89859008789062, -0.6296468377113342, 0.5240325331687927, -7.4181060791015625, 0.17181454598903656, 0.5223696231842041, 0.05761571601033211, -0.4911136380257659, 0.43335952504182274, -9.245076384516036, 9362.0, 30146.0, 35388.0, 9362.0, 7.83471155166626, 0.7157098650932312, -0.3518722951412201, -8.736660957336426, 0.00430230563506484, -0.04412706196308136, 0.9606945514678955, -0.06275533884763718, -0.07543754577636719, 1.48974609375, 1.33154296875, 0.0198516845703125, 1.493408203125
22307, 1.9747318029403687, 6.880785942077637, -55.78998947143555, -0.03407381474971771, 0.027772406116127968, -76.49337005615234, -0.702258825302124, 0.5844156742095947, -7.451277256011963, 0.17183253169059753, 0.5223573446273804, 0.05762675032019615, -0.4952969444973602, 0.4371134801959613, -9.242227965502128, 9362.0, 30146.0, 35388.0, 9362.0, 7.83471155166626, 0.7157098650932312, -0.3518722951412201, -8.736660957336426, 0.03528495877981186, -0.05129803717136383, 0.9626145362854004, 0.0003825455787591636, -0.0037593841552734375, 1.49560546875, 1.3330078125, 0.0191650390625, 1.49267578125
22347, 1.9709851741790771, 6.881394863128662, -55.72211456298828, -0.05554936081171036, 0.04564393311738968, -76.71709442138672, -0.7294739484786987, 0.6070476174354553, -7.463773727416992, 0.1718159019947052, 0.5223633646965027, 0.057653795927762985, -0.490896252092171, 0.43447402937329116, -9.242422286499705, 9362.0, 30146.0, 35388.0, 9362.0, 7.83471155166626, 0.7157098650932312, -0.3518722951412201, -8.736660957336426, 0.005491972900927067, -0.04646746441721916, 0.9637842774391174, -0.03747306764125824, -0.04855918884277344, 1.491943359375, 1.3330078125, 0.0191650390625, 1.493408203125
22367, 1.9656407833099365, 6.8816375732421875, -55.68830490112305, -0.07784060388803482, 0.064193494617939, -76.94120788574219, -0.7566117644309998, 0.6296062469482422, -7.476984024047852, 0.1718338429927826, 0.5223548412322998, 0.05764453485608101, -0.4990410459175667, 0.4338198054931297, -9.252205129774644, 9362.0, 30146.0, 35388.0, 9362.0, 7.83471155166626, 0.7157098650932312, -0.3518722951412201, -8.736660957336426, 0.0038656441029161215, -0.046323057264089584, 0.9673163294792175, -0.03747306764125824, -0.04855918884277344, 1.491943359375, 1.3330078125, 0.0191650390625, 1.48974609375
22377, 1.973350167274475, 6.877717018127441, -55.78087615966797, -0.07784060388803482, 0.064193494617939, -76.94120788574219, -0.7566117644309998, 0.6296062469482422, -7.476984024047852, 0.17182692885398865, 0.5223590135574341, 0.05764009431004524, -0.49135440741919356, 0.4408157909077772, -9.233965707012485, 9362.0, 30146.0, 35388.0, 9362.0, 7.83471155166626, 0.7157098650932312, -0.3518722951412201, -8.736660957336426, 0.023052293807268143, -0.05784246325492859, 0.9592203497886658, -0.0545598529279232, -0.10231781005859375, 1.487548828125, 1.34033203125, 0.0166168212890625, 1.48974609375
22417, 1.9679940938949585, 6.885552406311035, -55.699310302734375, -0.11680559068918228, 0.09661538153886795, -77.31558227539062, -0.801952600479126, 0.6672738790512085, -7.4980082511901855, 0.17182530462741852, 0.5223608016967773, 0.057640351355075836, -0.4948016108366773, 0.4352914651899482, -9.231889016690944, 9362.0, 30146.0, 35388.0, 9362.0, 7.83471155166626, 0.7157098650932312, -0.3518722951412201, -8.736660957336426, 0.002105127787217498, -0.04724052920937538, 0.9657908082008362, -0.055708639323711395, -0.11127853393554688, 1.48681640625, 1.333740234375, 0.0189361572265625, 1.4970703125
22467, 1.9678062200546265, 6.880853176116943, -55.70642852783203, -0.15803995728492737, 0.13092277944087982, -77.69097900390625, -0.8474016189575195, 0.7050337195396423, -7.518087863922119, 0.1718142181634903, 0.5223639011383057, 0.05766415596008301, -0.4959403074290976, 0.43449822817419204, -9.239704020033436, 9362.0, 30146.0, 35388.0, 9362.0, 7.854546070098877, 0.7157098650932312, -0.3518722951412201, -8.736660957336426, 0.01342377532273531, -0.04815805330872536, 0.9665827751159668, -0.0030653830617666245, -0.10231781005859375, 1.487548828125, 1.333740234375, 0.0189361572265625, 1.493408203125
22527, 1.9784034490585327, 6.877650260925293, -55.816490173339844, -0.18387018144130707, 0.1524127721786499, -77.91670989990234, -0.8746146559715271, 0.7276185750961304, -7.530733585357666, 0.17182962596416473, 0.5223461389541626, 0.05764978379011154, -0.49262280631148636, 0.437980015026028, -9.24071720707025, 9362.0, 30146.0, 35388.0, 9362.0, 7.83471155166626, 0.7157098650932312, -0.3518722951412201, -8.736660957336426, 0.007366583216935396, -0.04917377606034279, 0.9646095037460327, -0.05967029556632042, -0.07543754577636719, 1.48974609375, 1.333740234375, 0.0189361572265625, 1.490478515625
22567, 1.9731119871139526, 6.879674911499023, -55.75038528442383, -0.23797981441020966, 0.19742724299430847, -78.36929321289062, -0.9290277361869812, 0.7728468179702759, -7.555696487426758, 0.17179980874061584, 0.5223478674888611, 0.05766665190458298, -0.4990463523304191, 0.4332283049970158, -9.245640044997604, 9362.0, 30146.0, 35388.0, 9362.0, 7.854546070098877, 0.7157098650932312, -0.3518722951412201, -8.736660957336426, 0.0013782294699922204, -0.045389141887426376, 0.9626341462135315, -0.0636058896780014, -0.04855918884277344, 1.491943359375, 1.329345703125, 0.02105712890625, 1.4912109375
22597, 1.9765872955322266, 6.877475738525391, -55.79042434692383, -0.2567412257194519, 0.21303430199623108, -78.52049255371094, -0.9471412301063538, 0.7878827452659607, -7.564281940460205, 0.17182733118534088, 0.5223606824874878, 0.05764475092291832, -0.49691370099858717, 0.44248826230011673, -9.233678617974883, 9362.0, 30146.0, 35388.0, 9362.0, 7.83471155166626, 0.7157098650932312, -0.3518722951412201, -8.736660957336426, 0.025224054232239723, -0.06017323583364487, 0.9605125784873962, 0.00021628791000694036, 0.10376167297363281, 1.50439453125, 1.3330078125, 0.0191650390625, 1.49267578125
22607, 1.9693490266799927, 6.879409313201904, -55.7225341796875, -0.2855641543865204, 0.2370101809501648, -78.74760437011719, -0.974396288394928, 0.8105199933052063, -7.576453685760498, 0.17181241512298584, 0.5223662257194519, 0.05764944478869438, -0.4951258378956799, 0.4335945075047505, -9.243434507212106, 9362.0, 30146.0, 35388.0, 9362.0, 7.854546070098877, 0.7157098650932312, -0.3518722951412201, -8.736660957336426, 0.025224054232239723, -0.06017323583364487, 0.9605125784873962, 0.00021628791000694036, 0.10376167297363281, 1.50439453125, 1.342529296875, 0.0161895751953125, 1.49267578125
22627, 1.9795910120010376, 6.880262851715088, -55.803916931152344, -0.2855641543865204, 0.2370101809501648, -78.74760437011719, -0.974396288394928, 0.8105199933052063, -7.576453685760498, 0.17182834446430206, 0.5223491191864014, 0.05763930454850197, -0.49895141590326436, 0.4347506780727315, -9.238281435156143, 9362.0, 30146.0, 35388.0, 9362.0, 7.854546070098877, 0.7157098650932312, -0.3518722951412201, -8.736660957336426, 0.017201755195856094, -0.05168912559747696, 0.9644308090209961, -0.018627528101205826, -0.030637741088867188, 1.493408203125, 1.32275390625, 0.0251312255859375, 1.493408203125
22637, 1.9734058380126953, 6.883832931518555, -55.715797424316406, -0.31520330905914307, 0.2616637349128723, -78.97509765625, -1.001550555229187, 0.8330731987953186, -7.589589595794678, 0.17181624472141266, 0.5223566293716431, 0.057663071900606155, -0.4924935131313815, 0.43486401893576954, -9.239546500980053, 9362.0, 30146.0, 35388.0, 9362.0, 7.83471155166626, 0.7157098650932312, -0.3518722951412201, -8.736660957336426, 0.017201755195856094, -0.05168912559747696, 0.9644308090209961, -0.018627528101205826, -0.030637741088867188, 1.493408203125, 1.32275390625, 0.0251312255859375, 1.496337890625
22657, 1.9689397811889648, 6.882907390594482, -55.700721740722656, -0.3354158401489258, 0.27847564220428467, -79.1269760131836, -1.0196808576583862, 0.8481223583221436, -7.598228931427002, 0.17182452976703644, 0.5223532915115356, 0.05765876919031143, -0.4918382306874134, 0.4365590814442726, -9.23144758514507, 9362.0, 30146.0, 35388.0, 9362.0, 7.83471155166626, 0.7157098650932312, -0.3518722951412201, -8.736660957336426, 0.00018879093113355339, -0.04896772280335426, 0.9698336720466614, -0.018627528101205826, -0.030637741088867188, 1.493408203125, 1.310302734375, 0.036285400390625, 1.49560546875
22667, 1.9766950607299805, 6.879014492034912, -55.77878189086914, -0.3456580638885498, 0.2869945764541626, -79.2029800415039, -1.02877938747406, 0.8556474447250366, -7.602356433868408, 0.1718226671218872, 0.5223503112792969, 0.05765463411808014, -0.49690168272463864, 0.43127254097524315, -9.235364897672312, 9362.0, 30146.0, 35388.0, 9362.0, 7.83471155166626, 0.7157098650932312, -0.3518722951412201, -8.736660957336426, 0.002994136419147253, -0.047513388097286224, 0.9599971175193787, -0.018627528101205826, -0.030637741088867188, 1.493408203125, 1.310302734375, 0.036285400390625, 1.49560546875
22717, 1.9756187200546265, 6.87583589553833, -55.78715896606445, -0.38753587007522583, 0.32182422280311584, -79.50740051269531, -1.0651112794876099, 0.8858353495597839, -7.6186747550964355, 0.1718299686908722, 0.5223608016967773, 0.0576639324426651, -0.49245622988371773, 0.4366545433777276, -9.234600733695432, 9362.0, 30146.0, 35388.0, 9362.0, 7.83471155166626, 0.7157098650932312, -0.3518722951412201, -8.736660957336426, -0.002215936779975891, -0.04621320590376854, 0.9649268388748169, -0.09123994410037994, -0.06647872924804688, 1.490478515625, 1.343994140625, 0.015899658203125, 1.4970703125
22737, 1.9752675294876099, 6.875909805297852, -55.74570846557617, -0.4198971688747406, 0.34873753786087036, -79.73616027832031, -1.0923130512237549, 0.9084025025367737, -7.631491661071777, 0.17181898653507233, 0.5223615169525146, 0.05765354633331299, -0.4911403786034584, 0.4349103042291915, -9.243163056890884, 9362.0, 30146.0, 35388.0, 9362.0, 7.83471155166626, 0.7157098650932312, -0.3518722951412201, -8.736660957336426, 0.0028625880368053913, -0.04685221239924431, 0.9604955315589905, -0.09123994410037994, -0.06647872924804688, 1.490478515625, 1.346923828125, 0.015472412109375, 1.497802734375
22767, 1.9798064231872559, 6.8725972175598145, -55.80512237548828, -0.45307469367980957, 0.3763285279273987, -79.96529388427734, -1.1195279359817505, 0.9309742450714111, -7.644084930419922, 0.1718238741159439, 0.5223625302314758, 0.057663269340991974, -0.494147971320603, 0.4381816253684576, -9.233705586580898, 9362.0, 30146.0, 35388.0, 9362.0, 7.83471155166626, 0.7157098650932312, -0.3518722951412201, -8.736660957336426, 0.02784978225827217, -0.05278019607067108, 0.9618508815765381, -0.03674078360199928, 0.17543983459472656, 1.51025390625, 1.3330078125, 0.0191650390625, 1.493408203125
22777, 1.9710007905960083, 6.8770647048950195, -55.713504791259766, -0.45307469367980957, 0.3763285279273987, -79.96529388427734, -1.1195279359817505, 0.9309742450714111, -7.644084930419922, 0.17183059453964233, 0.5223619341850281, 0.057643115520477295, -0.49155025260471186, 0.440481951676162, -9.240701713690903, 9362.0, 30146.0, 35388.0, 9362.0, 7.83471155166626, 0.7157098650932312, -0.3518722951412201, -8.736660957336426, -0.003911337815225124, -0.052897825837135315, 0.9657360911369324, -0.0084904246032238, 0.014162063598632812, 1.4970703125, 1.3330078125, 0.0191650390625, 1.493408203125
22797, 1.9817380905151367, 6.87762451171875, -55.801116943359375, -0.45307469367980957, 0.3763285279273987, -79.96529388427734, -1.1195279359817505, 0.9309742450714111, -7.644084930419922, 0.17181339859962463, 0.522354006767273, 0.057651154696941376, -0.4947910991649638, 0.4367044496077881, -9.243324424116066, 9362.0, 30146.0, 35388.0, 9362.0, 7.854546070098877, 0.7157098650932312, -0.3518722951412201, -8.736660957336426, -0.003911337815225124, -0.052897825837135315, 0.9657360911369324, 0.010689930059015751, 0.014162063598632812, 1.4970703125, 1.33740234375, 0.0175323486328125, 1.49560546875
22817, 1.9820281267166138, 6.873753070831299, -55.80854797363281, -0.45307469367980957, 0.3763285279273987, -79.96529388427734, -1.1195279359817505, 0.9309742450714111, -7.644084930419922, 0.17181982100009918, 0.5223592519760132, 0.05764318257570267, -0.4956722983372954, 0.44008040135119586, -9.230525239473778, 9362.0, 30146.0, 35388.0, 9362.0, 7.854546070098877, 0.7157098650932312, -0.3518722951412201, -8.736660957336426, 0.006444986909627914, -0.04663516581058502, 0.963059663772583, 0.010689930059015751, 0.014162063598632812, 1.4970703125, 1.3505859375, 0.0153045654296875, 1.49560546875
22847, 1.9756916761398315, 6.873717784881592, -55.7703857421875, -0.5455350279808044, 0.45321187376976013, -80.57820892333984, -1.1920186281204224, 0.991132915019989, -7.678377628326416, 0.17183130979537964, 0.5223596692085266, 0.057638026773929596, -0.48977636241429584, 0.4421523748159757, -9.239332762105363, 9362.0, 30146.0, 35388.0, 9362.0, 7.854546070098877, 0.7157098650932312, -0.3518722951412201, -8.736660957336426, 0.007170637138187885, -0.05536322668194771, 0.9680961966514587, -0.043905794620513916, -0.03959846496582031, 1.49267578125, 1.327880859375, 0.0218353271484375, 1.49560546875
22877, 1.9697641134262085, 6.875467300415039, -55.70668411254883, -0.5695565342903137, 0.4731847941875458, -80.73186492919922, -1.2101610898971558, 1.0061780214309692, -7.686703681945801, 0.17183247208595276, 0.5223587155342102, 0.057625189423561096, -0.49353179499991, 0.43686707817627735, -9.24496101967277, 9362.0, 30146.0, 35388.0, 9362.0, 7.854546070098877, 0.7157098650932312, -0.3518722951412201, -8.736660957336426, 0.025169851258397102, -0.04817531257867813, 0.963390052318573, -0.05748966336250305, -0.04855918884277344, 1.491943359375, 1.327880859375, 0.0218353271484375, 1.499267578125
22907, 1.9773787260055542, 6.870107650756836, -55.75636291503906, -0.5695565342903137, 0.4731847941875458, -80.73186492919922, -1.2101610898971558, 1.0061780214309692, -7.686703681945801, 0.17182381451129913, 0.522369384765625, 0.05764643847942352, -0.49441107274360224, 0.43594666054869435, -9.243814592339147, 9362.0, 30146.0, 35388.0, 9362.0, 7.83471155166626, 0.7157098650932312, -0.3518722951412201, -8.736660957336426, 0.001990996766835451, -0.046111248433589935, 0.9607698321342468, -0.06978586316108704, -0.07543754577636719, 1.48974609375, 1.338134765625, 0.01727294921875, 1.502197265625
22917, 1.9836881160736084, 6.871242523193359, -55.83024978637695, -0.6311969757080078, 0.5244333148002625, -81.11673736572266, -1.2554699182510376, 1.0437713861465454, -7.707949638366699, 0.17182235419750214, 0.5223605036735535, 0.05763035640120506, -0.49481715960803535, 0.4396934088014177, -9.236317657956864, 9362.0, 30146.0, 35388.0, 9362.0, 7.83471155166626, 0.7157098650932312, -0.3518722951412201, -8.736660957336426, 0.023925643414258957, -0.04566473141312599, 0.9634780883789062, -0.06978586316108704, -0.07543754577636719, 1.48974609375, 1.338134765625, 0.01727294921875, 1.502197265625
22937, 1.9787976741790771, 6.87315559387207, -55.80187225341797, -0.6437968611717224, 0.5349084734916687, -81.19384002685547, -1.2644935846328735, 1.0512717962265015, -7.712491512298584, 0.17182590067386627, 0.5223586559295654, 0.057640768587589264, -0.49940860850524704, 0.4322476115974325, -9.233278391524975, 9362.0, 30146.0, 35388.0, 9362.0, 7.83471155166626, 0.7157098650932312, -0.3518722951412201, -8.736660957336426, 0.021911486983299255, -0.0628727599978447, 0.9633498787879944, -0.06978586316108704, -0.07543754577636719, 1.48974609375, 1.3388671875, 0.017120361328125, 1.49267578125
22947, 1.9742422103881836, 6.870439052581787, -55.74266052246094, -0.6692681908607483, 0.556084156036377, -81.34817504882812, -1.2826354503631592, 1.0663127899169922, -7.720905303955078, 0.1718284636735916, 0.5223658084869385, 0.05761704966425896, -0.4985466396484924, 0.4331009885212609, -9.240484644550929, 9362.0, 30146.0, 35388.0, 9362.0, 7.854546070098877, 0.7157098650932312, -0.3518722951412201, -8.736660957336426, 0.021911486983299255, -0.0628727599978447, 0.9633498787879944, -0.06978586316108704, -0.07543754577636719, 1.48974609375, 1.3388671875, 0.017120361328125, 1.49267578125
22957, 1.9793641567230225, 6.869384765625, -55.77471160888672, -0.6692681908607483, 0.556084156036377, -81.34817504882812, -1.2826354503631592, 1.0663127899169922, -7.720905303955078, 0.17182497680187225, 0.5223497152328491, 0.05763920769095421, -0.4907578303539483, 0.43534439149925674, -9.235198175015547, 9362.0, 30146.0, 35388.0, 9362.0, 7.83471155166626, 0.7157098650932312, -0.3518722951412201, -8.736660957336426, 0.002469280268996954, -0.04529934376478195, 0.9589444398880005, 0.004397852346301079, 0.023120880126953125, 1.497802734375, 1.3388671875, 0.017120361328125, 1.49267578125
22977, 1.9736849069595337, 6.872562408447266, -55.72528076171875, -0.6692681908607483, 0.556084156036377, -81.34817504882812, -1.2826354503631592, 1.0663127899169922, -7.720905303955078, 0.1718159317970276, 0.5223522782325745, 0.05765556916594505, -0.49549689662037555, 0.43246767859426427, -9.245019021344106, 9362.0, 30146.0, 35388.0, 9362.0, 7.83471155166626, 0.7157098650932312, -0.3518722951412201, -8.736660957336426, 0.004315701313316822, -0.04723425209522247, 0.9653186798095703, -0.029214195907115936, -0.09335899353027344, 1.48828125, 1.313232421875, 0.0333251953125, 1.49267578125
22997, 1.9720357656478882, 6.8710479736328125, -55.72672653198242, -0.7345324158668518, 0.6103389263153076, -81.73475646972656, -1.3279366493225098, 1.1038899421691895, -7.742218017578125, 0.17182967066764832, 0.5223562717437744, 0.05761541426181793, -0.49688592662804365, 0.4364322388757671, -9.245984972118519, 9362.0, 30146.0, 35388.0, 9362.0, 7.83471155166626, 0.7157098650932312, -0.3518722951412201, -8.736660957336426, -0.0019372421083971858, -0.05363214388489723, 0.964777410030365, -0.03894476965069771, -0.12023735046386719, 1.486083984375, 1.313232421875, 0.0333251953125, 1.497802734375
23007, 1.979433298110962, 6.868680477142334, -55.798011779785156, -0.7478570342063904, 0.621415376663208, -81.81220245361328, -1.3369983434677124, 1.11138117313385, -7.746577262878418, 0.1718171387910843, 0.5223566889762878, 0.05764608830213547, -0.4984390795295366, 0.4355619547351921, -9.228433944459095, 9362.0, 30146.0, 35388.0, 9362.0, 7.83471155166626, 0.7157098650932312, -0.3518722951412201, -8.736660957336426, 0.0050119967199862, -0.05073020979762077, 0.9598195552825928, -0.03894476965069771, -0.12023735046386719, 1.486083984375, 1.322021484375, 0.0257415771484375, 1.497802734375
23027, 1.976760745048523, 6.872320175170898, -55.74786376953125, -0.7478570342063904, 0.621415376663208, -81.81220245361328, -1.3369983434677124, 1.11138117313385, -7.746577262878418, 0.17182447016239166, 0.5223631262779236, 0.057648591697216034, -0.49054866686686804, 0.4403620358121998, -9.240238757009989, 9362.0, 30146.0, 35388.0, 9362.0, 7.83471155166626, 0.7157098650932312, -0.3518722951412201, -8.736660957336426, 0.003063602838665247, -0.05106364190578461, 0.9640601277351379, -0.057361334562301636, -0.05751800537109375, 1.4912109375, 1.34619140625, 0.015594482421875, 1.497802734375
23037, 1.9838887453079224, 6.871056079864502, -55.835289001464844, -0.7883742451667786, 0.655095100402832, -82.04479217529297, -1.364189624786377, 1.133944034576416, -7.759143829345703, 0.17181941866874695, 0.5223595499992371, 0.057638321071863174, -0.49872914281174635, 0.43504566295789004, -9.240557572487164, 9362.0, 30146.0, 35388.0, 9362.0, 7.83471155166626, 0.7157098650932312, -0.3518722951412201, -8.736660957336426, 0.003063602838665247, -0.05106364190578461, 0.9640601277351379, -0.057361334562301636, -0.05751800537109375, 1.4912109375, 1.34619140625, 0.015594482421875, 1.493408203125
23047, 1.9712072610855103, 6.875107765197754, -55.71864318847656, -0.7883742451667786, 0.655095100402832, -82.04479217529297, -1.364189624786377, 1.133944034576416, -7.759143829345703, 0.1718001812696457, 0.5223523378372192, 0.05764070153236389, -0.498544197027059, 0.4368883041238405, -9.233884066969917, 9362.0, 30146.0, 35388.0, 9362.0, 7.83471155166626, 0.7157098650932312, -0.3518722951412201, -8.736660957336426, 0.0007538460195064545, -0.05227119103074074, 0.9687498807907104, -0.057361334562301636, -0.05751800537109375, 1.4912109375, 1.31396484375, 0.0325469970703125, 1.493408203125
