timeTick, roll, pitch, yaw, stateX, stateY, stateZ, stateVX, stateVY, stateVZ, otX0, otY0, otZ0, otRoll0, otPitch0, otYaw0, left wing, pitch motor, yaw motor, right wing, voltage, roll rate, pitch rate, yaw rate, A_x, A_y, A_z, current, i_raw, v_raw, airflow_voltage, airflow_speed, pot_Pitch
31514, 0.0003740142856258899, 0.0025418715085834265, -0.003554987721145153, 0, 0, 0, 0, 0, 0, 0.17966598272323608, 0.5190374851226807, 0.05737791955471039, 0.4954758387531717, 0.7387837097182057, -4.454690250608355, 0, 0, 0, 0, 0, 0, 0, 0, 0, 0, 0, 0, 0, 0, 0, 0, 0
31524, 0.001032165251672268, 0.0017883128020912409, -0.004258148372173309, 0.0, 0.0, -1.6587349819019437e-05, 1.4717770113747974e-07, 2.164654588909798e-08, -0.003317464143037796, 0.17966516315937042, 0.5190416574478149, 0.05735825002193451, 0.4988858075830908, 0.7422202909828854, -4.462686068845568, 9362.0, 30146.0, 35388.0, 9362.0, 8.17190170288086, 0.038904428482055664, 0.5389437079429626, 0.15120266377925873, 0.01764564774930477, -0.02791335992515087, 0.9645285606384277, 0, 0, 0, 0, 0, 0
31534, 0.0008071268093772233, -0.0013182301772758365, -0.00523129990324378, -1.9599479372800488e-08, -2.8826447895369256e-09, -6.530460086651146e-05, -4.107955646759365e-06, -5.624190180242294e-07, -0.0064256093464791775, 0.17967630922794342, 0.5190595388412476, 0.05737587437033653, 0.48839348988203424, 0.7445500633479867, -4.4611554863330385, 9362.0, 30146.0, 35388.0, 9362.0, 8.17190170288086, -0.1506037563085556, -0.3245506286621094, -0.20513880252838135, 0.019005807116627693, -0.029393699020147324, 0.9642481207847595, -0.07512221485376358, -0.10231781005859375, 1.487548828125, 1.3154296875, 0.03118896484375, 1.50146484375
31544, 0.00027646924718283117, 0.0005820459336973727, -0.005516037344932556, -7.544961988514842e-08, -1.703053165158508e-08, -0.000146847014548257, -7.249523605423747e-06, -2.2806707420386374e-06, -0.009882472455501556, 0.1796664595603943, 0.5190445184707642, 0.05738493800163269, 0.492900253668535, 0.7405241326303837, -4.450424402356459, 9362.0, 30146.0, 35388.0, 9362.0, 8.17190170288086, -0.05306180939078331, -0.211201012134552, -0.059355199337005615, 0.018232297152280807, -0.02873004972934723, 0.9642261266708374, -0.07274460047483444, -0.05751800537109375, 1.4912109375, 1.322021484375, 0.0257415771484375, 1.496337890625
31554, -0.0009633758454583585, 0.0007589899469166994, -0.004473485052585602, -1.370647879639364e-07, -4.650024720831425e-08, -0.0002632533141877502, -4.956918928655796e-06, -3.645854803835391e-06, -0.013398388400673866, 0.1796623170375824, 0.519051194190979, 0.05736439675092697, 0.49431828043658965, 0.737602099093948, -4.455652153623932, 9362.0, 30146.0, 35388.0, 9362.0, 8.17190170288086, 0.07582137733697891, 0.30384308099746704, 0.04441852122545242, 0.01741568185389042, -0.02785804122686386, 0.9660945534706116, -0.0732337161898613, -0.10231781005859375, 1.487548828125, 1.31396484375, 0.0325469970703125, 1.49560546875
31564, -0.0005846413550898433, -0.00016939720080699772, -0.0037376161199063063, -1.9143925555908936e-07, -8.52407140428113e-08, -0.0004147346771787852, -5.9071699070045725e-06, -4.177967639407143e-06, -0.01689749024808407, 0.17967943847179413, 0.51903235912323, 0.05736507847905159, 0.49377418657068073, 0.7403071123072777, -4.458993512945885, 9362.0, 30146.0, 35388.0, 9362.0, 8.17190170288086, -0.12383783608675003, 0.09002971649169922, 0.1347275823354721, 0.018144268542528152, -0.029906341806054115, 0.9658994674682617, -0.07437621057033539, -0.021678924560546875, 1.494140625, 1.31103515625, 0.0355682373046875, 1.49560546875
31574, -0.0009716411586850882, 8.435962081421167e-05, -0.0033137246500700712, -2.5678860993139097e-07, -1.1905096641839918e-07, -0.0006002655136398971, -7.216361154860351e-06, -2.562211420809035e-06, -0.02020827867090702, 0.17966367304325104, 0.5190461277961731, 0.05738421157002449, 0.4988202733269872, 0.7371429533013725, -4.462765119361354, 9362.0, 30146.0, 35388.0, 9362.0, 8.17190170288086, 0.1353655457496643, -0.016457172110676765, -0.09111837297677994, 0.017905378714203835, -0.030000129714608192, 0.9653456807136536, -0.07176310569047928, -0.030637741088867188, 1.493408203125, 1.310302734375, 0.036285400390625, 1.4970703125
31584, -0.0015205602394416928, 0.0010499628260731697, -0.00564449280500412, -3.2755082202129415e-07, -1.398376099359666e-07, -0.0008189554209820926, -6.921383828739636e-06, -1.6175439441212802e-06, -0.023529300466179848, 0.1796780377626419, 0.5190185904502869, 0.05737178027629852, 0.49459791280642496, 0.7357684082033131, -4.464058690455646, 9362.0, 30146.0, 35388.0, 9362.0, 8.17190170288086, 0.042615167796611786, -0.1941024363040924, 0.15605422854423523, 0.01760953851044178, -0.029231227934360504, 0.965466320514679, -0.07304303348064423, -0.05751800537109375, 1.4912109375, 1.320556640625, 0.02685546875, 1.494873046875
31594, -0.0014301204355433583, -9.260703518521041e-05, -0.004238436464220285, -3.9746143443153414e-07, -1.479823339423092e-07, -0.001071194768883288, -7.003568953223294e-06, -4.385274721130372e-08, -0.02691817842423916, 0.17967817187309265, 0.5190523266792297, 0.05738180875778198, 0.4902470627074796, 0.7363542117921327, -4.458265276188221, 9362.0, 30146.0, 35388.0, 9362.0, 8.191736221313477, -0.19057732820510864, 0.1465950757265091, -0.35043567419052124, 0.01923835463821888, -0.028513429686427116, 0.9655724763870239, -0.07036089897155762, -0.07543754577636719, 1.48974609375, 1.316162109375, 0.030517578125, 1.500732421875
31604, -0.0005242608021944761, -0.00017145455058198422, -0.0059328158386051655, -4.7617453446946456e-07, -1.358516072968996e-07, -0.0013572901953011751, -8.806545338302385e-06, 2.475305564075825e-06, -0.030300522223114967, 0.17968332767486572, 0.5190561413764954, 0.05739346146583557, 0.49537212500474637, 0.7354510440869149, -4.457372912079293, 9362.0, 30146.0, 35388.0, 9362.0, 8.191736221313477, 0.23124852776527405, 0.35406965017318726, 0.042532846331596375, 0.019995346665382385, -0.02955242060124874, 0.9653834700584412, -0.07185330986976624, -0.09335899353027344, 1.48828125, 1.31689453125, 0.0298919677734375, 1.497802734375
31614, -0.00019057364261243492, -0.0006462837336584926, -0.0061864061281085014, -5.634735771309352e-07, -9.927634181394751e-08, -0.0016771529335528612, -8.657830221636686e-06, 4.893028744845651e-06, -0.03367162495851517, 0.17967404425144196, 0.5190497040748596, 0.057379741221666336, 0.49241453815593905, 0.7379387075645241, -4.458311028954609, 9362.0, 30146.0, 35388.0, 9362.0, 8.191736221313477, 0.05030827969312668, 0.03601159527897835, -0.045364245772361755, 0.020839711651206017, -0.0295806173235178, 0.9656551480293274, -0.07165975123643875, -0.07543754577636719, 1.48974609375, 1.320556640625, 0.02685546875, 1.49853515625
31624, 0.0009674375178292394, -0.0006572443526238203, -0.006651051342487335, -6.486345682787942e-07, -4.601386294211807e-08, -0.0020308932289481163, -8.402570529142395e-06, 5.779291313956492e-06, -0.037076037377119064, 0.1796659529209137, 0.5190534591674805, 0.057399000972509384, 0.49175663897705796, 0.7375512743666661, -4.46777370712214, 9362.0, 30146.0, 35388.0, 9362.0, 8.17190170288086, -0.04655951261520386, -0.21453137695789337, 0.11571449041366577, 0.019728606566786766, -0.028631038963794708, 0.9658392667770386, -0.06897283345460892, -0.06647872924804688, 1.490478515625, 1.3125, 0.034027099609375, 1.4970703125
31634, 0.0008758701733313501, -0.00042241672053933144, -0.006162828300148249, -7.273171149790869e-07, 1.3353989913866826e-08, -0.0024184747599065304, -7.334570909733884e-06, 6.162239515106194e-06, -0.040439851582050323, 0.17966218292713165, 0.5190455317497253, 0.057360898703336716, 0.49597359758912823, 0.7459267544990951, -4.460126828454881, 9362.0, 30146.0, 35388.0, 9362.0, 8.17190170288086, 0.02512422949075699, 0.26691263914108276, 0.20027752220630646, 0.019737260416150093, -0.027155853807926178, 0.9654757976531982, -0.0682515874505043, -0.09335899353027344, 1.48828125, 1.318359375, 0.028656005859375, 1.50146484375
31644, 0.0004069270216859877, -0.0007998821092769504, -0.005017566494643688, -7.952290843604715e-07, 6.697615617667907e-08, -0.002839603228494525, -6.234102784219431e-06, 4.556856310955482e-06, -0.043785449117422104, 0.17966240644454956, 0.519046425819397, 0.05736961588263512, 0.4933930840396236, 0.7514678771526064, -4.460948865705809, 9362.0, 30146.0, 35388.0, 9362.0, 8.191736221313477, 0.09274246543645859, -0.15408459305763245, -0.13474513590335846, 0.019053896889090538, -0.02619183249771595, 0.9638291001319885, -0.06701163947582245, -0.030637741088867188, 1.493408203125, 1.3154296875, 0.03118896484375, 1.49560546875
31654, 0.0008435242925770581, -0.0015662920195609331, -0.006126417312771082, -8.540802696188621e-07, 1.0530665406349726e-07, -0.0032944981940090656, -5.558555130846798e-06, 3.081380327785155e-06, -0.04719313979148865, 0.17966826260089874, 0.5190560221672058, 0.05737348645925522, 0.4897720278916309, 0.73842363326591, -4.4710909424334355, 9362.0, 30146.0, 35388.0, 9362.0, 8.17190170288086, -0.10432568192481995, 0.12546996772289276, 0.01832677237689495, 0.016934849321842194, -0.02883962169289589, 0.9650609493255615, -0.06762883812189102, -0.06647872924804688, 1.490478515625, 1.311767578125, 0.0348052978515625, 1.4970703125
31664, 0.0012390868505463004, -0.0020924857817590237, -0.005201141349971294, -9.030630394590844e-07, 1.327606753420696e-07, -0.0037839498836547136, -4.284861915948568e-06, 2.4360863335459726e-06, -0.050696808844804764, 0.17967672646045685, 0.5190513134002686, 0.05736737325787544, 0.4945449506068542, 0.7491713526337094, -4.457325180990507, 9362.0, 30146.0, 35388.0, 9362.0, 8.17190170288086, -0.03173260763287544, -0.15696123242378235, 0.09269993752241135, 0.020938748493790627, -0.02806629054248333, 0.9675289988517761, -0.06648813933134079, 0.014162063598632812, 1.4970703125, 1.31689453125, 0.0298919677734375, 1.49560546875
31674, 0.0015530540840700269, -0.0004822953778784722, -0.006380775012075901, -9.329697263638081e-07, 1.5014990140116424e-07, -0.00430796854197979, -1.727749463498185e-06, 1.0653395747795003e-06, -0.05410657450556755, 0.17966404557228088, 0.5190668702125549, 0.05738900229334831, 0.49535582429438285, 0.7379976663193872, -4.46570036060037, 9362.0, 30146.0, 35388.0, 9362.0, 8.17190170288086, 0.01496038120239973, 0.1543877124786377, -0.5323682427406311, 0.020542440935969353, -0.027236510068178177, 0.9672982096672058, -0.0694187581539154, -0.08439826965332031, 1.489013671875, 1.31982421875, 0.0273590087890625, 1.49853515625
31684, 0.0002561956353019923, 0.002275714883580804, -0.009296472184360027, -9.329123713541776e-07, 1.5053616664317815e-07, -0.0048648519441485405, 1.8280371705259313e-06, -9.708262496133102e-07, -0.05726966634392738, 0.17966455221176147, 0.5190522074699402, 0.05738574266433716, 0.490942703826119, 0.7409424879123776, -4.460646703537296, 9362.0, 30146.0, 35388.0, 9362.0, 8.17190170288086, 0.04533759877085686, -0.18768514692783356, 0.17100678384304047, 0.019203808158636093, -0.027911227196455002, 0.9660660028457642, -0.06807931512594223, -0.06647872924804688, 1.490478515625, 1.32568359375, 0.0232086181640625, 1.497802734375
31694, 0.00047924008686095476, 0.002840273082256317, -0.009980353526771069, -9.106410630010942e-07, 1.2797161730304651e-07, -0.005453766323626041, 2.782156798275537e-06, -3.6154558529233327e-06, -0.06051282957196236, 0.17966638505458832, 0.5190390944480896, 0.05736175924539566, 0.5061829338947481, 0.7397713879223886, -4.457265770004151, 9362.0, 30146.0, 35388.0, 9362.0, 8.17190170288086, 0.10915254801511765, -0.235532745718956, -0.43723198771476746, 0.018715333193540573, -0.03213813155889511, 0.9666451811790466, -0.06802064925432205, -0.07543754577636719, 1.48974609375, 1.317626953125, 0.0291900634765625, 1.50146484375
31704, 0.0004104464314877987, 0.0034497606102377176, -0.011852683499455452, -9.016426929520094e-07, 8.970107501227176e-08, -0.006075491663068533, -9.49798788951739e-07, -4.02569503421546e-06, -0.06383183598518372, 0.17967109382152557, 0.5190533399581909, 0.05739559978246689, 0.4920213030512277, 0.7402403292576594, -4.456006361692238, 9362.0, 30146.0, 35388.0, 9362.0, 8.17190170288086, 0.03669543191790581, -0.5346119403839111, -0.11318334192037582, 0.019545691087841988, -0.030399935320019722, 0.9668930768966675, -0.06957735866308212, -0.09335899353027344, 1.48828125, 1.311767578125, 0.0348052978515625, 1.5
31714, 0.000559257750865072, 0.0064809019677340984, -0.01214451715350151, -9.346471188109717e-07, 4.5482096311388887e-08, -0.006730138324201107, -5.616397174890153e-06, -4.821862148673972e-06, -0.06709706038236618, 0.17966073751449585, 0.5190369486808777, 0.057367775589227676, 0.5023395370433016, 0.7427954408009896, -4.456931959247151, 9362.0, 30146.0, 35388.0, 9362.0, 8.17190170288086, -0.09721960872411728, 0.06837985664606094, 0.07836420089006424, 0.018506862223148346, -0.027958890423178673, 0.9665700197219849, -0.07001218944787979, -0.05751800537109375, 1.4912109375, 1.314697265625, 0.0319061279296875, 1.5029296875
31724, 0.0002344313106732443, 0.007554904092103243, -0.010496427305042744, -1.0193617754339357e-06, -6.1274363361008e-09, -0.007417434360831976, -1.115390386985382e-05, -5.491567662829766e-06, -0.07036177068948746, 0.1796681135892868, 0.5190466046333313, 0.05736933648586273, 0.4988314214387358, 0.729641141925299, -4.457492939520355, 9362.0, 30146.0, 35388.0, 9362.0, 8.191736221313477, -0.12119197845458984, -0.164521262049675, 0.06360409408807755, 0.019838154315948486, -0.029870593920350075, 0.9668062329292297, -0.06941276043653488, -0.04855918884277344, 1.491943359375, 1.31396484375, 0.0325469970703125, 1.494873046875
31734, 0.00043742661364376545, 0.008724876679480076, -0.00912327691912651, -1.1845377230201848e-06, -6.566014576492307e-08, -0.008137373253703117, -2.1820120309712365e-05, -6.433807811845327e-06, -0.07362564653158188, 0.17966622114181519, 0.5190282464027405, 0.05736597627401352, 0.49859162395009893, 0.7358964575314815, -4.454321471066335, 9362.0, 30146.0, 35388.0, 9362.0, 8.191736221313477, 0.03103986196219921, 0.07065769284963608, 0.08340966701507568, 0.018740983679890633, -0.03246137872338295, 0.9645373821258545, -0.06659689545631409, -0.0037593841552734375, 1.49560546875, 1.32275390625, 0.0251312255859375, 1.497802734375
31744, 0.0020782656501978636, 0.005876617040485144, -0.008972940035164356, -1.465245986764785e-06, -1.319263702725948e-07, -0.00889008492231369, -3.425436079851352e-05, -6.8081139943387825e-06, -0.07691627740859985, 0.17967534065246582, 0.5190441012382507, 0.05736321583390236, 0.4976521155942077, 0.7334842894742906, -4.452949111467043, 9362.0, 30146.0, 35388.0, 9362.0, 8.17190170288086, 0.00401384336873889, 0.31300172209739685, -0.08788955211639404, 0.01824049837887287, -0.03248826414346695, 0.9641189575195312, -0.06943643093109131, -0.05751800537109375, 1.4912109375, 1.330810546875, 0.0203399658203125, 1.5
31754, 0.0013963464880362153, 0.003837374970316887, -0.008786280639469624, -1.8798491510096937e-06, -2.0360874941616203e-07, -0.009676541201770306, -4.883808287559077e-05, -7.429383458656957e-06, -0.08037456125020981, 0.1796616166830063, 0.5190388560295105, 0.05735528841614723, 0.4988691795663345, 0.7411883711750136, -4.459018396926026, 9362.0, 30146.0, 35388.0, 9362.0, 8.17190170288086, -0.021507879719138145, -0.004201168660074472, 0.27190130949020386, 0.0183692779392004, -0.029601866379380226, 0.9647012948989868, -0.06760790199041367, -0.06647872924804688, 1.490478515625, 1.310302734375, 0.036285400390625, 1.497802734375
31764, 0.0011534581426531076, 0.0031204698607325554, -0.0073701865039765835, -2.4167413812392624e-06, -2.95050057275148e-07, -0.010497838258743286, -5.8665205870056525e-05, -1.090063506126171e-05, -0.08388443291187286, 0.17967619001865387, 0.5190436840057373, 0.05737999454140663, 0.4962629098694943, 0.7386781921766215, -4.452260930323278, 9362.0, 30146.0, 35388.0, 9362.0, 8.191736221313477, 0.035649511963129044, -0.39213985204696655, -0.2559521794319153, 0.018309928476810455, -0.02769971266388893, 0.9631177186965942, -0.06714997440576553, -0.09335899353027344, 1.48828125, 1.326416015625, 0.022705078125, 1.4970703125
31774, 0.001717418897897005, 0.003927771933376789, -0.009280549362301826, -3.035090230696369e-06, -4.1558470798008784e-07, -0.011353946290910244, -6.504767952719703e-05, -1.3221063454693649e-05, -0.08733676373958588, 0.17966455221176147, 0.5190401077270508, 0.057374145835638046, 0.49988672402919015, 0.7347812074880835, -4.457396285660021, 9362.0, 30146.0, 35388.0, 9362.0, 8.191736221313477, 0.04822609946131706, 0.4573816955089569, 0.012759444303810596, 0.020076081156730652, -0.026887470856308937, 0.9639086723327637, -0.0680568665266037, -0.11127853393554688, 1.48681640625, 1.311767578125, 0.0348052978515625, 1.49560546875
31784, 0.00012926288763992488, 0.0014097962994128466, -0.008496785536408424, -3.711309773279936e-06, -5.573072030529147e-07, -0.012245165184140205, -7.014605944277719e-05, -1.508813784312224e-05, -0.09090666472911835, 0.17967435717582703, 0.5190337300300598, 0.05740751326084137, 0.49161439569779297, 0.7348767185285965, -4.47125142663502, 9362.0, 30146.0, 35388.0, 9362.0, 8.17190170288086, -0.13413432240486145, -0.1731305569410324, -0.002745199017226696, 0.017696894705295563, -0.02740747481584549, 0.964925229549408, -0.06891193985939026, -0.03959846496582031, 1.49267578125, 1.316162109375, 0.030517578125, 1.49560546875
31844, -0.0016780399018898606, 0.004633907228708267, -0.008069213479757309, -8.855367923388258e-06, -1.4671376220576349e-06, -0.01830809935927391, -0.00010559046495473012, -7.38365179131506e-06, -0.11094393581151962, 0.1796681433916092, 0.5190573930740356, 0.05738208442926407, 0.48539630427226976, 0.7349947439961397, -4.456071121389841, 9362.0, 30146.0, 35388.0, 9362.0, 8.191736221313477, 0.3061336874961853, 0.16267453134059906, -0.08613087236881256, 0.01869279332458973, -0.02883201465010643, 0.9659428000450134, -0.07425618171691895, -0.1291980743408203, 1.4853515625, 1.316162109375, 0.030517578125, 1.50146484375
31854, -0.0011315838200971484, 0.0035428644623607397, -0.0064097861759364605, -9.952409527613781e-06, -1.524440449429676e-06, -0.019434019923210144, -0.00011383726086933166, -4.058355443703476e-06, -0.11423994600772858, 0.17967736721038818, 0.5190393924713135, 0.05737486481666565, 0.49857547543635655, 0.7398955498387068, -4.4545446511239035, 9362.0, 30146.0, 35388.0, 9362.0, 8.17190170288086, 0.3061336874961853, 0.16267453134059906, -0.08613087236881256, 0.021130943670868874, -0.026558035984635353, 0.9687582850456238, -0.07425618171691895, -0.1291980743408203, 1.4853515625, 1.316162109375, 0.030517578125, 1.50146484375
31894, -0.0013403675984591246, 0.004712468478828669, -0.003555986564606428, -1.5048974091769196e-05, -1.4717662679686327e-06, -0.024255957454442978, -0.00014135052333585918, 7.104793439793866e-06, -0.12692733108997345, 0.17967461049556732, 0.5190640091896057, 0.057391442358493805, 0.48922153073276287, 0.7411989254624132, -4.463961942867367, 9362.0, 30146.0, 35388.0, 9362.0, 8.191736221313477, 0.053853556513786316, -0.13316798210144043, -0.029589619487524033, 0.01926823891699314, -0.028761496767401695, 0.967706561088562, -0.07425618171691895, -0.1291980743408203, 1.4853515625, 1.316162109375, 0.030517578125, 1.496337890625
31904, -0.001010556356050074, 0.0071418085135519505, -0.007449477445334196, -1.5048974091769196e-05, -1.4717662679686327e-06, -0.024255957454442978, -0.00014135052333585918, 7.104793439793866e-06, -0.12692733108997345, 0.17966921627521515, 0.5190502405166626, 0.057368721812963486, 0.49746939314101973, 0.7343454822453168, -4.462688484055238, 9362.0, 30146.0, 35388.0, 9362.0, 8.17190170288086, 0.053853556513786316, -0.13316798210144043, -0.029589619487524033, 0.018748130649328232, -0.027353553101420403, 0.9654408693313599, -0.07425618171691895, -0.1291980743408203, 1.4853515625, 1.316162109375, 0.030517578125, 1.49853515625
31924, -0.0019087265245616436, 0.008556932210922241, -0.007486979942768812, -1.5048974091769196e-05, -1.4717662679686327e-06, -0.024255957454442978, -0.00014135052333585918, 7.104793439793866e-06, -0.12692733108997345, 0.17966322600841522, 0.5190363526344299, 0.05739041417837143, 0.5019128963798507, 0.7406690155439719, -4.4607946759099875, 9362.0, 30146.0, 35388.0, 9362.0, 8.191736221313477, -0.03958193212747574, -0.21513353288173676, -0.06649443507194519, 0.018974823877215385, -0.030811956152319908, 0.9677051305770874, -0.07323168963193893, -0.07543754577636719, 1.48974609375, 1.316162109375, 0.030517578125, 1.494140625
31954, -0.0029741432517766953, 0.004951787181198597, -0.004668816924095154, -2.323838634765707e-05, -8.234189294853422e-07, -0.03101743757724762, -0.00019597899517975748, 2.0001998564112e-05, -0.14342045783996582, 0.1796666979789734, 0.5190353393554688, 0.05735776573419571, 0.5002185147857697, 0.7345574610693859, -4.457725997242958, 9362.0, 30146.0, 35388.0, 9362.0, 8.191736221313477, -0.03958193212747574, -0.21513353288173676, -0.06649443507194519, 0.019365740939974785, -0.028658606112003326, 0.9668011665344238, -0.07190905511379242, -0.1291980743408203, 1.4853515625, 1.316162109375, 0.030517578125, 1.496337890625
32044, -0.0009555715369060636, 0.009412294253706932, -0.001823694328777492, -4.842172347707674e-05, 3.731362994585652e-06, -0.046968404203653336, -0.00030752341262996197, 6.468017090810463e-05, -0.17575503885746002, 0.17967188358306885, 0.519027590751648, 0.05736812576651573, 0.4999433946983834, 0.7322780923430798, -4.454671278868653, 9362.0, 30146.0, 35388.0, 9362.0, 8.17190170288086, 0.09307442605495453, -0.19952204823493958, 0.02343086339533329, 0.01820318214595318, -0.02914736233651638, 0.9659963250160217, -0.06702836602926254, -0.05751800537109375, 1.4912109375, 1.306640625, 0.040557861328125, 1.496337890625
32054, -0.0007080858922563493, 0.008864960633218288, -0.0015047740889713168, -4.842172347707674e-05, 3.731362994585652e-06, -0.046968404203653336, -0.00030752341262996197, 6.468017090810463e-05, -0.17575503885746002, 0.17967240512371063, 0.5190456509590149, 0.05738592520356178, 0.49666786935818436, 0.734746372682082, -4.452671974186959, 9362.0, 30146.0, 35388.0, 9362.0, 8.17190170288086, 0.09307442605495453, -0.19952204823493958, 0.02343086339533329, 0.017438065260648727, -0.028518633916974068, 0.9660604000091553, -0.06702836602926254, -0.05751800537109375, 1.4912109375, 1.306640625, 0.040557861328125, 1.500732421875
32064, -0.0008996856049634516, 0.008338249288499355, -0.002658484736457467, -5.480316394823603e-05, 5.083094492874807e-06, -0.05055267736315727, -0.00033326007542200387, 6.964428757783026e-05, -0.18264378607273102, 0.17967061698436737, 0.5190339088439941, 0.057381950318813324, 0.4965939845695713, 0.7453891736688263, -4.454434349635522, 9362.0, 30146.0, 35388.0, 9362.0, 8.17190170288086, 0.08319735527038574, 0.04546374827623367, 0.00993758998811245, 0.017438065260648727, -0.028518633916974068, 0.9660604000091553, -0.06702836602926254, -0.05751800537109375, 1.4912109375, 1.306640625, 0.040557861328125, 1.500732421875
32074, -0.0005464223795570433, 0.0076141697354614735, -0.0029001906514167786, -5.820908700115979e-05, 5.7853958423947915e-06, -0.052395716309547424, -0.00034795512328855693, 7.080520299496129e-05, -0.1859634965658188, 0.17966751754283905, 0.5190212726593018, 0.057347774505615234, 0.4997990150329357, 0.7393066119967102, -4.460008751037916, 9362.0, 30146.0, 35388.0, 9362.0, 8.17190170288086, 0.08319735527038574, 0.04546374827623367, 0.00993758998811245, 0.018869921565055847, -0.028312161564826965, 0.9668437242507935, -0.06702836602926254, -0.05751800537109375, 1.4912109375, 1.306640625, 0.040557861328125, 1.500732421875
32084, 0.0004494116874411702, 0.00776686193421483, -0.0032657969277352095, -5.820908700115979e-05, 5.7853958423947915e-06, -0.052395716309547424, -0.00034795512328855693, 7.080520299496129e-05, -0.1859634965658188, 0.17967575788497925, 0.5190356969833374, 0.057366691529750824, 0.5007824398452616, 0.736847912554623, -4.455018926445861, 9362.0, 30146.0, 35388.0, 9362.0, 8.17190170288086, 0.1054888442158699, 0.25090786814689636, 0.3057710826396942, 0.018869921565055847, -0.028312161564826965, 0.9668437242507935, -0.06702836602926254, -0.05751800537109375, 1.4912109375, 1.306640625, 0.040557861328125, 1.493408203125
32104, 0.001224941574037075, 0.006020945031195879, -0.0037383222952485085, -6.924656918272376e-05, 7.957606612762902e-06, -0.05812348425388336, -0.0003872905799653381, 7.256573007907718e-05, -0.19584685564041138, 0.1796693652868271, 0.5190601944923401, 0.05739334970712662, 0.4883566932037787, 0.7388691017775955, -4.46900816411087, 9362.0, 30146.0, 35388.0, 9362.0, 8.191736221313477, 0.10264391452074051, 0.15885499119758606, 0.07787775993347168, 0.01699022203683853, -0.026272842660546303, 0.9667165279388428, -0.06702836602926254, -0.05751800537109375, 1.4912109375, 1.306640625, 0.040557861328125, 1.496337890625
32134, -7.50623585190624e-05, 0.005710885394364595, -0.0017077474622055888, -8.135876851156354e-05, 1.0052147445094306e-05, -0.06414515525102615, -0.0004208667960483581, 6.677234341623262e-05, -0.2057429999113083, 0.17966511845588684, 0.5190354585647583, 0.05736789107322693, 0.49422701204405517, 0.7369026953712421, -4.4556516528551775, 9362.0, 30146.0, 35388.0, 9362.0, 8.191736221313477, -0.05964963883161545, -0.16735325753688812, -0.11414435505867004, 0.019682684913277626, -0.029306553304195404, 0.9655164480209351, -0.06702836602926254, -0.05751800537109375, 1.4912109375, 1.306640625, 0.040557861328125, 1.4970703125
32174, 0.0013174874475225806, 0.005756888538599014, -0.005165420472621918, -9.453134407522157e-05, 1.2055325896653812e-05, -0.0704701766371727, -0.00045229343231767416, 6.565808871528134e-05, -0.21592572331428528, 0.17967216670513153, 0.5190364122390747, 0.057372160255908966, 0.49483764809358805, 0.7396989310250319, -4.460798477421356, 9362.0, 30146.0, 35388.0, 9362.0, 8.17190170288086, -0.029033994302153587, -0.05629119277000427, -0.23337510228157043, 0.017723603174090385, -0.0296409223228693, 0.9652141332626343, -0.06702836602926254, -0.05751800537109375, 1.4912109375, 1.306640625, 0.040557861328125, 1.497802734375
32184, 0.0015883359592407942, 0.004075158853083849, -0.004606255330145359, -0.00010379777813795954, 1.3347442290978506e-05, -0.0748542994260788, -0.0004759873263537884, 6.26776964054443e-05, -0.22247186303138733, 0.1796581745147705, 0.5190371870994568, 0.0573604591190815, 0.5055883992798639, 0.7285807632145804, -4.4639669392445995, 9362.0, 30146.0, 35388.0, 9362.0, 8.17190170288086, 0.0544886477291584, -0.20335614681243896, -0.11946587264537811, 0.017723603174090385, -0.0296409223228693, 0.9652141332626343, -0.06702836602926254, -0.05751800537109375, 1.4912109375, 1.306640625, 0.040557861328125, 1.497802734375
32194, 0.00248291390016675, 0.004363530315458775, -0.004812286701053381, -0.0001086052434402518, 1.3963332094135694e-05, -0.0770958811044693, -0.0004856042214669287, 6.051620584912598e-05, -0.22584401071071625, 0.17967483401298523, 0.5190469026565552, 0.057368744164705276, 0.501375815497211, 0.7440459228170653, -4.456186869067025, 9362.0, 30146.0, 35388.0, 9362.0, 8.17190170288086, 0.0544886477291584, -0.20335614681243896, -0.11946587264537811, 0.019115407019853592, -0.0254703089594841, 0.9674657583236694, -0.06702836602926254, -0.05751800537109375, 1.4912109375, 1.306640625, 0.040557861328125, 1.497802734375
32234, 0.001789440051652491, 0.007539418525993824, -0.007348278537392616, -0.00012865177995990962, 1.610585968592204e-05, -0.0863933265209198, -0.0005204962217248976, 4.5153337850933895e-05, -0.23927626013755798, 0.1796659678220749, 0.5190367102622986, 0.05735800042748451, 0.5029708089325216, 0.7371299923055687, -4.460141276082997, 9362.0, 30146.0, 35388.0, 9362.0, 8.17190170288086, 0.03565821796655655, -0.037478867918252945, 0.09558452665805817, 0.01847427897155285, -0.030212342739105225, 0.9659820199012756, -0.06702836602926254, -0.05751800537109375, 1.4912109375, 1.31103515625, 0.0355682373046875, 1.502197265625
32244, 0.0012030376819893718, 0.005597053561359644, -0.0062180617824196815, -0.00012865177995990962, 1.610585968592204e-05, -0.0863933265209198, -0.0005204962217248976, 4.5153337850933895e-05, -0.23927626013755798, 0.17967505753040314, 0.519032895565033, 0.057342663407325745, 0.4996962698325559, 0.7342067836395927, -4.462534901026855, 9362.0, 30146.0, 35388.0, 9362.0, 8.17190170288086, 0.03565821796655655, -0.037478867918252945, 0.09558452665805817, 0.018727991729974747, -0.028621191158890724, 0.9676122665405273, -0.06702836602926254, -0.05751800537109375, 1.4912109375, 1.31103515625, 0.0355682373046875, 1.500732421875
32254, 0.0008230105740949512, 0.004067538771778345, -0.004670443944633007, -0.00013930341810919344, 1.6932764992816374e-05, -0.09124615788459778, -0.0005450313328765333, 3.8056499761296436e-05, -0.2459850311279297, 0.17967818677425385, 0.5190368294715881, 0.05734409764409065, 0.49529525677666175, 0.7406182869959537, -4.456781430028069, 9362.0, 30146.0, 35388.0, 9362.0, 8.17190170288086, -0.114513099193573, -0.20346345007419586, 0.04362627863883972, 0.018727991729974747, -0.028621191158890724, 0.9676122665405273, -0.06702836602926254, -0.05751800537109375, 1.4912109375, 1.31103515625, 0.0355682373046875, 1.500732421875
32264, 0.00038882525404915214, 0.004042871296405792, -0.0029667653143405914, -0.00014480006939265877, 1.7303374988841824e-05, -0.0937221497297287, -0.0005543853039853275, 3.6043966247234493e-05, -0.2492132931947708, 0.1796710342168808, 0.5190466046333313, 0.05735715851187706, 0.4914973529519059, 0.7351618284104973, -4.457526623768877, 9362.0, 30146.0, 35388.0, 9362.0, 8.17190170288086, -0.114513099193573, -0.20346345007419586, 0.04362627863883972, 0.01828165538609028, -0.028294015675783157, 0.965329110622406, -0.06702836602926254, -0.05751800537109375, 1.4912109375, 1.31103515625, 0.0355682373046875, 1.500732421875
32284, 0.0004524429386947304, 0.0037942128255963326, -0.0014844158431515098, -0.0001560219534439966, 1.800039899535477e-05, -0.09877568483352661, -0.0005678705056197941, 3.404714152566157e-05, -0.25607576966285706, 0.17966307699680328, 0.5190432667732239, 0.057364314794540405, 0.4947961137877024, 0.741302148818761, -4.464655892689149, 9362.0, 30146.0, 35388.0, 9362.0, 8.17190170288086, -0.14819303154945374, -0.2752285897731781, 0.38297954201698303, 0.019383352249860764, -0.02842489257454872, 0.9674717783927917, -0.06702836602926254, -0.05751800537109375, 1.4912109375, 1.318359375, 0.028656005859375, 1.49853515625
32294, -5.7323250075569376e-05, 0.004115674644708633, 0.00038603434222750366, -0.0001560219534439966, 1.800039899535477e-05, -0.09877568483352661, -0.0005678705056197941, 3.404714152566157e-05, -0.25607576966285706, 0.17966212332248688, 0.5190398097038269, 0.05734541267156601, 0.4954765825029062, 0.7389005290349075, -4.4618514977334796, 9362.0, 30146.0, 35388.0, 9362.0, 8.17190170288086, -0.07751021534204483, 0.23657691478729248, 0.12071973085403442, 0.01784531958401203, -0.028773460537195206, 0.9641804695129395, -0.06702836602926254, -0.05751800537109375, 1.4912109375, 1.310302734375, 0.036285400390625, 1.49853515625
32304, -0.0005296529270708561, 0.0038884179666638374, 0.002278087195008993, -0.00016747544577810913, 1.8654667655937374e-05, -0.10396106541156769, -0.0005784231470897794, 3.1731946364743635e-05, -0.26251325011253357, 0.17967529594898224, 0.5190302729606628, 0.057351186871528625, 0.4956426677288737, 0.7403646985252692, -4.458008975644311, 9362.0, 30146.0, 35388.0, 9362.0, 8.17190170288086, -0.20616550743579865, -0.2668473422527313, 0.16267283260822296, 0.018624722957611084, -0.02834930084645748, 0.9681790471076965, -0.06702836602926254, -0.05751800537109375, 1.4912109375, 1.310302734375, 0.036285400390625, 1.49853515625
32314, -0.0014675152488052845, 0.004207683727145195, 0.0013295370154082775, -0.00016747544577810913, 1.8654667655937374e-05, -0.10396106541156769, -0.0005784231470897794, 3.1731946364743635e-05, -0.26251325011253357, 0.17965476214885712, 0.5190368294715881, 0.05733204260468483, 0.5030399040072859, 0.7371177210862356, -4.459548321342353, 9362.0, 30146.0, 35388.0, 9362.0, 8.17190170288086, 0.04042036831378937, 0.06385285407304764, 0.059314046055078506, 0.018331879749894142, -0.02818395383656025, 0.9673947095870972, -0.06702836602926254, -0.05751800537109375, 1.4912109375, 1.32275390625, 0.0251312255859375, 1.49853515625
32324, -0.0013064213562756777, 0.0007219176623038948, 0.0029210441280156374, -0.00017917828517965972, 1.929483187268488e-05, -0.10927828401327133, -0.0005916663794778287, 3.262530663050711e-05, -0.2690522372722626, 0.17967866361141205, 0.5190290212631226, 0.057380564510822296, 0.49717566410331376, 0.7387542783756658, -4.4550644006519855, 9362.0, 30146.0, 35388.0, 9362.0, 8.17190170288086, 0.0551530085504055, 0.35093623399734497, 0.00621794955804944, 0.019441338256001472, -0.02813994698226452, 0.9665148258209229, -0.06702836602926254, -0.05751800537109375, 1.4912109375, 1.32275390625, 0.0251312255859375, 1.500732421875
32334, -0.0009538640733808279, -0.001977055100724101, 0.0013732414226979017, -0.00018512980022933334, 1.9633236661320552e-05, -0.11198480427265167, -0.0005988300545141101, 3.506481880322099e-05, -0.27225178480148315, 0.17966611683368683, 0.5190576910972595, 0.057371947914361954, 0.48858281249263824, 0.7347157917765799, -4.464317010380173, 9362.0, 30146.0, 35388.0, 9362.0, 8.17190170288086, -0.024745650589466095, 0.20479847490787506, -0.05971396341919899, 0.019706059247255325, -0.02621493861079216, 0.9652624726295471, -0.06702836602926254, -0.05751800537109375, 1.4912109375, 1.32275390625, 0.0251312255859375, 1.49853515625
32344, -0.0014756100717931986, -0.0024524605832993984, 0.0012772046029567719, -0.0001911240688059479, 1.9994691683677956e-05, -0.11472383141517639, -0.0006001797737553716, 3.724641283042729e-05, -0.27555328607559204, 0.17967291176319122, 0.5190375447273254, 0.05735889449715614, 0.49835408074233317, 0.7413369831131718, -4.462945034265275, 9362.0, 30146.0, 35388.0, 9362.0, 8.17190170288086, 0.16511279344558716, 0.08760291337966919, -0.08426456898450851, 0.019706059247255325, -0.02621493861079216, 0.9652624726295471, -0.06702836602926254, -0.05751800537109375, 1.4912109375, 1.32275390625, 0.0251312255859375, 1.49560546875
32354, -0.002137956442311406, -0.0018027923069894314, -0.0014283595373854041, -0.0001971095334738493, 2.0375036910991184e-05, -0.11749644577503204, -0.0005969409248791635, 3.8791731640230864e-05, -0.27896931767463684, 0.1796777993440628, 0.5190243721008301, 0.05737503618001938, 0.49972941686602596, 0.7361449538464626, -4.465299927958962, 9362.0, 30146.0, 35388.0, 9362.0, 8.17190170288086, 0.16511279344558716, 0.08760291337966919, -0.08426456898450851, 0.01938156969845295, -0.027610445395112038, 0.965356707572937, -0.06702836602926254, -0.05751800537109375, 1.4912109375, 1.32275390625, 0.0251312255859375, 1.49560546875
32384, -0.0013356839772313833, 0.0027057831175625324, -0.004575046245008707, -0.00021486362675204873, 2.1668578483513556e-05, -0.12601853907108307, -0.0005884252022951841, 4.8109279305208474e-05, -0.2890920639038086, 0.17966431379318237, 0.5190339684486389, 0.05736710503697395, 0.49715452283031414, 0.7404521678801075, -4.457837155480923, 9362.0, 30146.0, 35388.0, 9362.0, 8.17190170288086, 0.1436774879693985, -0.2456064671278, -0.10479450225830078, 0.01932121068239212, -0.03015071712434292, 0.9694576859474182, -0.06702836602926254, -0.05751800537109375, 1.4912109375, 1.3125, 0.034027099609375, 1.4970703125
32394, -0.001287162653170526, 0.005569177679717541, -0.006587026175111532, -0.00022074599110055715, 2.215617678302806e-05, -0.1289256066083908, -0.0005878820084035397, 4.93797124363482e-05, -0.29232051968574524, 0.17967060208320618, 0.519030749797821, 0.05737433582544327, 0.49667153652273366, 0.7350211775719515, -4.457393575519497, 9362.0, 30146.0, 35388.0, 9362.0, 8.17190170288086, 0.1436774879693985, -0.2456064671278, -0.10479450225830078, 0.017463037744164467, -0.031235428526997566, 0.9676511287689209, -0.06702836602926254, -0.05751800537109375, 1.4912109375, 1.3125, 0.034027099609375, 1.4970703125
32404, -0.0009040100267156959, 0.0032666961196810007, -0.007241488434374332, -0.00022664725838694721, 2.266105730086565e-05, -0.13186395168304443, -0.0005922206328250468, 5.159937427379191e-05, -0.2953471839427948, 0.17966169118881226, 0.5190261006355286, 0.05735181272029877, 0.5024095182480024, 0.7404713232135123, -4.453364550051102, 9362.0, 30146.0, 35388.0, 9362.0, 8.17190170288086, 0.1436774879693985, -0.2456064671278, -0.10479450225830078, 0.017880434170365334, -0.03166395053267479, 0.9670126438140869, -0.06702836602926254, -0.05751800537109375, 1.4912109375, 1.3125, 0.034027099609375, 1.4970703125
32424, -0.0011785177048295736, 0.0028173921164125204, -0.007657261099666357, -0.0002386583510087803, 2.373274037381634e-05, -0.13783511519432068, -0.0006069460068829358, 5.525579035747796e-05, -0.3017881512641907, 0.17967164516448975, 0.5190507769584656, 0.05735774338245392, 0.49199679440776806, 0.7378257613543724, -4.4558633758813855, 9362.0, 30146.0, 35388.0, 9362.0, 8.17190170288086, -0.03905114158987999, -0.11856687813997269, -0.09030641615390778, 0.019527863711118698, -0.029238075017929077, 0.9662888050079346, -0.06702836602926254, -0.05751800537109375, 1.4912109375, 1.3125, 0.034027099609375, 1.4970703125
32444, -0.0012112647527828813, 0.005580470431596041, -0.009224938228726387, -0.00025091777206398547, 2.486785888322629e-05, -0.14393658936023712, -0.0006181203061714768, 5.8624213124858215e-05, -0.3083696663379669, 0.17966580390930176, 0.5190334916114807, 0.057360004633665085, 0.49675099994792726, 0.7390633135401572, -4.456296199272998, 9362.0, 30146.0, 35388.0, 9362.0, 8.17190170288086, 0.021993955597281456, 0.022873708978295326, 0.047087959945201874, 0.01985817588865757, -0.02636857144534588, 0.967113733291626, -0.06702836602926254, -0.05751800537109375, 1.4912109375, 1.3125, 0.034027099609375, 1.4970703125
32494, -0.002569749718531966, 0.005221562925726175, -0.01179362554103136, -0.00028276475495658815, 2.7958509235759266e-05, -0.1597614288330078, -0.0006597416941076517, 6.874605605844408e-05, -0.3248426020145416, 0.1796853095293045, 0.5190396308898926, 0.05736251175403595, 0.4931840489591475, 0.7376617251184427, -4.450798332062013, 9362.0, 30146.0, 35388.0, 9362.0, 8.191736221313477, 0.12837368249893188, 0.19229300320148468, 0.08705777674913406, 0.017786821350455284, -0.029483607038855553, 0.9649013876914978, -0.06702836602926254, -0.05751800537109375, 1.4912109375, 1.3125, 0.034027099609375, 1.500732421875
32504, -0.003319107461720705, 0.004877535160630941, -0.010515189729630947, -0.00028940654010511935, 2.8662787372013554e-05, -0.16302670538425446, -0.0006686236010864377, 7.207816088339314e-05, -0.32821187376976013, 0.17966680228710175, 0.519048273563385, 0.05736846104264259, 0.4881064553917946, 0.7446250102614158, -4.4675469030239245, 9362.0, 30146.0, 35388.0, 9362.0, 8.17190170288086, 0.12837368249893188, 0.19229300320148468, 0.08705777674913406, 0.01854170858860016, -0.031415149569511414, 0.9648969769477844, -0.06702836602926254, -0.05751800537109375, 1.4912109375, 1.3125, 0.034027099609375, 1.500732421875
32544, -0.006096534430980682, 0.007390506099909544, -0.011779005639255047, -0.00028940654010511935, 2.8662787372013554e-05, -0.16302670538425446, -0.0006686236010864377, 7.207816088339314e-05, -0.32821187376976013, 0.17966912686824799, 0.5190561413764954, 0.05737362056970596, 0.4946304648248382, 0.7364411622050397, -4.4543691955452225, 9362.0, 30146.0, 35388.0, 9362.0, 8.191736221313477, -0.03402765095233917, -0.39911147952079773, -0.1513519287109375, 0.02075345441699028, -0.03015178069472313, 0.9664726853370667, -0.06702836602926254, -0.05751800537109375, 1.4912109375, 1.3125, 0.034027099609375, 1.500732421875
32554, -0.005227850284427404, 0.00794923398643732, -0.012463676743209362, -0.00032398366602137685, 3.3022424759110436e-05, -0.17985795438289642, -0.0007182223489508033, 0.00010735711839515716, -0.3448459506034851, 0.17967213690280914, 0.5190402865409851, 0.057364124804735184, 0.4910430066613043, 0.7278793845606515, -4.456545026349153, 9362.0, 30146.0, 35388.0, 9362.0, 8.17190170288086, -0.10578981041908264, 0.04646381363272667, 0.24010157585144043, 0.01872355304658413, -0.03069673478603363, 0.9663617610931396, -0.06702836602926254, -0.05751800537109375, 1.4912109375, 1.3125, 0.034027099609375, 1.500732421875
32574, -0.004277829080820084, 0.009897306561470032, -0.011687962338328362, -0.00033859701943583786, 3.536473013809882e-05, -0.18682029843330383, -0.0007435557781718671, 0.0001262056757695973, -0.35137462615966797, 0.17965848743915558, 0.5190421938896179, 0.057373590767383575, 0.4964761746207725, 0.7306882539461128, -4.4665444257629945, 9362.0, 30146.0, 35388.0, 9362.0, 8.17190170288086, -0.005867041181772947, -0.029928797855973244, 0.24747203290462494, 0.016954895108938217, -0.028175393119454384, 0.9687387347221375, -0.06702836602926254, -0.05751800537109375, 1.4912109375, 1.3125, 0.034027099609375, 1.49560546875
32594, -0.0038460607174783945, 0.009913437068462372, -0.01042461022734642, -0.0003537562151905149, 3.803256186074577e-05, -0.19390976428985596, -0.0007736508268862963, 0.00014045000716578215, -0.35764390230178833, 0.1796746402978897, 0.5190207958221436, 0.057364996522665024, 0.4903801318494138, 0.7307765339390357, -4.460797670456918, 9362.0, 30146.0, 35388.0, 9362.0, 8.17190170288086, -0.006416398100554943, 0.1444804072380066, -0.05628923699259758, 0.020665185526013374, -0.02872021123766899, 0.9663258790969849, -0.06702836602926254, -0.05751800537109375, 1.4912109375, 1.3125, 0.034027099609375, 1.49853515625
32614, -0.004519036039710045, 0.009918246418237686, -0.00901074893772602, -0.0003695610794238746, 4.1008566768141463e-05, -0.20112890005111694, -0.0008067063172347844, 0.00015587522648274899, -0.3642856478691101, 0.1796664446592331, 0.5190381407737732, 0.057347752153873444, 0.4942826178710967, 0.7365251632591026, -4.452562713488091, 9362.0, 30146.0, 35388.0, 9362.0, 8.17190170288086, -0.03709286078810692, -0.041504282504320145, -0.06301863491535187, 0.01853278838098049, -0.029480930417776108, 0.9645634889602661, -0.06702836602926254, -0.05751800537109375, 1.4912109375, 1.3125, 0.034027099609375, 1.496337890625
32624, -0.0041844225488603115, 0.009858633391559124, -0.009897871874272823, -0.0003777102392632514, 4.2596395360305905e-05, -0.20478852093219757, -0.0008231259416788816, 0.00016163209511432797, -0.3676380515098572, 0.1796787977218628, 0.519040048122406, 0.05737050995230675, 0.5007935333345871, 0.7397337581700469, -4.4550653197728245, 9362.0, 30146.0, 35388.0, 9362.0, 8.191736221313477, -0.03709286078810692, -0.041504282504320145, -0.06301863491535187, 0.019785534590482712, -0.03002140112221241, 0.9664945602416992, -0.06702836602926254, -0.05751800537109375, 1.4912109375, 1.3125, 0.034027099609375, 1.496337890625
32634, -0.003884224221110344, 0.009791803546249866, -0.007531897164881229, -0.0003860233991872519, 4.4250049541005865e-05, -0.20848222076892853, -0.0008395102340728045, 0.0001691191573627293, -0.3711027204990387, 0.17967453598976135, 0.519027590751648, 0.05734740197658539, 0.49938322755953796, 0.737196499749416, -4.463607801691456, 9362.0, 30146.0, 35388.0, 9362.0, 8.191736221313477, -0.058953676372766495, -0.10759270936250687, 0.3840758204460144, 0.019785534590482712, -0.03002140112221241, 0.9664945602416992, -0.06702836602926254, -0.05751800537109375, 1.4912109375, 1.3125, 0.034027099609375, 1.496337890625
32644, -0.0036961014848202467, 0.011626768857240677, -0.006851993501186371, -0.00039450006443075836, 4.597587758325972e-05, -0.21220967173576355, -0.0008558275294490159, 0.00017606299661565572, -0.37438714504241943, 0.17967279255390167, 0.5190412402153015, 0.05735112726688385, 0.4977419508490498, 0.7393815005451074, -4.461659317529872, 9362.0, 30146.0, 35388.0, 9362.0, 8.17190170288086, -0.058953676372766495, -0.10759270936250687, 0.3840758204460144, 0.01707034558057785, -0.028873445466160774, 0.9677566885948181, -0.06702836602926254, -0.05751800537109375, 1.4912109375, 1.3125, 0.034027099609375, 1.496337890625
32664, -0.002047843299806118, 0.013768995180726051, -0.008134438656270504, -0.00041195497033186257, 4.962433740729466e-05, -0.21976232528686523, -0.0008911659242585301, 0.00018861674470826983, -0.3808309733867645, 0.17966920137405396, 0.5190365314483643, 0.05734017863869667, 0.49107956454295815, 0.7322374296683734, -4.454527719253521, 9362.0, 30146.0, 35388.0, 9362.0, 8.17190170288086, -0.058953676372766495, -0.10759270936250687, 0.3840758204460144, 0.018510088324546814, -0.0283766258507967, 0.9670282602310181, -0.06702836602926254, -0.05751800537109375, 1.4912109375, 1.3125, 0.034027099609375, 1.49853515625
32684, -0.0029543363489210606, 0.010127367451786995, -0.005994169972836971, -0.0004301912849768996, 5.351276195142418e-05, -0.22744335234165192, -0.00093396648298949, 0.00019860472821164876, -0.38729918003082275, 0.17967011034488678, 0.5190516710281372, 0.05733741819858551, 0.49204369885017724, 0.7395104325956083, -4.456754629265661, 9362.0, 30146.0, 35388.0, 9362.0, 8.17190170288086, 0.0303192138671875, -0.10203845798969269, 0.016393832862377167, 0.020702281966805458, -0.029164832085371017, 0.9642266035079956, -0.06702836602926254, -0.05751800537109375, 1.4912109375, 1.3125, 0.034027099609375, 1.50146484375
32694, -0.0020443859975785017, 0.01122455857694149, -0.00642477348446846, -0.0004396292206365615, 5.552275251829997e-05, -0.23133373260498047, -0.0009537295554764569, 0.00020338944159448147, -0.3907758295536041, 0.17967452108860016, 0.5190483927726746, 0.05733520910143852, 0.4967014793178851, 0.737008672887697, -4.459333572165124, 9362.0, 30146.0, 35388.0, 9362.0, 8.17190170288086, 0.0303192138671875, -0.10203845798969269, 0.016393832862377167, 0.01629897579550743, -0.02744707651436329, 0.9671515822410583, -0.06702836602926254, -0.05751800537109375, 1.4912109375, 1.3125, 0.034027099609375, 1.50146484375
32714, -0.0006557726883329451, 0.011430524289608002, -0.0077669802121818066, -0.0004590475291479379, 5.968136611045338e-05, -0.23921449482440948, -0.0009890184737741947, 0.00021179983741603792, -0.3972640931606293, 0.17967790365219116, 0.5190258622169495, 0.057348087430000305, 0.49905072255380706, 0.7386212665238929, -4.452727741805462, 9362.0, 30146.0, 35388.0, 9362.0, 8.191736221313477, -0.16676774621009827, 0.02224990911781788, 0.13351938128471375, 0.017981745302677155, -0.02717669866979122, 0.9662990570068359, -0.06702836602926254, -0.05751800537109375, 1.4912109375, 1.3125, 0.034027099609375, 1.497802734375
32784, -0.0006449116626754403, 0.010359877720475197, -0.005526378750801086, -0.0005327868275344372, 7.50359904486686e-05, -0.2678414583206177, -0.0011110862251371145, 0.0002319623454241082, -0.42073237895965576, 0.17967219650745392, 0.5190389156341553, 0.057332396507263184, 0.4956193062076205, 0.7331077637562089, -4.460399048059954, 9362.0, 30146.0, 35388.0, 9362.0, 8.191736221313477, -0.0019359897123649716, -0.05515100061893463, 0.21472451090812683, 0.018210697919130325, -0.029216069728136063, 0.9664461612701416, -0.06702836602926254, -0.05751800537109375, 1.4912109375, 1.307373046875, 0.039581298828125, 1.494873046875
32794, -0.0008896196959540248, 0.011176245287060738, -0.004737094976007938, -0.0005439802771434188, 7.73632709751837e-05, -0.27206552028656006, -0.0011275813449174166, 0.00023350938863586634, -0.424082487821579, 0.17967484891414642, 0.5190377235412598, 0.05732835456728935, 0.49550634280155675, 0.7353407634853397, -4.464671479939241, 9362.0, 30146.0, 35388.0, 9362.0, 8.17190170288086, -0.0019359897123649716, -0.05515100061893463, 0.21472451090812683, 0.01936265267431736, -0.02919074334204197, 0.9661843180656433, -0.06702836602926254, -0.05751800537109375, 1.4912109375, 1.307373046875, 0.039581298828125, 1.494873046875
32814, -0.001297692651860416, 0.012156137265264988, -0.0059081800282001495, -0.0005439802771434188, 7.73632709751837e-05, -0.27206552028656006, -0.0011275813449174166, 0.00023350938863586634, -0.424082487821579, 0.1796768456697464, 0.5190405249595642, 0.05731372535228729, 0.49734627002083515, 0.7378996756795857, -4.457816869025046, 9362.0, 30146.0, 35388.0, 9362.0, 8.17190170288086, -0.0033814816270023584, -0.016275271773338318, -0.26459363102912903, 0.018785642459988594, -0.029227765277028084, 0.9656796455383301, -0.06702836602926254, -0.05751800537109375, 1.4912109375, 1.307373046875, 0.039581298828125, 1.500732421875
32824, -0.0001810172398108989, 0.01165083423256874, -0.0071200099773705006, -0.0005785995163023472, 8.442826219834387e-05, -0.28493788838386536, -0.00118039280641824, 0.00023830970167182386, -0.4342080354690552, 0.1796775460243225, 0.5190404653549194, 0.057335544377565384, 0.4989796114354275, 0.7367452761864399, -4.459335102055078, 9362.0, 30146.0, 35388.0, 9362.0, 8.17190170288086, -0.0033814816270023584, -0.016275271773338318, -0.26459363102912903, 0.017417138442397118, -0.027574751526117325, 0.9657007455825806, -0.06702836602926254, -0.05751800537109375, 1.4912109375, 1.307373046875, 0.039581298828125, 1.49560546875
32834, -0.00036937365075573325, 0.010558485053479671, -0.007424160838127136, -0.0005905039724893868, 8.68220959091559e-05, -0.2892967164516449, -0.0012005241587758064, 0.00024052319349721074, -0.43755999207496643, 0.1796681433916092, 0.5190499424934387, 0.057374242693185806, 0.48826055033584104, 0.7395961703307705, -4.4545334605641, 9362.0, 30146.0, 35388.0, 9362.0, 8.17190170288086, -0.0033814816270023584, -0.016275271773338318, -0.26459363102912903, 0.01713956706225872, -0.028743041679263115, 0.9636009335517883, -0.06702836602926254, -0.05751800537109375, 1.4912109375, 1.307373046875, 0.039581298828125, 1.49560546875
32874, 0.002865335438400507, 0.01099754124879837, -0.01197879109531641, -0.0006399964331649244, 9.642043733038008e-05, -0.3070734739303589, -0.0012725966516882181, 0.00023619120474904776, -0.45103636384010315, 0.17968304455280304, 0.5190369486808777, 0.057339753955602646, 0.49978199063270606, 0.7339910733858517, -4.456694957885004, 9362.0, 30146.0, 35388.0, 9362.0, 8.17190170288086, -0.0033814816270023584, -0.016275271773338318, -0.26459363102912903, 0.019519925117492676, -0.025942493230104446, 0.9658364057540894, -0.06702836602926254, -0.05751800537109375, 1.4912109375, 1.31689453125, 0.0298919677734375, 1.49560546875
32904, 0.002666893182322383, 0.009201196022331715, -0.012745801359415054, -0.0006790031911805272, 0.00010330276563763618, -0.32075241208076477, -0.0013286869507282972, 0.00022319346317090094, -0.460971862077713, 0.17967164516448975, 0.519038736820221, 0.057348743081092834, 0.49500141759281424, 0.7365980900054012, -4.462719576725469, 9362.0, 30146.0, 35388.0, 9362.0, 8.191736221313477, 0.3185538053512573, -0.22914256155490875, -0.24529394507408142, 0.021530326455831528, -0.027528665959835052, 0.9648004770278931, -0.08038987219333649, -0.07543754577636719, 1.48974609375, 1.31689453125, 0.0298919677734375, 1.496337890625
32924, 0.00220704497769475, 0.0103533323854208, -0.011202661320567131, -0.0007059408817440271, 0.00010768353240564466, -0.3300412893295288, -0.0013630250468850136, 0.00021475694666150957, -0.4678788185119629, 0.1796807050704956, 0.5190423130989075, 0.05731603875756264, 0.5011043526321817, 0.7337018596679741, -4.456709346876643, 9362.0, 30146.0, 35388.0, 9362.0, 8.191736221313477, -0.1592368334531784, -0.09060743451118469, 0.10727664083242416, 0.019862079992890358, -0.024808794260025024, 0.9693142771720886, -0.08038987219333649, -0.07543754577636719, 1.48974609375, 1.31689453125, 0.0298919677734375, 1.4970703125
32934, 0.0023707991931587458, 0.00924132950603962, -0.008566241711378098, -0.0007059408817440271, 0.00010768353240564466, -0.3300412893295288, -0.0013630250468850136, 0.00021475694666150957, -0.4678788185119629, 0.17968611419200897, 0.5190521478652954, 0.057352203875780106, 0.48994078961732945, 0.7327795783109821, -4.4587561885450615, 9362.0, 30146.0, 35388.0, 9362.0, 8.191736221313477, -0.1592368334531784, -0.09060743451118469, 0.10727664083242416, 0.020286118611693382, -0.026879046112298965, 0.9660539627075195, -0.08038987219333649, -0.07543754577636719, 1.48974609375, 1.31689453125, 0.0298919677734375, 1.4970703125
33044, 0.0023564172443002462, 0.01483237836509943, -0.01872313767671585, -0.0008841262897476554, 0.0001300923031521961, -0.38850170373916626, -0.0016148278955370188, 0.000155611865920946, -0.506753146648407, 0.1796800047159195, 0.5190620422363281, 0.05733378976583481, 0.48888738872589127, 0.7375623009221499, -4.457658484478364, 9362.0, 30146.0, 35388.0, 9362.0, 8.191736221313477, -0.17374259233474731, -0.013936555944383144, 0.09787966310977936, 0.020782191306352615, -0.02958638221025467, 0.9659495949745178, -0.08008690178394318, -0.04855918884277344, 1.491943359375, 1.31689453125, 0.0298919677734375, 1.500732421875
33054, 0.0035899025388062, 0.0164414644241333, -0.019846074283123016, -0.0009003658196888864, 0.00013162863615434617, -0.3935859799385071, -0.0016328567871823907, 0.0001516542979516089, -0.5101009607315063, 0.17967674136161804, 0.5190452337265015, 0.05732663348317146, 0.48737468480680557, 0.7295856056795458, -4.456761666618235, 9362.0, 30146.0, 35388.0, 9362.0, 8.17190170288086, -0.17374259233474731, -0.013936555944383144, 0.09787966310977936, 0.017437223345041275, -0.02897673286497593, 0.9658917784690857, -0.08008690178394318, -0.04855918884277344, 1.491943359375, 1.31689453125, 0.0298919677734375, 1.500732421875
33114, 0.004467986058443785, 0.021128084510564804, -0.024268634617328644, -0.000985324615612626, 0.00013848960225004703, -0.41951310634613037, -0.0017677440773695707, 0.00011748456017812714, -0.527077317237854, 0.1796937733888626, 0.5190601944923401, 0.05731619894504547, 0.48633506658256226, 0.7380236399393141, -4.455474925854396, 9362.0, 30146.0, 35388.0, 9362.0, 8.191736221313477, 0.07944197207689285, -0.10003279894590378, 0.1006835550069809, 0.019620124250650406, -0.028894970193505287, 0.9643140435218811, -0.08008690178394318, -0.04855918884277344, 1.491943359375, 1.310302734375, 0.036285400390625, 1.496337890625
33134, 0.005424806382507086, 0.020659733563661575, -0.024533668532967567, -0.000985324615612626, 0.00013848960225004703, -0.41951310634613037, -0.0017677440773695707, 0.00011748456017812714, -0.527077317237854, 0.17968104779720306, 0.5190377831459045, 0.05731291323900223, 0.4850237545928988, 0.7339244481277944, -4.459374125816111, 9362.0, 30146.0, 35388.0, 9362.0, 8.191736221313477, 0.07944197207689285, -0.10003279894590378, 0.1006835550069809, 0.01988547295331955, -0.028647350147366524, 0.9665191173553467, -0.08008690178394318, -0.04855918884277344, 1.491943359375, 1.310302734375, 0.036285400390625, 1.4970703125
33144, 0.00534016964957118, 0.020860936492681503, -0.02539316564798355, -0.000985324615612626, 0.00013848960225004703, -0.41951310634613037, -0.0017677440773695707, 0.00011748456017812714, -0.527077317237854, 0.17967599630355835, 0.5190290808677673, 0.05729572847485542, 0.5045721254822897, 0.725378202301755, -4.456362492148268, 9362.0, 30146.0, 35388.0, 9362.0, 8.17190170288086, 0.07944197207689285, -0.10003279894590378, 0.1006835550069809, 0.01939515210688114, -0.028604470193386078, 0.9650464057922363, -0.08008690178394318, -0.04855918884277344, 1.491943359375, 1.310302734375, 0.036285400390625, 1.4970703125
33164, 0.005370079539716244, 0.021453289315104485, -0.026098130270838737, -0.0010970494477078319, 0.00014424961409531534, -0.4517509341239929, -0.001963789341971278, 7.14048437657766e-05, -0.5474340915679932, 0.1796857714653015, 0.5190341472625732, 0.057311251759529114, 0.49627040831088726, 0.7317191683342514, -4.458582198394228, 9362.0, 30146.0, 35388.0, 9362.0, 8.191736221313477, 0.06732116639614105, -0.006553977262228727, 0.4084621071815491, 0.01939515210688114, -0.028604470193386078, 0.9650464057922363, -0.08008690178394318, -0.04855918884277344, 1.491943359375, 1.310302734375, 0.036285400390625, 1.4970703125
33174, 0.005761097650974989, 0.021949950605630875, -0.026677537709474564, -0.0011168713681399822, 0.0001449202245566994, -0.4572417140007019, -0.002000646898522973, 6.272435712162405e-05, -0.5507230758666992, 0.17968207597732544, 0.5190438628196716, 0.0573018416762352, 0.4931677283819111, 0.7328733642247869, -4.457678470696674, 9362.0, 30146.0, 35388.0, 9362.0, 8.17190170288086, 0.06732116639614105, -0.006553977262228727, 0.4084621071815491, 0.01884528063237667, -0.0283165592700243, 0.9667324423789978, -0.08008690178394318, -0.04855918884277344, 1.491943359375, 1.310302734375, 0.036285400390625, 1.4970703125
33184, 0.005951422266662121, 0.024573711678385735, -0.027066685259342194, -0.0011168713681399822, 0.0001449202245566994, -0.4572417140007019, -0.002000646898522973, 6.272435712162405e-05, -0.5507230758666992, 0.17966781556606293, 0.5190366506576538, 0.0573117621243, 0.49946751993584887, 0.7374257781801248, -4.4562224171466305, 9362.0, 30146.0, 35388.0, 9362.0, 8.17190170288086, 0.06732116639614105, -0.006553977262228727, 0.4084621071815491, 0.01884528063237667, -0.0283165592700243, 0.9667324423789978, -0.08008690178394318, -0.04855918884277344, 1.491943359375, 1.310302734375, 0.036285400390625, 1.4970703125
33264, 0.006843961775302887, 0.03142832964658737, -0.026304760947823524, -0.001313408836722374, 0.0001463307999074459, -0.5081411600112915, -0.0023915390484035015, -3.493456824799068e-05, -0.5803295969963074, 0.17967216670513153, 0.5190457701683044, 0.05731254816055298, 0.4966834412217614, 0.7329619477206961, -4.460272311665489, 9362.0, 30146.0, 35388.0, 9362.0, 8.191736221313477, 0.050752557814121246, -0.160024955868721, -0.10864291340112686, 0.019426897168159485, -0.02926226705312729, 0.965822696685791, -0.08008690178394318, -0.04855918884277344, 1.491943359375, 1.310302734375, 0.036285400390625, 1.5
33284, 0.006563873030245304, 0.03249569982290268, -0.025938328355550766, -0.0013622456463053823, 0.000145422643981874, -0.5198141932487488, -0.0024932867381721735, -5.646284989779815e-05, -0.5869420766830444, 0.17969568073749542, 0.5190433859825134, 0.057323433458805084, 0.4941225793018903, 0.7412306036500809, -4.455556660792582, 9362.0, 30146.0, 35388.0, 9362.0, 8.17190170288086, 0.050752557814121246, -0.160024955868721, -0.10864291340112686, 0.018919117748737335, -0.02787221223115921, 0.9676588177680969, -0.08008690178394318, -0.04855918884277344, 1.491943359375, 1.310302734375, 0.036285400390625, 1.5
33304, 0.0063003059476614, 0.03188546746969223, -0.026992207393050194, -0.0014131491770967841, 0.00014408766583073884, -0.5316168665885925, -0.002598303137347102, -7.741937588434666e-05, -0.5933058261871338, 0.17967449128627777, 0.5190448760986328, 0.0573030561208725, 0.48419640434748334, 0.74205646632916, -4.456538358708958, 9362.0, 30146.0, 35388.0, 9362.0, 8.17190170288086, 0.04035283625125885, 0.3726330101490021, -0.09973949939012527, 0.019018318504095078, -0.02839309349656105, 0.9654832482337952, -0.08008690178394318, -0.04855918884277344, 1.491943359375, 1.310302734375, 0.036285400390625, 1.493408203125
33314, 0.007923522964119911, 0.031362857669591904, -0.02856590412557125, -0.0014394065365195274, 0.00014326184464152902, -0.5375669002532959, -0.0026532404590398073, -8.774155867286026e-05, -0.5967006683349609, 0.1796894669532776, 0.5190463662147522, 0.057302460074424744, 0.48777974987003747, 0.7333464665888414, -4.454940213210018, 9362.0, 30146.0, 35388.0, 9362.0, 8.191736221313477, 0.04035283625125885, 0.3726330101490021, -0.09973949939012527, 0.015851125121116638, -0.02885383740067482, 0.9672501683235168, -0.08008690178394318, -0.04855918884277344, 1.491943359375, 1.310302734375, 0.036285400390625, 1.493408203125
