timeTick, roll, pitch, yaw, stateX, stateY, stateZ, stateVX, stateVY, stateVZ, otX0, otY0, otZ0, otRoll0, otPitch0, otYaw0, left wing, pitch motor, yaw motor, right wing, voltage, roll rate, pitch rate, yaw rate, A_x, A_y, A_z, current, i_raw, v_raw, airflow_voltage, airflow_speed, pot_Pitch
36943, 0.005286236759275198, -0.004072340205311775, 0.09875365346670151, 0, 0, 0, 0, 0, 0, 0.19242845475673676, 0.5042650699615479, 0.057911090552806854, 1.3012492382628384, 0.6647991418135177, -6.137833034070071, 0, 0, 0, 0, 0, 0, 0, 0, 0, 0, 0, 0, 0, 0, 0, 0, 0
36953, 0.004907170310616493, -0.006648669019341469, 0.025562727823853493, 8.313877231103106e-08, -1.5703675160239072e-07, -0.0001424972724635154, 8.160778634191956e-06, -1.4902575458108913e-05, -0.00975032802671194, 0.19242949783802032, 0.5042601823806763, 0.05789745971560478, 1.2935530395571606, 0.6725492101219572, -6.139962425095714, 9362.0, 30146.0, 35388.0, 9362.0, 8.072728157043457, 0.22879727184772491, 0.19947299361228943, -6.727163791656494, 0.023937730118632317, -0.017936542630195618, 0.9599435329437256, -0.016174903139472008, -0.05751800537109375, 1.4912109375, 0, 0, 0
36963, 0.006705987732857466, -0.002818357665091753, 0.09691984951496124, 1.985408033533531e-07, -3.497740976854402e-07, -0.0002560943830758333, 1.4763803847017698e-05, -2.3675169359194115e-05, -0.012968700379133224, 0.1924176663160324, 0.5042662620544434, 0.05788342282176018, 1.2938865582686887, 0.6557459919744417, -6.138755557850961, 9362.0, 30146.0, 35388.0, 9362.0, 8.072728157043457, 0.47675150632858276, 0.4567025601863861, 14.384642601013184, 0.013922120444476604, -0.022671345621347427, 0.9690008163452148, -0.021164121106266975, -0.07543754577636719, 1.48974609375, 1.30078125, 0.048004150390625, 1.500732421875
36973, 0.005833173170685768, -0.004121275153011084, 0.03257722780108452, 4.009698102436232e-07, -6.269274308579043e-07, -0.00040426940540783107, 2.5979265046771616e-05, -3.162591383443214e-05, -0.01666591502726078, 0.1924159675836563, 0.5042579770088196, 0.057899072766304016, 1.3065839621296131, 0.657292347685484, -6.147382404910336, 9362.0, 30146.0, 35388.0, 9362.0, 8.072728157043457, 0.02630213275551796, 0.1807396113872528, -11.2874174118042, 0.025848250836133957, -0.01931198313832283, 0.9617458581924438, -0.027210405096411705, -0.04855918884277344, 1.491943359375, 1.304443359375, 0.043182373046875, 1.494873046875
36983, 0.00801923405379057, -0.0033262416254729033, 0.0859815776348114, 6.842097945991554e-07, -9.987137445932603e-07, -0.0005866674473509192, 3.05848807329312e-05, -4.278482811059803e-05, -0.019813304767012596, 0.19242939352989197, 0.5042584538459778, 0.05788047984242439, 1.301879757489825, 0.6673567868948851, -6.141465064262158, 9362.0, 30146.0, 35388.0, 9362.0, 8.072728157043457, 0.7979351878166199, 0.33872532844543457, 19.032217025756836, 0.022291909903287888, -0.023639904335141182, 0.968036949634552, -0.03522366285324097, -0.06647872924804688, 1.490478515625, 1.304443359375, 0.043182373046875, 1.4970703125
36993, 0.007073228247463703, -0.0014545634621754289, 0.040958382189273834, 1.024047378450632e-06, -1.474610940022103e-06, -0.0008031544275581837, 3.7442670873133466e-05, -5.2248335123294964e-05, -0.023483704775571823, 0.19241903722286224, 0.5042539834976196, 0.05786275863647461, 1.3013044502369602, 0.6633557950343061, -6.142920187629895, 9362.0, 30146.0, 35388.0, 9362.0, 8.072728157043457, -0.39664238691329956, -0.13948684930801392, -12.966818809509277, 0.02156546153128147, -0.012687059119343758, 0.9632384181022644, -0.04344872757792473, -0.03959846496582031, 1.49267578125, 1.29931640625, 0.0500640869140625, 1.493408203125
37003, 0.00620432011783123, -0.0023816730827093124, 0.06407332420349121, 1.4261388514569262e-06, -2.0635091004805872e-06, -0.0010536749614402652, 4.306780101615004e-05, -6.558706081705168e-05, -0.026620013639330864, 0.19243435561656952, 0.5042530298233032, 0.05787699297070503, 1.2896062083173205, 0.6762328748709194, -6.134880481913271, 9362.0, 30146.0, 35388.0, 9362.0, 8.072728157043457, 0.5863872766494751, 0.5062757134437561, 19.471824645996094, 0.023704348132014275, -0.022312507033348083, 0.9684381484985352, -0.0472409687936306, 0.023120880126953125, 1.497802734375, 1.302978515625, 0.0450897216796875, 1.493408203125
37013, 0.004288835916668177, -0.0005730186821892858, 0.05296635627746582, 1.8688482441575616e-06, -2.7776741262641735e-06, -0.0013380987802520394, 4.5419805246638134e-05, -7.730023207841441e-05, -0.030264362692832947, 0.19242550432682037, 0.5042592287063599, 0.05789045989513397, 1.2884294170401154, 0.6705010221979251, -6.138397372062694, 9362.0, 30146.0, 35388.0, 9362.0, 8.072728157043457, -0.7122178077697754, -0.4369610846042633, -10.592617988586426, 0.018851906061172485, -0.005259351804852486, 0.9635665416717529, -0.019524237141013145, 0.12168121337890625, 1.505859375, 1.29931640625, 0.0500640869140625, 1.493408203125
37023, 0.004211671184748411, 0.0009836747776716948, 0.025739355012774467, 2.3428638087352738e-06, -3.602129481805605e-06, -0.0016558788483962417, 4.94770283694379e-05, -8.769256965024397e-05, -0.03329126536846161, 0.19242776930332184, 0.5042420029640198, 0.05787133798003197, 1.3061581338561135, 0.6687803515385156, -6.128069992080039, 9362.0, 30146.0, 35388.0, 9362.0, 8.072728157043457, -0.2029092013835907, -0.3899667263031006, 7.415337562561035, 0.03111431747674942, -0.011256479658186436, 0.9660057425498962, -0.03057248890399933, -0.11127853393554688, 1.48681640625, 1.289794921875, 0.065032958984375, 1.493408203125
37033, 0.005844574421644211, 0.0034303825814276934, 0.07726383954286575, 2.8423837648006156e-06, -4.5143565330363344e-06, -0.0020076343789696693, 5.052599954069592e-05, -9.475809201830998e-05, -0.03705945611000061, 0.19243448972702026, 0.5042539238929749, 0.05787837132811546, 1.2935697897354823, 0.6602030302107949, -6.136852365891593, 9362.0, 30146.0, 35388.0, 9362.0, 8.072728157043457, -0.10816680639982224, -0.5620627403259277, -10.244831085205078, 0.011419686488807201, -0.00454174866899848, 0.9654998183250427, -0.043105319142341614, -0.12023735046386719, 1.486083984375, 1.289794921875, 0.065032958984375, 1.493408203125
37043, 0.003003036603331566, 0.0038929441943764687, 0.0009319455712102354, 3.3395101581845665e-06, -5.49683318240568e-06, -0.0023940582759678364, 4.904105298919603e-05, -0.00010164902778342366, -0.04022492095828056, 0.19244985282421112, 0.5042275786399841, 0.057842232286930084, 1.314835625890536, 0.6373027634978996, -6.1457545128078, 9362.0, 30146.0, 35388.0, 9362.0, 8.072728157043457, -0.7400821447372437, -0.8500601053237915, 0.9764795303344727, 0.03274082764983177, -0.004979852586984634, 0.9657589197158813, -0.049689412117004395, -0.030637741088867188, 1.493408203125, 1.314697265625, 0.0319061279296875, 1.494873046875
37053, 0.007148050237447023, 0.0012589889811351895, 0.10283103585243225, 3.801686716542463e-06, -6.561576356034493e-06, -0.0028141457587480545, 4.3411582737462595e-05, -0.00011146883480250835, -0.04379216954112053, 0.19242259860038757, 0.5042650699615479, 0.05787460878491402, 1.2944244624119943, 0.6641995272000258, -6.142816128047543, 9362.0, 30146.0, 35388.0, 9362.0, 8.072728157043457, -0.16382910311222076, -0.17375504970550537, -6.220090866088867, 0.008293344639241695, -0.014134596101939678, 0.9679944515228271, -0.02766977623105049, 0.1396007537841797, 1.50732421875, 1.301513671875, 0.046966552734375, 1.494873046875
37063, 0.0032487392891198397, 0.004107573535293341, -0.001819521770812571, 4.203529897495173e-06, -7.701160939177498e-06, -0.00326757924631238, 3.682584429043345e-05, -0.00011623380123637617, -0.046894144266843796, 0.1924334615468979, 0.5042641162872314, 0.05789254978299141, 1.2987625457310308, 0.66065364394845, -6.143906817364001, 9362.0, 30146.0, 35388.0, 9362.0, 8.072728157043457, -0.27568522095680237, -0.7150762677192688, -2.5344090461730957, 0.03513775020837784, -0.002849605167284608, 0.9628406167030334, -0.016012556850910187, 0.014162063598632812, 1.4970703125, 1.29638671875, 0.0542755126953125, 1.49560546875
37073, 0.0070161097683012486, 0.002968214452266693, 0.10818932205438614, 4.561500645650085e-06, -8.922527740651276e-06, -0.0037540218327194452, 3.4923708881251514e-05, -0.00012827191676478833, -0.0503939613699913, 0.1924304962158203, 0.5042629837989807, 0.05787285044789314, 1.297776756223345, 0.6600342748210437, -6.141786929861319, 9362.0, 30146.0, 35388.0, 9362.0, 8.072728157043457, 0.19270272552967072, 0.3456681966781616, -1.5713783502578735, 0.013716568239033222, -0.020393410697579384, 0.9690207839012146, -0.023385047912597656, -0.03959846496582031, 1.49267578125, 1.286865234375, 0.070281982421875, 1.49560546875
37083, 0.005231629125773907, 0.004192723892629147, 0.02730608358979225, 4.876736511505442e-06, -1.023213735606987e-05, -0.004274195060133934, 2.8072068744222634e-05, -0.0001334490516455844, -0.05364034324884415, 0.1924206167459488, 0.5042705535888672, 0.05790092796087265, 1.2975389727883928, 0.6619035245844316, -6.136468038453636, 9362.0, 30146.0, 35388.0, 9362.0, 8.072728157043457, 0.6226702332496643, -0.0074257198721170425, -4.199736595153809, 0.02378140389919281, -0.020108262076973915, 0.9583939909934998, -0.030379770323634148, -0.030637741088867188, 1.493408203125, 1.288330078125, 0.0676116943359375, 1.4912109375
37093, 0.006178378593176603, 0.003766224952414632, 0.09732522815465927, 5.133072136231931e-06, -1.162457192549482e-05, -0.004828283563256264, 2.325555578863714e-05, -0.00014514042413793504, -0.057176973670721054, 0.19241619110107422, 0.5042552351951599, 0.05786648020148277, 1.2925895533788005, 0.6656551250618747, -6.1456551688710475, 9362.0, 30146.0, 35388.0, 9362.0, 8.072728157043457, 0.08675491809844971, 0.5612804889678955, 15.32322883605957, 0.01385029498487711, -0.01850586012005806, 0.9667112827301025, -0.0371195413172245, -0.08439826965332031, 1.489013671875, 1.2919921875, 0.0613250732421875, 1.4912109375
37103, 0.0057604326866567135, 0.0063971360214054585, 0.025621676817536354, 5.331115971785039e-06, -1.311908181378385e-05, -0.005418650805950165, 1.633653482713271e-05, -0.00015370840264949948, -0.06089611351490021, 0.19242912530899048, 0.5042570233345032, 0.0578746534883976, 1.293774356767126, 0.6657286602379031, -6.141505919208979, 9362.0, 30146.0, 35388.0, 9362.0, 8.072728157043457, 0.03101220540702343, 0.10246754437685013, -13.2691011428833, 0.026036439463496208, -0.018444770947098732, 0.9597262740135193, -0.03608527407050133, -0.0037593841552734375, 1.49560546875, 1.289794921875, 0.065032958984375, 1.49267578125
37113, 0.008532995358109474, 0.006730035878717899, 0.09145703166723251, 5.463467459776439e-06, -1.4707238733535632e-05, -0.006044975481927395, 1.028063525154721e-05, -0.00016393876285292208, -0.06436841934919357, 0.19244246184825897, 0.5042594075202942, 0.05787220969796181, 1.2914593984284115, 0.6694859192836304, -6.136959962635897, 9362.0, 30146.0, 35388.0, 9362.0, 8.072728157043457, 1.147209882736206, 0.26925089955329895, 18.823043823242188, 0.021650493144989014, -0.02238057181239128, 0.9699572920799255, -0.0391300767660141, -0.10231781005859375, 1.487548828125, 1.31689453125, 0.0298919677734375, 1.49560546875
37123, 0.005353637970983982, 0.010429278947412968, 0.04157168045639992, 5.513605174201075e-06, -1.6394094927818514e-05, -0.006707246880978346, -2.1904484981405403e-07, -0.0001732651435304433, -0.06808548420667648, 0.1924399435520172, 0.5042539834976196, 0.05786652863025665, 1.2906139772097833, 0.6624635857321266, -6.139610866068875, 9362.0, 30146.0, 35388.0, 9362.0, 8.072728157043457, -0.44343382120132446, -0.08749181032180786, -9.507736206054688, 0.018445594236254692, -0.012004830874502659, 0.9624807834625244, -0.023670950904488564, 0.1396007537841797, 1.50732421875, 1.31396484375, 0.0325469970703125, 1.4970703125
37133, 0.00628252699971199, 0.012381047010421753, 0.0495392344892025, 5.455681730381912e-06, -1.819764293031767e-05, -0.007403158582746983, -1.1181950867467094e-05, -0.00018759968224912882, -0.07109646499156952, 0.19243499636650085, 0.5042458176612854, 0.05789174139499664, 1.297089433875602, 0.6686773343304253, -6.141935138170543, 9362.0, 30146.0, 35388.0, 9362.0, 8.072728157043457, 0.2587240934371948, 0.38894709944725037, 16.325706481933594, 0.029734034091234207, -0.019477779045701027, 0.9687561392784119, -0.005757868755608797, 0.06792068481445312, 1.50146484375, 1.32421875, 0.024139404296875, 1.493408203125
37143, 0.005869302432984114, 0.010465344414114952, 0.06880778074264526, 5.257917564449599e-06, -2.011783726629801e-05, -0.008132290095090866, -2.8245947760296986e-05, -0.00019638256344478577, -0.07472939789295197, 0.19243130087852478, 0.504256010055542, 0.05785829573869705, 1.2954791148182516, 0.6654114552222268, -6.140822012250006, 9362.0, 30146.0, 35388.0, 9362.0, 8.072728157043457, -0.4854488670825958, -0.2584711015224457, -13.164478302001953, 0.01252768188714981, -0.005725344177335501, 0.9625603556632996, -0.010065182112157345, -0.04855918884277344, 1.491943359375, 1.319091796875, 0.0279998779296875, 1.49560546875
37153, 0.00460666511207819, 0.01402780506759882, 0.024159351363778114, 4.872875251749065e-06, -2.2133828679216094e-05, -0.008895155042409897, -4.8863083065953106e-05, -0.00020684463379438967, -0.07784313708543777, 0.192429780960083, 0.5042644739151001, 0.057871587574481964, 1.2928161733086128, 0.673420675970192, -6.134579869198888, 9362.0, 30146.0, 35388.0, 9362.0, 8.072728157043457, 0.2746224105358124, 0.14828155934810638, 12.688681602478027, 0.030455276370048523, -0.00916543509811163, 0.965852677822113, -0.05697976052761078, -0.01271820068359375, 1.494873046875, 1.308837890625, 0.0379486083984375, 1.493408203125
37163, 0.007006850093603134, 0.012212769128382206, 0.09226752072572708, 4.298168732930208e-06, -2.42506848735502e-05, -0.009692521765828133, -6.584970833500847e-05, -0.00021659467893186957, -0.08162989467382431, 0.19242709875106812, 0.504242479801178, 0.057877153158187866, 1.3002610483489878, 0.6690833217286922, -6.136539846110278, 9362.0, 30146.0, 35388.0, 9362.0, 8.072728157043457, -0.5459122657775879, -0.9660746455192566, -12.221416473388672, 0.013744528405368328, -0.007374366745352745, 0.9663307666778564, -0.05733027309179306, 0.06792068481445312, 1.50146484375, 1.2978515625, 0.05224609375, 1.49267578125
37173, 0.0054766214452683926, 0.010917174629867077, 0.006953951437026262, 3.5234038477938157e-06, -2.6454867111169733e-05, -0.010524366982281208, -8.919079846236855e-05, -0.00022413812985178083, -0.08473878353834152, 0.19243696331977844, 0.5042606592178345, 0.0578484982252121, 1.2967212758676618, 0.6604470870031491, -6.140853620844844, 9362.0, 30146.0, 35388.0, 9362.0, 8.072728157043457, -0.09972470998764038, -0.06389325857162476, 1.8120017051696777, 0.037629447877407074, -0.004991836380213499, 0.9648835062980652, -0.0364704430103302, 0.0052013397216796875, 1.496337890625, 1.298583984375, 0.051055908203125, 1.50146484375
37183, 0.00748127605766058, 0.008711136877536774, 0.1154981479048729, 2.5308736439910717e-06, -2.8754193408531137e-05, -0.011389752849936485, -0.00010941220534732565, -0.00023579505796078593, -0.08833801001310349, 0.19242794811725616, 0.5042689442634583, 0.05787279084324837, 1.2986537298051348, 0.654834525737499, -6.151830708439506, 9362.0, 30146.0, 35388.0, 9362.0, 8.072728157043457, 0.022140389308333397, 0.075399249792099, -5.667756080627441, 0.010205642320215702, -0.01317618228495121, 0.9689387083053589, -0.025710467249155045, 0.014162063598632812, 1.4970703125, 1.298583984375, 0.051055908203125, 1.49853515625
37213, 0.0035223024897277355, 0.010664979927241802, 0.021059049293398857, -1.5016277075119433e-06, -3.628472768468782e-05, -0.014186320826411247, -0.00015805668954271823, -0.0002661256294231862, -0.09826065599918365, 0.192433163523674, 0.5042506456375122, 0.05787527188658714, 1.2998619099774609, 0.6628876612032286, -6.1368139206703, 9362.0, 30146.0, 35388.0, 9362.0, 8.072728157043457, 0.17320819199085236, -0.029154213145375252, -8.534381866455078, 0.02893257327377796, -0.015591027215123177, 0.9586744904518127, -0.03052065148949623, -0.01271820068359375, 1.494873046875, 1.298583984375, 0.051055908203125, 1.49853515625
37233, 0.005008032079786062, 0.01510472409427166, 0.03224353492259979, -4.985482519259676e-06, -4.180111500318162e-05, -0.016220511868596077, -0.0001912749867187813, -0.0002828308497555554, -0.10525649040937424, 0.19242657721042633, 0.5042530298233032, 0.05787867680191994, 1.3043937938572983, 0.658123325647864, -6.140444810321673, 9362.0, 30146.0, 35388.0, 9362.0, 8.072728157043457, 0.22130100429058075, 0.2342328131198883, -10.716527938842773, 0.027017418295145035, -0.015923500061035156, 0.959582507610321, -0.04732642322778702, -0.10231781005859375, 1.487548828125, 1.298583984375, 0.051055908203125, 1.49853515625
37243, 0.005848141387104988, 0.016055569052696228, 0.09919214993715286, -4.985482519259676e-06, -4.180111500318162e-05, -0.016220511868596077, -0.0001912749867187813, -0.0002828308497555554, -0.10525649040937424, 0.1924176812171936, 0.5042411088943481, 0.05787453055381775, 1.2978486947057977, 0.6705700728650186, -6.137209140190439, 9362.0, 30146.0, 35388.0, 9362.0, 8.072728157043457, 0.31766489148139954, 0.27417680621147156, 19.611730575561523, 0.021517926827073097, -0.025726595893502235, 0.9685242176055908, -0.04732642322778702, -0.10231781005859375, 1.487548828125, 1.298583984375, 0.051055908203125, 1.49853515625
37273, 0.004216649103909731, 0.021029355004429817, 0.07347429543733597, -1.439307197870221e-05, -5.386830525822006e-05, -0.020703870803117752, -0.0002870160969905555, -0.0003173953737132251, -0.11904286593198776, 0.19243626296520233, 0.504242479801178, 0.05786425992846489, 1.2989913439554233, 0.6666602452544907, -6.14111846451527, 9362.0, 30146.0, 35388.0, 9362.0, 8.072728157043457, -0.696596086025238, -0.7247473001480103, -14.023402214050293, 0.013971813954412937, -0.007544472347944975, 0.9659391045570374, -0.036600835621356964, -0.030637741088867188, 1.493408203125, 1.298583984375, 0.051055908203125, 1.49853515625
37283, 0.0036578779108822346, 0.019868120551109314, 0.04317617788910866, -1.439307197870221e-05, -5.386830525822006e-05, -0.020703870803117752, -0.0002870160969905555, -0.0003173953737132251, -0.11904286593198776, 0.19243259727954865, 0.5042721629142761, 0.057872653007507324, 1.2937073902363516, 0.6645755328323162, -6.135005980714235, 9362.0, 30146.0, 35388.0, 9362.0, 8.072728157043457, 0.49879685044288635, 0.5802761912345886, 15.661332130432129, 0.030363868921995163, -0.013263054192066193, 0.9688634872436523, -0.036600835621356964, -0.030637741088867188, 1.493408203125, 1.298583984375, 0.051055908203125, 1.49853515625
37293, 0.005933056585490704, 0.01786372810602188, 0.10154291242361069, -1.439307197870221e-05, -5.386830525822006e-05, -0.020703870803117752, -0.0002870160969905555, -0.0003173953737132251, -0.11904286593198776, 0.19243910908699036, 0.5042675137519836, 0.057883091270923615, 1.2903952073499205, 0.6685556016084604, -6.132756675746757, 9362.0, 30146.0, 35388.0, 9362.0, 8.072728157043457, -0.7180604338645935, -0.342033714056015, -13.973745346069336, 0.011374213732779026, -0.0043067834340035915, 0.9678622484207153, -0.036600835621356964, -0.030637741088867188, 1.493408203125, 1.298583984375, 0.051055908203125, 1.4912109375
37313, 0.00745012704282999, 0.018742544576525688, 0.11650817096233368, -1.439307197870221e-05, -5.386830525822006e-05, -0.020703870803117752, -0.0002870160969905555, -0.0003173953737132251, -0.11904286593198776, 0.1924373209476471, 0.5042468309402466, 0.05785950645804405, 1.2956911921426169, 0.6699666085050637, -6.141838888580382, 9362.0, 30146.0, 35388.0, 9362.0, 8.072728157043457, -0.21950459480285645, -0.37044811248779297, -10.207837104797363, 0.014463812112808228, -0.007151514291763306, 0.965776264667511, -0.014025467447936535, 0.07688140869140625, 1.502197265625, 1.298583984375, 0.051055908203125, 1.4912109375
37323, 0.004423218313604593, 0.01739375665783882, 0.018518870696425438, -1.439307197870221e-05, -5.386830525822006e-05, -0.020703870803117752, -0.0002870160969905555, -0.0003173953737132251, -0.11904286593198776, 0.19241450726985931, 0.5042533278465271, 0.057854119688272476, 1.3092312504084114, 0.6588125612661884, -6.152587260587488, 9362.0, 30146.0, 35388.0, 9362.0, 8.072728157043457, -0.3921244144439697, -0.34180790185928345, -4.502315521240234, 0.03472677990794182, -0.00480214599519968, 0.9620275497436523, -0.014025467447936535, 0.07688140869140625, 1.502197265625, 1.298583984375, 0.051055908203125, 1.490478515625
37333, 0.006923408713191748, 0.012245682068169117, 0.13032303750514984, -1.439307197870221e-05, -5.386830525822006e-05, -0.020703870803117752, -0.0002870160969905555, -0.0003173953737132251, -0.11904286593198776, 0.19243597984313965, 0.5042549967765808, 0.057863134890794754, 1.2936526203990175, 0.6623217080053507, -6.142879924086503, 9362.0, 30146.0, 35388.0, 9362.0, 8.072728157043457, -0.3921244144439697, -0.34180790185928345, -4.502315521240234, 0.014013472013175488, -0.0172734335064888, 0.9712302088737488, -0.039591655135154724, -0.08439826965332031, 1.489013671875, 1.298583984375, 0.051055908203125, 1.490478515625
37353, 0.0072694518603384495, 0.011689304374158382, 0.13098345696926117, -4.738253483083099e-05, -8.178077405318618e-05, -0.03125956282019615, -0.0005250486428849399, -0.00038501020753756166, -0.1454187035560608, 0.19243651628494263, 0.5042635202407837, 0.057856250554323196, 1.2972549959856343, 0.6730518840116986, -6.1427021889594675, 9362.0, 30146.0, 35388.0, 9362.0, 8.072728157043457, 0.5345220565795898, 0.16903485357761383, 11.100838661193848, 0.014780359342694283, -0.024143844842910767, 0.9705835580825806, -0.03464866429567337, -0.08439826965332031, 1.489013671875, 1.298583984375, 0.051055908203125, 1.490478515625
37363, 0.004908659495413303, 0.015248820185661316, 0.026729684323072433, -4.738253483083099e-05, -8.178077405318618e-05, -0.03125956282019615, -0.0005250486428849399, -0.00038501020753756166, -0.1454187035560608, 0.1924317330121994, 0.5042678117752075, 0.057859960943460464, 1.2937730095899334, 0.666973953778097, -6.13673942476162, 9362.0, 30146.0, 35388.0, 9362.0, 8.072728157043457, 0.5345220565795898, 0.16903485357761383, 11.100838661193848, 0.028948483988642693, -0.015242161229252815, 0.9614676237106323, -0.03464866429567337, -0.08439826965332031, 1.489013671875, 1.298583984375, 0.051055908203125, 1.490478515625
37373, 0.007122149225324392, 0.013703066855669022, 0.10828734189271927, -4.738253483083099e-05, -8.178077405318618e-05, -0.03125956282019615, -0.0005250486428849399, -0.00038501020753756166, -0.1454187035560608, 0.192433163523674, 0.5042627453804016, 0.05787153169512749, 1.2944589608586956, 0.6712086643576356, -6.143791015491521, 9362.0, 30146.0, 35388.0, 9362.0, 8.072728157043457, 0.27517566084861755, 0.7626215815544128, 19.25482940673828, 0.028948483988642693, -0.015242161229252815, 0.9614676237106323, -0.028142740949988365, -0.03959846496582031, 1.49267578125, 1.298583984375, 0.051055908203125, 1.490478515625
37393, 0.005598357878625393, 0.01668342389166355, 0.08620724081993103, -4.738253483083099e-05, -8.178077405318618e-05, -0.03125956282019615, -0.0005250486428849399, -0.00038501020753756166, -0.1454187035560608, 0.19242656230926514, 0.5042541027069092, 0.05785805732011795, 1.2942365843285992, 0.6582796168220284, -6.140893637849895, 9362.0, 30146.0, 35388.0, 9362.0, 8.072728157043457, 0.8742398619651794, 0.42066970467567444, 20.11171531677246, 0.024917809292674065, -0.02230999618768692, 0.9680781364440918, -0.044299788773059845, -0.07543754577636719, 1.48974609375, 1.298583984375, 0.051055908203125, 1.490478515625
37403, 0.004799365531653166, 0.021129947155714035, 0.06537846475839615, -4.738253483083099e-05, -8.178077405318618e-05, -0.03125956282019615, -0.0005250486428849399, -0.00038501020753756166, -0.1454187035560608, 0.19243960082530975, 0.5042595267295837, 0.057870056480169296, 1.2990448285927587, 0.6738035618542142, -6.14220313151427, 9362.0, 30146.0, 35388.0, 9362.0, 8.072728157043457, -0.5271929502487183, -0.7382863759994507, -11.56849193572998, 0.016052713617682457, -0.007224407512694597, 0.9650264382362366, -0.03582345321774483, -0.03959846496582031, 1.49267578125, 1.298583984375, 0.051055908203125, 1.490478515625
37413, 0.004366771783679724, 0.024455778300762177, 0.044688183814287186, -4.738253483083099e-05, -8.178077405318618e-05, -0.03125956282019615, -0.0005250486428849399, -0.00038501020753756166, -0.1454187035560608, 0.19242772459983826, 0.5042518973350525, 0.05785803496837616, 1.2969484987683066, 0.6623155899644644, -6.132827863960471, 9362.0, 30146.0, 35388.0, 9362.0, 8.072728157043457, 0.03148176148533821, -0.17878718674182892, 12.784136772155762, 0.02913934737443924, -0.014454558491706848, 0.9683660268783569, -0.015066615305840969, 0.05000114440917969, 1.5, 1.313232421875, 0.0333251953125, 1.490478515625
37423, 0.005770855117589235, 0.022511044517159462, 0.08694661408662796, -8.981584687717259e-05, -0.00011108663602499291, -0.042283158749341965, -0.0007025180384516716, -0.00045035372022539377, -0.16945287585258484, 0.1924334466457367, 0.5042619109153748, 0.05786706134676933, 1.2991914793839667, 0.6625728754866032, -6.138705658780653, 9362.0, 30146.0, 35388.0, 9362.0, 8.072728157043457, -0.5221116542816162, -0.2845507264137268, -11.411914825439453, 0.013592774979770184, -0.006086614448577166, 0.9638476371765137, -0.018437573686242104, 0.07688140869140625, 1.502197265625, 1.313232421875, 0.0333251953125, 1.490478515625
37433, 0.0039319382049143314, 0.023473015055060387, 0.025417249649763107, -8.981584687717259e-05, -0.00011108663602499291, -0.042283158749341965, -0.0007025180384516716, -0.00045035372022539377, -0.16945287585258484, 0.19243277609348297, 0.504260241985321, 0.057886749505996704, 1.2926899332123922, 0.6625407663542262, -6.133856880910337, 9362.0, 30146.0, 35388.0, 9362.0, 8.072728157043457, -0.06464297324419022, -0.2659744322299957, 5.892270565032959, 0.03186913952231407, -0.0047814613208174706, 0.962125837802887, -0.02333381399512291, 0.08584022521972656, 1.5029296875, 1.31103515625, 0.0355682373046875, 1.490478515625
37443, 0.0075751314871013165, 0.02171120047569275, 0.10460463911294937, -8.981584687717259e-05, -0.00011108663602499291, -0.042283158749341965, -0.0007025180384516716, -0.00045035372022539377, -0.16945287585258484, 0.1924242228269577, 0.504258930683136, 0.057853877544403076, 1.3001114960577427, 0.6577512660232401, -6.143337939077992, 9362.0, 30146.0, 35388.0, 9362.0, 8.072728157043457, -0.17965364456176758, -0.1944141685962677, -9.385522842407227, 0.014940031804144382, -0.009117735549807549, 0.966437041759491, -0.032617077231407166, -0.09335899353027344, 1.48828125, 1.324951171875, 0.0236663818359375, 1.490478515625
37453, 0.005795186851173639, 0.023827435448765755, 0.019019385799765587, -8.981584687717259e-05, -0.00011108663602499291, -0.042283158749341965, -0.0007025180384516716, -0.00045035372022539377, -0.16945287585258484, 0.19244647026062012, 0.5042431950569153, 0.05786733701825142, 1.29913070566588, 0.6691914813352753, -6.134130964194289, 9362.0, 30146.0, 35388.0, 9362.0, 8.072728157043457, -0.002256647450849414, -0.8440231680870056, -3.763934850692749, 0.03277657553553581, -0.00729747349396348, 0.9614003300666809, -0.032617077231407166, -0.09335899353027344, 1.48828125, 1.318359375, 0.028656005859375, 1.490478515625
37473, 0.009050663560628891, 0.022659610956907272, 0.03421497717499733, -0.0001297690614592284, -0.00013466305972542614, -0.051183659583330154, -0.0008941515698097646, -0.0004956455086357892, -0.186685249209404, 0.1924378126859665, 0.5042508244514465, 0.05785828083753586, 1.2977205744426061, 0.6644744819036816, -6.13817368604645, 9362.0, 30146.0, 35388.0, 9362.0, 8.072728157043457, 0.5114849209785461, 0.03694929555058479, -5.885604381561279, 0.02387993037700653, -0.018346458673477173, 0.9618604183197021, -0.032617077231407166, -0.09335899353027344, 1.48828125, 1.318359375, 0.028656005859375, 1.490478515625
37493, 0.010005704127252102, 0.023396866396069527, 0.03386364132165909, -0.00013889621186535805, -0.00013969585415907204, -0.05306699499487877, -0.000931288639549166, -0.0005108693731017411, -0.18998174369335175, 0.19244125485420227, 0.5042598843574524, 0.05784812569618225, 1.289248204354794, 0.6663639044892875, -6.145417089599832, 9362.0, 30146.0, 35388.0, 9362.0, 8.072728157043457, -0.036423251032829285, 0.22760693728923798, -12.45012378692627, 0.02397041954100132, -0.01747850514948368, 0.9601165056228638, -0.016435645520687103, -0.04855918884277344, 1.491943359375, 1.318359375, 0.028656005859375, 1.490478515625
37523, 0.010032020509243011, 0.024764640256762505, 0.04474460333585739, -0.00016849584062583745, -0.00015575661382172257, -0.058915652334690094, -0.0010428634705021977, -0.0005607943749055266, -0.20017419755458832, 0.19243223965168, 0.5042540431022644, 0.05784675106406212, 1.2893348911776008, 0.6740642527730643, -6.141808199265745, 9362.0, 30146.0, 35388.0, 9362.0, 8.072728157043457, 0.6352829337120056, 0.42304539680480957, 19.084932327270508, 0.028309602290391922, -0.015179692767560482, 0.967219352722168, -0.021143721416592598, 0.08584022521972656, 1.5029296875, 1.318359375, 0.028656005859375, 1.490478515625
37553, 0.009998331777751446, 0.024513687938451767, 0.10277523845434189, -0.0002131099026883021, -0.0001795667049009353, -0.06719310581684113, -0.001192866824567318, -0.0006286181160248816, -0.21396487951278687, 0.19243894517421722, 0.5042518973350525, 0.057833991944789886, 1.2958108702976578, 0.6667845984108283, -6.1416392121715, 9362.0, 30146.0, 35388.0, 9362.0, 8.072728157043457, 0.6352829337120056, 0.42304539680480957, 19.084932327270508, 0.012365184724330902, -0.008468530140817165, 0.9669432044029236, -0.014174044132232666, -0.11127853393554688, 1.48681640625, 1.318359375, 0.028656005859375, 1.490478515625
37563, 0.006897898390889168, 0.025190308690071106, 0.012038064189255238, -0.00022526324028149247, -0.00018590522813610733, -0.06934823095798492, -0.0012379151303321123, -0.0006389464251697063, -0.21705953776836395, 0.19244332611560822, 0.5042482614517212, 0.05786999687552452, 1.2955459793677777, 0.6475140259390457, -6.13581355344265, 9362.0, 30146.0, 35388.0, 9362.0, 8.072728157043457, -0.14938640594482422, -0.5765782594680786, -1.157326102256775, 0.033052802085876465, -0.006316924933344126, 0.9625469446182251, -0.014174044132232666, -0.11127853393554688, 1.48681640625, 1.318359375, 0.028656005859375, 1.490478515625
37583, 0.006438598968088627, 0.027222931385040283, 0.01297998707741499, -0.00025083564105443656, -0.0001989909796975553, -0.07376006245613098, -0.0013197519583627582, -0.0006669759168289602, -0.22394263744354248, 0.1924360990524292, 0.5042534470558167, 0.057848069816827774, 1.2999639160263101, 0.6658086541790169, -6.142289522492767, 9362.0, 30146.0, 35388.0, 9362.0, 8.072728157043457, -0.15699884295463562, -0.2766425907611847, -7.255565166473389, 0.03130915388464928, -0.012105196714401245, 0.959803581237793, -0.01613679528236389, -0.04855918884277344, 1.491943359375, 1.318359375, 0.028656005859375, 1.490478515625
37613, 0.0090621467679739, 0.028077641502022743, 0.10129941999912262, -0.00029251008527353406, -0.00021965987980365753, -0.08063305914402008, -0.0014572087675333023, -0.0007102706003934145, -0.23396943509578705, 0.19242943823337555, 0.50425124168396, 0.05784989148378372, 1.296094691611801, 0.6650754547351028, -6.140992214354421, 9362.0, 30146.0, 35388.0, 9362.0, 8.072728157043457, 0.26259133219718933, 0.5879507064819336, -7.938068866729736, 0.01759638637304306, -0.022156178951263428, 0.9699950814247131, -0.02436528541147709, -0.05751800537109375, 1.4912109375, 1.318359375, 0.028656005859375, 1.490478515625
37633, 0.009465871378779411, 0.029659563675522804, 0.06999476253986359, -0.00032258921419270337, -0.0002341417275601998, -0.08538156747817993, -0.001550413784570992, -0.0007387450314126909, -0.24073418974876404, 0.19245408475399017, 0.5042648911476135, 0.05784528702497482, 1.286303291022784, 0.6668920089915389, -6.137764635907681, 9362.0, 30146.0, 35388.0, 9362.0, 8.072728157043457, 0.5592615604400635, 0.14285850524902344, 21.102312088012695, 0.018284551799297333, -0.017706848680973053, 0.9602766036987305, -0.02436528541147709, -0.05751800537109375, 1.4912109375, 1.318359375, 0.028656005859375, 1.490478515625
37643, 0.008612365461885929, 0.0307167936116457, 0.05819062143564224, -0.00032258921419270337, -0.0002341417275601998, -0.08538156747817993, -0.001550413784570992, -0.0007387450314126909, -0.24073418974876404, 0.19244582951068878, 0.5042539834976196, 0.05786416307091713, 1.2942033268232676, 0.6551065287956419, -6.1293247853266495, 9362.0, 30146.0, 35388.0, 9362.0, 8.072728157043457, 0.5592615604400635, 0.14285850524902344, 21.102312088012695, 0.01395444106310606, -0.01238058228045702, 0.9640942811965942, -0.02436528541147709, -0.05751800537109375, 1.4912109375, 1.318359375, 0.028656005859375, 1.490478515625
37653, 0.008679662831127644, 0.030340656638145447, 0.03680095449090004, -0.00032258921419270337, -0.0002341417275601998, -0.08538156747817993, -0.001550413784570992, -0.0007387450314126909, -0.24073418974876404, 0.19243580102920532, 0.5042617917060852, 0.05784788727760315, 1.2990188227208832, 0.6678438696969522, -6.143969995492874, 9362.0, 30146.0, 35388.0, 9362.0, 8.072728157043457, 0.5592615604400635, 0.14285850524902344, 21.102312088012695, 0.01395444106310606, -0.01238058228045702, 0.9640942811965942, -0.02436528541147709, -0.05751800537109375, 1.4912109375, 1.318359375, 0.028656005859375, 1.490478515625
37683, 0.011705533601343632, 0.02723083458840847, 0.10664932429790497, -0.0003885829064529389, -0.0002648515801411122, -0.09528655558824539, -0.0017501964466646314, -0.0007968544960021973, -0.25411105155944824, 0.19244207441806793, 0.5042603015899658, 0.057837698608636856, 1.2878247404879974, 0.6638749850551733, -6.13986618163559, 9362.0, 30146.0, 35388.0, 9362.0, 8.072728157043457, -0.8534728288650513, -0.7669340968132019, -14.157833099365234, 0.010841675102710724, -0.0099103394895792, 0.9656675457954407, -0.02373300865292549, -0.0037593841552734375, 1.49560546875, 1.318359375, 0.028656005859375, 1.490478515625
37693, 0.009037083946168423, 0.028415346518158913, 0.0005487497546710074, -0.0003885829064529389, -0.0002648515801411122, -0.09528655558824539, -0.0017501964466646314, -0.0007968544960021973, -0.25411105155944824, 0.19243276119232178, 0.5042641162872314, 0.05786815658211708, 1.3071657742054636, 0.6581311206766429, -6.137061438501771, 9362.0, 30146.0, 35388.0, 9362.0, 8.072728157043457, -0.8534728288650513, -0.7669340968132019, -14.157833099365234, 0.0334848016500473, -0.005693688057363033, 0.9623091816902161, -0.02373300865292549, -0.0037593841552734375, 1.49560546875, 1.318359375, 0.028656005859375, 1.490478515625
37713, 0.00957843754440546, 0.02627708949148655, 0.008208603598177433, -0.0003885829064529389, -0.0002648515801411122, -0.09528655558824539, -0.0017501964466646314, -0.0007968544960021973, -0.25411105155944824, 0.19243822991847992, 0.5042555928230286, 0.05784354358911514, 1.2928278809333433, 0.6546076642352432, -6.135603020242496, 9362.0, 30146.0, 35388.0, 9362.0, 8.072728157043457, -0.0662323534488678, -0.6379177570343018, -8.058130264282227, 0.030100665986537933, -0.011400028131902218, 0.9586267471313477, -0.024569222703576088, -0.05751800537109375, 1.4912109375, 1.318359375, 0.028656005859375, 1.490478515625
37843, 0.008159011602401733, 0.03660060092806816, 0.026974409818649292, -0.0007035686867311597, -0.00040276319487020373, -0.13725821673870087, -0.0024575211573392153, -0.0010219034738838673, -0.3050180673599243, 0.19243940711021423, 0.5042529106140137, 0.05785968154668808, 1.296767011340647, 0.6662733461718915, -6.147765024028028, 9362.0, 30146.0, 35388.0, 9362.0, 8.072728157043457, 0.06058630719780922, 0.052228279411792755, -10.826001167297363, 0.014231969602406025, -0.021667292341589928, 0.9694111347198486, -0.03524836525321007, -0.030637741088867188, 1.493408203125, 1.318359375, 0.028656005859375, 1.490478515625
37853, 0.008571085520088673, 0.03616943210363388, 0.11250301450490952, -0.0007795801502652466, -0.0004339971928857267, -0.1465747356414795, -0.0026115335058420897, -0.0010595667408779263, -0.3157772421836853, 0.1924370974302292, 0.5042455196380615, 0.057877957820892334, 1.2990893197583357, 0.65986760599327, -6.1398568357858245, 9362.0, 30146.0, 35388.0, 9362.0, 8.072728157043457, 0.3406218886375427, 0.5689209699630737, 15.567521095275879, 0.01928236335515976, -0.022387271746993065, 0.9721596240997314, -0.03524836525321007, -0.030637741088867188, 1.493408203125, 1.318359375, 0.028656005859375, 1.490478515625
37923, 0.008173491805791855, 0.041380852460861206, 0.11301510781049728, -0.0009474141988903284, -0.0004997385549359024, -0.16612578928470612, -0.0029871545266360044, -0.001125543611124158, -0.33574023842811584, 0.19244219362735748, 0.5042665004730225, 0.05789601802825928, 1.2992619773692016, 0.658084217811421, -6.136733609277034, 9362.0, 30146.0, 35388.0, 9362.0, 8.072728157043457, 0.3002665340900421, -0.9936273097991943, -10.645172119140625, 0.03256399184465408, -0.006902309134602547, 0.9646931886672974, -0.0037214988842606544, 0.09480094909667969, 1.503662109375, 1.318359375, 0.028656005859375, 1.49267578125
38003, 0.00535177206620574, 0.04171289503574371, 0.07098422944545746, -0.0012082398170605302, -0.0005934471846558154, -0.1940976232290268, -0.0035434451419860125, -0.001222766819410026, -0.36330923438072205, 0.19242720305919647, 0.5042713284492493, 0.057862963527441025, 1.2897211979885075, 0.6720536248881501, -6.137652850263368, 9362.0, 30146.0, 35388.0, 9362.0, 8.072728157043457, 0.07360184192657471, 0.09556543827056885, -10.871671676635742, 0.02465701289474964, -0.021575909107923508, 0.9680108428001404, -0.02456354722380638, -0.08439826965332031, 1.489013671875, 1.318359375, 0.028656005859375, 1.49267578125
38033, 0.004591971170157194, 0.04136303812265396, 0.07939503341913223, -0.0013555162586271763, -0.0006432010559365153, -0.2088974118232727, -0.0038223564624786377, -0.0012586710508912802, -0.37698113918304443, 0.19244424998760223, 0.5042677521705627, 0.05787568539381027, 1.2951460057019792, 0.6633901912006479, -6.140274256942219, 9362.0, 30146.0, 35388.0, 9362.0, 8.072728157043457, -0.75385981798172, -0.2656596601009369, -11.115747451782227, 0.02911980077624321, -0.014642090536653996, 0.9688680171966553, -0.02456354722380638, -0.08439826965332031, 1.489013671875, 1.318359375, 0.028656005859375, 1.49267578125
38053, 0.006651435978710651, 0.04117729514837265, 0.11056389659643173, -0.0014334056759253144, -0.00066850904840976, -0.21649785339832306, -0.003963887225836515, -0.001272682100534439, -0.3834751844406128, 0.19243685901165009, 0.5042610764503479, 0.05786973983049393, 1.3042548610584048, 0.6702474653115189, -6.132575801286196, 9362.0, 30146.0, 35388.0, 9362.0, 8.072728157043457, -0.75385981798172, -0.2656596601009369, -11.115747451782227, 0.011012603528797626, -0.010674232617020607, 0.9645443558692932, -0.02456354722380638, -0.08439826965332031, 1.489013671875, 1.318359375, 0.028656005859375, 1.49267578125
38083, 0.004115416668355465, 0.04514766484498978, 0.013972757384181023, -0.0014334056759253144, -0.00066850904840976, -0.21649785339832306, -0.003963887225836515, -0.001272682100534439, -0.3834751844406128, 0.19243039190769196, 0.5042572617530823, 0.05787327140569687, 1.2966481020255591, 0.663887270609564, -6.135605363474147, 9362.0, 30146.0, 35388.0, 9362.0, 8.072728157043457, 0.33549046516418457, 0.3937316834926605, -7.066983699798584, 0.014276630245149136, -0.02303001470863819, 0.970039427280426, -0.02698025293648243, -0.05751800537109375, 1.4912109375, 1.318359375, 0.028656005859375, 1.49267578125
38103, 0.0040076738223433495, 0.04381679370999336, 0.01962267979979515, -0.0014334056759253144, -0.00066850904840976, -0.21649785339832306, -0.003963887225836515, -0.001272682100534439, -0.3834751844406128, 0.19243980944156647, 0.5042518377304077, 0.057853732258081436, 1.2997392197605053, 0.6607970452341192, -6.140730493890308, 9362.0, 30146.0, 35388.0, 9362.0, 8.05289363861084, -0.15578201413154602, 0.7676038146018982, -11.359307289123535, 0.022813817486166954, -0.017993347719311714, 0.9602422714233398, -0.03905239701271057, -0.08439826965332031, 1.489013671875, 1.318359375, 0.028656005859375, 1.49267578125
38163, 0.0065361736342310905, 0.03622818738222122, 0.07857323437929153, -0.0017285223584622145, -0.000759816903155297, -0.2441825419664383, -0.004471094347536564, -0.0013349757064133883, -0.40738365054130554, 0.19242849946022034, 0.5042523145675659, 0.05784103274345398, 1.297102464305926, 0.6638890799311241, -6.143789872879245, 9362.0, 30146.0, 35388.0, 9362.0, 8.072728157043457, -0.9611561298370361, -0.6834138631820679, -13.589399337768555, 0.02855735458433628, -0.012017619796097279, 0.9667556881904602, -0.03780755400657654, 0.09480094909667969, 1.503662109375, 1.318359375, 0.028656005859375, 1.49267578125
38183, 0.0068773794919252396, 0.03578713908791542, 0.11250431090593338, -0.0017285223584622145, -0.000759816903155297, -0.2441825419664383, -0.004471094347536564, -0.0013349757064133883, -0.40738365054130554, 0.19244374334812164, 0.5042580366134644, 0.057882096618413925, 1.2942369519983572, 0.6736907197448829, -6.136162868932491, 9362.0, 30146.0, 35388.0, 9362.0, 8.072728157043457, 0.5148819088935852, 0.07788323611021042, 4.7568864822387695, 0.02855735458433628, -0.012017619796097279, 0.9667556881904602, -0.029599664732813835, -0.030637741088867188, 1.493408203125, 1.318359375, 0.028656005859375, 1.49267578125
38193, 0.005599367897957563, 0.03736516088247299, -0.0076775215566158295, -0.0017285223584622145, -0.000759816903155297, -0.2441825419664383, -0.004471094347536564, -0.0013349757064133883, -0.40738365054130554, 0.19242694973945618, 0.5042660236358643, 0.057901009917259216, 1.2891198107952024, 0.6589193793363961, -6.138624294815357, 9362.0, 30146.0, 35388.0, 9362.0, 8.072728157043457, 0.5148819088935852, 0.07788323611021042, 4.7568864822387695, 0.03617678955197334, -0.007785793859511614, 0.9581813216209412, -0.029599664732813835, -0.030637741088867188, 1.493408203125, 1.318359375, 0.028656005859375, 1.49267578125
38243, 0.004650162532925606, 0.04023372381925583, 0.06232364475727081, -0.002312521915882826, -0.0009259693324565887, -0.29553186893463135, -0.005247368477284908, -0.0014403265668079257, -0.44811493158340454, 0.19243642687797546, 0.504256546497345, 0.05787283182144165, 1.299922419866484, 0.6587234306247751, -6.138920315496245, 9362.0, 30146.0, 35388.0, 9362.0, 8.072728157043457, 1.157131552696228, 0.7393549680709839, 23.25437355041504, 0.023625006899237633, -0.020005812868475914, 0.9701614379882812, -0.05312073603272438, -0.09335899353027344, 1.48828125, 1.318359375, 0.028656005859375, 1.49267578125
38263, 0.0046500698663294315, 0.04362630471587181, 0.012756604701280594, -0.002312521915882826, -0.0009259693324565887, -0.29553186893463135, -0.005247368477284908, -0.0014403265668079257, -0.44811493158340454, 0.19243808090686798, 0.5042514204978943, 0.057860858738422394, 1.2987090480902206, 0.6607292716354038, -6.135979825520176, 9362.0, 30146.0, 35388.0, 9362.0, 8.072728157043457, -1.2082295417785645, -0.8074244260787964, -12.400501251220703, 0.03479492664337158, -0.012217598967254162, 0.9668357372283936, -0.027767645195126534, -0.07543754577636719, 1.48974609375, 1.318359375, 0.028656005859375, 1.49267578125
38293, 0.007621957920491695, 0.040225911885499954, 0.08680327236652374, -0.0025837160646915436, -0.0009990634862333536, -0.31835484504699707, -0.005601105280220509, -0.0014827518025413156, -0.46495723724365234, 0.19243627786636353, 0.5042389631271362, 0.057848989963531494, 1.3039353231292363, 0.6670409982166063, -6.137471904897971, 9362.0, 30146.0, 35388.0, 9362.0, 8.072728157043457, -0.7144973874092102, -0.5663215517997742, -10.681002616882324, 0.013765851967036724, -0.009925693273544312, 0.9701586961746216, -0.03640606254339218, 0.05896186828613281, 1.500732421875, 1.318359375, 0.028656005859375, 1.49267578125
38343, 0.006631202530115843, 0.03657913580536842, 0.01080236118286848, -0.0028131590224802494, -0.001059066504240036, -0.3372088074684143, -0.005867992527782917, -0.001522961538285017, -0.47780391573905945, 0.19244098663330078, 0.5042458772659302, 0.05786965787410736, 1.3080442346576813, 0.6596336226454298, -6.140642661558256, 9362.0, 30146.0, 35388.0, 9362.0, 8.072728157043457, 0.42728736996650696, 0.5112655758857727, 7.598403453826904, 0.027814146131277084, -0.015606674365699291, 0.9594536423683167, -0.048467159271240234, -0.10231781005859375, 1.487548828125, 1.318359375, 0.028656005859375, 1.49267578125
38373, 0.0057802144438028336, 0.03425239771604538, 0.06176650524139404, -0.0030528558418154716, -0.0011209860676899552, -0.3565957546234131, -0.006114700809121132, -0.0015744102420285344, -0.49120309948921204, 0.1924406737089157, 0.50424724817276, 0.05784597620368004, 1.2951093399321865, 0.6579217797538206, -6.136149180914464, 9362.0, 30146.0, 35388.0, 9362.0, 8.072728157043457, 0.6463732123374939, 0.030037032440304756, 19.995256423950195, 0.019408034160733223, -0.01778324507176876, 0.9619764089584351, -0.03764285519719124, -0.030637741088867188, 1.493408203125, 1.318359375, 0.028656005859375, 1.49267578125
38383, 0.007669194135814905, 0.03543680161237717, 0.04464675858616829, -0.0030528558418154716, -0.0011209860676899552, -0.3565957546234131, -0.006114700809121132, -0.0015744102420285344, -0.49120309948921204, 0.19243432581424713, 0.5042567253112793, 0.05785340070724487, 1.2969017259429516, 0.6639528720335477, -6.141983126082952, 9362.0, 30146.0, 35388.0, 9362.0, 8.072728157043457, -0.2953619956970215, -0.023095281794667244, -12.74913501739502, 0.014353262260556221, -0.009146072901785374, 0.9635784029960632, -0.03764285519719124, -0.030637741088867188, 1.493408203125, 1.318359375, 0.028656005859375, 1.49267578125
38393, 0.007241952698677778, 0.03596954420208931, 0.028492679819464684, -0.0030528558418154716, -0.0011209860676899552, -0.3565957546234131, -0.006114700809121132, -0.0015744102420285344, -0.49120309948921204, 0.19244615733623505, 0.504257082939148, 0.05785377323627472, 1.2944498986438673, 0.6675560179618287, -6.142652122059471, 9362.0, 30146.0, 35388.0, 9362.0, 8.072728157043457, 0.41292110085487366, 0.18120375275611877, 17.817638397216797, 0.029620099812746048, -0.017924517393112183, 0.9684081077575684, -0.03764285519719124, -0.030637741088867188, 1.493408203125, 1.318359375, 0.028656005859375, 1.49267578125
38423, 0.008901127614080906, 0.03590691089630127, 0.08828091621398926, -0.0033019878901541233, -0.0011847736313939095, -0.3765188455581665, -0.0063452450558543205, -0.0016178988153114915, -0.5045676827430725, 0.19244995713233948, 0.5042461156845093, 0.05787625163793564, 1.2911098170267261, 0.6675509643009718, -6.1373179731302985, 9362.0, 30146.0, 35388.0, 9362.0, 8.072728157043457, -0.5693466067314148, -0.4199375510215759, -14.414315223693848, 0.01152060180902481, -0.012991335242986679, 0.9674633145332336, -0.03878818452358246, -0.10231781005859375, 1.487548828125, 1.318359375, 0.028656005859375, 1.49267578125
38453, 0.0066398209892213345, 0.036898136138916016, 0.005333772394806147, -0.0035607037134468555, -0.001250462606549263, -0.3969753086566925, -0.006590364035218954, -0.0016672275960445404, -0.5182350873947144, 0.19243477284908295, 0.5042442679405212, 0.0578448511660099, 1.3019954468261221, 0.6586647799944387, -6.147475401156035, 9362.0, 30146.0, 35388.0, 9362.0, 8.072728157043457, -0.0932871550321579, -0.30539506673812866, -8.23176097869873, 0.011538155376911163, -0.016255538910627365, 0.9702317118644714, -0.035912346094846725, 0.11272048950195312, 1.505126953125, 1.318359375, 0.028656005859375, 1.49267578125
38463, 0.008187893778085709, 0.03832530975341797, 0.1093612089753151, -0.0035607037134468555, -0.001250462606549263, -0.3969753086566925, -0.006590364035218954, -0.0016672275960445404, -0.5182350873947144, 0.19244129955768585, 0.5042569041252136, 0.057849373668432236, 1.294541724282192, 0.6702290828043829, -6.1406948331855835, 9362.0, 30146.0, 35388.0, 9362.0, 8.072728157043457, 0.4461899995803833, 0.5220265984535217, 9.702971458435059, 0.012189052067697048, -0.02537507936358452, 0.972891092300415, -0.035912346094846725, 0.11272048950195312, 1.505126953125, 1.318359375, 0.028656005859375, 1.49267578125
38493, 0.004650737624615431, 0.03840739652514458, 0.04018576443195343, -0.0038291465025395155, -0.0013182146940380335, -0.4179665446281433, -0.006836987566202879, -0.0017157291295006871, -0.5315620303153992, 0.19243332743644714, 0.5042610764503479, 0.05786977708339691, 1.2942572321820904, 0.664074470212114, -6.137496823061785, 9362.0, 30146.0, 35388.0, 9362.0, 8.072728157043457, -0.20380671322345734, 0.1158357784152031, -12.00953197479248, 0.015503015369176865, -0.015445803292095661, 0.9615280032157898, -0.00018822513811755925, -0.030637741088867188, 1.493408203125, 1.318359375, 0.028656005859375, 1.49267578125
38513, 0.005970802623778582, 0.040299348533153534, 0.06047523766756058, -0.003967131953686476, -0.0013527566334232688, -0.4286611080169678, -0.006962092127650976, -0.0017359827179461718, -0.5383108854293823, 0.19242998957633972, 0.5042573809623718, 0.05784839019179344, 1.298792559298273, 0.6541968224759955, -6.139979882103434, 9362.0, 30146.0, 35388.0, 9362.0, 8.072728157043457, -0.8580729961395264, -0.4830530285835266, -14.261735916137695, 0.024788537994027138, -0.01997772976756096, 0.9680821895599365, -0.00018822513811755925, -0.030637741088867188, 1.493408203125, 1.318359375, 0.028656005859375, 1.49267578125
38533, 0.00698073348030448, 0.041996702551841736, 0.07799240201711655, -0.004107685759663582, -0.0013876743614673615, -0.4394930601119995, -0.007093563210219145, -0.0017557943938300014, -0.545240581035614, 0.19243544340133667, 0.5042509436607361, 0.057831913232803345, 1.3008654612669548, 0.66910492963612, -6.147649737053802, 9362.0, 30146.0, 35388.0, 9362.0, 8.072728157043457, -0.7880317568778992, -0.8265268206596375, -13.414801597595215, 0.013298256322741508, -0.005879026837646961, 0.9669557809829712, -0.04029623791575432, 0.05000114440917969, 1.5, 1.318359375, 0.028656005859375, 1.49267578125
38543, 0.0043914662674069405, 0.04302434250712395, 0.006715129129588604, -0.004107685759663582, -0.0013876743614673615, -0.4394930601119995, -0.007093563210219145, -0.0017557943938300014, -0.545240581035614, 0.19242259860038757, 0.5042612552642822, 0.057870473712682724, 1.2993271281248673, 0.6696948232649049, -6.141844223510749, 9362.0, 30146.0, 35388.0, 9362.0, 8.072728157043457, -0.7880317568778992, -0.8265268206596375, -13.414801597595215, 0.031620144844055176, -0.0041889613494277, 0.9630753993988037, -0.04029623791575432, 0.05000114440917969, 1.5, 1.318359375, 0.028656005859375, 1.49267578125
38563, 0.0022621816024184227, 0.04393794387578964, -0.004940991289913654, -0.004323659930378199, -0.0014407713897526264, -0.4559955298900604, -0.007304956205189228, -0.001783235464245081, -0.5551551580429077, 0.19243453443050385, 0.5042539834976196, 0.05782966688275337, 1.295654248769149, 0.6638091251267326, -6.131838918161163, 9362.0, 30146.0, 35388.0, 9362.0, 8.072728157043457, -0.7880317568778992, -0.8265268206596375, -13.414801597595215, 0.038503650575876236, -0.003913391847163439, 0.9602817296981812, -0.028721220791339874, -0.10231781005859375, 1.487548828125, 1.318359375, 0.028656005859375, 1.49267578125
38643, 0.004273698665201664, 0.04359100013971329, 0.06246313825249672, -0.004930850118398666, -0.001585578196682036, -0.5015165209770203, -0.007882668636739254, -0.0018302648095414042, -0.5830892324447632, 0.19243541359901428, 0.5042548179626465, 0.057884640991687775, 1.2932082103683398, 0.6711124088514566, -6.142147050201977, 9362.0, 30146.0, 35388.0, 9362.0, 8.072728157043457, -0.432411789894104, -0.35501760244369507, -14.712014198303223, 0.02613718807697296, -0.021527191624045372, 0.9658078551292419, -0.04587181285023689, -0.08439826965332031, 1.489013671875, 1.318359375, 0.028656005859375, 1.49267578125
38663, 0.00377806113101542, 0.045459676533937454, 0.07551028579473495, -0.004930850118398666, -0.001585578196682036, -0.5015165209770203, -0.007882668636739254, -0.0018302648095414042, -0.5830892324447632, 0.19243760406970978, 0.504246175289154, 0.05785009264945984, 1.298887319669764, 0.6691452018201289, -6.137442904785035, 9362.0, 30146.0, 35388.0, 9362.0, 8.072728157043457, -0.9834247827529907, -0.7917933464050293, -15.463033676147461, 0.02613718807697296, -0.021527191624045372, 0.9658078551292419, -0.007548205088824034, -0.01271820068359375, 1.494873046875, 1.318359375, 0.028656005859375, 1.49267578125
38673, 0.002610862720757723, 0.045659299939870834, 0.004087379202246666, -0.004930850118398666, -0.001585578196682036, -0.5015165209770203, -0.007882668636739254, -0.0018302648095414042, -0.5830892324447632, 0.19244162738323212, 0.5042561292648315, 0.05785601958632469, 1.2964903887931873, 0.6585072099572358, -6.141168921362692, 9362.0, 30146.0, 35388.0, 9362.0, 8.072728157043457, -0.05894345045089722, -0.036880336701869965, 4.951746940612793, 0.034185364842414856, -0.005708248820155859, 0.9657149314880371, -0.032094117254018784, -0.07543754577636719, 1.48974609375, 1.318359375, 0.028656005859375, 1.49267578125
38683, 0.0059303841553628445, 0.043822869658470154, 0.10474206507205963, -0.004930850118398666, -0.001585578196682036, -0.5015165209770203, -0.007882668636739254, -0.0018302648095414042, -0.5830892324447632, 0.19244171679019928, 0.5042616128921509, 0.057863324880599976, 1.2862743717312763, 0.6725396910170787, -6.146254339768634, 9362.0, 30146.0, 35388.0, 9362.0, 8.072728157043457, -0.022509930655360222, -0.189352348446846, -10.034117698669434, 0.00852938648313284, -0.009326167404651642, 0.9665119647979736, -0.038023579865694046, -0.05751800537109375, 1.4912109375, 1.318359375, 0.028656005859375, 1.49267578125
38693, 0.0025380419101566076, 0.044651810079813004, -0.008780518546700478, -0.005334125831723213, -0.0016778202261775732, -0.5311045050621033, -0.008251900784671307, -0.0018580175237730145, -0.6002427339553833, 0.1924426406621933, 0.5042650699615479, 0.05787570774555206, 1.2914905820101605, 0.673015077607289, -6.1402920551060385, 9362.0, 30146.0, 35388.0, 9362.0, 8.072728157043457, -0.5581902265548706, -0.7782480716705322, 0.7678840756416321, 0.03581160306930542, -0.002025058027356863, 0.9607028365135193, -0.03182637318968773, 0.0052013397216796875, 1.496337890625, 1.318359375, 0.028656005859375, 1.49267578125
38703, 0.007934777066111565, 0.04152185097336769, 0.10558690130710602, -0.0054170056246221066, -0.001696449937298894, -0.5371255278587341, -0.008324016816914082, -0.001867990242317319, -0.603961169719696, 0.19244705140590668, 0.5042638182640076, 0.05786395072937012, 1.2981502671438332, 0.6621389082769724, -6.140906062260709, 9362.0, 30146.0, 35388.0, 9362.0, 8.072728157043457, -0.1438094675540924, -0.034088291227817535, -6.577960014343262, 0.013767346739768982, -0.015092763118445873, 0.9713007211685181, -0.030619684606790543, -0.07543754577636719, 1.48974609375, 1.318359375, 0.028656005859375, 1.49267578125
38723, 0.005405857693403959, 0.03902588412165642, 0.09885945916175842, -0.005584939382970333, -0.001733936951495707, -0.5492700338363647, -0.008466665633022785, -0.001885299920104444, -0.610511839389801, 0.19244585931301117, 0.504245400428772, 0.057839080691337585, 1.3013217676418583, 0.6686457819830309, -6.142419207495504, 9362.0, 30146.0, 35388.0, 9362.0, 8.072728157043457, -0.10056087374687195, 0.7400259375572205, 15.346466064453125, 0.012120850384235382, -0.02515493519604206, 0.9698821902275085, -0.042075034230947495, -0.10231781005859375, 1.487548828125, 1.318359375, 0.028656005859375, 1.49267578125
38743, 0.006432913243770599, 0.03740553557872772, 0.0917564183473587, -0.005755663383752108, -0.001771814888343215, -0.5615474581718445, -0.008602526038885117, -0.0019027473172172904, -0.6171920299530029, 0.1924387812614441, 0.5042599439620972, 0.057847559452056885, 1.2935133002107806, 0.664634314075073, -6.139570822156346, 9362.0, 30146.0, 35388.0, 9362.0, 8.072728157043457, 0.9783315658569336, 0.5123343467712402, 19.1066837310791, 0.016335314139723778, -0.022374281659722328, 0.9715979695320129, -0.031041812151670456, -0.03959846496582031, 1.49267578125, 1.318359375, 0.028656005859375, 1.49267578125
38753, 0.004174212459474802, 0.037053223699331284, 0.038554612547159195, -0.005755663383752108, -0.001771814888343215, -0.5615474581718445, -0.008602526038885117, -0.0019027473172172904, -0.6171920299530029, 0.1924353539943695, 0.504248857498169, 0.05783551186323166, 1.2987224692678585, 0.6631881788129306, -6.141777467735547, 9362.0, 30146.0, 35388.0, 9362.0, 8.072728157043457, -0.47893205285072327, 0.19850647449493408, -9.120401382446289, 0.018629811704158783, -0.01015351340174675, 0.9613122940063477, -0.031041812151670456, -0.03959846496582031, 1.49267578125, 1.318359375, 0.028656005859375, 1.49267578125
38763, 0.006409297697246075, 0.03644530847668648, 0.04053483158349991, -0.005755663383752108, -0.001771814888343215, -0.5615474581718445, -0.008602526038885117, -0.0019027473172172904, -0.6171920299530029, 0.1924402117729187, 0.5042533278465271, 0.05784650519490242, 1.3030426942340034, 0.6682421811755432, -6.145990378215877, 9362.0, 30146.0, 35388.0, 9362.0, 8.072728157043457, -0.47893205285072327, 0.19850647449493408, -9.120401382446289, 0.02900039777159691, -0.022404875606298447, 0.9690716862678528, -0.031041812151670456, -0.03959846496582031, 1.49267578125, 1.318359375, 0.028656005859375, 1.49267578125
38793, 0.007176909130066633, 0.02865193411707878, 0.0802292749285698, -0.006104770582169294, -0.0018486498156562448, -0.5865063667297363, -0.008850183337926865, -0.0019395584240555763, -0.6304997801780701, 0.1924317330121994, 0.5042650103569031, 0.057844970375299454, 1.297554874292529, 0.6662141433707234, -6.133794952495662, 9362.0, 30146.0, 35388.0, 9362.0, 8.072728157043457, 0.5036858916282654, 0.30690935254096985, 13.234637260437012, 0.015928076580166817, -0.007488533388823271, 0.9662639498710632, -0.04260849952697754, -0.0037593841552734375, 1.49560546875, 1.318359375, 0.028656005859375, 1.49267578125
38803, 0.0053725894540548325, 0.027814194560050964, 0.009324982762336731, -0.006104770582169294, -0.0018486498156562448, -0.5865063667297363, -0.008850183337926865, -0.0019395584240555763, -0.6304997801780701, 0.19242365658283234, 0.5042526721954346, 0.057871848344802856, 1.2997255637132021, 0.6535652898151056, -6.146887514556325, 9362.0, 30146.0, 35388.0, 9362.0, 8.072728157043457, -0.3135574460029602, -0.5701026320457458, -1.5196150541305542, 0.03109423816204071, -0.0029237198177725077, 0.9610188603401184, -0.04260849952697754, -0.0037593841552734375, 1.49560546875, 1.318359375, 0.028656005859375, 1.49560546875
38823, 0.00512220524251461, 0.02430402673780918, -0.001161852735094726, -0.006104770582169294, -0.0018486498156562448, -0.5865063667297363, -0.008850183337926865, -0.0019395584240555763, -0.6304997801780701, 0.19244059920310974, 0.5042620897293091, 0.05783771723508835, 1.3035630009649988, 0.6549447077049422, -6.144119851300408, 9362.0, 30146.0, 35388.0, 9362.0, 8.072728157043457, 0.5353367328643799, 0.05613566190004349, -3.2862446308135986, 0.032110098749399185, -0.008518471382558346, 0.9604141116142273, -0.027959883213043213, -0.05751800537109375, 1.4912109375, 1.318359375, 0.028656005859375, 1.49560546875
38933, 0.00428268127143383, 0.028476715087890625, 0.007307927589863539, -0.007483670953661203, -0.0021512117236852646, -0.6849489808082581, -0.00952243898063898, -0.0020821811631321907, -0.6816546320915222, 0.19244183599948883, 0.5042536854743958, 0.057867273688316345, 1.2988071511286214, 0.6666667318672808, -6.1429568591967865, 9362.0, 30146.0, 35388.0, 9362.0, 8.072728157043457, 0.27328789234161377, 0.17185668647289276, -4.278283596038818, 0.013041962869465351, -0.015254279598593712, 0.9687052965164185, -0.001389204990118742, -0.06647872924804688, 1.490478515625, 1.318359375, 0.028656005859375, 1.49560546875
