timeTick, roll, pitch, yaw, stateX, stateY, stateZ, stateVX, stateVY, stateVZ, otX0, otY0, otZ0, otRoll0, otPitch0, otYaw0, left wing, pitch motor, yaw motor, right wing, voltage, roll rate, pitch rate, yaw rate, A_x, A_y, A_z, current, i_raw, v_raw, airflow_voltage, airflow_speed, pot_Pitch
26680, 0.0029395611491054296, 0.0009632125147618353, 0.0496344119310379, 0, 0, 0, 0, 0, 0, 0.17511534690856934, 0.5627335906028748, 0.056460004299879074, -0.20879539093316457, 0.8257974516834281, -9.958001344210436, 0, 0, 0, 0, 0, 0, 0, 0, 0, 0, 0, 0, 0, 0, 0, 0, 0
26690, -0.003092722734436393, -0.0012735011987388134, 0.0519840382039547, 0.0, 0.0, -1.8798396922647953e-05, 6.303771726834384e-08, 1.9294475350761786e-07, -0.0037596721667796373, 0.175115704536438, 0.5627464056015015, 0.05645112693309784, -0.20690160805744662, 0.8140307388669044, -9.951793727929804, 9362.0, 30146.0, 35388.0, 9362.0, 7.933885097503662, 1.6210421323776245, -0.39578908681869507, -5.995982646942139, 0.016885144636034966, -0.05934493988752365, 0.9661296606063843, -0.027130521833896637, -0.05751800537109375, 1.4912109375, 0, 0, 0
26700, -0.003038321854546666, 0.000621325452812016, 0.014528763480484486, -7.310281713301947e-09, -2.237518437198105e-08, -7.330125663429499e-05, -1.6565581972827204e-06, -5.024100119044306e-06, -0.0071405149064958096, 0.17511355876922607, 0.5627480149269104, 0.05645066872239113, -0.2031794458115658, 0.8224929128321321, -9.95844213519488, 9362.0, 30146.0, 35388.0, 9362.0, 7.9537200927734375, 0.19424737989902496, -0.10208814591169357, 10.507871627807617, 0.0167740099132061, -0.043276283890008926, 0.9629898071289062, -0.033716436475515366, -0.04855918884277344, 1.491943359375, 1.289794921875, 0.065032958984375, 1.49853515625
26710, -0.0011106485035270452, 0.0020466141868382692, 0.004640460014343262, -1.3368014251113891e-08, -4.703180778165006e-08, -0.0001614071661606431, 5.587970122178376e-07, 9.467505890370376e-08, -0.010480282828211784, 0.1751118302345276, 0.5627568960189819, 0.05644483119249344, -0.2119196840858406, 0.8208674996992329, -9.948987048032189, 9362.0, 30146.0, 35388.0, 9362.0, 7.9537200927734375, -1.2372331619262695, 0.4081776738166809, 6.7690863609313965, 0.030651090666651726, -0.04667755216360092, 0.9661175608634949, -0.08572227507829666, -2.1631088256835938, 1.319091796875, 1.29931640625, 0.0500640869140625, 1.494873046875
26720, -0.0017903521656990051, -1.4294631910161115e-05, 0.06250568479299545, -1.2919632474961418e-08, -2.0984616710961745e-08, -0.0002833487233147025, -3.8304148120005266e-07, 5.2302711992524564e-06, -0.013907630927860737, 0.1751064956188202, 0.562750518321991, 0.05644558370113373, -0.21320823915052506, 0.8182254697688336, -9.951028258986659, 9362.0, 30146.0, 35388.0, 9362.0, 7.9537200927734375, -0.4837146997451782, -0.9287391901016235, -15.044097900390625, 0.014482108876109123, -0.06434135138988495, 0.9661933183670044, -0.07494426518678665, -0.07543754577636719, 1.48974609375, 1.294189453125, 0.0578155517578125, 1.491943359375
26730, -0.0077993725426495075, 0.004681543912738562, 0.029674092307686806, -3.363864919947446e-08, 4.048135338052816e-08, -0.0004401436308398843, -3.890090738423169e-06, 7.017595180514036e-06, -0.017450956627726555, 0.17513397336006165, 0.5627430081367493, 0.05645656958222389, -0.209711534660056, 0.8248414140066416, -9.957173767092089, 9362.0, 30146.0, 35388.0, 9362.0, 7.9537200927734375, 1.7857784032821655, -0.3027321696281433, 4.964282989501953, 0.010982317849993706, -0.055665940046310425, 0.9643340706825256, -0.0706828236579895, -0.05751800537109375, 1.4912109375, 1.332275390625, 0.019561767578125, 1.497802734375
26740, -0.006222252268344164, 0.008658112958073616, 0.011476115323603153, -7.243748001428685e-08, 1.2546462357931887e-07, -0.0006312852492555976, -3.5947139167546993e-06, 9.630818567529786e-06, -0.020776983350515366, 0.17510990798473358, 0.5627344250679016, 0.05643054097890854, -0.209046192162619, 0.816598839119564, -9.947573917908556, 9362.0, 30146.0, 35388.0, 9362.0, 7.9537200927734375, -0.2635292708873749, 0.5550193190574646, 9.35123348236084, 0.023591795936226845, -0.03795556724071503, 0.960996687412262, -0.04465535283088684, -0.03959846496582031, 1.49267578125, 1.32861328125, 0.0214385986328125, 1.494873046875
26750, -0.0023640955332666636, 0.005869555287063122, 0.02513795532286167, -1.4708173523558798e-07, 2.861658288111357e-07, -0.0008563637966290116, -1.1089958206866868e-05, 2.2607420760323294e-05, -0.024238336831331253, 0.1751234084367752, 0.562749981880188, 0.056452687829732895, -0.21000205659162224, 0.8106861599466129, -9.952917640071634, 9362.0, 30146.0, 35388.0, 9362.0, 7.933885097503662, -1.20119047164917, 0.10921230912208557, -1.5621185302734375, 0.02517179399728775, -0.04430268332362175, 0.9677594304084778, -0.021932151168584824, 0.11272048950195312, 1.505126953125, 1.318359375, 0.028656005859375, 1.50146484375
26760, -0.005513963755220175, 0.0022110450081527233, 0.06219888851046562, -3.293816632776725e-07, 5.635309321405657e-07, -0.001116818399168551, -2.55482427746756e-05, 3.310556712676771e-05, -0.027852196246385574, 0.1751205027103424, 0.5627424120903015, 0.056449227035045624, -0.20647694703232164, 0.8139384379331602, -9.959306995751719, 9362.0, 30146.0, 35388.0, 9362.0, 7.933885097503662, 0.23714812099933624, -0.38646435737609863, -13.041682243347168, 0.01729857549071312, -0.05609407648444176, 0.9645550847053528, -0.02354416437447071, -0.05751800537109375, 1.4912109375, 1.32568359375, 0.0232086181640625, 1.494873046875
26770, -0.00916991289705038, 0.0044351862743496895, 0.033707160502672195, -6.333567625915748e-07, 9.140933343587676e-07, -0.0014125625602900982, -3.546946754795499e-05, 3.6811681638937443e-05, -0.0312962606549263, 0.17512300610542297, 0.5627365112304688, 0.05646253004670143, -0.20828883365962497, 0.8202527462197224, -9.953055053482476, 9362.0, 30146.0, 35388.0, 9362.0, 7.9537200927734375, 1.5615522861480713, -0.11120563745498657, 6.4358954429626465, 0.012413350865244865, -0.04836644232273102, 0.9600942730903625, -0.0293019637465477, -0.06647872924804688, 1.490478515625, 1.3095703125, 0.037139892578125, 1.494140625
26780, -0.006051616743206978, 0.006527754012495279, 0.007604155223816633, -1.0063496347356704e-06, 1.3276996924105333e-06, -0.001743135740980506, -3.898729119100608e-05, 4.568713120534085e-05, -0.034818004816770554, 0.17512564361095428, 0.5627458095550537, 0.05645143240690231, -0.2125234190247631, 0.8135609679171978, -9.957294745458427, 9362.0, 30146.0, 35388.0, 9362.0, 7.9537200927734375, -0.49199873208999634, 0.5836090445518494, 9.481797218322754, 0.027943085879087448, -0.04028532654047012, 0.9604800939559937, -0.03583935275673866, -0.05751800537109375, 1.4912109375, 1.3212890625, 0.026214599609375, 1.493408203125
26790, -0.0030811752658337355, 0.005894774571061134, 0.038410428911447525, -1.4327490589494118e-06, 1.8599777149574948e-06, -0.0021105227060616016, -4.6145938540576026e-05, 6.098110316088423e-05, -0.03865901008248329, 0.1751158982515335, 0.562760591506958, 0.05646279454231262, -0.2036796252442508, 0.8262544506161476, -9.958719131079832, 9362.0, 30146.0, 35388.0, 9362.0, 7.9537200927734375, -1.2950586080551147, -0.0671633929014206, -6.598316192626953, 0.02581913024187088, -0.046921469271183014, 0.965518593788147, -0.03966734930872917, -0.021678924560546875, 1.494140625, 1.319091796875, 0.0279998779296875, 1.4970703125
26800, -0.006137452553957701, 0.0031557388138026, 0.06522047519683838, -1.9479314232739853e-06, 2.5195799935318064e-06, -0.0025161311496049166, -5.693750426871702e-05, 7.113076571840793e-05, -0.04246227443218231, 0.1751335710287094, 0.5627471208572388, 0.05647403001785278, -0.20884459762864307, 0.8223903188581119, -9.967134713453556, 9362.0, 30146.0, 35388.0, 9362.0, 7.933885097503662, 1.116901159286499, -0.45969298481941223, -7.973871231079102, 0.010932980105280876, -0.061374563723802567, 0.9646202921867371, -0.04445263370871544, -0.08439826965332031, 1.489013671875, 1.3212890625, 0.026214599609375, 1.49853515625
26810, -0.009133759886026382, 0.005489789415150881, 0.017428217455744743, -2.5659769562480506e-06, 3.256285936004133e-06, -0.0029583540745079517, -6.684253457933664e-05, 7.601847755722702e-05, -0.045981939882040024, 0.17510829865932465, 0.562749981880188, 0.0564303919672966, -0.20821594152770573, 0.8153560352417628, -9.9542100467922, 9362.0, 30146.0, 35388.0, 9362.0, 7.933885097503662, 0.935541033744812, 0.13779330253601074, 11.434823036193848, 0.019204238429665565, -0.04143452271819115, 0.9632648825645447, -0.02385854907333851, -0.0037593841552734375, 1.49560546875, 1.318359375, 0.028656005859375, 1.491943359375
26820, -0.0037347041070461273, 0.0076200286857783794, 0.01851494424045086, -3.2605398700980004e-06, 4.0671625356480945e-06, -0.0034351672511547804, -7.192214980022982e-05, 8.598435670137405e-05, -0.04938032850623131, 0.17512565851211548, 0.5627471208572388, 0.05642664059996605, -0.20329495785799429, 0.82350964001526, -9.951045769659991, 9362.0, 30146.0, 35388.0, 9362.0, 7.933885097503662, -0.6713140606880188, 0.44804614782333374, 7.282229423522949, 0.02628302574157715, -0.0430116206407547, 0.9654654264450073, -0.024225423112511635, -0.06647872924804688, 1.490478515625, 1.323486328125, 0.024688720703125, 1.491943359375
26830, -0.0005920110852457583, 0.0069944350980222225, 0.05349451303482056, -4.025164798804326e-06, 5.002494617656339e-06, -0.003945846110582352, -8.087774767773226e-05, 0.00010139982623513788, -0.052755001932382584, 0.17513330280780792, 0.5627472996711731, 0.056456517428159714, -0.2084658333496791, 0.8195362744283443, -9.956235214000843, 9362.0, 30146.0, 35388.0, 9362.0, 7.9537200927734375, -0.9266031980514526, -0.12711428105831146, -11.16218376159668, 0.0211076270788908, -0.05420596897602081, 0.9655268788337708, -0.03454340994358063, -0.07543754577636719, 1.48974609375, 1.327880859375, 0.0218353271484375, 1.494873046875
26840, -0.004283617716282606, 0.0038498234935104847, 0.05999663099646568, -4.8968399823934305e-06, 6.047294846212026e-06, -0.004491038154810667, -9.349884930998087e-05, 0.00010774612746899948, -0.05628298595547676, 0.1751251518726349, 0.5627506971359253, 0.05643345043063164, -0.20898316213483858, 0.8326279869076814, -9.956694236094336, 9362.0, 30146.0, 35388.0, 9362.0, 7.9537200927734375, 1.3600497245788574, -0.33546680212020874, -6.584733486175537, 0.012348241172730923, -0.06387659907341003, 0.9658098816871643, -0.03963567316532135, -0.06647872924804688, 1.490478515625, 1.3154296875, 0.03118896484375, 1.493408203125
26850, -0.004085993859916925, 0.0065435199066996574, 0.02003742754459381, -5.889633030164987e-06, 7.129594450816512e-06, -0.0050708940252661705, -0.00010524662502575666, 0.0001084931573132053, -0.0596877746284008, 0.175129234790802, 0.5627551078796387, 0.056428488343954086, -0.20433692764721462, 0.8205439207987979, -9.95262114743412, 9362.0, 30146.0, 35388.0, 9362.0, 7.9537200927734375, 0.34585440158843994, 0.07194286584854126, 12.03860092163086, 0.01947708986699581, -0.040227051824331284, 0.960189938545227, -0.029061701148748398, -0.05751800537109375, 1.4912109375, 1.3212890625, 0.026214599609375, 1.496337890625
26860, -0.00010317134001525119, 0.008173415437340736, 0.019942909479141235, -6.973945801291848e-06, 8.249886377598159e-06, -0.0056848605163395405, -0.00011145051394123584, 0.00011558253754628822, -0.06310512870550156, 0.17513935267925262, 0.562742292881012, 0.05642473325133324, -0.21277382983653942, 0.8184358279646631, -9.954227859619275, 9362.0, 30146.0, 35388.0, 9362.0, 7.933885097503662, -1.1217458248138428, 0.2971946895122528, 3.8303356170654297, 0.029839981347322464, -0.04005372151732445, 0.9655213952064514, -0.013094531372189522, 0.05896186828613281, 1.500732421875, 1.326416015625, 0.022705078125, 1.494873046875
26870, 0.0011028102599084377, 0.009466794319450855, 0.05046715959906578, -8.14241502666846e-06, 9.43938266573241e-06, -0.006333997473120689, -0.00012214062735438347, 0.0001225680607603863, -0.06672193109989166, 0.17512503266334534, 0.5627442598342896, 0.05642564594745636, -0.21289286970573698, 0.8254866338634486, -9.952969449073203, 9362.0, 30146.0, 35388.0, 9362.0, 7.933885097503662, -0.7939631938934326, -0.859616756439209, -10.340747833251953, 0.02211068570613861, -0.04812956228852272, 0.966235339641571, -0.024178409948945045, -0.10231781005859375, 1.487548828125, 1.33154296875, 0.0198516845703125, 1.494140625
26880, -0.0021624835208058357, 0.011403326876461506, 0.05816321820020676, -9.431268154003192e-06, 1.066589084075531e-05, -0.00701891491189599, -0.00013554998440667987, 0.00012280061491765082, -0.0702611580491066, 0.17512713372707367, 0.5627560019493103, 0.05643222853541374, -0.21028315449202675, 0.8158799371006467, -9.95741586251023, 9362.0, 30146.0, 35388.0, 9362.0, 7.933885097503662, 1.5991967916488647, 0.20179714262485504, -5.209999084472656, 0.01026685256510973, -0.05316091328859329, 0.9637372493743896, -0.03038174659013748, -0.05751800537109375, 1.4912109375, 1.318359375, 0.028656005859375, 1.4970703125
26890, -0.0019804437179118395, 0.012009624391794205, 0.008957265876233578, -1.0864995601878036e-05, 1.188471469504293e-05, -0.0077385203912854195, -0.00015108058869373053, 0.0001207683453685604, -0.07365959137678146, 0.17513832449913025, 0.5627464652061462, 0.05643783137202263, -0.21140399958499775, 0.8219169496960035, -9.955592505189195, 9362.0, 30146.0, 35388.0, 9362.0, 7.9537200927734375, 0.19151929020881653, 0.10934557765722275, 13.097723960876465, 0.017021548002958298, -0.03764001280069351, 0.9632207751274109, -0.03495693951845169, -0.06647872924804688, 1.490478515625, 1.317626953125, 0.0291900634765625, 1.49853515625
26900, -6.527418008772656e-05, 0.01277140248566866, 0.0170286912471056, -1.2469925422919914e-05, 1.3110148756823037e-05, -0.008492780849337578, -0.00016986523405648768, 0.00012434617383405566, -0.07719212025403976, 0.17514164745807648, 0.5627549886703491, 0.0564374215900898, -0.20411752429556257, 0.8216632435811562, -9.960988573723965, 9362.0, 30146.0, 35388.0, 9362.0, 7.9537200927734375, -0.8582860231399536, 0.12074417620897293, 4.374059200286865, 0.02793998084962368, -0.04126988351345062, 0.9638921022415161, -0.02959519624710083, 0.10376167297363281, 1.50439453125, 1.31396484375, 0.0325469970703125, 1.4970703125
26910, 0.0016068571712821722, 0.011937026865780354, 0.05336207151412964, -1.426784092473099e-05, 1.4369963537319563e-05, -0.009281650185585022, -0.0001896730827866122, 0.00012772713671438396, -0.08058132231235504, 0.17513355612754822, 0.5627506971359253, 0.05640696734189987, -0.2045093850193926, 0.8192311820421025, -9.951112538394236, 9362.0, 30146.0, 35388.0, 9362.0, 7.9537200927734375, -1.1511427164077759, -0.9246062636375427, -12.664249420166016, 0.02305504120886326, -0.052390243858098984, 0.963570237159729, -0.011076249182224274, 0.014162063598632812, 1.4970703125, 1.2978515625, 0.05224609375, 1.49267578125
26920, -0.0042485324665904045, 0.014345038682222366, 0.04866749420762062, -1.626974335522391e-05, 1.5647741747670807e-05, -0.010106140747666359, -0.00021076110715512186, 0.0001279243442695588, -0.08431636542081833, 0.17512810230255127, 0.5627651810646057, 0.056428927928209305, -0.2103115327568512, 0.8188510068673622, -9.952959710487622, 9362.0, 30146.0, 35388.0, 9362.0, 7.933885097503662, 1.713924765586853, -0.1763686090707779, -3.7407612800598145, 0.015633858740329742, -0.05769721418619156, 0.9643622636795044, -0.01882498897612095, -0.08439826965332031, 1.489013671875, 1.295654296875, 0.05548095703125, 1.5
26930, -0.0027892091311514378, 0.01537682767957449, 0.013677116483449936, -1.847587373049464e-05, 1.691362922429107e-05, -0.010966870002448559, -0.00023031698947306722, 0.00012489643995650113, -0.08782918006181717, 0.17512300610542297, 0.5627586841583252, 0.056408949196338654, -0.21508162857124205, 0.821863003358942, -9.956284164209379, 9362.0, 30146.0, 35388.0, 9362.0, 7.9537200927734375, 0.34856873750686646, 0.33405637741088867, 11.362332344055176, 0.022082321345806122, -0.03742609918117523, 0.959038496017456, -0.03266081213951111, -0.13815879821777344, 1.484619140625, 1.30517578125, 0.0422515869140625, 1.497802734375
26940, 0.0022142590023577213, 0.016085850074887276, 0.012708762660622597, -2.0897427020827308e-05, 1.819754470488988e-05, -0.011862942017614841, -0.00025392623501829803, 0.00013199233217164874, -0.09138478338718414, 0.1751306802034378, 0.5627431273460388, 0.05642832815647125, -0.2067327258698617, 0.8192275326480569, -9.947720743771873, 9362.0, 30146.0, 35388.0, 9362.0, 7.9537200927734375, -1.1364670991897583, 0.23417676985263824, 4.040927410125732, 0.03087432309985161, -0.04413047060370445, 0.9671506285667419, -0.037539102137088776, -0.04855918884277344, 1.491943359375, 1.298583984375, 0.051055908203125, 1.493408203125
26950, 0.0018594817956909537, 0.016209125518798828, 0.05971768870949745, -2.356331424380187e-05, 1.954040453711059e-05, -0.012795491144061089, -0.0002792051527649164, 0.00013690663035959005, -0.09512466192245483, 0.17511814832687378, 0.5627473592758179, 0.0564030259847641, -0.2123491700953114, 0.8236167719633727, -9.955323961172786, 9362.0, 30146.0, 35388.0, 9362.0, 7.9537200927734375, -0.6221845746040344, -0.7193691730499268, -14.38098430633545, 0.02184341289103031, -0.05977000668644905, 0.966109037399292, -0.04321971535682678, -0.11127853393554688, 1.48681640625, 1.30224609375, 0.0460052490234375, 1.493408203125
26960, -0.002803877927362919, 0.01713409647345543, 0.04125663638114929, -2.6488272851565853e-05, 2.0891146050416864e-05, -0.013763821683824062, -0.00030577671714127064, 0.0001331986131845042, -0.09854108840227127, 0.1751364916563034, 0.5627507567405701, 0.05641920119524002, -0.21104885196789033, 0.8186577359945773, -9.943502027591736, 9362.0, 30146.0, 35388.0, 9362.0, 7.9537200927734375, 1.8513967990875244, 0.21484488248825073, 0.8898288011550903, 0.012523631565272808, -0.05557846650481224, 0.9623143076896667, -0.044133830815553665, -0.06647872924804688, 1.490478515625, 1.307373046875, 0.039581298828125, 1.493408203125
26980, 0.005148702766746283, 0.019006429240107536, 0.014346156269311905, -2.9680037187063135e-05, 2.220761962234974e-05, -0.014766027219593525, -0.0003325213911011815, 0.00012983173655811697, -0.10189962387084961, 0.17513629794120789, 0.5627515912055969, 0.05643916502594948, -0.20677319978384934, 0.8174483497330698, -9.950239748544487, 9362.0, 30146.0, 35388.0, 9362.0, 7.9537200927734375, -0.9731952548027039, -0.14073166251182556, 3.6295738220214844, 0.02733813226222992, -0.044543929398059845, 0.9669076204299927, -0.004955548793077469, -0.11127853393554688, 1.48681640625, 1.297119140625, 0.0532379150390625, 1.4970703125
27020, 0.005570194683969021, 0.02264336869120598, 0.02747269533574581, -2.9680037187063135e-05, 2.220761962234974e-05, -0.014766027219593525, -0.0003325213911011815, 0.00012983173655811697, -0.10189962387084961, 0.17512977123260498, 0.5627444386482239, 0.056449636816978455, -0.20999863312776545, 0.8221733114797587, -9.950512616935008, 9362.0, 30146.0, 35388.0, 9362.0, 7.9537200927734375, -0.14400233328342438, 0.498064249753952, 10.248790740966797, 0.016595330089330673, -0.05490579828619957, 0.9644240140914917, -0.028052907437086105, 0.05000114440917969, 1.5, 1.2978515625, 0.05224609375, 1.4970703125
27030, 0.0008184470934793353, 0.021450534462928772, 0.06191796436905861, -2.9680037187063135e-05, 2.220761962234974e-05, -0.014766027219593525, -0.0003325213911011815, 0.00012983173655811697, -0.10189962387084961, 0.17511962354183197, 0.5627506971359253, 0.0564185194671154, -0.20972219095200803, 0.8184404449636986, -9.954676002272064, 9362.0, 30146.0, 35388.0, 9362.0, 7.9537200927734375, -0.14400233328342438, 0.498064249753952, 10.248790740966797, 0.01326028537005186, -0.05765952914953232, 0.9643806219100952, -0.028052907437086105, 0.05000114440917969, 1.5, 1.2978515625, 0.05224609375, 1.4970703125
27040, -0.0012789733009412885, 0.024726450443267822, 0.014084963127970695, -2.9680037187063135e-05, 2.220761962234974e-05, -0.014766027219593525, -0.0003325213911011815, 0.00012983173655811697, -0.10189962387084961, 0.1751251518726349, 0.5627604722976685, 0.05641753971576691, -0.21608753886214435, 0.8188497012448295, -9.954122169242742, 9362.0, 30146.0, 35388.0, 9362.0, 7.9537200927734375, 0.9865019917488098, 0.7888540625572205, 11.440115928649902, 0.01326028537005186, -0.05765952914953232, 0.9643806219100952, -0.028052907437086105, 0.05000114440917969, 1.5, 1.2978515625, 0.05224609375, 1.4970703125
27050, 0.002613362390547991, 0.021741291508078575, 0.01176039595156908, -2.9680037187063135e-05, 2.220761962234974e-05, -0.014766027219593525, -0.0003325213911011815, 0.00012983173655811697, -0.10189962387084961, 0.1751532405614853, 0.5627412796020508, 0.05645447224378586, -0.2051052847154337, 0.8191186764174461, -9.950339789938932, 9362.0, 30146.0, 35388.0, 9362.0, 7.933885097503662, 0.9865019917488098, 0.7888540625572205, 11.440115928649902, 0.01326028537005186, -0.05765952914953232, 0.9643806219100952, -0.006000033114105463, -0.030637741088867188, 1.493408203125, 1.2978515625, 0.05224609375, 1.4970703125
27090, 0.005266717169433832, 0.022572167217731476, 0.011909916996955872, -7.924406963866204e-05, 3.436725455685519e-05, -0.026730133220553398, -0.0006771332700736821, 0.00010851383558474481, -0.13723257184028625, 0.17512518167495728, 0.5627451539039612, 0.056436147540807724, -0.21312344825386137, 0.8292713563466236, -9.953701188804136, 9362.0, 30146.0, 35388.0, 9362.0, 7.933885097503662, -1.4022817611694336, 0.11748754978179932, 0.10472004860639572, 0.019600139930844307, -0.03932999074459076, 0.9600670337677002, -0.004117283504456282, 0.15752029418945312, 1.5087890625, 1.2978515625, 0.05224609375, 1.491943359375
27100, 0.004387565888464451, 0.02279089204967022, 0.05144340172410011, -7.924406963866204e-05, 3.436725455685519e-05, -0.026730133220553398, -0.0006771332700736821, 0.00010851383558474481, -0.13723257184028625, 0.1751224547624588, 0.5627543926239014, 0.05643215775489807, -0.2048695520845401, 0.8097192949760483, -9.956160163497339, 9362.0, 30146.0, 35388.0, 9362.0, 7.933885097503662, -0.09447108954191208, -0.4990693926811218, -13.037245750427246, 0.019600139930844307, -0.03932999074459076, 0.9600670337677002, 0.0037822488229721785, 0.15752029418945312, 1.5087890625, 1.2978515625, 0.05224609375, 1.491943359375
27110, 0.0006075297715142369, 0.022077767178416252, 0.03343726694583893, -7.924406963866204e-05, 3.436725455685519e-05, -0.026730133220553398, -0.0006771332700736821, 0.00010851383558474481, -0.13723257184028625, 0.17513780295848846, 0.5627433061599731, 0.056441470980644226, -0.2093702139051145, 0.8208906969652219, -9.9511118635031, 9362.0, 30146.0, 35388.0, 9362.0, 7.933885097503662, -0.09447108954191208, -0.4990693926811218, -13.037245750427246, 0.01260632835328579, -0.0464305505156517, 0.9613075852394104, 0.0037822488229721785, 0.15752029418945312, 1.5087890625, 1.2978515625, 0.05224609375, 1.491943359375
27120, 0.003070104867219925, 0.023154914379119873, -0.004619957879185677, -0.00011765634553739801, 3.933477637474425e-05, -0.03403615579009056, -0.0008616907289251685, 8.655921556055546e-05, -0.15529672801494598, 0.1751297414302826, 0.5627520680427551, 0.05643196403980255, -0.2050714001096081, 0.8261827875214749, -9.95304959222283, 9362.0, 30146.0, 35388.0, 9362.0, 7.933885097503662, -0.1836802214384079, 0.23886820673942566, 12.056051254272461, 0.01260632835328579, -0.0464305505156517, 0.9613075852394104, -0.015964385122060776, -0.030637741088867188, 1.493408203125, 1.2978515625, 0.05224609375, 1.491943359375
27140, 0.003187483176589012, 0.020126324146986008, 0.054433081299066544, -0.00013562604726757854, 4.102716775378212e-05, -0.03721565380692482, -0.0009362506098113954, 8.095196972135454e-05, -0.16261734068393707, 0.17512954771518707, 0.5627526044845581, 0.0564456507563591, -0.20846846715697115, 0.8180507521245204, -9.953487905869794, 9362.0, 30146.0, 35388.0, 9362.0, 7.9537200927734375, -0.1836802214384079, 0.23886820673942566, 12.056051254272461, 0.014682338573038578, -0.06013839691877365, 0.9651686549186707, -0.015964385122060776, -0.030637741088867188, 1.493408203125, 1.2978515625, 0.05224609375, 1.491943359375
27150, 0.0016219161916524172, 0.021981442347168922, 0.014021767303347588, -0.00013562604726757854, 4.102716775378212e-05, -0.03721565380692482, -0.0009362506098113954, 8.095196972135454e-05, -0.16261734068393707, 0.1751261055469513, 0.5627412796020508, 0.056440528482198715, -0.2109709887351525, 0.8165558843538747, -9.942635068956955, 9362.0, 30146.0, 35388.0, 9362.0, 7.9537200927734375, -0.1836802214384079, 0.23886820673942566, 12.056051254272461, 0.014682338573038578, -0.06013839691877365, 0.9651686549186707, -0.0034649737644940615, 0.014162063598632812, 1.4970703125, 1.2978515625, 0.05224609375, 1.491943359375
27180, 0.001820445409975946, 0.02157837152481079, 0.0490301251411438, -0.00016529943968635052, 4.302334491512738e-05, -0.04225216433405876, -0.001041903393343091, 5.9575475461315364e-05, -0.17309948801994324, 0.17512014508247375, 0.5627536773681641, 0.056430500000715256, -0.20473266906951593, 0.817132028696335, -9.948892163311816, 9362.0, 30146.0, 35388.0, 9362.0, 7.9537200927734375, -1.3698071241378784, -0.2770271599292755, -11.770285606384277, 0.014682338573038578, -0.06013839691877365, 0.9651686549186707, -0.02965668961405754, -0.06647872924804688, 1.490478515625, 1.2978515625, 0.05224609375, 1.491943359375
27190, 0.0017282691551372409, 0.025765979662537575, 0.013375977985560894, -0.00016529943968635052, 4.302334491512738e-05, -0.04225216433405876, -0.001041903393343091, 5.9575475461315364e-05, -0.17309948801994324, 0.1751386672258377, 0.5627578496932983, 0.056445978581905365, -0.2068420254584411, 0.8272591073304909, -9.95318711899949, 9362.0, 30146.0, 35388.0, 9362.0, 7.9537200927734375, 0.4903384745121002, 0.2010994255542755, 10.374566078186035, 0.014682338573038578, -0.06013839691877365, 0.9651686549186707, -0.04147380590438843, -0.07543754577636719, 1.48974609375, 1.2978515625, 0.05224609375, 1.491943359375
27200, 0.005479708779603243, 0.026358261704444885, 0.009021727368235588, -0.00016529943968635052, 4.302334491512738e-05, -0.04225216433405876, -0.001041903393343091, 5.9575475461315364e-05, -0.17309948801994324, 0.1751377433538437, 0.5627518892288208, 0.05644099786877632, -0.20835570484462113, 0.8170987313209253, -9.956346188479761, 9362.0, 30146.0, 35388.0, 9362.0, 7.933885097503662, 0.4903384745121002, 0.2010994255542755, 10.374566078186035, 0.014682338573038578, -0.06013839691877365, 0.9651686549186707, -0.041154082864522934, 0.13064002990722656, 1.506591796875, 1.2978515625, 0.05224609375, 1.491943359375
27330, 0.0026800427585840225, 0.024446487426757812, 0.0560857355594635, -0.0003841285652015358, 4.400221587275155e-05, -0.07445955276489258, -0.001703678397461772, -2.75049915217096e-05, -0.2293350249528885, 0.1751222461462021, 0.562743067741394, 0.056420616805553436, -0.21656189205708182, 0.8180713308375118, -9.953081489379182, 9362.0, 30146.0, 35388.0, 9362.0, 7.9537200927734375, -0.1495560258626938, 0.05827800929546356, 13.024876594543457, 0.022453635931015015, -0.058385878801345825, 0.9671851992607117, -0.03539513051509857, -0.04855918884277344, 1.491943359375, 1.32861328125, 0.0214385986328125, 1.491943359375
27380, -0.0032492054160684347, 0.027694426476955414, 0.03151048719882965, -0.000437137670814991, 4.292360245017335e-05, -0.0814892128109932, -0.0018319162772968411, -3.659523281385191e-05, -0.2393501251935959, 0.17513026297092438, 0.5627533793449402, 0.056420013308525085, -0.21539850933018076, 0.8084600573513967, -9.955468741481885, 9362.0, 30146.0, 35388.0, 9362.0, 7.9537200927734375, 1.1620713472366333, -0.06509312987327576, 6.699074745178223, 0.02748044580221176, -0.03688504919409752, 0.966579258441925, -0.047796834260225296, -0.03959846496582031, 1.49267578125, 1.32861328125, 0.0214385986328125, 1.491943359375
27400, 0.005008968990296125, 0.029703063890337944, 0.042643677443265915, -0.000494078325573355, 4.17387745983433e-05, -0.0888204574584961, -0.0019636477809399366, -4.244168667355552e-05, -0.24945729970932007, 0.17513005435466766, 0.5627416372299194, 0.05640430748462677, -0.21063060572026834, 0.823282770397185, -9.955520829685206, 9362.0, 30146.0, 35388.0, 9362.0, 7.9537200927734375, -0.6047724485397339, 0.5756604075431824, 11.644185066223145, 0.028236469253897667, -0.04673071578145027, 0.9655713438987732, -0.014383014291524887, 0.014162063598632812, 1.4970703125, 1.32861328125, 0.0214385986328125, 1.491943359375
27410, 0.0005700922920368612, 0.0314672589302063, 0.05165703222155571, -0.000494078325573355, 4.17387745983433e-05, -0.0888204574584961, -0.0019636477809399366, -4.244168667355552e-05, -0.24945729970932007, 0.17513291537761688, 0.5627522468566895, 0.05640747398138046, -0.21034599578558574, 0.821807598295436, -9.948634640582009, 9362.0, 30146.0, 35388.0, 9362.0, 7.9537200927734375, 1.0217548608779907, -0.6120502948760986, -9.40523910522461, 0.028236469253897667, -0.04673071578145027, 0.9655713438987732, 0.00011551970965228975, -0.04855918884277344, 1.491943359375, 1.32861328125, 0.0214385986328125, 1.491943359375
27420, -0.00038563646376132965, 0.03122120350599289, 0.026805303990840912, -0.000494078325573355, 4.17387745983433e-05, -0.0888204574584961, -0.0019636477809399366, -4.244168667355552e-05, -0.24945729970932007, 0.17513498663902283, 0.5627472996711731, 0.05640975758433342, -0.2061160982696171, 0.814393060815064, -9.954522030843854, 9362.0, 30146.0, 35388.0, 9362.0, 7.9537200927734375, 1.0217548608779907, -0.6120502948760986, -9.40523910522461, 0.018971994519233704, -0.04040995240211487, 0.9621103405952454, -0.0027346296701580286, -0.07543754577636719, 1.48974609375, 1.32861328125, 0.0214385986328125, 1.491943359375
27440, 0.005300802178680897, 0.032796721905469894, 0.04732239991426468, -0.0005983570008538663, 3.962242044508457e-05, -0.1017327532172203, -0.0022124885581433773, -4.6113091229926795e-05, -0.2669141888618469, 0.17512106895446777, 0.5627478957176208, 0.056416019797325134, -0.21027267563746738, 0.8203931910026938, -9.958719778662998, 9362.0, 30146.0, 35388.0, 9362.0, 7.933885097503662, -1.044386386871338, -0.562260091304779, -12.25639820098877, 0.018971994519233704, -0.04040995240211487, 0.9621103405952454, -0.02594112791121006, -0.05751800537109375, 1.4912109375, 1.32861328125, 0.0214385986328125, 1.491943359375
27480, 0.005422455258667469, 0.035725340247154236, 0.052028242498636246, -0.000691323250066489, 3.733925404958427e-05, -0.11267854273319244, -0.0024356518406420946, -6.37026023468934e-05, -0.28043442964553833, 0.17513789236545563, 0.5627484321594238, 0.0564335435628891, -0.2087676501512306, 0.822532704317922, -9.958113349205945, 9362.0, 30146.0, 35388.0, 9362.0, 7.9537200927734375, -0.8839154839515686, -0.7213699221611023, -14.573057174682617, 0.02719717286527157, -0.04515234753489494, 0.9661288261413574, -0.021534526720643044, -0.10231781005859375, 1.487548828125, 1.32861328125, 0.0214385986328125, 1.491943359375
27490, 0.0006442021112889051, 0.03647089749574661, 0.0444689616560936, -0.000691323250066489, 3.733925404958427e-05, -0.11267854273319244, -0.0024356518406420946, -6.37026023468934e-05, -0.28043442964553833, 0.1751394271850586, 0.562739372253418, 0.05640460550785065, -0.20839961728824868, 0.822810257099917, -9.949534889123068, 9362.0, 30146.0, 35388.0, 9362.0, 7.9537200927734375, 1.7496784925460815, 0.027963386848568916, -2.8478713035583496, 0.02719717286527157, -0.04515234753489494, 0.9661288261413574, -0.029874805361032486, -0.08439826965332031, 1.489013671875, 1.32861328125, 0.0214385986328125, 1.491943359375
27560, 0.005396805703639984, 0.041598983108997345, 0.06383035331964493, -0.0008769760606810451, 3.156898674205877e-05, -0.13315697014331818, -0.002884705550968647, -9.853022493189201e-05, -0.30471381545066833, 0.17513857781887054, 0.5627531409263611, 0.056403107941150665, -0.2115849181931398, 0.8236098245356231, -9.948837201079737, 9362.0, 30146.0, 35388.0, 9362.0, 7.9537200927734375, -0.034720536321401596, -0.29772377014160156, -13.839632987976074, 0.012848278507590294, -0.06352899223566055, 0.9654197692871094, -0.03375844284892082, -0.1291980743408203, 1.4853515625, 1.32861328125, 0.0214385986328125, 1.491943359375
27570, -0.0007939658244140446, 0.041015733033418655, 0.020046083256602287, -0.000936153344810009, 2.9518527298932895e-05, -0.13932281732559204, -0.003032814944162965, -0.00011053810885641724, -0.31186413764953613, 0.17513222992420197, 0.5627408027648926, 0.05641788989305496, -0.21061690227420643, 0.8221318725663878, -9.95849434014119, 9362.0, 30146.0, 35388.0, 9362.0, 7.933885097503662, 1.8005321025848389, 0.06149095296859741, 7.66804838180542, 0.012848278507590294, -0.06352899223566055, 0.9654197692871094, -0.045281246304512024, -0.05751800537109375, 1.4912109375, 1.32861328125, 0.0214385986328125, 1.491943359375
27590, 0.007392824627459049, 0.03959929198026657, 0.03440018370747566, -0.0009981796611100435, 2.717609822866507e-05, -0.1456286609172821, -0.003169322619214654, -0.00011828866990981624, -0.31877779960632324, 0.17514587938785553, 0.5627414584159851, 0.05639326944947243, -0.20840024091574288, 0.8254034709787845, -9.947172353271919, 9362.0, 30146.0, 35388.0, 9362.0, 7.9537200927734375, 1.8005321025848389, 0.06149095296859741, 7.66804838180542, 0.027629723772406578, -0.03850945830345154, 0.9628183245658875, -0.030446389690041542, 0.16648101806640625, 1.509521484375, 1.32861328125, 0.0214385986328125, 1.491943359375
27600, 0.002616501646116376, 0.038485798984766006, 0.056142184883356094, -0.0010302086593583226, 2.596489866846241e-05, -0.14883428812026978, -0.0032365319784730673, -0.0001237360993400216, -0.3223487436771393, 0.17513839900493622, 0.5627530813217163, 0.05638115853071213, -0.20921390433146048, 0.8172605465315996, -9.957486548377666, 9362.0, 30146.0, 35388.0, 9362.0, 7.9537200927734375, 1.3880506753921509, -0.49856406450271606, -8.284680366516113, 0.027629723772406578, -0.03850945830345154, 0.9628183245658875, -0.013503167778253555, -0.030637741088867188, 1.493408203125, 1.32861328125, 0.0214385986328125, 1.491943359375
27670, 0.009764861315488815, 0.04060432314872742, 0.05033547058701515, -0.0012002949370071292, 1.882214746729005e-05, -0.16538488864898682, -0.00356727815233171, -0.00016547934501431882, -0.339738130569458, 0.17513878643512726, 0.5627514719963074, 0.05638755112886429, -0.2075616927976114, 0.8141638469756174, -9.942923710034327, 9362.0, 30146.0, 35388.0, 9362.0, 7.9537200927734375, -0.6344895958900452, -0.6007966995239258, -13.652289390563965, 0.01627250202000141, -0.059541985392570496, 0.9653775095939636, -0.01634337194263935, -0.06647872924804688, 1.490478515625, 1.32861328125, 0.0214385986328125, 1.491943359375
27700, 0.011805451475083828, 0.044279199093580246, 0.015744414180517197, -0.0012002949370071292, 1.882214746729005e-05, -0.16538488864898682, -0.00356727815233171, -0.00016547934501431882, -0.339738130569458, 0.17513307929039001, 0.5627608299255371, 0.05639748275279999, -0.20503609441988285, 0.8228570164497171, -9.953556620281617, 9362.0, 30146.0, 35388.0, 9362.0, 7.9537200927734375, -1.476330280303955, 0.541150689125061, 1.6104679107666016, 0.01627250202000141, -0.059541985392570496, 0.9653775095939636, -0.04781154543161392, -0.12023735046386719, 1.486083984375, 1.32861328125, 0.0214385986328125, 1.491943359375
27770, 0.007537628524005413, 0.04825577884912491, -0.003190132789313793, -0.0015905573964118958, -3.1322042559622787e-06, -0.201070636510849, -0.004260582849383354, -0.0002791724109556526, -0.374117374420166, 0.17513079941272736, 0.5627428293228149, 0.05640126392245293, -0.20947558807462915, 0.8208250194215623, -9.960860707679121, 9362.0, 30146.0, 35388.0, 9362.0, 7.9537200927734375, -0.4467272162437439, 0.7338290810585022, 12.258894920349121, 0.023797186091542244, -0.043235063552856445, 0.965528130531311, -0.02187521941959858, 0.1396007537841797, 1.50732421875, 1.32861328125, 0.0214385986328125, 1.491943359375
27780, 0.012049113400280476, 0.04532940685749054, 0.026899294927716255, -0.0015905573964118958, -3.1322042559622787e-06, -0.201070636510849, -0.004260582849383354, -0.0002791724109556526, -0.374117374420166, 0.17513591051101685, 0.5627580285072327, 0.05638517066836357, -0.2108917254654702, 0.8238353595421017, -9.949115694715825, 9362.0, 30146.0, 35388.0, 9362.0, 7.9537200927734375, -1.5403838157653809, -0.9020867943763733, -8.5255708694458, 0.023797186091542244, -0.043235063552856445, 0.965528130531311, -0.008495324291288853, -0.01271820068359375, 1.494873046875, 1.32861328125, 0.0214385986328125, 1.491943359375
27840, 0.006081096362322569, 0.042856644839048386, -0.0007327111670747399, -0.002005258807912469, -3.36355842591729e-05, -0.23617000877857208, -0.00494225462898612, -0.0004081744118593633, -0.4054781198501587, 0.1751289814710617, 0.5627444386482239, 0.05640491098165512, -0.2096916801699075, 0.8213328633728167, -9.95777714390525, 9362.0, 30146.0, 35388.0, 9362.0, 7.9537200927734375, 0.47808176279067993, 0.6032264828681946, 14.133186340332031, 0.021924421191215515, -0.05237555876374245, 0.9662749171257019, -0.01507948525249958, -0.11127853393554688, 1.48681640625, 1.32861328125, 0.0214385986328125, 1.49267578125
27880, 0.005733711179345846, 0.04084871709346771, -0.007601946592330933, -0.002208402846008539, -5.0991402531508356e-05, -0.2526661455631256, -0.005214102100580931, -0.00046642482629977167, -0.4193512201309204, 0.17513275146484375, 0.5627443194389343, 0.05639820545911789, -0.2103903966861876, 0.8162799577074225, -9.948762787088935, 9362.0, 30146.0, 35388.0, 9362.0, 7.933885097503662, 0.08029093593358994, 0.4157542586326599, 14.946829795837402, 0.01937565580010414, -0.03485966473817825, 0.9620047807693481, -0.03729497641324997, -0.10231781005859375, 1.487548828125, 1.32861328125, 0.0214385986328125, 1.49267578125
27890, 0.01145553681999445, 0.03963238373398781, 0.017994029447436333, -0.002260856796056032, -5.5701231758575886e-05, -0.25687673687934875, -0.005276521667838097, -0.00047546473797410727, -0.42276623845100403, 0.1751265823841095, 0.5627439618110657, 0.05639263987541199, -0.21152988606193374, 0.8251259869898888, -9.9542618407001, 9362.0, 30146.0, 35388.0, 9362.0, 7.9537200927734375, -1.193161964416504, 0.15787124633789062, -1.3093072175979614, 0.01937565580010414, -0.03485966473817825, 0.9620047807693481, -0.002799798035994172, 0.05896186828613281, 1.500732421875, 1.32861328125, 0.0214385986328125, 1.49267578125
27910, 0.004748027306050062, 0.03833254799246788, 0.03861485421657562, -0.002367725595831871, -6.544360076077282e-05, -0.26540347933769226, -0.005409306846559048, -0.0005036930087953806, -0.42994824051856995, 0.17514072358608246, 0.5627478957176208, 0.05640643835067749, -0.20773609700046194, 0.8288866605673206, -9.9426493879973, 9362.0, 30146.0, 35388.0, 9362.0, 7.933885097503662, -1.193161964416504, 0.15787124633789062, -1.3093072175979614, 0.011073609814047813, -0.05349002406001091, 0.9651765823364258, -0.011302072554826736, -0.05751800537109375, 1.4912109375, 1.32861328125, 0.0214385986328125, 1.49267578125
27920, 0.006456270348280668, 0.038698337972164154, -4.4042564695701e-05, -0.002367725595831871, -6.544360076077282e-05, -0.26540347933769226, -0.005409306846559048, -0.0005036930087953806, -0.42994824051856995, 0.17512810230255127, 0.5627465844154358, 0.05640438199043274, -0.21623928241225457, 0.8142326368862598, -9.954527663582361, 9362.0, 30146.0, 35388.0, 9362.0, 7.9537200927734375, -1.193161964416504, 0.15787124633789062, -1.3093072175979614, 0.011073609814047813, -0.05349002406001091, 0.9651765823364258, -0.026215288788080215, -0.10231781005859375, 1.487548828125, 1.32861328125, 0.0214385986328125, 1.49267578125
27930, 0.010619190521538258, 0.03967384248971939, 0.024790700525045395, -0.002367725595831871, -6.544360076077282e-05, -0.26540347933769226, -0.005409306846559048, -0.0005036930087953806, -0.42994824051856995, 0.17513829469680786, 0.5627462863922119, 0.056392133235931396, -0.21245845240766942, 0.8258885463382626, -9.957989042637795, 9362.0, 30146.0, 35388.0, 9362.0, 7.933885097503662, -1.2220457792282104, 0.2671479284763336, -2.2036736011505127, 0.027613699436187744, -0.04834074527025223, 0.967961847782135, -0.026215288788080215, -0.10231781005859375, 1.487548828125, 1.32861328125, 0.0214385986328125, 1.49267578125
27960, 0.008206242695450783, 0.04025491699576378, 0.0031702115666121244, -0.002367725595831871, -6.544360076077282e-05, -0.26540347933769226, -0.005409306846559048, -0.0005036930087953806, -0.42994824051856995, 0.17513351142406464, 0.5627513527870178, 0.05638473480939865, -0.2096396284951308, 0.8162119914312598, -9.952032517796368, 9362.0, 30146.0, 35388.0, 9362.0, 7.933885097503662, -1.2220457792282104, 0.2671479284763336, -2.2036736011505127, 0.025490306317806244, -0.03690516948699951, 0.9595681428909302, -0.025510543957352638, -0.11127853393554688, 1.48681640625, 1.32861328125, 0.0214385986328125, 1.49267578125
27990, 0.006650051102042198, 0.0422096848487854, 0.018025897443294525, -0.0028211637400090694, -0.00010976691555697471, -0.3008969724178314, -0.005927518475800753, -0.0006116703734733164, -0.4578762948513031, 0.17513789236545563, 0.5627454519271851, 0.056398726999759674, -0.21137818458805577, 0.8178262441430206, -9.95264181184859, 9362.0, 30146.0, 35388.0, 9362.0, 7.933885097503662, -1.234560251235962, -0.3212374150753021, -3.327542304992676, 0.013159752823412418, -0.04267527535557747, 0.9600422382354736, -0.04772261157631874, 0.03208160400390625, 1.49853515625, 1.32861328125, 0.0214385986328125, 1.49267578125
28020, 0.007847902365028858, 0.04514142870903015, 0.05656344071030617, -0.003002109006047249, -0.0001287370832869783, -0.3147939443588257, -0.006139469798654318, -0.0006548069650307298, -0.46861767768859863, 0.17513327300548553, 0.562747061252594, 0.05639659985899925, -0.2089727983345148, 0.8161616347524046, -9.957977679081381, 9362.0, 30146.0, 35388.0, 9362.0, 7.9537200927734375, 1.032057762145996, -0.36907845735549927, -9.107684135437012, 0.024715466424822807, -0.04628975689411163, 0.9664158225059509, -0.024569353088736534, -0.030637741088867188, 1.493408203125, 1.32861328125, 0.0214385986328125, 1.49267578125
28060, 0.008610081858932972, 0.047412630170583725, 0.046652939170598984, -0.0032537460792809725, -0.00015623543004039675, -0.33381733298301697, -0.006450853776186705, -0.0007151566678658128, -0.4826056957244873, 0.1751362532377243, 0.5627470016479492, 0.05639132484793663, -0.21655172017099542, 0.8162922862196922, -9.951982978467877, 9362.0, 30146.0, 35388.0, 9362.0, 7.9537200927734375, -0.5949059724807739, 0.8368150591850281, 8.924864768981934, 0.013960199430584908, -0.06360041350126266, 0.9669942855834961, -0.03881845250725746, 0.12168121337890625, 1.505859375, 1.32861328125, 0.0214385986328125, 1.49267578125
28070, 0.008366234600543976, 0.04972925782203674, 0.009290370158851147, -0.0032537460792809725, -0.00015623543004039675, -0.33381733298301697, -0.006450853776186705, -0.0007151566678658128, -0.4826056957244873, 0.17513123154640198, 0.5627421140670776, 0.05639132857322693, -0.21460258117241898, 0.8178777274506501, -9.94828902125861, 9362.0, 30146.0, 35388.0, 9362.0, 7.9537200927734375, -0.5949059724807739, 0.8368150591850281, 8.924864768981934, 0.017076030373573303, -0.04371229186654091, 0.9609767198562622, -0.021802593022584915, -0.06647872924804688, 1.490478515625, 1.32861328125, 0.0214385986328125, 1.49267578125
28100, 0.00965447723865509, 0.047827452421188354, 0.04219231754541397, -0.0035181951243430376, -0.00018626402015797794, -0.35339024662971497, -0.006776250898838043, -0.0007835880387574434, -0.49611446261405945, 0.17512284219264984, 0.5627621412277222, 0.056403618305921555, -0.2032870797247824, 0.8200006937858575, -9.954942829641505, 9362.0, 30146.0, 35388.0, 9362.0, 7.933885097503662, 1.6071120500564575, 0.23755033314228058, -3.782092571258545, 0.02174104005098343, -0.05361670255661011, 0.9655277729034424, -0.04328829050064087, -0.08439826965332031, 1.489013671875, 1.32861328125, 0.0214385986328125, 1.493408203125
28120, 0.014497591182589531, 0.04962312430143356, 0.00542775634676218, -0.003655322128906846, -0.00020238694560248405, -0.3633838891983032, -0.006935581564903259, -0.0008243263582699001, -0.503379225730896, 0.1751406490802765, 0.5627509951591492, 0.05641356110572815, -0.21057185299528305, 0.8218748936858162, -9.95486545545035, 9362.0, 30146.0, 35388.0, 9362.0, 7.9537200927734375, -1.2947324514389038, 0.03768442943692207, 3.0324838161468506, 0.01950426958501339, -0.03870304301381111, 0.9616081714630127, -0.004831966012716293, -0.05751800537109375, 1.4912109375, 1.32861328125, 0.0214385986328125, 1.493408203125
28130, 0.013609557412564754, 0.05118075758218765, 0.04844698682427406, -0.003655322128906846, -0.00020238694560248405, -0.3633838891983032, -0.006935581564903259, -0.0008243263582699001, -0.503379225730896, 0.17514576017856598, 0.5627478957176208, 0.056392453610897064, -0.2043326012677395, 0.8248636010411872, -9.950773764953944, 9362.0, 30146.0, 35388.0, 9362.0, 7.9537200927734375, -0.6873995661735535, -0.3320803642272949, -13.057991981506348, 0.01950426958501339, -0.03870304301381111, 0.9616081714630127, -0.014010513201355934, -0.12023735046386719, 1.486083984375, 1.32861328125, 0.0214385986328125, 1.493408203125
28140, 0.008057747036218643, 0.05013911798596382, 0.031081125140190125, -0.0037956193555146456, -0.00021924063912592828, -0.3735213279724121, -0.007095783948898315, -0.000864807516336441, -0.510330319404602, 0.17512714862823486, 0.5627491474151611, 0.05638682097196579, -0.20988834468652515, 0.8229589898749623, -9.949882240540045, 9362.0, 30146.0, 35388.0, 9362.0, 7.9537200927734375, 1.742117166519165, -0.07160351425409317, -3.890359401702881, 0.016325926408171654, -0.05612879991531372, 0.9654554128646851, -0.014010513201355934, -0.12023735046386719, 1.486083984375, 1.32861328125, 0.0214385986328125, 1.493408203125
28150, 0.010369452647864819, 0.05127355456352234, 0.008492900989949703, -0.003866999875754118, -0.00022800150327384472, -0.378641813993454, -0.007180386688560247, -0.0008876722422428429, -0.5137666463851929, 0.17512772977352142, 0.5627495050430298, 0.05639639496803284, -0.21120078604536094, 0.8203743139701771, -9.952386666068582, 9362.0, 30146.0, 35388.0, 9362.0, 7.933885097503662, -0.11384149640798569, 0.20561134815216064, 10.553969383239746, 0.016325926408171654, -0.05612879991531372, 0.9654554128646851, -0.02801455743610859, -0.07543754577636719, 1.48974609375, 1.32861328125, 0.0214385986328125, 1.493408203125
28180, 0.009289819747209549, 0.05578469857573509, 0.03014157898724079, -0.004086186643689871, -0.00025532409199513495, -0.3942124843597412, -0.007435278967022896, -0.0009392561623826623, -0.5242446064949036, 0.17513884603977203, 0.5627467036247253, 0.05637502297759056, -0.21138146048616593, 0.823810203579086, -9.955320172283285, 9362.0, 30146.0, 35388.0, 9362.0, 7.9537200927734375, -0.11384149640798569, 0.20561134815216064, 10.553969383239746, 0.02057568170130253, -0.052482202649116516, 0.9651892185211182, -0.0003982112102676183, -0.0037593841552734375, 1.49560546875, 1.32861328125, 0.0214385986328125, 1.493408203125
28210, 0.012829854153096676, 0.05090958997607231, 0.04246204346418381, -0.00431328359991312, -0.0002843840338755399, -0.41009625792503357, -0.007704929448664188, -0.0009940796298906207, -0.5348876118659973, 0.17512932419776917, 0.5627555251121521, 0.056350115686655045, -0.21307675328151934, 0.8231639191313889, -9.947666960013263, 9362.0, 30146.0, 35388.0, 9362.0, 7.9537200927734375, -1.5887095928192139, 0.11549721658229828, -4.67922306060791, 0.02057568170130253, -0.052482202649116516, 0.9651892185211182, -0.029025467112660408, -0.09335899353027344, 1.48828125, 1.32861328125, 0.0214385986328125, 1.493408203125
28250, 0.009955334477126598, 0.04843026399612427, 0.03889943286776543, -0.004628343973308802, -0.00032589316833764315, -0.4317638874053955, -0.008046097122132778, -0.0010742954909801483, -0.5485703945159912, 0.17512817680835724, 0.5627429485321045, 0.0563977025449276, -0.21445154312164988, 0.821624984216129, -9.948550615404178, 9362.0, 30146.0, 35388.0, 9362.0, 7.9537200927734375, 1.3206844329833984, 0.14440777897834778, -7.128754138946533, 0.01502850092947483, -0.057222362607717514, 0.9649237990379333, -0.012840913608670235, 0.13064002990722656, 1.506591796875, 1.32861328125, 0.0214385986328125, 1.493408203125
28260, 0.00895800068974495, 0.04667464271187782, 0.010049048811197281, -0.004628343973308802, -0.00032589316833764315, -0.4317638874053955, -0.008046097122132778, -0.0010742954909801483, -0.5485703945159912, 0.17512661218643188, 0.5627577304840088, 0.05637494474649429, -0.2126674523293059, 0.8188275411907284, -9.956745270572648, 9362.0, 30146.0, 35388.0, 9362.0, 7.933885097503662, 1.3206844329833984, 0.14440777897834778, -7.128754138946533, 0.01502850092947483, -0.057222362607717514, 0.9649237990379333, -0.0157054103910923, -0.01271820068359375, 1.494873046875, 1.32861328125, 0.0214385986328125, 1.493408203125
28270, 0.012870192527770996, 0.04897911101579666, 0.00021554066915996373, -0.004628343973308802, -0.00032589316833764315, -0.4317638874053955, -0.008046097122132778, -0.0010742954909801483, -0.5485703945159912, 0.17513525485992432, 0.5627503991127014, 0.05636902153491974, -0.21154107037553155, 0.8218048579958861, -9.95326474220126, 9362.0, 30146.0, 35388.0, 9362.0, 7.9537200927734375, 1.3206844329833984, 0.14440777897834778, -7.128754138946533, 0.024737311527132988, -0.042285796254873276, 0.9657334089279175, -0.0157054103910923, -0.01271820068359375, 1.494873046875, 1.32861328125, 0.0214385986328125, 1.493408203125
28290, 0.00870970543473959, 0.043759822845458984, 0.03998980298638344, -0.004956572782248259, -0.0003704602422658354, -0.45399871468544006, -0.008364849723875523, -0.00115105789154768, -0.5630695819854736, 0.17513279616832733, 0.5627594590187073, 0.05636683851480484, -0.21195076780974556, 0.81498378266906, -9.946317597918151, 9362.0, 30146.0, 35388.0, 9362.0, 7.9537200927734375, 1.6509027481079102, 0.025324342772364616, -3.706709623336792, 0.024737311527132988, -0.042285796254873276, 0.9657334089279175, -0.021771082654595375, -0.03959846496582031, 1.49267578125, 1.32861328125, 0.0214385986328125, 1.493408203125
28300, 0.008912259712815285, 0.044990092515945435, -0.0003105408395640552, -0.004956572782248259, -0.0003704602422658354, -0.45399871468544006, -0.008364849723875523, -0.00115105789154768, -0.5630695819854736, 0.17512819170951843, 0.5627443790435791, 0.05638009309768677, -0.2145758121435903, 0.8193499327217069, -9.948290219625962, 9362.0, 30146.0, 35388.0, 9362.0, 7.9537200927734375, 0.16803957521915436, 0.5782235860824585, 13.63420295715332, 0.024737311527132988, -0.042285796254873276, 0.9657334089279175, -0.021771082654595375, -0.03959846496582031, 1.49267578125, 1.32861328125, 0.0214385986328125, 1.493408203125
28340, 0.010074879042804241, 0.047500886023044586, -0.0019248470198363066, -0.005383920855820179, -0.00043039312004111707, -0.48258140683174133, -0.008729716762900352, -0.001247019157744944, -0.5801122188568115, 0.17513924837112427, 0.5627551674842834, 0.05638474225997925, -0.21115786937420297, 0.8222328627104787, -9.959197219448676, 9362.0, 30146.0, 35388.0, 9362.0, 7.9537200927734375, -0.5537757873535156, 0.6965153217315674, 10.75137710571289, 0.014629768207669258, -0.06243520602583885, 0.9654902815818787, -0.025980425998568535, -0.0037593841552734375, 1.49560546875, 1.32861328125, 0.0214385986328125, 1.493408203125
28360, 0.010812457650899887, 0.04599875956773758, 0.042808327823877335, -0.0055600316263735294, -0.0004555892664939165, -0.4942559003829956, -0.008883079513907433, -0.001274848822504282, -0.5873398184776306, 0.17512525618076324, 0.5627396702766418, 0.056342367082834244, -0.2128896710244535, 0.819678650618016, -9.956294078100433, 9362.0, 30146.0, 35388.0, 9362.0, 7.9537200927734375, 0.7875332832336426, -0.2710605263710022, -8.891519546508789, 0.02156859263777733, -0.05239516496658325, 0.9668928384780884, -0.025980425998568535, -0.0037593841552734375, 1.49560546875, 1.32861328125, 0.0214385986328125, 1.493408203125
28400, 0.010064488276839256, 0.04383838549256325, 0.048711713403463364, -0.005921455565840006, -0.0005081582930870354, -0.5180231928825378, -0.009187402203679085, -0.0013476763851940632, -0.6010993719100952, 0.17513372004032135, 0.562755823135376, 0.05637757107615471, -0.2083985353960235, 0.8232342182373316, -9.95063668268998, 9362.0, 30146.0, 35388.0, 9362.0, 7.933885097503662, 0.7875332832336426, -0.2710605263710022, -8.891519546508789, 0.027362048625946045, -0.04280176758766174, 0.9670449495315552, -0.019555920735001564, 0.023120880126953125, 1.497802734375, 1.32861328125, 0.0214385986328125, 1.493408203125
28420, 0.012533638626337051, 0.0456148199737072, 0.00637455377727747, -0.005921455565840006, -0.0005081582930870354, -0.5180231928825378, -0.009187402203679085, -0.0013476763851940632, -0.6010993719100952, 0.17512868344783783, 0.5627453327178955, 0.05635435879230499, -0.210730829555774, 0.8222145191958816, -9.947553613457934, 9362.0, 30146.0, 35388.0, 9362.0, 7.9537200927734375, -0.9867241382598877, 0.8183649778366089, 5.669495105743408, 0.019135672599077225, -0.041559137403964996, 0.9614925384521484, 0.0004360535822343081, 0.1396007537841797, 1.50732421875, 1.322021484375, 0.0257415771484375, 1.493408203125
28450, 0.00954892672598362, 0.04521669074892998, -0.014328505843877792, -0.006390050519257784, -0.0005778849590569735, -0.5485101342201233, -0.009554151445627213, -0.0014442388201132417, -0.6184461116790771, 0.1751338243484497, 0.5627511143684387, 0.05636633187532425, -0.21661597213021375, 0.8155310358952761, -9.945012360727588, 9362.0, 30146.0, 35388.0, 9362.0, 7.933885097503662, 0.3181920051574707, 0.8172214031219482, 14.891674041748047, 0.019135672599077225, -0.041559137403964996, 0.9614925384521484, -0.009526903741061687, -0.030637741088867188, 1.493408203125, 1.322021484375, 0.0257415771484375, 1.493408203125
28460, 0.015158028341829777, 0.042308565229177475, 0.017825065180659294, -0.006485944148153067, -0.0005924131255596876, -0.554712176322937, -0.009624483995139599, -0.001461357926018536, -0.6219561696052551, 0.17512238025665283, 0.562745988368988, 0.05636892840266228, -0.21112355871805555, 0.8228347722276226, -9.951393797040788, 9362.0, 30146.0, 35388.0, 9362.0, 7.933885097503662, -1.075477123260498, 0.594687283039093, -1.11728036403656, 0.02483854442834854, -0.04277990758419037, 0.9651204943656921, -0.009526903741061687, -0.030637741088867188, 1.493408203125, 1.322021484375, 0.0257415771484375, 1.493408203125
28500, 0.015403516590595245, 0.040302544832229614, 0.011888092383742332, -0.006777901668101549, -0.0006371409981511533, -0.573531985282898, -0.009830497205257416, -0.00152708834502846, -0.6325058341026306, 0.17513950169086456, 0.5627514719963074, 0.05637439712882042, -0.21265576245938095, 0.819105204520497, -9.953051010559708, 9362.0, 30146.0, 35388.0, 9362.0, 7.9537200927734375, -0.39341649413108826, -0.34988290071487427, -11.397194862365723, 0.013343213126063347, -0.049956560134887695, 0.9633004069328308, -0.03970945626497269, -0.030637741088867188, 1.493408203125, 1.29345703125, 0.05889892578125, 1.493408203125
28540, 0.01674720086157322, 0.038635142147541046, 0.024145018309354782, -0.0072775669395923615, -0.000715884380042553, -0.6055957078933716, -0.01015604566782713, -0.0016268178587779403, -0.6500149369239807, 0.17513273656368256, 0.5627394318580627, 0.056370463222265244, -0.2117466472208488, 0.8266787585237694, -9.952806553847473, 9362.0, 30146.0, 35388.0, 9362.0, 7.9537200927734375, -1.1890203952789307, -0.13912169635295868, -3.9935526847839355, 0.021835967898368835, -0.03841445595026016, 0.9621230363845825, -0.02281390316784382, -0.030637741088867188, 1.493408203125, 1.29345703125, 0.05889892578125, 1.493408203125
28550, 0.012791736982762814, 0.03897685185074806, 0.04528452083468437, -0.0072775669395923615, -0.000715884380042553, -0.6055957078933716, -0.01015604566782713, -0.0016268178587779403, -0.6500149369239807, 0.17513507604599, 0.5627363920211792, 0.05635630339384079, -0.21071186302435588, 0.8223151879564341, -9.954051927852642, 9362.0, 30146.0, 35388.0, 9362.0, 7.9537200927734375, 0.32223910093307495, -0.07875604182481766, -11.277853965759277, 0.021835967898368835, -0.03841445595026016, 0.9621230363845825, -0.02890671044588089, -0.07543754577636719, 1.48974609375, 1.29345703125, 0.05889892578125, 1.493408203125
28600, 0.008824275806546211, 0.035915013402700424, 0.013486395590007305, -0.007898549549281597, -0.0008175107068382204, -0.6452089548110962, -0.010541782714426517, -0.0017624851316213608, -0.6705461144447327, 0.17512863874435425, 0.5627328157424927, 0.05636907368898392, -0.20564364678920896, 0.8154800171692216, -9.949331601668947, 9362.0, 30146.0, 35388.0, 9362.0, 7.9537200927734375, -1.2992087602615356, -0.33688873052597046, -5.413266658782959, 0.01854797452688217, -0.04392854496836662, 0.9606626629829407, -0.01850917562842369, -0.07543754577636719, 1.48974609375, 1.29345703125, 0.05889892578125, 1.493408203125
28620, 0.015829764306545258, 0.03574512153863907, 0.026911506429314613, -0.008110584691166878, -0.0008531543426215649, -0.6586917638778687, -0.010661241598427296, -0.0017982495483011007, -0.6777706742286682, 0.17513008415699005, 0.5627421140670776, 0.05636254698038101, -0.20610471300220157, 0.8231438530191326, -9.953278939088557, 9362.0, 30146.0, 35388.0, 9362.0, 7.933885097503662, -1.2434834241867065, -0.6699944734573364, -7.004566192626953, 0.027298949658870697, -0.03662272170186043, 0.966728687286377, -0.036891233175992966, -0.07543754577636719, 1.48974609375, 1.29345703125, 0.05889892578125, 1.493408203125
28630, 0.011223586276173592, 0.03715929016470909, 0.04617995768785477, -0.008110584691166878, -0.0008531543426215649, -0.6586917638778687, -0.010661241598427296, -0.0017982495483011007, -0.6777706742286682, 0.17514042556285858, 0.562744677066803, 0.056357357650995255, -0.21372672085877908, 0.823391187840258, -9.954152198467375, 9362.0, 30146.0, 35388.0, 9362.0, 7.9537200927734375, -1.2434834241867065, -0.6699944734573364, -7.004566192626953, 0.027298949658870697, -0.03662272170186043, 0.966728687286377, -0.02829059772193432, 0.11272048950195312, 1.505126953125, 1.29345703125, 0.05889892578125, 1.493408203125
28660, 0.01598994806408882, 0.03760262206196785, 0.04873787239193916, -0.008541839197278023, -0.0009268500143662095, -0.6860727071762085, -0.010905635543167591, -0.0018796779913827777, -0.6914997696876526, 0.17513278126716614, 0.5627426505088806, 0.056366801261901855, -0.21203171128314924, 0.8190125177335403, -9.94937320938037, 9362.0, 30146.0, 35388.0, 9362.0, 7.933885097503662, -1.2434834241867065, -0.6699944734573364, -7.004566192626953, 0.0164200309664011, -0.04300086572766304, 0.9614721536636353, -0.03264271095395088, -0.07543754577636719, 1.48974609375, 1.29345703125, 0.05889892578125, 1.493408203125
28680, 0.008867870084941387, 0.04103982076048851, 0.006063371431082487, -0.008761254139244556, -0.0009649230050854385, -0.699970543384552, -0.011033964343369007, -0.0019296972313895822, -0.6981840133666992, 0.17512671649456024, 0.5627437233924866, 0.056361302733421326, -0.2100840283391938, 0.8208400446779649, -9.952559923723689, 9362.0, 30146.0, 35388.0, 9362.0, 7.9537200927734375, 1.6154077053070068, -0.33320051431655884, -1.5703527927398682, 0.0209780503064394, -0.040754880756139755, 0.9632474184036255, -0.03264271095395088, -0.07543754577636719, 1.48974609375, 1.29345703125, 0.05889892578125, 1.493408203125
