timeTick, roll, pitch, yaw, stateX, stateY, stateZ, stateVX, stateVY, stateVZ, otX0, otY0, otZ0, otRoll0, otPitch0, otYaw0, left wing, pitch motor, yaw motor, right wing, voltage, roll rate, pitch rate, yaw rate, A_x, A_y, A_z, current, i_raw, v_raw, airflow_voltage, airflow_speed, pot_Pitch
24835, -1.395060420036316, 4.690589427947998, 0.4523361325263977, 0, 0, 0, 0, 0, 0, 0.23058581352233887, 0.48333996534347534, 0.05874517932534218, 0.3586442815381209, -0.05502429080385696, -7.483477490431118, 0, 0, 0, 0, 0, 0, 0, 0, 0, 0, 0, 0, 0, 0, 0, 0, 0
24845, -1.3952839374542236, 4.689629554748535, 0.45350873470306396, 0.02031726948916912, -0.005888216197490692, -94.700927734375, 0.6433626413345337, -0.18645749986171722, -8.133204460144043, 0.23058514297008514, 0.48334574699401855, 0.05871283635497093, 0.3600995745127928, -0.05730583380744747, -7.498513740515542, 9362.0, 30146.0, 35388.0, 9362.0, 8.390083312988281, -0.184422567486763, 0.050359707325696945, -0.1806309074163437, 0.004940924700349569, -0.032068949192762375, 0.9647966623306274, -0.05446811020374298, -0.03959846496582031, 1.49267578125, 0, 0, 0
24855, -1.3966484069824219, 4.691469669342041, 0.45374229550361633, 0.026712078601121902, -0.007741563953459263, -94.78227996826172, 0.6355990171432495, -0.18421217799186707, -8.136903762817383, 0.23058299720287323, 0.48335158824920654, 0.05874144285917282, 0.360862064595849, -0.05792306270492986, -7.50365391390051, 9362.0, 30146.0, 35388.0, 9362.0, 8.390083312988281, -0.090627022087574, -0.21111609041690826, 0.07815797626972198, 0.002901222091168165, -0.03108503296971321, 0.9638922810554504, -0.055081356316804886, -0.07543754577636719, 1.48974609375, 1.327880859375, 0.0218353271484375, 1.493408203125
24865, -1.396081566810608, 4.691047191619873, 0.45426949858665466, 0.03302936628460884, -0.009572488255798817, -94.8636703491211, 0.6278585195541382, -0.18197275698184967, -8.140862464904785, 0.23058553040027618, 0.4833432137966156, 0.05871301144361496, 0.3570415743874668, -0.06309729315515256, -7.497824675890996, 9362.0, 30146.0, 35388.0, 9362.0, 8.370248794555664, -0.16136355698108673, 0.12539668381214142, 0.14074434340000153, 0.002686248393729329, -0.029060006141662598, 0.9633299112319946, -0.057023487985134125, -0.06647872924804688, 1.490478515625, 1.323486328125, 0.024688720703125, 1.496337890625
24875, -1.3964558839797974, 4.691243648529053, 0.45366182923316956, 0.039269205182790756, -0.0113809984177351, -94.94509887695312, 0.6201090216636658, -0.1797294169664383, -8.144750595092773, 0.23057283461093903, 0.48334115743637085, 0.05870513617992401, 0.35842441325587454, -0.061614871827572415, -7.4952175956488905, 9362.0, 30146.0, 35388.0, 9362.0, 8.390083312988281, -0.04438461363315582, -0.07544572651386261, -0.023402627557516098, 0.0041076987981796265, -0.030133996158838272, 0.9657757878303528, -0.05681140348315239, -0.09335899353027344, 1.48828125, 1.32421875, 0.024139404296875, 1.49560546875
24885, -1.3970378637313843, 4.69129753112793, 0.4540582597255707, 0.04543152078986168, -0.013167072087526321, -95.02656555175781, 0.6123542785644531, -0.17748528718948364, -8.148567199707031, 0.2305789291858673, 0.4833500385284424, 0.05873655900359154, 0.35386148131796286, -0.05965000234269269, -7.499626412626308, 9362.0, 30146.0, 35388.0, 9362.0, 8.390083312988281, -0.1020713672041893, -0.028530417010188103, 0.3634541630744934, 0.0047934274189174175, -0.03159673511981964, 0.9648190140724182, -0.09489528834819794, 0.03208160400390625, 1.49853515625, 1.320556640625, 0.02685546875, 1.4970703125
24895, -1.3963314294815063, 4.689723968505859, 0.45646584033966064, 0.05151626095175743, -0.014930692501366138, -95.10807037353516, 0.6045935750007629, -0.1752389371395111, -8.152314186096191, 0.2305694967508316, 0.4833507537841797, 0.05869654566049576, 0.35596752459138353, -0.05889810404963214, -7.498338480107309, 9362.0, 30146.0, 35388.0, 9362.0, 8.390083312988281, 0.023689601570367813, 0.026865899562835693, 0.11821654438972473, 0.003985258284956217, -0.031964514404535294, 0.9647061228752136, -0.08112821727991104, -0.03959846496582031, 1.49267578125, 1.2978515625, 0.05224609375, 1.4912109375
24905, -1.395601511001587, 4.6895880699157715, 0.4568803012371063, 0.057523444294929504, -0.016671858727931976, -95.18961334228516, 0.5968426465988159, -0.17299477756023407, -8.156184196472168, 0.23058143258094788, 0.48333922028541565, 0.05874134227633476, 0.35502368909033016, -0.06579521684028578, -7.497343226525598, 9362.0, 30146.0, 35388.0, 9362.0, 8.370248794555664, 0.03346932306885719, 0.07299116998910904, 0.047980617731809616, 0.0042575947009027, -0.02931935153901577, 0.9661741256713867, -0.07457364350557327, 0.014162063598632812, 1.4970703125, 1.29931640625, 0.0500640869140625, 1.494873046875
24915, -1.3954768180847168, 4.691803455352783, 0.4564967453479767, 0.0634530559182167, -0.01839056983590126, -95.27119445800781, 0.589078962802887, -0.17074739933013916, -8.159867286682129, 0.23058298230171204, 0.4833446741104126, 0.0587305910885334, 0.36348950495832677, -0.05729453027643672, -7.492606411730611, 9362.0, 30146.0, 35388.0, 9362.0, 8.370248794555664, -0.09847157448530197, -0.27591660618782043, -0.031780969351530075, 0.004100503865629435, -0.031000930815935135, 0.9656185507774353, -0.06682354211807251, -0.01271820068359375, 1.494873046875, 1.307373046875, 0.039581298828125, 1.496337890625
24925, -1.3947752714157104, 4.6933512687683105, 0.45627427101135254, 0.06930503249168396, -0.02008681558072567, -95.35281372070312, 0.5813169479370117, -0.16850154101848602, -8.163564682006836, 0.2305896133184433, 0.48333585262298584, 0.05870828405022621, 0.3578493331698282, -0.062174209854248375, -7.500092288763605, 9362.0, 30146.0, 35388.0, 9362.0, 8.390083312988281, 0.008500552736222744, -0.1591080129146576, 0.046831224113702774, 0.0039911456406116486, -0.03142385929822922, 0.9644114375114441, -0.06084495037794113, 0.0052013397216796875, 1.496337890625, 1.305908203125, 0.0413360595703125, 1.49267578125
24935, -1.395420789718628, 4.6904096603393555, 0.4581855535507202, 0.07507941871881485, -0.021760614588856697, -95.4344711303711, 0.5735597014427185, -0.1662583202123642, -8.167366027832031, 0.2305777668952942, 0.48334595561027527, 0.058722663670778275, 0.3565212574073157, -0.059929677687506455, -7.494413738359154, 9362.0, 30146.0, 35388.0, 9362.0, 8.370248794555664, -0.23763956129550934, 0.19904516637325287, -0.024229060858488083, 0.004797107074409723, -0.029339149594306946, 0.9647811055183411, -0.05370505899190903, -0.030637741088867188, 1.493408203125, 1.2978515625, 0.05224609375, 1.494873046875
24945, -1.396491289138794, 4.690835952758789, 0.4588293433189392, 0.08077621459960938, -0.023411987349390984, -95.51616668701172, 0.5657992959022522, -0.1640165150165558, -8.171161651611328, 0.23058559000492096, 0.4833482503890991, 0.058743685483932495, 0.36133498988837004, -0.05342470729789284, -7.505014901333038, 9362.0, 30146.0, 35388.0, 9362.0, 8.370248794555664, -0.0766756534576416, -0.07226451486349106, -0.08386870473623276, 0.004164037294685841, -0.03147830069065094, 0.9652122259140015, -0.05105261877179146, -0.021678924560546875, 1.494140625, 1.3125, 0.034027099609375, 1.49560546875
24955, -1.3970134258270264, 4.693302154541016, 0.45869681239128113, 0.08639542013406754, -0.02504093572497368, -95.597900390625, 0.5580422878265381, -0.16177326440811157, -8.17494010925293, 0.23059308528900146, 0.4833523631095886, 0.05874374136328697, 0.361110952984218, -0.059720436858384573, -7.49166955165421, 9362.0, 30146.0, 35388.0, 9362.0, 8.390083312988281, -0.19347447156906128, -0.10862526297569275, 0.2569129168987274, 0.005672386847436428, -0.0293416790664196, 0.9657343029975891, -0.047199420630931854, -0.03959846496582031, 1.49267578125, 1.30810546875, 0.0388031005859375, 1.494873046875
24965, -1.396042823791504, 4.689469814300537, 0.46017003059387207, 0.09193701297044754, -0.026647431775927544, -95.6796646118164, 0.550277054309845, -0.15952599048614502, -8.17862606048584, 0.23058541119098663, 0.4833456575870514, 0.05871925130486488, 0.35692183960589263, -0.057161341076152894, -7.494122841702049, 9362.0, 30146.0, 35388.0, 9362.0, 8.390083312988281, 0.24544399976730347, 0.5565766096115112, 0.128544881939888, 0.005267583765089512, -0.03117690421640873, 0.9647778272628784, -0.04903704300522804, -0.07543754577636719, 1.48974609375, 1.288330078125, 0.0676116943359375, 1.494140625
24975, -1.3975802659988403, 4.689395427703857, 0.46036577224731445, 0.0974009782075882, -0.028231462463736534, -95.76146697998047, 0.5425153374671936, -0.1572803109884262, -8.182406425476074, 0.23057883977890015, 0.4833458364009857, 0.05874340236186981, 0.35726761601862433, -0.0509139266129921, -7.499576688841552, 9362.0, 30146.0, 35388.0, 9362.0, 8.370248794555664, -0.2544798254966736, -0.23465843498706818, 0.0857221931219101, 0.0052596041932702065, -0.031956229358911514, 0.9652510285377502, -0.04841092973947525, -0.04855918884277344, 1.491943359375, 1.305908203125, 0.0413360595703125, 1.49560546875
24985, -1.398185133934021, 4.689426898956299, 0.4606519341468811, 0.10278733819723129, -0.029793040826916695, -95.84330749511719, 0.5347569584846497, -0.15503542125225067, -8.186149597167969, 0.23058195412158966, 0.48334556818008423, 0.05871913954615593, 0.36150696170509816, -0.06003380207695841, -7.493651092736307, 9362.0, 30146.0, 35388.0, 9362.0, 8.370248794555664, -0.08885809034109116, 0.09699101746082306, 0.04365835338830948, 0.003980547189712524, -0.030237670987844467, 0.9641455411911011, -0.048414446413517, -0.03959846496582031, 1.49267578125, 1.3037109375, 0.04412841796875, 1.491943359375
24995, -1.3978222608566284, 4.689207553863525, 0.46152299642562866, 0.1080961525440216, -0.031332168728113174, -95.92518615722656, 0.5270055532455444, -0.15278998017311096, -8.189976692199707, 0.23058834671974182, 0.48334744572639465, 0.058721914887428284, 0.35670307082333524, -0.062118523563782446, -7.497993578062338, 9362.0, 30146.0, 35388.0, 9362.0, 8.390083312988281, -0.03902317211031914, 0.0032127934973686934, -0.0684448629617691, 0.003753062104806304, -0.029771680012345314, 0.9649753570556641, -0.051696859300136566, -0.09335899353027344, 1.48828125, 1.3037109375, 0.04412841796875, 1.493408203125
25005, -1.3982083797454834, 4.687329292297363, 0.4635005593299866, 0.11332744359970093, -0.03284883499145508, -96.0071029663086, 0.5192520618438721, -0.15054304897785187, -8.193778991699219, 0.23059377074241638, 0.48334959149360657, 0.05870377644896507, 0.35567346022079777, -0.06978725669321761, -7.492071606256807, 9362.0, 30146.0, 35388.0, 9362.0, 8.370248794555664, 0.05421959236264229, 0.28755027055740356, 0.035460829734802246, 0.004145439714193344, -0.02965707518160343, 0.9644282460212708, -0.05230836570262909, -0.07543754577636719, 1.48974609375, 1.30517578125, 0.0422515869140625, 1.48974609375
25015, -1.3986800909042358, 4.68675422668457, 0.4628707468509674, 0.11848118901252747, -0.03434303030371666, -96.08905792236328, 0.5114969611167908, -0.14829649031162262, -8.19756031036377, 0.2305891513824463, 0.48335134983062744, 0.05875284597277641, 0.36101365920087836, -0.0611189443766591, -7.49687354250094, 9362.0, 30146.0, 35388.0, 9362.0, 8.390083312988281, -0.02702946402132511, 0.17850758135318756, -0.09718260169029236, 0.004586013965308666, -0.027628490701317787, 0.9648523330688477, -0.05042468383908272, -0.05751800537109375, 1.4912109375, 1.2978515625, 0.05224609375, 1.49560546875
25025, -1.3984798192977905, 4.684479236602783, 0.46238282322883606, 0.12355741858482361, -0.035814765840768814, -96.17105102539062, 0.5037491917610168, -0.146050363779068, -8.201390266418457, 0.2305847406387329, 0.48333901166915894, 0.05871050804853439, 0.3617269074510819, -0.057087063058133936, -7.494047517195643, 9362.0, 30146.0, 35388.0, 9362.0, 8.390083312988281, -0.018141301348805428, 0.09623099863529205, -0.15226615965366364, 0.004317217972129583, -0.028913740068674088, 0.9650027751922607, -0.04955640062689781, -0.03959846496582031, 1.49267578125, 1.300048828125, 0.0489654541015625, 1.494873046875
25035, -1.3981202840805054, 4.685286998748779, 0.46086084842681885, 0.12855614721775055, -0.03726402670145035, -96.25308227539062, 0.49599775671958923, -0.14380206167697906, -8.20516586303711, 0.2305772602558136, 0.48335447907447815, 0.05871535465121269, 0.359611244860041, -0.05473900143559263, -7.4948975797006945, 9362.0, 30146.0, 35388.0, 9362.0, 8.390083312988281, -0.013984386809170246, -0.10339529812335968, -0.05241931974887848, 0.005568674765527248, -0.029483886435627937, 0.9639214873313904, -0.05518396198749542, -0.10231781005859375, 1.487548828125, 1.329345703125, 0.02105712890625, 1.4970703125
25045, -1.3970890045166016, 4.682636260986328, 0.46013692021369934, 0.13347738981246948, -0.03869080916047096, -96.33515167236328, 0.48825129866600037, -0.1415540874004364, -8.208952903747559, 0.2305895984172821, 0.48335400223731995, 0.0587037056684494, 0.3611495559340916, -0.05732956149100232, -7.495097357260953, 9362.0, 30146.0, 35388.0, 9362.0, 8.390083312988281, 0.05506885051727295, 0.36715006828308105, -0.19769668579101562, 0.005018275231122971, -0.029460225254297256, 0.9634945392608643, -0.05414387211203575, -0.07543754577636719, 1.48974609375, 1.324951171875, 0.0236663818359375, 1.493408203125
25055, -1.396726131439209, 4.678533554077148, 0.4615788757801056, 0.13832120597362518, -0.04009512811899185, -96.4172592163086, 0.48051315546035767, -0.13930946588516235, -8.212859153747559, 0.2305889129638672, 0.48334988951683044, 0.0587163083255291, 0.3566484761407353, -0.05673883831747162, -7.4968004599601334, 9362.0, 30146.0, 35388.0, 9362.0, 8.390083312988281, -0.09869604557752609, 0.10034383833408356, 0.21322259306907654, 0.004582301247864962, -0.03120255097746849, 0.9661094546318054, -0.05231209099292755, -0.030637741088867188, 1.493408203125, 1.31689453125, 0.0298919677734375, 1.49560546875
25065, -1.3964505195617676, 4.680971622467041, 0.4604693353176117, 0.14308762550354004, -0.04147699847817421, -96.49940490722656, 0.4727714955806732, -0.13706448674201965, -8.216670036315918, 0.23059283196926117, 0.48334768414497375, 0.05872173607349396, 0.35917355812031393, -0.057532712369209094, -7.497721509249704, 9362.0, 30146.0, 35388.0, 9362.0, 8.390083312988281, 0.12750986218452454, -0.05612476170063019, 0.310336172580719, 0.00520809181034565, -0.03174848482012749, 0.9672777652740479, -0.050411157310009, -0.08439826965332031, 1.489013671875, 1.3212890625, 0.026214599609375, 1.497802734375
25075, -1.396446704864502, 4.677234649658203, 0.4593794047832489, 0.14777657389640808, -0.04283639416098595, -96.58158874511719, 0.46501708030700684, -0.13481415808200836, -8.220240592956543, 0.2305854856967926, 0.4833555817604065, 0.05872569978237152, 0.3573196430612309, -0.0636112213740887, -7.496439613449031, 9362.0, 30146.0, 35388.0, 9362.0, 8.370248794555664, 0.06633776426315308, 0.5421081781387329, -0.02849176712334156, 0.003516594646498561, -0.031044920906424522, 0.9635515809059143, -0.05295548215508461, -0.09335899353027344, 1.48828125, 1.318359375, 0.028656005859375, 1.494873046875
25085, -1.3971009254455566, 4.679120063781738, 0.459833562374115, 0.15238802134990692, -0.04417330399155617, -96.66381072998047, 0.4572710692882538, -0.1325678527355194, -8.223963737487793, 0.2305862158536911, 0.4833451211452484, 0.05872121825814247, 0.35917420243901277, -0.06334409162624866, -7.497784919349023, 9362.0, 30146.0, 35388.0, 9362.0, 8.370248794555664, 0.08341137319803238, -0.3783497214317322, -0.1810177117586136, 0.004452324006706476, -0.030738279223442078, 0.9629554748535156, -0.05218500271439552, -0.030637741088867188, 1.493408203125, 1.31396484375, 0.0325469970703125, 1.493408203125
25105, -1.398289680480957, 4.6813859939575195, 0.46060675382614136, 0.16137902438640594, -0.04677983745932579, -96.828369140625, 0.4418218433856964, -0.12808382511138916, -8.231815338134766, 0.23058311641216278, 0.48334556818008423, 0.05872466787695885, 0.3544159932993234, -0.06080830203433152, -7.505102178786785, 9362.0, 30146.0, 35388.0, 9362.0, 8.390083312988281, 0.044961392879486084, 0.36326509714126587, 0.10145410150289536, 0.007280217949301004, -0.028869865462183952, 0.9649417400360107, -0.05218500271439552, -0.030637741088867188, 1.493408203125, 1.32421875, 0.024139404296875, 1.491943359375
25115, -1.3967922925949097, 4.679914951324463, 0.4590454697608948, 0.16137902438640594, -0.04677983745932579, -96.828369140625, 0.4418218433856964, -0.12808382511138916, -8.231815338134766, 0.23056991398334503, 0.4833391010761261, 0.05871301516890526, 0.35671329368015997, -0.06413506480683395, -7.495007232016285, 9362.0, 30146.0, 35388.0, 9362.0, 8.370248794555664, 0.044961392879486084, 0.36326509714126587, 0.10145410150289536, 0.007280217949301004, -0.028869865462183952, 0.9649417400360107, -0.04849524423480034, -0.03959846496582031, 1.49267578125, 1.32421875, 0.024139404296875, 1.493408203125
25155, -1.3978873491287231, 4.677603721618652, 0.459665983915329, 0.18250279128551483, -0.052903320640325546, -97.24043273925781, 0.4031344950199127, -0.11685675382614136, -8.250883102416992, 0.2305852174758911, 0.4833390712738037, 0.05872756242752075, 0.3576142500956424, -0.06479771060119788, -7.488992577320951, 9362.0, 30146.0, 35388.0, 9362.0, 8.390083312988281, 0.09957942366600037, 0.11299030482769012, 0.3081308901309967, 0.007280217949301004, -0.028869865462183952, 0.9649417400360107, -0.05026489868760109, -0.05751800537109375, 1.4912109375, 1.32421875, 0.024139404296875, 1.493408203125
25175, -1.3982524871826172, 4.676271915435791, 0.46075230836868286, 0.18250279128551483, -0.052903320640325546, -97.24043273925781, 0.4031344950199127, -0.11685675382614136, -8.250883102416992, 0.2305988222360611, 0.48334479331970215, 0.05871006101369858, 0.35514672392186963, -0.05781495384428581, -7.493289757079683, 9362.0, 30146.0, 35388.0, 9362.0, 8.390083312988281, 0.09899522364139557, 0.4966467022895813, 0.029400143772363663, 0.004469867330044508, -0.02815825119614601, 0.9655147194862366, -0.047698862850666046, -0.021678924560546875, 1.494140625, 1.32421875, 0.024139404296875, 1.497802734375
25185, -1.3992058038711548, 4.678093433380127, 0.4601735770702362, 0.18250279128551483, -0.052903320640325546, -97.24043273925781, 0.4031344950199127, -0.11685675382614136, -8.250883102416992, 0.23058024048805237, 0.48335328698158264, 0.05872269719839096, 0.35811541092283167, -0.05827289180462003, -7.491543706439672, 9362.0, 30146.0, 35388.0, 9362.0, 8.370248794555664, -0.09607762098312378, -0.066291444003582, 0.15922041237354279, 0.004469867330044508, -0.02815825119614601, 0.9655147194862366, -0.040325965732336044, 0.0052013397216796875, 1.496337890625, 1.32421875, 0.024139404296875, 1.497802734375
25205, -1.4001561403274536, 4.675658702850342, 0.45823368430137634, 0.20169320702552795, -0.05846545472741127, -97.65345001220703, 0.3644757568836212, -0.10562393069267273, -8.270030975341797, 0.23058128356933594, 0.4833511412143707, 0.05873726308345795, 0.35057196103148747, -0.06625318440850947, -7.490918747559675, 9362.0, 30146.0, 35388.0, 9362.0, 8.370248794555664, -0.09607762098312378, -0.066291444003582, 0.15922041237354279, 0.004808835219591856, -0.028527798131108284, 0.9654350876808167, -0.04085294157266617, -0.04855918884277344, 1.491943359375, 1.32421875, 0.024139404296875, 1.494140625
25215, -1.400380253791809, 4.676176071166992, 0.4589393734931946, 0.20169320702552795, -0.05846545472741127, -97.65345001220703, 0.3644757568836212, -0.10562393069267273, -8.270030975341797, 0.2305908054113388, 0.48334503173828125, 0.058727018535137177, 0.35325477417441503, -0.06094688800737913, -7.493619238138994, 9362.0, 30146.0, 35388.0, 9362.0, 8.390083312988281, -0.09607762098312378, -0.066291444003582, 0.15922041237354279, 0.004808835219591856, -0.028527798131108284, 0.9654350876808167, -0.0375123992562294, -0.021678924560546875, 1.494140625, 1.32421875, 0.024139404296875, 1.494140625
25235, -1.4021868705749512, 4.678074836730957, 0.46073418855667114, 0.21227911114692688, -0.061532821506261826, -97.90171813964844, 0.3412559926509857, -0.09886660426855087, -8.281173706054688, 0.2305774986743927, 0.483346551656723, 0.05870280787348747, 0.35311801167565793, -0.05494493778979859, -7.491169154261515, 9362.0, 30146.0, 35388.0, 9362.0, 8.390083312988281, -0.18115808069705963, 0.07463177293539047, 0.0666089802980423, 0.004808835219591856, -0.028527798131108284, 0.9654350876808167, -0.04250917583703995, -0.021678924560546875, 1.494140625, 1.32421875, 0.024139404296875, 1.4970703125
25255, -1.4009665250778198, 4.676771640777588, 0.4609125554561615, 0.21894939243793488, -0.06346505880355835, -98.06742095947266, 0.325771689414978, -0.09435644000768661, -8.28860092163086, 0.23058845102787018, 0.4833466112613678, 0.05873417854309082, 0.353364110905573, -0.06235144163434825, -7.497533161108664, 9362.0, 30146.0, 35388.0, 9362.0, 8.390083312988281, -0.08296432346105576, 0.4265829920768738, -0.0050286282785236835, 0.004808835219591856, -0.028527798131108284, 0.9654350876808167, -0.039946433156728745, 0.023120880126953125, 1.497802734375, 1.32421875, 0.024139404296875, 1.490478515625
25295, -1.4005775451660156, 4.6713480949401855, 0.46112024784088135, 0.2313612699508667, -0.0670589879155159, -98.39925384521484, 0.29483500123023987, -0.08534298837184906, -8.303548812866211, 0.23058493435382843, 0.4833551049232483, 0.058722544461488724, 0.35041404122705094, -0.055923506260285194, -7.49623112908735, 9362.0, 30146.0, 35388.0, 9362.0, 8.370248794555664, -0.08296432346105576, 0.4265829920768738, -0.0050286282785236835, 0.004010380711406469, -0.0335092730820179, 0.9644427299499512, -0.04079760983586311, -0.03959846496582031, 1.49267578125, 1.32421875, 0.024139404296875, 1.490478515625
25305, -1.3995542526245117, 4.6708760261535645, 0.4603198170661926, 0.2313612699508667, -0.0670589879155159, -98.39925384521484, 0.29483500123023987, -0.08534298837184906, -8.303548812866211, 0.23057913780212402, 0.4833548665046692, 0.05871078744530678, 0.35965214780575405, -0.05404916940861426, -7.495161284183735, 9362.0, 30146.0, 35388.0, 9362.0, 8.390083312988281, 0.04837438464164734, 0.11648236215114594, -0.2297227382659912, 0.004010380711406469, -0.0335092730820179, 0.9644427299499512, -0.04017777368426323, -0.021678924560546875, 1.494140625, 1.32421875, 0.024139404296875, 1.49560546875
25345, -1.39863920211792, 4.668694496154785, 0.45904451608657837, 0.24513709545135498, -0.0710446760058403, -98.81490325927734, 0.25619229674339294, -0.0740872249007225, -8.32231616973877, 0.23059770464897156, 0.48335063457489014, 0.05871042236685753, 0.3545268944473354, -0.06204022266402376, -7.485203521915242, 9362.0, 30146.0, 35388.0, 9362.0, 8.370248794555664, 0.04411797225475311, -0.23462073504924774, -0.12320718914270401, 0.004599894396960735, -0.030069179832935333, 0.9659324884414673, -0.03874529153108597, -0.03959846496582031, 1.49267578125, 1.32421875, 0.024139404296875, 1.4970703125
25365, -1.3995428085327148, 4.6672892570495605, 0.4596903920173645, 0.24766036868095398, -0.07177430391311646, -98.89814758300781, 0.24846282601356506, -0.0718381404876709, -8.326028823852539, 0.23057830333709717, 0.4833485782146454, 0.05873647332191467, 0.35554092314634, -0.06677818640417854, -7.492382158773297, 9362.0, 30146.0, 35388.0, 9362.0, 8.390083312988281, 0.17014305293560028, 0.05744446441531181, 0.13106922805309296, 0.004437427967786789, -0.03149789199233055, 0.9647875428199768, -0.03812960907816887, -0.05751800537109375, 1.4912109375, 1.32421875, 0.024139404296875, 1.49560546875
25375, -1.399897813796997, 4.667535781860352, 0.46132126450538635, 0.25247523188591003, -0.07316608726978302, -99.06475067138672, 0.23302660882472992, -0.06734056770801544, -8.333632469177246, 0.2305890917778015, 0.4833531677722931, 0.05870208516716957, 0.3566358505567676, -0.05740911504005908, -7.496984046534048, 9362.0, 30146.0, 35388.0, 9362.0, 8.370248794555664, -0.07246775180101395, -0.20582443475723267, 0.006873748265206814, 0.004437427967786789, -0.03149789199233055, 0.9647875428199768, -0.03918569162487984, -0.01271820068359375, 1.494873046875, 1.32421875, 0.024139404296875, 1.49560546875
25395, -1.4006291627883911, 4.66248893737793, 0.46181243658065796, 0.2569811940193176, -0.07446784526109695, -99.23149108886719, 0.21756398677825928, -0.06283290684223175, -8.340889930725098, 0.23058883845806122, 0.48336178064346313, 0.05872199684381485, 0.35926407380545766, -0.06389046264268927, -7.49400197901784, 9362.0, 30146.0, 35388.0, 9362.0, 8.390083312988281, -0.07246775180101395, -0.20582443475723267, 0.006873748265206814, 0.0032021456863731146, -0.03134891763329506, 0.9652244448661804, -0.041705455631017685, -0.03959846496582031, 1.49267578125, 1.32421875, 0.024139404296875, 1.494873046875
25415, -1.4011589288711548, 4.662642002105713, 0.46637552976608276, 0.2569811940193176, -0.07446784526109695, -99.23149108886719, 0.21756398677825928, -0.06283290684223175, -8.340889930725098, 0.23057708144187927, 0.4833548367023468, 0.05870410427451134, 0.35319641248868816, -0.06904069905553456, -7.494022097011399, 9362.0, 30146.0, 35388.0, 9362.0, 8.390083312988281, -0.07246775180101395, -0.20582443475723267, 0.006873748265206814, 0.0035901740193367004, -0.03133495897054672, 0.9646422266960144, -0.04492338374257088, -0.09335899353027344, 1.48828125, 1.32421875, 0.024139404296875, 1.494140625
25425, -1.4018292427062988, 4.664200782775879, 0.4680265784263611, 0.2569811940193176, -0.07446784526109695, -99.23149108886719, 0.21756398677825928, -0.06283290684223175, -8.340889930725098, 0.23058061301708221, 0.4833526015281677, 0.05871674045920372, 0.3589614706638517, -0.05934235693098344, -7.491961211683811, 9362.0, 30146.0, 35388.0, 9362.0, 8.390083312988281, -0.07246775180101395, -0.20582443475723267, 0.006873748265206814, 0.0035901740193367004, -0.03133495897054672, 0.9646422266960144, -0.0481550469994545, -0.021678924560546875, 1.494140625, 1.32421875, 0.024139404296875, 1.494873046875
25445, -1.4017819166183472, 4.663751602172852, 0.4671792984008789, 0.2569811940193176, -0.07446784526109695, -99.23149108886719, 0.21756398677825928, -0.06283290684223175, -8.340889930725098, 0.23059195280075073, 0.4833642244338989, 0.05871916562318802, 0.352706192860556, -0.05563822572395338, -7.49541933662621, 9362.0, 30146.0, 35388.0, 9362.0, 8.370248794555664, -0.07246775180101395, -0.20582443475723267, 0.006873748265206814, 0.005315524525940418, -0.029570527374744415, 0.9658948183059692, -0.05028429627418518, -0.07543754577636719, 1.48974609375, 1.32421875, 0.024139404296875, 1.494140625
25465, -1.4018418788909912, 4.662979602813721, 0.46617186069488525, 0.2569811940193176, -0.07446784526109695, -99.23149108886719, 0.21756398677825928, -0.06283290684223175, -8.340889930725098, 0.23057684302330017, 0.48334476351737976, 0.05869492515921593, 0.3651864877737095, -0.05380682726618602, -7.4946523154478895, 9362.0, 30146.0, 35388.0, 9362.0, 8.370248794555664, 0.0683075487613678, 0.21306736767292023, -0.11268512159585953, 0.005315524525940418, -0.029570527374744415, 0.9658948183059692, -0.05741598829627037, -0.11127853393554688, 1.48681640625, 1.32421875, 0.024139404296875, 1.494873046875
25475, -1.4007123708724976, 4.660256385803223, 0.4643990397453308, 0.2569811940193176, -0.07446784526109695, -99.23149108886719, 0.21756398677825928, -0.06283290684223175, -8.340889930725098, 0.230589359998703, 0.4833477735519409, 0.05870773643255234, 0.35028849237594173, -0.05483341301675182, -7.492888727239978, 9362.0, 30146.0, 35388.0, 9362.0, 8.370248794555664, 0.12081512808799744, -0.04212553799152374, -0.054882023483514786, 0.005315524525940418, -0.029570527374744415, 0.9658948183059692, -0.05667068436741829, -0.03959846496582031, 1.49267578125, 1.32421875, 0.024139404296875, 1.494873046875
25505, -0.0011655086418613791, 0.0006069760420359671, 0.0010201683035120368, 0.2569811940193176, -0.07446784526109695, -99.23149108886719, 0.21756398677825928, -0.06283290684223175, -8.340889930725098, 0.23057839274406433, 0.4833551049232483, 0.058707449585199356, 0.36067995675060044, -0.06459740815526516, -7.492700003433905, 9362.0, 30146.0, 35388.0, 9362.0, 8.390083312988281, -0.007545259781181812, -0.18924611806869507, -0.03167661651968956, 0.0034287029411643744, -0.030531296506524086, 0.9663580656051636, -0.05472198873758316, -0.030637741088867188, 1.493408203125, 1.32421875, 0.024139404296875, 1.497802734375
25555, -0.0013991682790219784, -0.005200119689106941, 0.008512686006724834, -4.0168870896195585e-08, -1.4858190233724144e-08, -0.00015077798161655664, -3.3001613246597117e-06, 2.3649506886158633e-07, -0.010090946219861507, 0.23058348894119263, 0.48335427045822144, 0.05870915949344635, 0.35896724943879005, -0.05691093579974904, -7.488128447765435, 9362.0, 30146.0, 35388.0, 9362.0, 8.370248794555664, 0.013314447365701199, -0.0037605303805321455, -0.11060293763875961, 0.0038745878264307976, -0.028252238407731056, 0.9663521647453308, -0.048987019807100296, -0.06647872924804688, 1.490478515625, 1.32421875, 0.024139404296875, 1.496337890625
25565, -0.0005786142428405583, -0.004085253458470106, 0.008054488338530064, -4.0168870896195585e-08, -1.4858190233724144e-08, -0.00015077798161655664, -3.3001613246597117e-06, 2.3649506886158633e-07, -0.010090946219861507, 0.2305779755115509, 0.4833538234233856, 0.058721013367176056, 0.35274741812088767, -0.06354433917761071, -7.496194833110553, 9362.0, 30146.0, 35388.0, 9362.0, 8.390083312988281, -0.004831001628190279, -0.2394658923149109, -0.23158077895641327, 0.0038745878264307976, -0.028252238407731056, 0.9663521647453308, -0.044821493327617645, -0.021678924560546875, 1.494140625, 1.32421875, 0.024139404296875, 1.4912109375
25585, 0.00044387561501935124, -0.0033610679674893618, 0.008345392532646656, -4.0168870896195585e-08, -1.4858190233724144e-08, -0.00015077798161655664, -3.3001613246597117e-06, 2.3649506886158633e-07, -0.010090946219861507, 0.23058968782424927, 0.4833502173423767, 0.05871375650167465, 0.3543213277870525, -0.0622130387102402, -7.4959849706442085, 9362.0, 30146.0, 35388.0, 9362.0, 8.370248794555664, -0.004831001628190279, -0.2394658923149109, -0.23158077895641327, 0.002938254037871957, -0.03278232365846634, 0.9640700221061707, -0.04712795093655586, -0.07543754577636719, 1.48974609375, 1.32421875, 0.024139404296875, 1.494873046875
25595, 0.0008823203970678151, -0.006301856134086847, 0.009905665181577206, -4.0168870896195585e-08, -1.4858190233724144e-08, -0.00015077798161655664, -3.3001613246597117e-06, 2.3649506886158633e-07, -0.010090946219861507, 0.2305854707956314, 0.4833579957485199, 0.05871676653623581, 0.35837439109556596, -0.06284518583717613, -7.492491229627868, 9362.0, 30146.0, 35388.0, 9362.0, 8.370248794555664, -0.004831001628190279, -0.2394658923149109, -0.23158077895641327, 0.002938254037871957, -0.03278232365846634, 0.9640700221061707, -0.04356829822063446, -0.030637741088867188, 1.493408203125, 1.32421875, 0.024139404296875, 1.494873046875
25605, 0.0002916883095167577, -0.004801452625542879, 0.010881624184548855, -4.0168870896195585e-08, -1.4858190233724144e-08, -0.00015077798161655664, -3.3001613246597117e-06, 2.3649506886158633e-07, -0.010090946219861507, 0.23058243095874786, 0.48336300253868103, 0.058697409927845, 0.3499065567234346, -0.06047165667288823, -7.49488906810705, 9362.0, 30146.0, 35388.0, 9362.0, 8.370248794555664, -0.025065695866942406, -0.2543781101703644, 0.050722625106573105, 0.002938254037871957, -0.03278232365846634, 0.9640700221061707, -0.04425529018044472, -0.03959846496582031, 1.49267578125, 1.32421875, 0.024139404296875, 1.497802734375
25635, -0.0020109701436012983, -0.0017944991122931242, 0.009560669772326946, 1.566149194331956e-06, 1.1317602002236526e-06, -0.0033885075245052576, 5.158915519132279e-05, 1.4072914382268209e-05, -0.04850482568144798, 0.23057717084884644, 0.48336440324783325, 0.05871721729636192, 0.35237646155932334, -0.05885113603883951, -7.495611415139437, 9362.0, 30146.0, 35388.0, 9362.0, 8.390083312988281, -0.025065695866942406, -0.2543781101703644, 0.050722625106573105, 0.007203279063105583, -0.028962282463908195, 0.9680593609809875, -0.0455239899456501, -0.01271820068359375, 1.494873046875, 1.32421875, 0.024139404296875, 1.491943359375
25645, -0.001847208826802671, 0.0004177378723397851, 0.008612466044723988, 1.566149194331956e-06, 1.1317602002236526e-06, -0.0033885075245052576, 5.158915519132279e-05, 1.4072914382268209e-05, -0.04850482568144798, 0.2305770069360733, 0.48336032032966614, 0.05873757228255272, 0.3538895321464669, -0.06122009637397241, -7.498414442959261, 9362.0, 30146.0, 35388.0, 9362.0, 8.390083312988281, -0.025065695866942406, -0.2543781101703644, 0.050722625106573105, 0.007203279063105583, -0.028962282463908195, 0.9680593609809875, -0.048378799110651016, -0.021678924560546875, 1.494140625, 1.32421875, 0.024139404296875, 1.491943359375
25655, -0.000613235984928906, -0.0006768577150069177, 0.009426722303032875, 1.566149194331956e-06, 1.1317602002236526e-06, -0.0033885075245052576, 5.158915519132279e-05, 1.4072914382268209e-05, -0.04850482568144798, 0.23059020936489105, 0.4833627939224243, 0.05872030183672905, 0.35337972995875394, -0.06110133305040222, -7.496677198726065, 9362.0, 30146.0, 35388.0, 9362.0, 8.390083312988281, 0.15956100821495056, 0.35430073738098145, 0.2796019911766052, 0.007203279063105583, -0.028962282463908195, 0.9680593609809875, -0.048378799110651016, -0.021678924560546875, 1.494140625, 1.32421875, 0.024139404296875, 1.4912109375
25665, 0.0003631370491348207, -0.0007985688862390816, 0.01090157125145197, 1.566149194331956e-06, 1.1317602002236526e-06, -0.0033885075245052576, 5.158915519132279e-05, 1.4072914382268209e-05, -0.04850482568144798, 0.23058873414993286, 0.48334360122680664, 0.05873436480760574, 0.350373083248634, -0.06265713721771249, -7.495680808136151, 9362.0, 30146.0, 35388.0, 9362.0, 8.370248794555664, 0.15889084339141846, 0.162131205201149, 0.06147054582834244, 0.007203279063105583, -0.028962282463908195, 0.9680593609809875, -0.052262112498283386, -0.07543754577636719, 1.48974609375, 1.32421875, 0.024139404296875, 1.4970703125
25685, 0.0004232147475704551, -0.0046816482208669186, 0.011391053907573223, 4.476336926018121e-06, 2.13059433917806e-06, -0.006224103271961212, 6.119693716755137e-05, 2.299069456057623e-05, -0.06496992707252502, 0.2305833101272583, 0.4833485782146454, 0.05872740224003792, 0.3569396341050048, -0.06027584300966282, -7.4891080539602894, 9362.0, 30146.0, 35388.0, 9362.0, 8.390083312988281, -0.1884249597787857, -0.2169952690601349, -0.08452228456735611, 0.007203279063105583, -0.028962282463908195, 0.9680593609809875, -0.055410902947187424, -0.1291980743408203, 1.4853515625, 1.32421875, 0.024139404296875, 1.496337890625
25695, 0.0009612076682969928, -0.0029219072312116623, 0.01104864664375782, 4.476336926018121e-06, 2.13059433917806e-06, -0.006224103271961212, 6.119693716755137e-05, 2.299069456057623e-05, -0.06496992707252502, 0.23057076334953308, 0.48335814476013184, 0.05871206149458885, 0.3544702271367694, -0.05689169913651426, -7.5019372556055215, 9362.0, 30146.0, 35388.0, 9362.0, 8.370248794555664, -0.1884249597787857, -0.2169952690601349, -0.08452228456735611, 0.005140658002346754, -0.03304320201277733, 0.964332640171051, -0.055410902947187424, -0.1291980743408203, 1.4853515625, 1.32421875, 0.024139404296875, 1.496337890625
25755, 0.00236584828235209, -0.0027378236409276724, 0.012516920454800129, 9.935207344824448e-06, 3.296090426374576e-06, -0.011616664007306099, 9.345092985313386e-05, 6.029286851116922e-06, -0.08915658295154572, 0.23057790100574493, 0.4833530783653259, 0.05870901420712471, 0.35524594220208067, -0.06047525511152685, -7.493428403214235, 9362.0, 30146.0, 35388.0, 9362.0, 8.390083312988281, -0.0511147603392601, -0.15749835968017578, 0.1557425558567047, 0.005387869197875261, -0.03139971196651459, 0.96500164270401, -0.05546185374259949, -0.09335899353027344, 1.48828125, 1.32421875, 0.024139404296875, 1.49560546875
25775, 0.0016716548707336187, 0.00063668517395854, 0.013735020533204079, 9.935207344824448e-06, 3.296090426374576e-06, -0.011616664007306099, 9.345092985313386e-05, 6.029286851116922e-06, -0.08915658295154572, 0.2305760532617569, 0.483357697725296, 0.05873452499508858, 0.3579840711966, -0.06141730673644474, -7.492987179042951, 9362.0, 30146.0, 35388.0, 9362.0, 8.370248794555664, -0.00798841193318367, 0.09827741235494614, 0.3661535084247589, 0.0044049532152712345, -0.034040890634059906, 0.9655324816703796, -0.051514144986867905, -0.07543754577636719, 1.48974609375, 1.32421875, 0.024139404296875, 1.494873046875
25785, 0.0008560612332075834, 0.0003529241366777569, 0.012984225526452065, 9.935207344824448e-06, 3.296090426374576e-06, -0.011616664007306099, 9.345092985313386e-05, 6.029286851116922e-06, -0.08915658295154572, 0.23056866228580475, 0.48335087299346924, 0.05871152877807617, 0.35900159683297606, -0.05259998314994618, -7.496851297493179, 9362.0, 30146.0, 35388.0, 9362.0, 8.390083312988281, -0.00798841193318367, 0.09827741235494614, 0.3661535084247589, 0.0044049532152712345, -0.034040890634059906, 0.9655324816703796, -0.0536438524723053, -0.05751800537109375, 1.4912109375, 1.32421875, 0.024139404296875, 1.494873046875
25795, 0.0010191724868491292, 0.0009462831658311188, 0.013669444248080254, 9.935207344824448e-06, 3.296090426374576e-06, -0.011616664007306099, 9.345092985313386e-05, 6.029286851116922e-06, -0.08915658295154572, 0.23058930039405823, 0.4833422005176544, 0.05869013071060181, 0.3522643776679556, -0.0613693309727239, -7.487272145218639, 9362.0, 30146.0, 35388.0, 9362.0, 8.390083312988281, -0.019489170983433723, -0.11133717745542526, 0.02187471278011799, 0.00370879378169775, -0.029451142996549606, 0.9672331809997559, -0.0536438524723053, -0.05751800537109375, 1.4912109375, 1.32421875, 0.024139404296875, 1.494873046875
25805, -0.00011190955410711467, 0.0014364835806190968, 0.012654811143875122, 9.935207344824448e-06, 3.296090426374576e-06, -0.011616664007306099, 9.345092985313386e-05, 6.029286851116922e-06, -0.08915658295154572, 0.23058770596981049, 0.48334240913391113, 0.05871409922838211, 0.35569246748594, -0.062770422392191, -7.492774525454971, 9362.0, 30146.0, 35388.0, 9362.0, 8.390083312988281, -0.1316361129283905, -0.39084187150001526, -0.16925697028636932, 0.00370879378169775, -0.029451142996549606, 0.9672331809997559, -0.08796215057373047, -0.09335899353027344, 1.48828125, 1.32421875, 0.024139404296875, 1.496337890625
25825, 0.0007502289372496307, 0.004642721265554428, 0.011233117431402206, 1.6770931324572302e-05, 2.969050456158584e-06, -0.018701907247304916, 9.422006405657157e-05, -1.040803090290865e-05, -0.1131347045302391, 0.23057663440704346, 0.4833620488643646, 0.0587182343006134, 0.35697465198935546, -0.054843876949945525, -7.497412911777622, 9362.0, 30146.0, 35388.0, 9362.0, 8.390083312988281, -0.1316361129283905, -0.39084187150001526, -0.16925697028636932, 0.00494793988764286, -0.02893049269914627, 0.9638364911079407, -0.07749370485544205, -0.030637741088867188, 1.493408203125, 1.32421875, 0.024139404296875, 1.496337890625
25835, 0.0012703777756541967, 0.005174477118998766, 0.010018043220043182, 1.6770931324572302e-05, 2.969050456158584e-06, -0.018701907247304916, 9.422006405657157e-05, -1.040803090290865e-05, -0.1131347045302391, 0.23057354986667633, 0.48334524035453796, 0.058709803968667984, 0.3517058656216474, -0.0650708032486591, -7.495118866283283, 9362.0, 30146.0, 35388.0, 9362.0, 8.390083312988281, -0.1316361129283905, -0.39084187150001526, -0.16925697028636932, 0.00494793988764286, -0.02893049269914627, 0.9638364911079407, -0.07334080338478088, -0.06647872924804688, 1.490478515625, 1.32421875, 0.024139404296875, 1.496337890625
25855, 0.0013602131512016058, 0.007776210084557533, 0.006909985560923815, 1.9284485460957512e-05, 2.6100283321284223e-06, -0.0222557932138443, 7.20294046914205e-05, -1.4438953257922549e-05, -0.12367691844701767, 0.23057788610458374, 0.48335033655166626, 0.05869150161743164, 0.35768290832355115, -0.061298815129561035, -7.496089625081399, 9362.0, 30146.0, 35388.0, 9362.0, 8.390083312988281, -0.08499956876039505, -0.030591683462262154, 0.11637884378433228, 0.00494793988764286, -0.02893049269914627, 0.9638364911079407, -0.06618617475032806, -0.07543754577636719, 1.48974609375, 1.32421875, 0.024139404296875, 1.49267578125
25865, 0.0006562551134265959, 0.008705479092895985, 0.009020029567182064, 1.9284485460957512e-05, 2.6100283321284223e-06, -0.0222557932138443, 7.20294046914205e-05, -1.4438953257922549e-05, -0.12367691844701767, 0.23057039082050323, 0.48334619402885437, 0.05868342146277428, 0.3551086858856577, -0.06596882662273629, -7.489491559947104, 9362.0, 30146.0, 35388.0, 9362.0, 8.390083312988281, 0.10652738809585571, -0.4061621427536011, 0.12586049735546112, 0.00494793988764286, -0.02893049269914627, 0.9638364911079407, -0.06233909726142883, -0.04855918884277344, 1.491943359375, 1.32421875, 0.024139404296875, 1.496337890625
25895, 0.0023401519283652306, 0.007846961729228497, 0.008882181718945503, 2.106145620928146e-05, 1.8801846408678102e-06, -0.027482476085424423, 1.68924580066232e-05, -2.2181347958394326e-05, -0.13772673904895782, 0.23058277368545532, 0.483344167470932, 0.058698516339063644, 0.35151870471068536, -0.057937212206354616, -7.491500943694513, 9362.0, 30146.0, 35388.0, 9362.0, 8.390083312988281, 0.14114801585674286, -0.18278643488883972, -0.2070363610982895, 0.003910190425813198, -0.031520530581474304, 0.9637811779975891, -0.05945007503032684, -0.030637741088867188, 1.493408203125, 1.32421875, 0.024139404296875, 1.496337890625
25925, 0.003082182025536895, 0.00723967095836997, 0.007692726794630289, 2.0964929717592895e-05, 1.0292640126863262e-06, -0.031767815351486206, -2.506726741557941e-05, -3.526041837176308e-05, -0.14784127473831177, 0.23057527840137482, 0.4833466112613678, 0.05870494619011879, 0.35682221819574317, -0.06182088058298518, -7.501311277550892, 9362.0, 30146.0, 35388.0, 9362.0, 8.370248794555664, -0.22228792309761047, 0.10430537909269333, 0.30920958518981934, 0.003910190425813198, -0.031520530581474304, 0.9637811779975891, -0.08070582151412964, -0.09335899353027344, 1.48828125, 1.32421875, 0.024139404296875, 1.497802734375
25995, 0.0010554329492151737, 0.005422802176326513, 0.010170998051762581, 1.631079794606194e-05, -2.2732133402314503e-06, -0.04295729845762253, -0.00011064414138672873, -5.2836883696727455e-05, -0.17184217274188995, 0.23058320581912994, 0.48334354162216187, 0.058698561042547226, 0.35179009324262683, -0.06285720913737691, -7.496248421592392, 9362.0, 30146.0, 35388.0, 9362.0, 8.390083312988281, 0.05526471510529518, -0.20527270436286926, 0.09924626350402832, 0.0038401009514927864, -0.031750209629535675, 0.9651708602905273, -0.060900185257196426, -0.07543754577636719, 1.48974609375, 1.32421875, 0.024139404296875, 1.494873046875
26025, 0.0009439245914109051, 0.0022812383249402046, 0.010165520012378693, 1.2498808246164117e-05, -3.935409949917812e-06, -0.04826710373163223, -0.00014095613732933998, -5.846931890118867e-05, -0.18203912675380707, 0.23057951033115387, 0.4833410680294037, 0.05869371443986893, 0.35290980361270863, -0.054605817411982116, -7.496826523141861, 9362.0, 30146.0, 35388.0, 9362.0, 8.370248794555664, -0.11075317114591599, 0.0930297002196312, -0.28265026211738586, 0.004320900421589613, -0.03053094446659088, 0.9658259153366089, -0.05644162744283676, -0.05751800537109375, 1.4912109375, 1.32421875, 0.024139404296875, 1.493408203125
26035, 0.0013496202882379293, 0.0014298271853476763, 0.008652672171592712, 1.2498808246164117e-05, -3.935409949917812e-06, -0.04826710373163223, -0.00014095613732933998, -5.846931890118867e-05, -0.18203912675380707, 0.230569526553154, 0.4833536446094513, 0.05867916718125343, 0.3530225695277013, -0.060241834138423656, -7.489626473531629, 9362.0, 30146.0, 35388.0, 9362.0, 8.370248794555664, 0.06191195547580719, 0.23688775300979614, -0.030362451449036598, 0.004320900421589613, -0.03053094446659088, 0.9658259153366089, -0.05478527769446373, -0.021678924560546875, 1.494140625, 1.32421875, 0.024139404296875, 1.493408203125
26045, 0.0004177316732238978, -0.000540092762093991, 0.01241381000727415, 1.2498808246164117e-05, -3.935409949917812e-06, -0.04826710373163223, -0.00014095613732933998, -5.846931890118867e-05, -0.18203912675380707, 0.23057442903518677, 0.483341246843338, 0.05866933614015579, 0.35628006998461365, -0.054188955778528225, -7.496774458619639, 9362.0, 30146.0, 35388.0, 9362.0, 8.370248794555664, -0.025254370644688606, 0.30460184812545776, 0.2501552104949951, 0.004320900421589613, -0.03053094446659088, 0.9658259153366089, -0.05431342124938965, -0.03959846496582031, 1.49267578125, 1.32421875, 0.024139404296875, 1.493408203125
26065, 0.0009450993384234607, -0.0008447054424323142, 0.013344500213861465, 6.540202775795478e-06, -6.434710940084187e-06, -0.05581233650445938, -0.00015196191088762134, -6.53643801342696e-05, -0.19520436227321625, 0.23058632016181946, 0.48334282636642456, 0.0587143748998642, 0.35380664390096506, -0.06112100760486783, -7.494448330341937, 9362.0, 30146.0, 35388.0, 9362.0, 8.370248794555664, -0.025254370644688606, 0.30460184812545776, 0.2501552104949951, 0.006281564012169838, -0.027743827551603317, 0.9662786722183228, -0.05690085515379906, -0.11127853393554688, 1.48681640625, 1.32421875, 0.024139404296875, 1.493408203125
26095, 0.0012577319284901023, -0.003858003532513976, 0.01795375905930996, 2.0797756405954715e-06, -8.461667675874196e-06, -0.06182331219315529, -0.00014820184151176363, -6.800244591431692e-05, -0.20554661750793457, 0.23057854175567627, 0.4833475351333618, 0.05868155509233475, 0.35397933662597403, -0.06426792370925227, -7.489168201838406, 9362.0, 30146.0, 35388.0, 9362.0, 8.390083312988281, -0.025254370644688606, 0.30460184812545776, 0.2501552104949951, 0.004409275949001312, -0.032612524926662445, 0.9647929668426514, -0.053858306258916855, -0.03959846496582031, 1.49267578125, 1.32421875, 0.024139404296875, 1.493408203125
26145, 0.0011145675089210272, -0.004868850111961365, 0.01633613184094429, -4.959810212312732e-06, -1.2091332791897003e-05, -0.07252734899520874, -0.00013585285341832787, -7.566813292214647e-05, -0.22265447676181793, 0.23056738078594208, 0.4833420217037201, 0.05867341533303261, 0.3514224839155197, -0.0510373310980583, -7.485274592670969, 9362.0, 30146.0, 35388.0, 9362.0, 8.370248794555664, -0.12088114023208618, 0.2385001927614212, 0.05223378539085388, 0.0036194371059536934, -0.029795456677675247, 0.9634405374526978, -0.25311973690986633, -0.030637741088867188, 1.493408203125, 1.31689453125, 0.0298919677734375, 1.494873046875
26155, 0.0008495200891047716, -0.006668478716164827, 0.01688864827156067, -6.292117632256122e-06, -1.2855960449087434e-05, -0.07477133721113205, -0.0001307115308009088, -7.724796887487173e-05, -0.22614309191703796, 0.23057393729686737, 0.4833407998085022, 0.05868157744407654, 0.3506304036358249, -0.06062973796977644, -7.492842730165662, 9362.0, 30146.0, 35388.0, 9362.0, 8.370248794555664, -0.05237550288438797, -0.03905484825372696, 0.11767362803220749, 0.003293960355222225, -0.03004383109509945, 0.9651025533676147, -0.25311973690986633, -0.030637741088867188, 1.493408203125, 1.31689453125, 0.0298919677734375, 1.494873046875
26175, -0.00047706376062706113, -0.006054989527910948, 0.015012407675385475, -6.292117632256122e-06, -1.2855960449087434e-05, -0.07477133721113205, -0.0001307115308009088, -7.724796887487173e-05, -0.22614309191703796, 0.2305811494588852, 0.4833521842956543, 0.05869212746620178, 0.3555618295079331, -0.05879416274055416, -7.491862696548548, 9362.0, 30146.0, 35388.0, 9362.0, 8.390083312988281, 0.0109971659258008, 0.08138258755207062, -0.18913035094738007, 0.0035115389619022608, -0.03032732382416725, 0.9650569558143616, -0.17327667772769928, -0.08439826965332031, 1.489013671875, 1.32421875, 0.024139404296875, 1.49853515625
26215, -0.002710330532863736, -0.002281367080286145, 0.015104886144399643, -1.2380341104289982e-05, -1.7596805264474824e-05, -0.08895494788885117, -7.685093441978097e-05, -7.435439329128712e-05, -0.24660269916057587, 0.23058713972568512, 0.4833514094352722, 0.0586877278983593, 0.3501897271605651, -0.05845216367310968, -7.494716874434651, 9362.0, 30146.0, 35388.0, 9362.0, 8.390083312988281, 0.0109971659258008, 0.08138258755207062, -0.18913035094738007, 0.003017348237335682, -0.0310481209307909, 0.9650110006332397, -0.1068388968706131, -0.06647872924804688, 1.490478515625, 1.32421875, 0.024139404296875, 1.4970703125
26235, -0.002383693354204297, -0.0003149904659949243, 0.015330182388424873, -1.3797243809676729e-05, -1.9005859940079972e-05, -0.09395793080329895, -6.627248512813821e-05, -6.621411739615723e-05, -0.2536405026912689, 0.2305767983198166, 0.4833419919013977, 0.058695994317531586, 0.34610961131185447, -0.05979827600330623, -7.493105340192197, 9362.0, 30146.0, 35388.0, 9362.0, 8.370248794555664, -0.2007264345884323, -0.5014719367027283, -0.045177824795246124, 0.004415959119796753, -0.02917390875518322, 0.9659767746925354, -0.07533633708953857, -0.04855918884277344, 1.491943359375, 1.32421875, 0.024139404296875, 1.4970703125
26255, -0.0010331707308068871, -0.0019278778927400708, 0.014410202391445637, -1.3797243809676729e-05, -1.9005859940079972e-05, -0.09395793080329895, -6.627248512813821e-05, -6.621411739615723e-05, -0.2536405026912689, 0.23057085275650024, 0.48334988951683044, 0.05867396295070648, 0.35183800681183075, -0.06125761261799312, -7.4904930127682645, 9362.0, 30146.0, 35388.0, 9362.0, 8.390083312988281, -0.2007264345884323, -0.5014719367027283, -0.045177824795246124, 0.004950864240527153, -0.03079906851053238, 0.9661677479743958, -0.07533633708953857, -0.04855918884277344, 1.491943359375, 1.32421875, 0.024139404296875, 1.496337890625
26285, 0.0008459840901196003, 0.0015321704559028149, 0.015070080757141113, -1.6796639101812616e-05, -2.1843265130883083e-05, -0.10706155747175217, -5.413404869614169e-05, -5.225708810030483e-05, -0.27048343420028687, 0.2305770367383957, 0.48334965109825134, 0.05871172994375229, 0.34991720554301986, -0.05947375095192342, -7.4975974698990955, 9362.0, 30146.0, 35388.0, 9362.0, 8.390083312988281, -0.2007264345884323, -0.5014719367027283, -0.045177824795246124, 0.003471211064606905, -0.028920432552695274, 0.9653029441833496, -0.10487262159585953, -0.04855918884277344, 1.491943359375, 1.32421875, 0.024139404296875, 1.493408203125
26295, 2.015650170505978e-05, 0.0026753144338726997, 0.011939923278987408, -1.6796639101812616e-05, -2.1843265130883083e-05, -0.10706155747175217, -5.413404869614169e-05, -5.225708810030483e-05, -0.27048343420028687, 0.23057696223258972, 0.48334625363349915, 0.058686401695013046, 0.35539410074599703, -0.057230935750851586, -7.493218169789933, 9362.0, 30146.0, 35388.0, 9362.0, 8.390083312988281, -0.11523088067770004, -0.43591368198394775, -0.37062621116638184, 0.003471211064606905, -0.028920432552695274, 0.9653029441833496, -0.13172706961631775, -0.12023735046386719, 1.486083984375, 1.32421875, 0.024139404296875, 1.493408203125
26305, -0.000412013876484707, 0.004303653724491596, 0.010553942061960697, -1.6796639101812616e-05, -2.1843265130883083e-05, -0.10706155747175217, -5.413404869614169e-05, -5.225708810030483e-05, -0.27048343420028687, 0.2305872142314911, 0.48333993554115295, 0.05868664011359215, 0.35577751000101154, -0.05394642702421493, -7.49772185429386, 9362.0, 30146.0, 35388.0, 9362.0, 8.370248794555664, -0.0734725371003151, -0.16704894602298737, -0.4329613447189331, 0.003471211064606905, -0.028920432552695274, 0.9653029441833496, -0.10915729403495789, -0.0037593841552734375, 1.49560546875, 1.32421875, 0.024139404296875, 1.494873046875
26325, -0.001560610020533204, 0.005076070781797171, 0.010010618716478348, -1.8469119822839275e-05, -2.3430904548149556e-05, -0.11532732099294662, -6.0464350099209696e-05, -5.368572601582855e-05, -0.28061985969543457, 0.23057450354099274, 0.48335519433021545, 0.0587027333676815, 0.3506777831996721, -0.059529784970948185, -7.49120586969762, 9362.0, 30146.0, 35388.0, 9362.0, 8.370248794555664, 0.001481138519011438, 0.012911895290017128, 0.2912978231906891, 0.0042606438510119915, -0.03146839886903763, 0.9644898176193237, -0.08445371687412262, -0.01271820068359375, 1.494873046875, 1.304443359375, 0.043182373046875, 1.493408203125
26345, -0.0018767602741718292, 0.0012825552839785814, 0.012539192102849483, -2.0597602997440845e-05, -2.4999575543915853e-05, -0.12390180677175522, -8.232422260334715e-05, -4.968615394318476e-05, -0.2910385727882385, 0.2305704802274704, 0.48334357142448425, 0.05869413539767265, 0.35005806175733206, -0.056293204670083696, -7.496623212556298, 9362.0, 30146.0, 35388.0, 9362.0, 8.370248794555664, 0.001481138519011438, 0.012911895290017128, 0.2912978231906891, 0.005187881179153919, -0.029495446011424065, 0.9653425812721252, -0.07198060303926468, -0.05751800537109375, 1.4912109375, 1.304443359375, 0.043182373046875, 1.493408203125
26355, -0.002754334593191743, 0.0022110333666205406, 0.012706181034445763, -2.1452500732266344e-05, -2.547822441556491e-05, -0.12682940065860748, -8.88082868186757e-05, -4.602382250595838e-05, -0.2944806218147278, 0.23057162761688232, 0.48335081338882446, 0.05868907272815704, 0.35449072262281184, -0.054324592216488554, -7.497415228236096, 9362.0, 30146.0, 35388.0, 9362.0, 8.370248794555664, -0.0743120089173317, -0.08490563929080963, 0.13720306754112244, 0.005187881179153919, -0.029495446011424065, 0.9653425812721252, -0.07087770849466324, -0.1291980743408203, 1.4853515625, 1.304443359375, 0.043182373046875, 1.49560546875
26365, -0.0033342880196869373, 0.000916344637516886, 0.012214274145662785, -2.1452500732266344e-05, -2.547822441556491e-05, -0.12682940065860748, -8.88082868186757e-05, -4.602382250595838e-05, -0.2944806218147278, 0.2305886447429657, 0.483348548412323, 0.058679621666669846, 0.35588762562048465, -0.05497144025309808, -7.488423339012515, 9362.0, 30146.0, 35388.0, 9362.0, 8.370248794555664, -0.019828075543045998, 0.19924606382846832, -0.020540054887533188, 0.005187881179153919, -0.029495446011424065, 0.9653425812721252, -0.06949028372764587, -0.11127853393554688, 1.48681640625, 1.304443359375, 0.043182373046875, 1.49267578125
26375, -0.0033076752442866564, 0.0009479899890720844, 0.013700587674975395, -2.1452500732266344e-05, -2.547822441556491e-05, -0.12682940065860748, -8.88082868186757e-05, -4.602382250595838e-05, -0.2944806218147278, 0.2305707335472107, 0.4833438992500305, 0.05868322029709816, 0.35344039062960936, -0.050822833557162994, -7.491785458180072, 9362.0, 30146.0, 35388.0, 9362.0, 8.390083312988281, -0.03401252627372742, 0.3716401755809784, -0.00999944843351841, 0.005187881179153919, -0.029495446011424065, 0.9653425812721252, -0.06332889199256897, -0.05751800537109375, 1.4912109375, 1.304443359375, 0.043182373046875, 1.494873046875
26395, -0.0021192049607634544, -0.0010979833314195275, 0.01248543243855238, -2.520089219615329e-05, -2.6988909667124972e-05, -0.13887813687324524, -9.787673479877412e-05, -2.7405996661400422e-05, -0.30773261189460754, 0.23057501018047333, 0.48333725333213806, 0.05868542566895485, 0.35516795837411375, -0.05756762287850847, -7.48459866879732, 9362.0, 30146.0, 35388.0, 9362.0, 8.390083312988281, -0.25792229175567627, -0.16117024421691895, 0.023517485707998276, 0.005133900325745344, -0.02762415260076523, 0.9676312804222107, -0.05872272700071335, -0.030637741088867188, 1.493408203125, 1.304443359375, 0.043182373046875, 1.494873046875
26405, -0.002401035977527499, -0.003146184142678976, 0.012129140086472034, -2.520089219615329e-05, -2.6988909667124972e-05, -0.13887813687324524, -9.787673479877412e-05, -2.7405996661400422e-05, -0.30773261189460754, 0.23057065904140472, 0.48334801197052, 0.05868281051516533, 0.3554362409851949, -0.05848231247972535, -7.493258746973157, 9362.0, 30146.0, 35388.0, 9362.0, 8.390083312988281, -0.25792229175567627, -0.16117024421691895, 0.023517485707998276, 0.004063559230417013, -0.028705155476927757, 0.9667883515357971, -0.05870451033115387, -0.05751800537109375, 1.4912109375, 1.31396484375, 0.0325469970703125, 1.494873046875
26415, -0.0019555040635168552, -0.0022093860898166895, 0.013566662557423115, -2.520089219615329e-05, -2.6988909667124972e-05, -0.13887813687324524, -9.787673479877412e-05, -2.7405996661400422e-05, -0.30773261189460754, 0.23057866096496582, 0.4833453893661499, 0.058701567351818085, 0.34744769449138574, -0.05566996131173596, -7.492477437149523, 9362.0, 30146.0, 35388.0, 9362.0, 8.390083312988281, -0.018776744604110718, -0.6344553828239441, 0.006799401715397835, 0.004063559230417013, -0.028705155476927757, 0.9667883515357971, -0.05554735288023949, -0.07543754577636719, 1.48974609375, 1.31396484375, 0.0325469970703125, 1.494140625
26425, -0.0016460217302665114, -0.0006598274921998382, 0.012001832947134972, -2.798665445880033e-05, -2.763994962151628e-05, -0.1482548713684082, -8.696649456396699e-05, -1.5958596122800373e-05, -0.3174460232257843, 0.2305895984172821, 0.4833368957042694, 0.05866847187280655, 0.35157676540606275, -0.054645203610448334, -7.495379513134771, 9362.0, 30146.0, 35388.0, 9362.0, 8.370248794555664, 0.1344394087791443, 0.0013023214414715767, 0.036907345056533813, 0.004063559230417013, -0.028705155476927757, 0.9667883515357971, -0.05901477858424187, -0.08439826965332031, 1.489013671875, 1.31396484375, 0.0325469970703125, 1.494140625
26445, -0.001177111640572548, -0.001083328272216022, 0.010643362998962402, -2.798665445880033e-05, -2.763994962151628e-05, -0.1482548713684082, -8.696649456396699e-05, -1.5958596122800373e-05, -0.3174460232257843, 0.2305825650691986, 0.4833528399467468, 0.058701369911432266, 0.3521507856166153, -0.06540811919944645, -7.494409058349598, 9362.0, 30146.0, 35388.0, 9362.0, 8.370248794555664, 0.16184745728969574, -0.016775626689195633, 0.11377520859241486, 0.004063559230417013, -0.028705155476927757, 0.9667883515357971, -0.05913359299302101, -0.08439826965332031, 1.489013671875, 1.319091796875, 0.0279998779296875, 1.493408203125
26465, -0.0009505566558800638, 0.0032389075495302677, 0.009178932756185532, -3.124868817394599e-05, -2.804532959999051e-05, -0.16123178601264954, -7.683150033699349e-05, -5.23496191817685e-06, -0.3314104378223419, 0.23056069016456604, 0.48333534598350525, 0.05868767946958542, 0.36637303645328784, -0.05358929230129661, -7.486850187361484, 9362.0, 30146.0, 35388.0, 9362.0, 8.370248794555664, 0.08075205981731415, -0.08320256322622299, -0.0032946858555078506, 0.0035709801595658064, -0.029462719336152077, 0.9648467302322388, -0.06175084784626961, -0.1291980743408203, 1.4853515625, 1.319091796875, 0.0279998779296875, 1.493408203125
26485, -0.0006079349550418556, 0.005219367798417807, 0.007583547383546829, -3.2026644475990906e-05, -2.8091224521631375e-05, -0.1645629107952118, -7.863679638830945e-05, -3.954025942221051e-06, -0.3348144590854645, 0.23058058321475983, 0.48334816098213196, 0.058709632605314255, 0.3529961293070247, -0.05759215907937687, -7.497164252559076, 9362.0, 30146.0, 35388.0, 9362.0, 8.390083312988281, -0.020578594878315926, -0.15273037552833557, -0.17233975231647491, 0.004710509441792965, -0.031708527356386185, 0.9648327231407166, -0.05708632245659828, 0.0052013397216796875, 1.496337890625, 1.319091796875, 0.0279998779296875, 1.497802734375
26495, -0.0004601562977768481, 0.00297552184201777, 0.007536403834819794, -3.2026644475990906e-05, -2.8091224521631375e-05, -0.1645629107952118, -7.863679638830945e-05, -3.954025942221051e-06, -0.3348144590854645, 0.2305794507265091, 0.4833456873893738, 0.05868850275874138, 0.3503587028166285, -0.05243346203067745, -7.49193725579731, 9362.0, 30146.0, 35388.0, 9362.0, 8.390083312988281, 0.08685029298067093, 0.5147237777709961, 0.12480556964874268, 0.004710509441792965, -0.031708527356386185, 0.9648327231407166, -0.05353106930851936, -0.10231781005859375, 1.487548828125, 1.319091796875, 0.0279998779296875, 1.494140625
