timeTick, roll, pitch, yaw, stateX, stateY, stateZ, stateVX, stateVY, stateVZ, otX0, otY0, otZ0, otRoll0, otPitch0, otYaw0, left wing, pitch motor, yaw motor, right wing, voltage, roll rate, pitch rate, yaw rate, A_x, A_y, A_z, current, i_raw, v_raw, airflow_voltage, airflow_speed, pot_Pitch
32977, -0.0005428934236988425, -0.0017396174371242523, -0.000603765482082963, 0, 0, 0, 0, 0, 0, 0.15535412728786469, 0.5546241402626038, 0.05740358680486679, 0.410407514821479, 0.046492261423566106, -2.8768465095207456, 0, 0, 0, 0, 0, 0, 0, 0, 0, 0, 0, 0, 0, 0, 0, 0, 0
32987, 0.0005755337770096958, -0.0034366054460406303, 0.0012739987578243017, -5.646394463099114e-10, -8.705746346038268e-09, -7.04266713000834e-05, -2.2594930726427265e-07, -1.9123742731608218e-06, -0.006978985387831926, 0.15535657107830048, 0.5546296238899231, 0.05740582197904587, 0.40396442858156517, 0.04462678056344771, -2.877366312305094, 9362.0, 30146.0, 35388.0, 9362.0, 7.99338960647583, -0.14332744479179382, 0.30472254753112793, 0.12350752204656601, 0.005416654981672764, -0.03268188238143921, 0.9630116820335388, 0, 0, 0, 0, 0, 0
32997, -0.00022141537920106202, -0.007047292310744524, 0.005034943576902151, 1.1526742227374598e-08, -2.3351095279622314e-08, -0.0001580607786308974, 2.5385113531228853e-06, -9.469467840972356e-07, -0.010547437705099583, 0.15535511076450348, 0.554628312587738, 0.05737439915537834, 0.4044742439390315, 0.043189805368854195, -2.872684635030162, 9362.0, 30146.0, 35388.0, 9362.0, 7.973554611206055, -0.09434716403484344, 0.32845044136047363, 0.09724681824445724, 0.005887956358492374, -0.031937506049871445, 0.9644798636436462, -0.07656441628932953, -0.03959846496582031, 1.49267578125, 1.31982421875, 0.0273590087890625, 1.497802734375
33007, -0.00010166588617721573, -0.00754752941429615, 0.0038432185538113117, 6.52598473038779e-08, -3.756738919946656e-08, -0.0002814145409502089, 7.982866009115241e-06, -1.9456667814665707e-06, -0.014122921042144299, 0.155358225107193, 0.5546271204948425, 0.05742666497826576, 0.4065821922305518, 0.03978263320470887, -2.8647040665849883, 9362.0, 30146.0, 35388.0, 9362.0, 7.973554611206055, 0.3061676323413849, 0.04017602279782295, -0.10454429686069489, 0.00614449055865407, -0.03316869959235191, 0.9647635221481323, -0.07728280872106552, -0.10231781005859375, 1.487548828125, 1.318359375, 0.028656005859375, 1.494873046875
33017, 0.0008105188026092947, -0.009526167996227741, 0.0026880681980401278, 2.0329281369413366e-07, -5.519024881550649e-08, -0.00043993163853883743, 1.95935554074822e-05, -1.5719255088697537e-06, -0.017580099403858185, 0.15534928441047668, 0.5546270608901978, 0.05737895518541336, 0.4058607024163567, 0.04170207333712028, -2.8617019465759905, 9362.0, 30146.0, 35388.0, 9362.0, 7.99338960647583, 0.1293795108795166, 0.36068010330200195, 0.016288872808218002, 0.007441642228513956, -0.03322555869817734, 0.9654072523117065, -0.07382047921419144, -0.030637741088867188, 1.493408203125, 1.31689453125, 0.0298919677734375, 1.49560546875
33027, 0.001466013491153717, -0.012772929854691029, 0.003042701631784439, 4.615981197275687e-07, -7.006519808783196e-08, -0.0006327639566734433, 3.194990131305531e-05, -1.349110448245483e-06, -0.020985962823033333, 0.15534593164920807, 0.5546290278434753, 0.057403527200222015, 0.40727294785385654, 0.04003761032694797, -2.869813154959656, 9362.0, 30146.0, 35388.0, 9362.0, 7.973554611206055, 0.012169776484370232, 0.18791116774082184, -0.12380100041627884, 0.006367355119436979, -0.03102428838610649, 0.9667282104492188, -0.07573270052671432, -0.10231781005859375, 1.487548828125, 1.313232421875, 0.0333251953125, 1.49267578125
33037, 0.0014150581555441022, -0.01254693791270256, 0.0029892828315496445, 8.598319141128741e-07, -9.025158931308397e-08, -0.0008595708059147, 4.750485095428303e-05, -2.649310999913723e-06, -0.024375008419156075, 0.15534572303295135, 0.5546108484268188, 0.05738846957683563, 0.4059791274139012, 0.041023989238510694, -2.8776922997234142, 9362.0, 30146.0, 35388.0, 9362.0, 7.99338960647583, 0.21233518421649933, -0.2665066421031952, -0.16969414055347443, 0.006532113067805767, -0.03299880027770996, 0.9637336730957031, -0.07863979041576385, -0.08439826965332031, 1.489013671875, 1.318359375, 0.028656005859375, 1.49267578125
33047, 0.0009021633304655552, -0.011018985882401466, 0.003413987113162875, 1.4405115962290438e-06, -1.2886280842394626e-07, -0.0011199931614100933, 6.864422175567597e-05, -5.075915396446362e-06, -0.027709081768989563, 0.15534713864326477, 0.5546392798423767, 0.057378288358449936, 0.41755605728530143, 0.0391310065536743, -2.864931927608637, 9362.0, 30146.0, 35388.0, 9362.0, 7.99338960647583, -0.16170580685138702, -0.17556124925613403, -0.019410116598010063, 0.007079573348164558, -0.03325764089822769, 0.9638417959213257, -0.07693082094192505, -0.07543754577636719, 1.48974609375, 1.31982421875, 0.0273590087890625, 1.494873046875
33057, 0.001300690695643425, -0.0092914504930377, 0.003414484206587076, 2.230457539553754e-06, -1.9128974315663072e-07, -0.001414936501532793, 8.944016735767946e-05, -7.4412669164303225e-06, -0.031279176473617554, 0.15534763038158417, 0.5546342730522156, 0.05740910768508911, 0.4053184413961451, 0.045064787151034125, -2.8643295231807926, 9362.0, 30146.0, 35388.0, 9362.0, 7.973554611206055, -0.28257596492767334, -0.3170833885669708, -0.026994356885552406, 0.00882775615900755, -0.029886746779084206, 0.9652628898620605, -0.07697097212076187, -0.11127853393554688, 1.48681640625, 1.322021484375, 0.0257415771484375, 1.4970703125
33067, 0.001076006330549717, -0.008525397628545761, 0.0020993584766983986, 3.215813649148913e-06, -2.7314368367115094e-07, -0.0017452934989705682, 0.00010773691610665992, -8.905089998734184e-06, -0.03479183092713356, 0.15533889830112457, 0.5546342730522156, 0.05740971118211746, 0.4040103524812958, 0.041192363165777124, -2.865425602660694, 9362.0, 30146.0, 35388.0, 9362.0, 7.973554611206055, 0.07944851368665695, 0.20690056681632996, -0.1791662722826004, 0.005376073531806469, -0.03160399943590164, 0.9655494689941406, -0.07873009145259857, -0.10231781005859375, 1.487548828125, 1.3037109375, 0.04412841796875, 1.494873046875
33077, 0.0014529202599078417, -0.009756358340382576, 0.0019384690094739199, 4.369953330751741e-06, -3.7293685295480827e-07, -0.0021103101316839457, 0.00012313669139984995, -1.106729541788809e-05, -0.038211092352867126, 0.15535780787467957, 0.5546154975891113, 0.05739053338766098, 0.40519806330699193, 0.03917727920696734, -2.872729277038623, 9362.0, 30146.0, 35388.0, 9362.0, 7.973554611206055, 0.09585514664649963, -0.18913576006889343, -0.203154519200325, 0.006190091837197542, -0.032006509602069855, 0.9643464684486389, -0.07467252016067505, -0.030637741088867188, 1.493408203125, 1.317626953125, 0.0291900634765625, 1.496337890625
33087, 0.0006408871267922223, -0.01130638923496008, 0.002591065363958478, 5.6717854022281244e-06, -4.92500646487315e-07, -0.002509358339011669, 0.00013715690874960274, -1.282323501072824e-05, -0.04159814491868019, 0.15535643696784973, 0.5546143651008606, 0.05737844482064247, 0.402034179855605, 0.042886590315646345, -2.87141642083407, 9362.0, 30146.0, 35388.0, 9362.0, 7.99338960647583, -0.01094839908182621, 0.18070967495441437, -0.1301756650209427, 0.004672211594879627, -0.03249342367053032, 0.9641415476799011, -0.07878585159778595, -0.06647872924804688, 1.490478515625, 1.318359375, 0.028656005859375, 1.500732421875
33097, 0.0006495187990367413, -0.010176490060985088, 0.0016224138671532273, 7.123884643078782e-06, -6.327227310976014e-07, -0.002942918101325631, 0.00015316784265451133, -1.527080348751042e-05, -0.04511342942714691, 0.15535381436347961, 0.5546371340751648, 0.05738439783453941, 0.40351940118680224, 0.04122145015816159, -2.864224315504506, 9362.0, 30146.0, 35388.0, 9362.0, 7.99338960647583, -0.08210240304470062, -0.057848408818244934, 0.03785298392176628, 0.005179425701498985, -0.03103787638247013, 0.9644514918327332, -0.07920052111148834, -0.10231781005859375, 1.487548828125, 1.31396484375, 0.0325469970703125, 1.493408203125
33107, 0.0011180249275639653, -0.009622262790799141, 0.0009413953521288931, 8.748915206524543e-06, -7.907180474830966e-07, -0.0034114872105419636, 0.0001719069987302646, -1.6328041965607554e-05, -0.04860001802444458, 0.15534743666648865, 0.554617702960968, 0.05737881362438202, 0.4027505097396181, 0.044549011277922546, -2.871912345401969, 9362.0, 30146.0, 35388.0, 9362.0, 7.99338960647583, -0.1200171634554863, -0.43349578976631165, -0.22410862147808075, 0.0069949934259057045, -0.030838653445243835, 0.9643527865409851, -0.07957103848457336, -0.13815879821777344, 1.484619140625, 1.32275390625, 0.0251312255859375, 1.49560546875
33117, 0.0017069550231099129, -0.009122885763645172, 0.0005582269513979554, 1.0551988452789374e-05, -9.593576351107913e-07, -0.0039150347001850605, 0.00018874151282943785, -1.7371381545672193e-05, -0.05210905149579048, 0.15534743666648865, 0.5546353459358215, 0.057404618710279465, 0.4029672925061316, 0.037948017328574224, -2.8668126082438876, 9362.0, 30146.0, 35388.0, 9362.0, 7.99338960647583, 0.03150051832199097, 0.1917252540588379, -0.02326793782413006, 0.0056570423766970634, -0.03132736310362816, 0.9653739333152771, -0.0799669623374939, -0.10231781005859375, 1.487548828125, 1.3125, 0.034027099609375, 1.49560546875
33127, 0.0010738952551037073, -0.010020793415606022, 0.0008115583914332092, 1.2518875337264035e-05, -1.142304085988144e-06, -0.004453413188457489, 0.0002046659355983138, -1.918248199217487e-05, -0.05556622892618179, 0.15536119043827057, 0.5546174049377441, 0.057408373802900314, 0.4010237382940668, 0.04342538464811696, -2.867988189518221, 9362.0, 30146.0, 35388.0, 9362.0, 7.99338960647583, 0.04668101668357849, 0.43497711420059204, 0.06602921336889267, 0.004495486617088318, -0.031169021502137184, 0.9632037281990051, -0.08091441541910172, -0.08439826965332031, 1.489013671875, 1.310302734375, 0.036285400390625, 1.494873046875
33137, 0.0003161050844937563, -0.011257385835051537, 0.0010169383604079485, 1.4640864719694946e-05, -1.3482227814165526e-06, -0.005026473663747311, 0.00021967738575767726, -2.2039623218006454e-05, -0.05904542654752731, 0.15535151958465576, 0.5546133518218994, 0.057410843670368195, 0.4048004520677706, 0.04145061813929374, -2.868179543975773, 9362.0, 30146.0, 35388.0, 9362.0, 7.99338960647583, 0.15109775960445404, 0.11115571111440659, 0.2104087769985199, 0.0055037615820765495, -0.03040318191051483, 0.9633403420448303, -0.07690274715423584, -0.07543754577636719, 1.48974609375, 1.30810546875, 0.0388031005859375, 1.493408203125
33147, 0.0012907165801152587, -0.012996741570532322, 0.0012273479951545596, 1.6920268535614014e-05, -1.5774729718032177e-06, -0.005634976085275412, 0.00023612553195562214, -2.3858079657657072e-05, -0.06265469640493393, 0.15536178648471832, 0.5546215772628784, 0.057397544384002686, 0.4034394320575574, 0.04485340397016557, -2.874674423046708, 9362.0, 30146.0, 35388.0, 9362.0, 7.99338960647583, -0.2957633137702942, -0.12178394943475723, -0.12074844539165497, 0.006140312645584345, -0.030458780005574226, 0.964523196220398, -0.07951740175485611, -0.12023735046386719, 1.486083984375, 1.324951171875, 0.0236663818359375, 1.49853515625
33157, 0.0008051712065935135, -0.010892821475863457, -0.0002518641122151166, 1.937441084010061e-05, -1.8186603938374901e-06, -0.0062792664393782616, 0.00025459524476900697, -2.4318997020600364e-05, -0.06620296090841293, 0.15535540878772736, 0.5546028017997742, 0.05739441141486168, 0.40007127162355105, 0.043763182820157454, -2.874374330557903, 9362.0, 30146.0, 35388.0, 9362.0, 7.99338960647583, 0.14150746166706085, -0.04236868396401405, 0.11794804036617279, 0.005590061191469431, -0.0315421037375927, 0.9640713930130005, -0.08206837624311447, -0.03959846496582031, 1.49267578125, 1.305908203125, 0.0413360595703125, 1.4970703125
33167, 0.002413736190646887, -0.011986346915364265, 0.0012497175484895706, 2.2027672457625158e-05, -2.0725051399494987e-06, -0.006958724930882454, 0.00027618513558991253, -2.6479980078875087e-05, -0.06968830525875092, 0.15536287426948547, 0.5546249747276306, 0.057407744228839874, 0.40975294127118533, 0.042210400017069105, -2.866194631567493, 9362.0, 30146.0, 35388.0, 9362.0, 7.973554611206055, -0.07961461693048477, -0.44973087310791016, 0.08277591317892075, 0.004880395717918873, -0.031045490875840187, 0.9653155207633972, -0.08167735487222672, -0.09335899353027344, 1.48828125, 1.311767578125, 0.0348052978515625, 1.493408203125
33177, 0.0016674530925229192, -0.009465196169912815, -0.0004050017159897834, 2.4879454940673895e-05, -2.343952928640647e-06, -0.007673077285289764, 0.0002941046841442585, -2.771103390841745e-05, -0.07318180799484253, 0.15534931421279907, 0.5546273589134216, 0.057400722056627274, 0.40652484527619615, 0.03815929328607126, -2.8614270662344685, 9362.0, 30146.0, 35388.0, 9362.0, 7.99338960647583, -0.028430698439478874, -0.32770398259162903, -0.25633811950683594, 0.004601937718689442, -0.032600287348032, 0.9659494161605835, -0.07880715280771255, -0.10231781005859375, 1.487548828125, 1.305908203125, 0.0413360595703125, 1.496337890625
33187, 0.0005720448680222034, -0.006324037443846464, 1.139923597293091e-06, 2.791961196635384e-05, -2.641019364091335e-06, -0.008421640843153, 0.00031407398637384176, -3.174636003677733e-05, -0.07653041183948517, 0.15535543859004974, 0.5546212196350098, 0.05738627538084984, 0.40129202298097016, 0.04553931829033786, -2.867614186654476, 9362.0, 30146.0, 35388.0, 9362.0, 7.99338960647583, 0.12348005920648575, 0.21436545252799988, 0.40171387791633606, 0.00637659290805459, -0.032670989632606506, 0.9641241431236267, -0.08347353339195251, -0.04855918884277344, 1.491943359375, 1.304443359375, 0.043182373046875, 1.496337890625
33197, 0.0017139416886493564, -0.008200952783226967, 0.000855429214425385, 3.113857383141294e-05, -2.9722634735662723e-06, -0.009203949011862278, 0.00032990449108183384, -3.456733247730881e-05, -0.079930879175663, 0.15535002946853638, 0.554611325263977, 0.05738409236073494, 0.3981451435725434, 0.040836192529695836, -2.867891074772791, 9362.0, 30146.0, 35388.0, 9362.0, 7.99338960647583, -0.09628797322511673, 0.07393141090869904, -0.20102472603321075, 0.005227210000157356, -0.02891107276082039, 0.9645355343818665, -0.08623197674751282, -0.03959846496582031, 1.49267578125, 1.313232421875, 0.0333251953125, 1.497802734375
33207, 0.0023114122450351715, -0.009533854201436043, 0.0013304702006280422, 3.44898144248873e-05, -3.322658130855416e-06, -0.010020867921411991, 0.0003402283473405987, -3.5441291402094066e-05, -0.08345243334770203, 0.15535156428813934, 0.554620623588562, 0.05740813538432121, 0.39682747151455283, 0.04069275771166758, -2.8726653932778907, 9362.0, 30146.0, 35388.0, 9362.0, 7.99338960647583, -0.023216063156723976, -0.3427221179008484, -0.21846134960651398, 0.005464083980768919, -0.03047918900847435, 0.9643470048904419, -0.08685848116874695, -0.1291980743408203, 1.4853515625, 1.313232421875, 0.0333251953125, 1.494873046875
33217, 0.001974303973838687, -0.00894066970795393, 0.0019640352111309767, 3.795987504418008e-05, -3.6912347241013777e-06, -0.010872375220060349, 0.00035370473051443696, -3.823852603090927e-05, -0.0868486613035202, 0.15536409616470337, 0.5546086430549622, 0.057384517043828964, 0.4030375039873056, 0.04471099575121684, -2.8748864963861362, 9362.0, 30146.0, 35388.0, 9362.0, 7.99338960647583, 0.013007072731852531, 0.20746862888336182, 0.16702434420585632, 0.007442936301231384, -0.032410427927970886, 0.9635642766952515, -0.08393143862485886, -0.12023735046386719, 1.486083984375, 1.3125, 0.034027099609375, 1.496337890625
33227, 0.002595683326944709, -0.012172002345323563, 0.004137601237744093, 4.1575585782993585e-05, -4.092689778190106e-06, -0.011758612468838692, 0.0003694744664244354, -4.207317397231236e-05, -0.09039832651615143, 0.15534213185310364, 0.554627537727356, 0.057371728122234344, 0.4047859300689432, 0.042130778665381285, -2.8731591830049377, 9362.0, 30146.0, 35388.0, 9362.0, 7.99338960647583, -0.018492011353373528, 0.15436799824237823, 0.20355220139026642, 0.006144446786493063, -0.0319257490336895, 0.9647759795188904, -0.08152113109827042, -0.10231781005859375, 1.487548828125, 1.31396484375, 0.0325469970703125, 1.4970703125
33237, 0.002868298441171646, -0.01250867173075676, 0.0039781914092600346, 4.534408435574733e-05, -4.529705165623454e-06, -0.012680456973612309, 0.0003840239078272134, -4.529055877355859e-05, -0.09397017955780029, 0.1553640067577362, 0.5546131134033203, 0.05740998685359955, 0.4038177835318287, 0.04341562124898246, -2.8691333899300298, 9362.0, 30146.0, 35388.0, 9362.0, 7.973554611206055, -0.13244596123695374, -0.45944029092788696, 0.022775618359446526, 0.004224411211907864, -0.031666796654462814, 0.9661113023757935, -0.08532964438199997, -0.15607833862304688, 1.483154296875, 1.316162109375, 0.030517578125, 1.4970703125
33247, 0.002754565328359604, -0.011360286734998226, 0.004040267784148455, 4.928489579469897e-05, -5.0040503083437216e-06, -0.013637256808578968, 0.0004041182401124388, -4.956224074703641e-05, -0.09738931059837341, 0.15533937513828278, 0.5546247959136963, 0.05737045407295227, 0.40525497385680503, 0.039069155830190994, -2.8720783243952313, 9362.0, 30146.0, 35388.0, 9362.0, 7.99338960647583, -0.13244596123695374, -0.45944029092788696, 0.022775618359446526, 0.006243439856916666, -0.03268256410956383, 0.9637901782989502, -0.08389314264059067, -0.05751800537109375, 1.4912109375, 1.322021484375, 0.0257415771484375, 1.4970703125
33267, 0.0006659649661742151, -0.011627442203462124, 0.0037577461916953325, 5.7771849242271855e-05, -6.089185262680985e-06, -0.015653561800718307, 0.00044357238220982254, -5.893557317904197e-05, -0.1043192446231842, 0.15535062551498413, 0.5546120405197144, 0.057386599481105804, 0.40992181088316254, 0.04583431073626798, -2.8639864570311397, 9362.0, 30146.0, 35388.0, 9362.0, 7.99338960647583, -0.0337759368121624, -0.1457374095916748, -0.004136473406106234, 0.005921442527323961, -0.031330402940511703, 0.9641017317771912, -0.08389314264059067, -0.05751800537109375, 1.4912109375, 1.322021484375, 0.0257415771484375, 1.4970703125
33277, 0.000565970316529274, -0.011057722382247448, 0.0049823555164039135, 5.7771849242271855e-05, -6.089185262680985e-06, -0.015653561800718307, 0.00044357238220982254, -5.893557317904197e-05, -0.1043192446231842, 0.15534666180610657, 0.5546153783798218, 0.05738530680537224, 0.4016921604465693, 0.03945013495103922, -2.8771575403000016, 9362.0, 30146.0, 35388.0, 9362.0, 7.973554611206055, -0.0337759368121624, -0.1457374095916748, -0.004136473406106234, 0.006429446395486593, -0.03240146487951279, 0.9646561741828918, -0.08389314264059067, -0.05751800537109375, 1.4912109375, 1.322021484375, 0.0257415771484375, 1.4970703125
33307, 0.00017559799016453326, -0.012345332652330399, 0.00681940047070384, 7.706487667746842e-05, -8.569904821342789e-06, -0.02010565996170044, 0.0005211388343013823, -6.294274498941377e-05, -0.11829617619514465, 0.15535129606723785, 0.5546161532402039, 0.057377032935619354, 0.4040165331355951, 0.041959671911655505, -2.8769217120297337, 9362.0, 30146.0, 35388.0, 9362.0, 7.99338960647583, 0.024593988433480263, -0.12381543219089508, -0.1382698118686676, 0.003848469816148281, -0.03225637972354889, 0.9633705615997314, -0.08389314264059067, -0.05751800537109375, 1.4912109375, 1.322021484375, 0.0257415771484375, 1.4970703125
33317, 0.0014834910398349166, -0.011728418990969658, 0.003815282369032502, 7.706487667746842e-05, -8.569904821342789e-06, -0.02010565996170044, 0.0005211388343013823, -6.294274498941377e-05, -0.11829617619514465, 0.15535075962543488, 0.5546396970748901, 0.057417433708906174, 0.40649544265662707, 0.04159054594103395, -2.8677838987436384, 9362.0, 30146.0, 35388.0, 9362.0, 7.99338960647583, 0.07566675543785095, -0.42250144481658936, 0.11824943125247955, 0.003848469816148281, -0.03225637972354889, 0.9633705615997314, -0.08389314264059067, -0.05751800537109375, 1.4912109375, 1.322021484375, 0.0257415771484375, 1.4970703125
33357, 0.0019262466812506318, -0.013284309767186642, 0.006822240073233843, 0.00010567835124675184, -1.1787859875767026e-05, -0.026454737409949303, 0.0006231164443306625, -7.425560761475936e-05, -0.13560771942138672, 0.15535540878772736, 0.5546172261238098, 0.057397883385419846, 0.4001483175288968, 0.03754925166975909, -2.8652155801183286, 9362.0, 30146.0, 35388.0, 9362.0, 7.99338960647583, -0.16051431000232697, 0.2869369089603424, -0.2141195684671402, 0.005351634696125984, -0.032088231295347214, 0.9639412760734558, -0.08389314264059067, -0.05751800537109375, 1.4912109375, 1.322021484375, 0.0257415771484375, 1.4970703125
33377, 0.0009422251605428755, -0.014483447186648846, 0.006650913041085005, 0.00011853508476633579, -1.3343441423785407e-05, -0.02923782542347908, 0.0006638735067099333, -8.108375186566263e-05, -0.14270170032978058, 0.15536360442638397, 0.554620087146759, 0.057373158633708954, 0.40174361741588416, 0.03701761804975945, -2.8681957645741014, 9362.0, 30146.0, 35388.0, 9362.0, 7.973554611206055, -0.11148697137832642, -0.030274566262960434, 0.3111753463745117, 0.005089971236884594, -0.0310906320810318, 0.9627066254615784, -0.08389314264059067, -0.05751800537109375, 1.4912109375, 1.322021484375, 0.0257415771484375, 1.4970703125
33397, 0.0023624803870916367, -0.01448955200612545, 0.009361240081489086, 0.00011853508476633579, -1.3343441423785407e-05, -0.02923782542347908, 0.0006638735067099333, -8.108375186566263e-05, -0.14270170032978058, 0.1553572565317154, 0.5546156764030457, 0.05738687887787819, 0.40491059122991463, 0.041413439218814574, -2.870288494128684, 9362.0, 30146.0, 35388.0, 9362.0, 7.973554611206055, 0.012522703036665916, 0.2812041640281677, 0.1116022989153862, 0.006923274602741003, -0.032224494963884354, 0.9633938074111938, -0.08389314264059067, -0.05751800537109375, 1.4912109375, 1.322021484375, 0.0257415771484375, 1.4970703125
33427, 0.004592201206833124, -0.017369356006383896, 0.008581952191889286, 0.0001547666179249063, -1.7760336049832404e-05, -0.03682255744934082, 0.0007859296165406704, -9.841108112595975e-05, -0.16050440073013306, 0.15534360706806183, 0.5546441078186035, 0.05740717798471451, 0.40511587334927984, 0.04338065832956772, -2.8575738187835955, 9362.0, 30146.0, 35388.0, 9362.0, 7.973554611206055, 0.2578842043876648, -0.042152293026447296, -0.11682314425706863, 0.004398100543767214, -0.03181038796901703, 0.9648833274841309, -0.08389314264059067, -0.05751800537109375, 1.4912109375, 1.322021484375, 0.0257415771484375, 1.4970703125
33437, 0.004834822844713926, -0.017129110172390938, 0.008378122933208942, 0.00016275193775072694, -1.8773307601804845e-05, -0.03844474256038666, 0.0008110086782835424, -0.00010411768744233996, -0.1639319658279419, 0.1553547978401184, 0.5546407699584961, 0.05739371478557587, 0.4077235519097913, 0.03615618389076758, -2.8640415306181373, 9362.0, 30146.0, 35388.0, 9362.0, 7.973554611206055, -0.06139431893825531, -0.11400609463453293, -0.00374238402582705, 0.005373951978981495, -0.0324229821562767, 0.966672420501709, -0.08389314264059067, -0.05751800537109375, 1.4912109375, 1.322021484375, 0.0257415771484375, 1.4970703125
33447, 0.003926380537450314, -0.017185600474476814, 0.009648206643760204, 0.00016275193775072694, -1.8773307601804845e-05, -0.03844474256038666, 0.0008110086782835424, -0.00010411768744233996, -0.1639319658279419, 0.1553531140089035, 0.5546171069145203, 0.05738113075494766, 0.4003899510203644, 0.044990102490459094, -2.873345024323472, 9362.0, 30146.0, 35388.0, 9362.0, 7.973554611206055, -0.1859951764345169, 0.012372646480798721, -0.15158474445343018, 0.005483357701450586, -0.0342409685254097, 0.965125322341919, -0.08389314264059067, -0.05751800537109375, 1.4912109375, 1.322021484375, 0.0257415771484375, 1.4970703125
33457, 0.00346717843785882, -0.015014909207820892, 0.007548638619482517, 0.00016275193775072694, -1.8773307601804845e-05, -0.03844474256038666, 0.0008110086782835424, -0.00010411768744233996, -0.1639319658279419, 0.1553557813167572, 0.5546218752861023, 0.057382673025131226, 0.40163881880188235, 0.04361699466733171, -2.8676881714846245, 9362.0, 30146.0, 35388.0, 9362.0, 7.973554611206055, 0.002804731484502554, 0.16414585709571838, -0.09959586709737778, 0.007116605993360281, -0.034959711134433746, 0.9658121466636658, -0.08389314264059067, -0.05751800537109375, 1.4912109375, 1.322021484375, 0.0257415771484375, 1.4970703125
33477, 0.003901178017258644, -0.01904321275651455, 0.008295172825455666, 0.00016275193775072694, -1.8773307601804845e-05, -0.03844474256038666, 0.0008110086782835424, -0.00010411768744233996, -0.1639319658279419, 0.15535405278205872, 0.5546194911003113, 0.05738573148846626, 0.40226603238673586, 0.041341617879822934, -2.8744611141552605, 9362.0, 30146.0, 35388.0, 9362.0, 7.99338960647583, 0.14669887721538544, 0.6411365270614624, 0.16356022655963898, 0.004743014462292194, -0.03159026429057121, 0.9636038541793823, -0.08389314264059067, -0.05751800537109375, 1.4912109375, 1.322021484375, 0.0257415771484375, 1.4970703125
33487, 0.00396352494135499, -0.02216518484055996, 0.00836734939366579, 0.00020679921726696193, -2.4872289941413328e-05, -0.047063205391168594, 0.0009467471390962601, -0.00013632152695208788, -0.18087182939052582, 0.15535877645015717, 0.5546146035194397, 0.05736808851361275, 0.4081392689154173, 0.04225801233928905, -2.8679197913730383, 9362.0, 30146.0, 35388.0, 9362.0, 7.99338960647583, -0.23660151660442352, -0.0017160912975668907, 0.12589888274669647, 0.007159494329243898, -0.030667144805192947, 0.9641967415809631, -0.08389314264059067, -0.05751800537109375, 1.4912109375, 1.322021484375, 0.0257415771484375, 1.4970703125
33517, 0.0014402116648852825, -0.023732366040349007, 0.008567255921661854, 0.00022638669179286808, -2.7727890483220108e-05, -0.05075113847851753, 0.0010144663974642754, -0.000149417101056315, -0.18793360888957977, 0.15535672008991241, 0.5546143054962158, 0.05737937241792679, 0.4044429117178245, 0.04266322330195749, -2.870380272111804, 9362.0, 30146.0, 35388.0, 9362.0, 7.99338960647583, 0.26250144839286804, 0.05033288523554802, 0.03994755819439888, 0.005337093956768513, -0.0300911758095026, 0.9661677479743958, -0.08389314264059067, -0.05751800537109375, 1.4912109375, 1.322021484375, 0.0257415771484375, 1.4970703125
33537, 0.0009426613105461001, -0.024090247228741646, 0.009426739998161793, 0.00025856090360321105, -3.2346815714845434e-05, -0.05654525384306908, 0.0011302356142550707, -0.0001580133830429986, -0.19819825887680054, 0.1553599089384079, 0.5546390414237976, 0.05738426744937897, 0.40681231499351306, 0.042665292118186926, -2.862052302893837, 9362.0, 30146.0, 35388.0, 9362.0, 7.973554611206055, 0.26250144839286804, 0.05033288523554802, 0.03994755819439888, 0.0045450227335095406, -0.0297206100076437, 0.9638680815696716, -0.08389314264059067, -0.05751800537109375, 1.4912109375, 1.322021484375, 0.0257415771484375, 1.4970703125
33547, 0.0024269206915050745, -0.026145799085497856, 0.010337546467781067, 0.00025856090360321105, -3.2346815714845434e-05, -0.05654525384306908, 0.0011302356142550707, -0.0001580133830429986, -0.19819825887680054, 0.15535800158977509, 0.5546398162841797, 0.05739462003111839, 0.40640759489983347, 0.042329476545290845, -2.8641062564408695, 9362.0, 30146.0, 35388.0, 9362.0, 7.99338960647583, 0.26250144839286804, 0.05033288523554802, 0.03994755819439888, 0.00571849662810564, -0.031803518533706665, 0.9631237983703613, -0.08389314264059067, -0.05751800537109375, 1.4912109375, 1.322021484375, 0.0257415771484375, 1.4970703125
33557, 0.0010296916589140892, -0.02434147708117962, 0.011948972940444946, 0.00025856090360321105, -3.2346815714845434e-05, -0.05654525384306908, 0.0011302356142550707, -0.0001580133830429986, -0.19819825887680054, 0.15535670518875122, 0.5546532869338989, 0.05740296468138695, 0.405243655884843, 0.043116876222086375, -2.87004955447923, 9362.0, 30146.0, 35388.0, 9362.0, 7.99338960647583, -0.21041321754455566, 0.11950176954269409, 0.12744839489459991, 0.00571849662810564, -0.031803518533706665, 0.9631237983703613, -0.08389314264059067, -0.05751800537109375, 1.4912109375, 1.322021484375, 0.0257415771484375, 1.4970703125
33567, 0.0009017057018354535, -0.024813974276185036, 0.011468455195426941, 0.0002943144354503602, -3.7215831980574876e-05, -0.06264771521091461, 0.0012545284116640687, -0.00016701704589650035, -0.2087930291891098, 0.15534721314907074, 0.5546174049377441, 0.05737275257706642, 0.399910174555619, 0.04215721204587908, -2.867535724943296, 9362.0, 30146.0, 35388.0, 9362.0, 7.99338960647583, 0.19750048220157623, -0.2935295104980469, -0.2136567234992981, 0.006968514062464237, -0.03141775354743004, 0.965646505355835, -0.08389314264059067, -0.05751800537109375, 1.4912109375, 1.322021484375, 0.0257415771484375, 1.4970703125
33587, 0.0008452244801446795, -0.024985510855913162, 0.011891334317624569, 0.00032021288643591106, -4.0589049604022875e-05, -0.06689248234033585, 0.0013357081916183233, -0.0001701853034319356, -0.21567372977733612, 0.15535429120063782, 0.5546251535415649, 0.05740299075841904, 0.4033394133736972, 0.03822686905164119, -2.8740281203101996, 9362.0, 30146.0, 35388.0, 9362.0, 7.99338960647583, 0.04687006026506424, 0.359550416469574, 0.23472566902637482, 0.006968514062464237, -0.03141775354743004, 0.965646505355835, -0.08389314264059067, -0.05751800537109375, 1.4912109375, 1.322021484375, 0.0257415771484375, 1.4970703125
33597, -8.622946916148067e-05, -0.02695128507912159, 0.012267508544027805, 0.00033377556246705353, -4.230027479934506e-05, -0.06906607747077942, 0.0013768175849691033, -0.00017207620840054005, -0.2190455198287964, 0.15534834563732147, 0.5546520948410034, 0.057390179485082626, 0.4021299126533753, 0.03756355688287272, -2.8600459252786727, 9362.0, 30146.0, 35388.0, 9362.0, 7.973554611206055, 0.04687006026506424, 0.359550416469574, 0.23472566902637482, 0.00517532043159008, -0.03260236978530884, 0.9640988111495972, -0.08389314264059067, -0.05751800537109375, 1.4912109375, 1.322021484375, 0.0257415771484375, 1.4970703125
33607, -0.0002301397908013314, -0.0281507670879364, 0.013339733704924583, 0.00033377556246705353, -4.230027479934506e-05, -0.06906607747077942, 0.0013768175849691033, -0.00017207620840054005, -0.2190455198287964, 0.15534742176532745, 0.5546106696128845, 0.05738702043890953, 0.39909146325969425, 0.03890277133587006, -2.8688043706564836, 9362.0, 30146.0, 35388.0, 9362.0, 7.973554611206055, -0.006133942864835262, 0.20419831573963165, -0.05216842517256737, 0.00568067841231823, -0.03147543594241142, 0.9647060632705688, -0.08389314264059067, -0.05751800537109375, 1.4912109375, 1.322021484375, 0.0257415771484375, 1.4970703125
33637, -0.0018715087790042162, -0.0274087805300951, 0.012415511533617973, 0.0003770102630369365, -4.74942171422299e-05, -0.07579047232866287, 0.0015090544475242496, -0.00017299968749284744, -0.22928375005722046, 0.15535177290439606, 0.5546135902404785, 0.057380031794309616, 0.40264828112650203, 0.03868112887545294, -2.8700286897624068, 9362.0, 30146.0, 35388.0, 9362.0, 7.973554611206055, -0.05900654196739197, -0.03703489154577255, 0.12653835117816925, 0.005671944934874773, -0.03216267749667168, 0.964533269405365, -0.08389314264059067, -0.05751800537109375, 1.4912109375, 1.322021484375, 0.0257415771484375, 1.4970703125
33667, -0.002434053458273411, -0.03438739478588104, 0.01537519320845604, 0.0004409952089190483, -5.426472125691362e-05, -0.08522986620664597, 0.0016931463032960892, -0.00016379797307308763, -0.24280527234077454, 0.155350923538208, 0.5546201467514038, 0.05737392231822014, 0.4043827699389406, 0.03927072012101007, -2.874549340074806, 9362.0, 30146.0, 35388.0, 9362.0, 7.99338960647583, -0.146537646651268, 0.06176665425300598, 0.27494287490844727, 0.0059209526516497135, -0.031643111258745193, 0.9668788909912109, -0.08389314264059067, -0.05751800537109375, 1.4912109375, 1.322021484375, 0.0257415771484375, 1.4970703125
33677, -0.0030900067649781704, -0.03580484166741371, 0.01613304205238819, 0.0004409952089190483, -5.426472125691362e-05, -0.08522986620664597, 0.0016931463032960892, -0.00016379797307308763, -0.24280527234077454, 0.1553541123867035, 0.554623007774353, 0.05739375948905945, 0.40760550725067013, 0.04071458140774098, -2.8744674799726555, 9362.0, 30146.0, 35388.0, 9362.0, 7.973554611206055, 0.09195637702941895, 0.038474373519420624, -0.059315185993909836, 0.007093370892107487, -0.030578726902604103, 0.9643501043319702, -0.08389314264059067, -0.05751800537109375, 1.4912109375, 1.322021484375, 0.0257415771484375, 1.4970703125
33687, -0.0033983360044658184, -0.03677025064826012, 0.01564701832830906, 0.00047594221541658044, -5.746383249061182e-05, -0.09015193581581116, 0.0018032396910712123, -0.0001560185628477484, -0.2493811398744583, 0.15536363422870636, 0.5546349287033081, 0.05741054564714432, 0.40936832099129916, 0.0415017068362431, -2.8627216742318096, 9362.0, 30146.0, 35388.0, 9362.0, 7.99338960647583, -0.14566783607006073, 0.06342212110757828, 0.0874452069401741, 0.0056900279596447945, -0.02934158965945244, 0.9636817574501038, -0.08389314264059067, -0.05751800537109375, 1.4912109375, 1.322021484375, 0.0257415771484375, 1.4970703125
33697, -0.004315052647143602, -0.036965180188417435, 0.01527065597474575, 0.0004942699451930821, -5.8998444728786126e-05, -0.09266360849142075, 0.00186225026845932, -0.00015092366083990782, -0.25295236706733704, 0.1553477644920349, 0.5546207427978516, 0.057382747530937195, 0.3969661799068484, 0.04498658747914419, -2.8686889349233478, 9362.0, 30146.0, 35388.0, 9362.0, 7.99338960647583, 0.26912355422973633, 0.08918563276529312, -0.05321173369884491, 0.005318132229149342, -0.03266630321741104, 0.9669577479362488, -0.12314978241920471, -0.10231781005859375, 1.487548828125, 1.3154296875, 0.03118896484375, 1.4970703125
33707, -0.002615615027025342, -0.039229702204465866, 0.014872504398226738, 0.0005131959915161133, -6.047954229870811e-05, -0.09521063417196274, 0.0019229474710300565, -0.00014535248919855803, -0.25645264983177185, 0.1553572714328766, 0.5546118021011353, 0.05738728120923042, 0.40499543242892266, 0.037779547317228435, -2.871457431655862, 9362.0, 30146.0, 35388.0, 9362.0, 7.973554611206055, 0.11701424419879913, 0.1396505981683731, 0.06617831438779831, 0.0061555360443890095, -0.03274819627404213, 0.9648691415786743, -0.1123170256614685, -0.09335899353027344, 1.48828125, 1.32275390625, 0.0251312255859375, 1.4970703125
33717, -0.0027827664744108915, -0.039164330810308456, 0.016825338825583458, 0.0005327313556335866, -6.189727719174698e-05, -0.09779153764247894, 0.0019839939195662737, -0.00013809830124955624, -0.2597275376319885, 0.15533848106861115, 0.5546404123306274, 0.05739540979266167, 0.40062638608029105, 0.03806131484506636, -2.865643675463515, 9362.0, 30146.0, 35388.0, 9362.0, 7.973554611206055, 0.00042724929517135024, -0.062228307127952576, 0.0019380480516701937, 0.0061555360443890095, -0.03274819627404213, 0.9648691415786743, -0.10227260738611221, -0.07543754577636719, 1.48974609375, 1.32275390625, 0.0251312255859375, 1.4970703125
33727, -0.0026623213198035955, -0.03997961804270744, 0.016565240919589996, 0.0005327313556335866, -6.189727719174698e-05, -0.09779153764247894, 0.0019839939195662737, -0.00013809830124955624, -0.2597275376319885, 0.15535001456737518, 0.5546261072158813, 0.057380035519599915, 0.4008247344794411, 0.04898255295671561, -2.8675481303857087, 9362.0, 30146.0, 35388.0, 9362.0, 7.973554611206055, 0.00042724929517135024, -0.062228307127952576, 0.0019380480516701937, 0.006283927243202925, -0.030002133920788765, 0.9655089378356934, -0.10227260738611221, -0.07543754577636719, 1.48974609375, 1.32275390625, 0.0251312255859375, 1.4970703125
33747, -0.0017301223706454039, -0.04480316862463951, 0.017430206760764122, 0.0005327313556335866, -6.189727719174698e-05, -0.09779153764247894, 0.0019839939195662737, -0.00013809830124955624, -0.2597275376319885, 0.15536513924598694, 0.5546271800994873, 0.05738963186740875, 0.4035993740654469, 0.04197364918715607, -2.8628711675845993, 9362.0, 30146.0, 35388.0, 9362.0, 7.973554611206055, 0.14900241792201996, -0.11681075394153595, 0.01192786917090416, 0.0058744363486766815, -0.03071141615509987, 0.9647142291069031, -0.09078072756528854, -0.07543754577636719, 1.48974609375, 1.32275390625, 0.0251312255859375, 1.4970703125
33757, -0.002149102510884404, -0.04330917447805405, 0.017282560467720032, 0.0005327313556335866, -6.189727719174698e-05, -0.09779153764247894, 0.0019839939195662737, -0.00013809830124955624, -0.2597275376319885, 0.15535534918308258, 0.5546202659606934, 0.057389434427022934, 0.4051516250746584, 0.046317379820862925, -2.870763459849006, 9362.0, 30146.0, 35388.0, 9362.0, 7.973554611206055, 0.14900241792201996, -0.11681075394153595, 0.01192786917090416, 0.006672751158475876, -0.03321181982755661, 0.9669166207313538, -0.09078072756528854, -0.07543754577636719, 1.48974609375, 1.32275390625, 0.0251312255859375, 1.4970703125
33767, -0.0003967641096096486, -0.044443145394325256, 0.017093613743782043, 0.0005327313556335866, -6.189727719174698e-05, -0.09779153764247894, 0.0019839939195662737, -0.00013809830124955624, -0.2597275376319885, 0.15535013377666473, 0.5546119809150696, 0.05739128962159157, 0.3974715482615813, 0.03913231594688682, -2.869988244041513, 9362.0, 30146.0, 35388.0, 9362.0, 7.973554611206055, 0.04716893658041954, 0.048297058790922165, -0.11011496186256409, 0.006672751158475876, -0.03321181982755661, 0.9669166207313538, -0.09078072756528854, -0.07543754577636719, 1.48974609375, 1.32275390625, 0.0251312255859375, 1.4970703125
33797, -0.0006652735755778849, -0.044839534908533096, 0.015254891477525234, 0.0005327313556335866, -6.189727719174698e-05, -0.09779153764247894, 0.0019839939195662737, -0.00013809830124955624, -0.2597275376319885, 0.1553502380847931, 0.554618775844574, 0.05739041790366173, 0.39751810597300585, 0.03761389006260174, -2.875438220672035, 9362.0, 30146.0, 35388.0, 9362.0, 7.973554611206055, -0.06639654189348221, -0.14256028831005096, -0.10628485679626465, 0.0058846240863204, -0.03240538015961647, 0.9654857516288757, -0.09078072756528854, -0.07543754577636719, 1.48974609375, 1.32275390625, 0.0251312255859375, 1.4970703125
33817, -0.001930942409671843, -0.04438375309109688, 0.013747424818575382, 0.0005327313556335866, -6.189727719174698e-05, -0.09779153764247894, 0.0019839939195662737, -0.00013809830124955624, -0.2597275376319885, 0.1553608924150467, 0.5546218752861023, 0.05740142613649368, 0.39754375686073895, 0.03960710210176899, -2.869590372068682, 9362.0, 30146.0, 35388.0, 9362.0, 7.99338960647583, -0.2350681722164154, -0.24164298176765442, -0.03023253008723259, 0.008793308399617672, -0.029704352840781212, 0.965954601764679, -0.09078072756528854, -0.07543754577636719, 1.48974609375, 1.32275390625, 0.0251312255859375, 1.4970703125
33827, -0.0022345026955008507, -0.042684994637966156, 0.01437488105148077, 0.0007926563266664743, -7.509774150094017e-05, -0.1284477412700653, 0.0027616112492978573, -0.00010949034913210198, -0.2972966134548187, 0.155361607670784, 0.5546311736106873, 0.05738534778356552, 0.40180888989065244, 0.04084347955515, -2.874203985397216, 9362.0, 30146.0, 35388.0, 9362.0, 7.973554611206055, 0.0467960424721241, -0.16884957253932953, -0.05374080687761307, 0.00562806474044919, -0.03074527345597744, 0.963777482509613, -0.09078072756528854, -0.07543754577636719, 1.48974609375, 1.32275390625, 0.0251312255859375, 1.4970703125
33837, -0.0022581228986382484, -0.04175858199596405, 0.012016094289720058, 0.0008206390775740147, -7.617660594405606e-05, -0.13143791258335114, 0.0028350388165563345, -0.00010630005272105336, -0.30073806643486023, 0.15535573661327362, 0.5546155571937561, 0.05738113820552826, 0.3997997810906058, 0.045083790357750786, -2.8746654839454044, 9362.0, 30146.0, 35388.0, 9362.0, 7.973554611206055, -0.03711174428462982, -0.21814729273319244, -0.13311244547367096, 0.004106956534087658, -0.033293914049863815, 0.9647225141525269, -0.09078072756528854, -0.07543754577636719, 1.48974609375, 1.32275390625, 0.0251312255859375, 1.4970703125
33847, -0.001813337323255837, -0.0405934602022171, 0.011063353158533573, 0.0008493416826240718, -7.722107693552971e-05, -0.13446298241615295, 0.0029055429622530937, -0.00010259878763463348, -0.30427640676498413, 0.15533412992954254, 0.5546456575393677, 0.057401981204748154, 0.40468650114082483, 0.038963053510258305, -2.8579100336811027, 9362.0, 30146.0, 35388.0, 9362.0, 7.973554611206055, 0.18473398685455322, 0.09100370854139328, 0.08700361102819443, 0.004122376907616854, -0.03314725309610367, 0.9645828604698181, -0.07716289907693863, -0.11127853393554688, 1.48681640625, 1.317626953125, 0.0291900634765625, 1.4970703125
33887, -0.0021676260512322187, -0.046204328536987305, 0.012890982441604137, 0.0009710263693705201, -8.107061876216903e-05, -0.1469089239835739, 0.003179270774126053, -9.117977606365457e-05, -0.3178900182247162, 0.1553528606891632, 0.5546231865882874, 0.05738384649157524, 0.3980628884844976, 0.04362236337195213, -2.865063555285261, 9362.0, 30146.0, 35388.0, 9362.0, 7.973554611206055, -0.03959586098790169, 0.054778262972831726, 0.11307692527770996, 0.005565960425883532, -0.031230444088578224, 0.9673079252243042, -0.07716289907693863, -0.11127853393554688, 1.48681640625, 1.317626953125, 0.0291900634765625, 1.4970703125
33897, -0.0017329538241028786, -0.04671543464064598, 0.012036964297294617, 0.0009710263693705201, -8.107061876216903e-05, -0.1469089239835739, 0.003179270774126053, -9.117977606365457e-05, -0.3178900182247162, 0.15535502135753632, 0.5546270608901978, 0.05739279091358185, 0.403021863106376, 0.043420521183975325, -2.8719324255626772, 9362.0, 30146.0, 35388.0, 9362.0, 7.99338960647583, 0.05040081590414047, -0.22696031630039215, 0.1003948524594307, 0.006180872209370136, -0.03297703340649605, 0.9642189741134644, -0.07716289907693863, -0.11127853393554688, 1.48681640625, 1.317626953125, 0.0291900634765625, 1.4970703125
33907, -0.0014139299746602774, -0.046994805335998535, 0.013863848522305489, 0.0009710263693705201, -8.107061876216903e-05, -0.1469089239835739, 0.003179270774126053, -9.117977606365457e-05, -0.3178900182247162, 0.1553325057029724, 0.554645299911499, 0.0573863759636879, 0.40458314649414184, 0.03654865853417277, -2.8653318598631037, 9362.0, 30146.0, 35388.0, 9362.0, 7.99338960647583, 0.11126596480607986, 0.4572873115539551, 0.27097997069358826, 0.004810214973986149, -0.031873077154159546, 0.9652254581451416, -0.07716289907693863, -0.11127853393554688, 1.48681640625, 1.317626953125, 0.0291900634765625, 1.4970703125
33937, -0.0027863902505487204, -0.04805191606283188, 0.014332891441881657, 0.0011393402237445116, -8.526774035999551e-05, -0.1632264107465744, 0.0035607635509222746, -7.625483704032376e-05, -0.3349475860595703, 0.15535522997379303, 0.5546218752861023, 0.057397253811359406, 0.4025610329749962, 0.0378004483940515, -2.866816504375372, 9362.0, 30146.0, 35388.0, 9362.0, 7.973554611206055, -0.1831880509853363, -0.019651278853416443, -0.11963089555501938, 0.005526029970496893, -0.03279690071940422, 0.9661027789115906, -0.07716289907693863, -0.11127853393554688, 1.48681640625, 1.317626953125, 0.0291900634765625, 1.4970703125
33967, -0.0034613253083080053, -0.049803122878074646, 0.014203007332980633, 0.001249769702553749, -8.735970186535269e-05, -0.17343080043792725, 0.0038021295331418514, -6.257831410039216e-05, -0.3452566862106323, 0.15534670650959015, 0.5546430945396423, 0.057414181530475616, 0.40477684328500435, 0.03635594400168429, -2.862403907246074, 9362.0, 30146.0, 35388.0, 9362.0, 7.99338960647583, 0.18177396059036255, 0.03192591294646263, -0.30116984248161316, 0.005829226691275835, -0.030233968049287796, 0.9628792405128479, -0.07716289907693863, -0.11127853393554688, 1.48681640625, 1.317626953125, 0.0291900634765625, 1.4970703125
34007, -0.0028473264537751675, -0.04759792611002922, 0.011490317061543465, 0.0014081780100241303, -8.943647117121145e-05, -0.18752938508987427, 0.004120409954339266, -4.359566810308024e-05, -0.3596724569797516, 0.15535637736320496, 0.5546197891235352, 0.05742664635181427, 0.39848831440991467, 0.034945588744108136, -2.8678222449955584, 9362.0, 30146.0, 35388.0, 9362.0, 7.99338960647583, 0.00942418072372675, 0.4710443913936615, -0.20761698484420776, 0.006581119727343321, -0.03407745435833931, 0.9639794826507568, -0.07716289907693863, -0.11127853393554688, 1.48681640625, 1.317626953125, 0.0291900634765625, 1.4970703125
34017, -0.003185718785971403, -0.05023171380162239, 0.011313791386783123, 0.0014081780100241303, -8.943647117121145e-05, -0.18752938508987427, 0.004120409954339266, -4.359566810308024e-05, -0.3596724569797516, 0.15535923838615417, 0.5546224117279053, 0.05742189660668373, 0.4074463048263623, 0.045173940015388325, -2.868709036206595, 9362.0, 30146.0, 35388.0, 9362.0, 7.99338960647583, -0.10778139531612396, -0.005473721772432327, 0.020381642505526543, 0.0073131173849105835, -0.03228291496634483, 0.9627394080162048, -0.07716289907693863, -0.11127853393554688, 1.48681640625, 1.317626953125, 0.0291900634765625, 1.4970703125
34027, -0.003926584031432867, -0.05035935342311859, 0.012187490239739418, 0.0014921898255124688, -9.023302118293941e-05, -0.1947929561138153, 0.004279524553567171, -3.5465523978928104e-05, -0.3667294383049011, 0.15534286201000214, 0.5546480417251587, 0.057400770485401154, 0.40849078311216, 0.045879590425954575, -2.8605806706403034, 9362.0, 30146.0, 35388.0, 9362.0, 7.973554611206055, 0.049456704407930374, 0.11549262702465057, -0.186375692486763, 0.006271640304476023, -0.03071587160229683, 0.9634540677070618, -0.07716289907693863, -0.11127853393554688, 1.48681640625, 1.317626953125, 0.0291900634765625, 1.4970703125
34047, -0.004599046427756548, -0.050434891134500504, 0.013614239171147346, 0.001579437986947596, -9.083127224585041e-05, -0.20219984650611877, 0.004445537459105253, -2.382015372859314e-05, -0.37393128871917725, 0.15535347163677216, 0.5546265244483948, 0.057416003197431564, 0.401397346293437, 0.03373522258578987, -2.8767579011728768, 9362.0, 30146.0, 35388.0, 9362.0, 7.99338960647583, -0.01827981323003769, -0.05388394370675087, 0.0538954921066761, 0.006330656819045544, -0.030819110572338104, 0.965607762336731, -0.07716289907693863, -0.11127853393554688, 1.48681640625, 1.317626953125, 0.0291900634765625, 1.4970703125
34057, -0.005409762728959322, -0.04870022088289261, 0.01419101469218731, 0.0016242940910160542, -9.102703188546002e-05, -0.20595596730709076, 0.004525579046458006, -1.5299696315196343e-05, -0.3772926330566406, 0.1553574800491333, 0.5546256303787231, 0.05738846957683563, 0.40065734219698323, 0.03745106814790233, -2.8689072395840522, 9362.0, 30146.0, 35388.0, 9362.0, 7.99338960647583, 0.053065236657857895, -0.11410151422023773, -0.04767915606498718, 0.005559760145843029, -0.030533310025930405, 0.9659541249275208, -0.07716289907693863, -0.11127853393554688, 1.48681640625, 1.317626953125, 0.0291900634765625, 1.4970703125
34067, -0.00511508621275425, -0.049644388258457184, 0.01332109235227108, 0.00166996696498245, -9.114189742831513e-05, -0.2097456008195877, 0.0046090902760624886, -7.720032954239286e-06, -0.380633145570755, 0.15535134077072144, 0.5546298623085022, 0.05740387365221977, 0.4026762883480126, 0.03749043242123662, -2.8717186795345664, 9362.0, 30146.0, 35388.0, 9362.0, 7.99338960647583, -0.0033134822733700275, 0.028403598815202713, -0.09596624225378036, 0.005148652475327253, -0.03189920634031296, 0.9659567475318909, -0.07475109398365021, -0.11127853393554688, 1.48681640625, 1.311767578125, 0.0348052978515625, 1.4970703125
34077, -0.005824808031320572, -0.04931366443634033, 0.013954942114651203, 0.0017164605669677258, -9.117426088778302e-05, -0.21356864273548126, 0.004689575172960758, 1.2625486078832182e-06, -0.3839758634567261, 0.15535390377044678, 0.5546231865882874, 0.057395000010728836, 0.40377676988141803, 0.03672424707480104, -2.867736610426298, 9362.0, 30146.0, 35388.0, 9362.0, 7.973554611206055, -0.025260457769036293, 0.026223469525575638, 0.1159963309764862, 0.00583293754607439, -0.032480526715517044, 0.9639360308647156, -0.0748145580291748, -0.10231781005859375, 1.487548828125, 1.311767578125, 0.0348052978515625, 1.4970703125
34087, -0.004860113374888897, -0.0517374612390995, 0.013668281026184559, 0.0017637668643146753, -9.111924009630457e-05, -0.2174251228570938, 0.004771694540977478, 9.700614100438543e-06, -0.38731929659843445, 0.15535442531108856, 0.5546226501464844, 0.057405874133110046, 0.40216190012026076, 0.04409339145618674, -2.8752118037672356, 9362.0, 30146.0, 35388.0, 9362.0, 7.973554611206055, 0.09602069109678268, 0.08388599008321762, -0.2438351809978485, 0.006270383484661579, -0.03310219570994377, 0.964528501033783, -0.07264532893896103, -0.07543754577636719, 1.48974609375, 1.311767578125, 0.0348052978515625, 1.4970703125
34097, -0.004517285618931055, -0.05175027996301651, 0.011753122322261333, 0.0018118906300514936, -9.097407746594399e-05, -0.2213161289691925, 0.004852909594774246, 1.939064168254845e-05, -0.3908814489841461, 0.15536357462406158, 0.5546382665634155, 0.05742376297712326, 0.4059439297047814, 0.035610416104532305, -2.872730562164854, 9362.0, 30146.0, 35388.0, 9362.0, 7.973554611206055, -0.054863907396793365, -0.16017386317253113, -0.004755992442369461, 0.004268416669219732, -0.0312720462679863, 0.9659223556518555, -0.07088010013103485, -0.08439826965332031, 1.489013671875, 1.311767578125, 0.0348052978515625, 1.4970703125
34107, -0.004395224153995514, -0.05130015313625336, 0.011772440746426582, 0.0018608472310006618, -9.073990804608911e-05, -0.2252419888973236, 0.004938410595059395, 2.746057725744322e-05, -0.3942914307117462, 0.15535737574100494, 0.5546252727508545, 0.0573943555355072, 0.4069380942724193, 0.04215995040033249, -2.8700740797037008, 9362.0, 30146.0, 35388.0, 9362.0, 7.973554611206055, 0.1040971502661705, -0.2456366866827011, -0.08886921405792236, 0.005696727428585291, -0.030834462493658066, 0.9652928113937378, -0.07184060662984848, -0.12023735046386719, 1.486083984375, 1.311767578125, 0.0348052978515625, 1.4970703125
34117, -0.0038780730683356524, -0.04803385213017464, 0.010171441361308098, 0.0019106592517346144, -9.042786405188963e-05, -0.22920164465904236, 0.00502401776611805, 3.495572673273273e-05, -0.39763835072517395, 0.15535396337509155, 0.5546276569366455, 0.05739601328969002, 0.40045421135008613, 0.04436131022640666, -2.8687926849862064, 9362.0, 30146.0, 35388.0, 9362.0, 7.99338960647583, 0.0835704430937767, 0.13034547865390778, -0.0855606272816658, 0.0054120859131217, -0.030138054862618446, 0.9647222757339478, -0.07326279580593109, -0.07543754577636719, 1.48974609375, 1.311767578125, 0.0348052978515625, 1.4970703125
34137, -0.00441673444584012, -0.051126204431056976, 0.011375987902283669, 0.002012810204178095, -8.958714170148596e-05, -0.23722276091575623, 0.00518828583881259, 4.8650257667759433e-05, -0.4044871926307678, 0.1553497463464737, 0.5546298623085022, 0.05740031227469444, 0.39945520131597884, 0.03797419967267501, -2.8708995279052467, 9362.0, 30146.0, 35388.0, 9362.0, 7.973554611206055, 0.10160797834396362, 0.0266598891466856, 0.02023768238723278, 0.0031497441232204437, -0.03111611306667328, 0.9651678204536438, -0.07060110569000244, -0.03959846496582031, 1.49267578125, 1.311767578125, 0.0348052978515625, 1.4970703125
34147, -0.004293830133974552, -0.051118358969688416, 0.010702565312385559, 0.0020650988444685936, -8.906328002922237e-05, -0.24128457903862, 0.005269300192594528, 5.61281995032914e-05, -0.4078746438026428, 0.15534360706806183, 0.5546507835388184, 0.057391684502363205, 0.40441758511677667, 0.03874864059395122, -2.8614285047767694, 9362.0, 30146.0, 35388.0, 9362.0, 7.973554611206055, 0.10160797834396362, 0.0266598891466856, 0.02023768238723278, 0.0056848120875656605, -0.031851816922426224, 0.9638274908065796, -0.07060110569000244, -0.03959846496582031, 1.49267578125, 1.311767578125, 0.0348052978515625, 1.4970703125
34177, -0.004518028814345598, -0.053217630833387375, 0.011995024047791958, 0.002226971322670579, -8.704859646968544e-05, -0.2536785304546356, 0.005521519109606743, 7.891564018791541e-05, -0.41840049624443054, 0.1553601175546646, 0.5546240210533142, 0.05740515515208244, 0.3996062489391182, 0.039798819550725284, -2.8734701240556055, 9362.0, 30146.0, 35388.0, 9362.0, 7.973554611206055, 0.06946853548288345, 0.23577477037906647, 0.10108274966478348, 0.005750586278736591, -0.0311012864112854, 0.9660078287124634, -0.07060110569000244, -0.03959846496582031, 1.49267578125, 1.311767578125, 0.0348052978515625, 1.4970703125
34197, -0.004443274810910225, -0.05369612202048302, 0.011691173538565636, 0.002339100930839777, -8.532260835636407e-05, -0.26211509108543396, 0.005693343933671713, 9.377184323966503e-05, -0.4252057671546936, 0.15535575151443481, 0.5546366572380066, 0.05738646164536476, 0.403755651165583, 0.04603744458486858, -2.8712939316405857, 9362.0, 30146.0, 35388.0, 9362.0, 7.973554611206055, -0.021883975714445114, 0.35384199023246765, -0.017271341755986214, 0.005043860524892807, -0.03330899029970169, 0.9651634097099304, -0.07060110569000244, -0.03959846496582031, 1.49267578125, 1.311767578125, 0.0348052978515625, 1.4970703125
34217, -0.005611799191683531, -0.057290464639663696, 0.01351900678128004, 0.002396484836935997, -8.435008203377947e-05, -0.26638418436050415, 0.005783508066087961, 0.00010071770520880818, -0.42861315608024597, 0.15534429252147675, 0.5546439290046692, 0.05740585923194885, 0.40384570385443064, 0.03714525482794784, -2.8680862397220244, 9362.0, 30146.0, 35388.0, 9362.0, 7.973554611206055, 0.09130706638097763, 0.07581516355276108, 0.11325949430465698, 0.0054683503694832325, -0.03027247078716755, 0.9634445905685425, -0.07060110569000244, -0.03959846496582031, 1.49267578125, 1.311767578125, 0.0348052978515625, 1.4970703125
34227, -0.004375833552330732, -0.057950034737586975, 0.012949829921126366, 0.002396484836935997, -8.435008203377947e-05, -0.26638418436050415, 0.005783508066087961, 0.00010071770520880818, -0.42861315608024597, 0.15535905957221985, 0.5546302795410156, 0.05739746242761612, 0.39650066787456006, 0.04017536024272772, -2.8707630704857947, 9362.0, 30146.0, 35388.0, 9362.0, 7.973554611206055, 0.09130706638097763, 0.07581516355276108, 0.11325949430465698, 0.005439856089651585, -0.030735593289136887, 0.9653863310813904, -0.07060110569000244, -0.03959846496582031, 1.49267578125, 1.311767578125, 0.0348052978515625, 1.4970703125
34247, -0.00464965496212244, -0.057014793157577515, 0.011341221630573273, 0.002396484836935997, -8.435008203377947e-05, -0.26638418436050415, 0.005783508066087961, 0.00010071770520880818, -0.42861315608024597, 0.15534275770187378, 0.5546392798423767, 0.057388897985219955, 0.4147781584079408, 0.041114747580962785, -2.859365317231628, 9362.0, 30146.0, 35388.0, 9362.0, 7.99338960647583, -0.10591191798448563, 0.32886531949043274, 0.1302444487810135, 0.006268062628805637, -0.03093327395617962, 0.9653512239456177, -0.07060110569000244, -0.03959846496582031, 1.49267578125, 1.311767578125, 0.0348052978515625, 1.4970703125
34257, -0.004755168687552214, -0.05964234843850136, 0.013056500814855099, 0.002396484836935997, -8.435008203377947e-05, -0.26638418436050415, 0.005783508066087961, 0.00010071770520880818, -0.42861315608024597, 0.15533646941184998, 0.5546472668647766, 0.057408303022384644, 0.39730054076941124, 0.04775029888563154, -2.865039291323314, 9362.0, 30146.0, 35388.0, 9362.0, 7.973554611206055, 0.06171083077788353, 0.3434082567691803, 0.01299103070050478, 0.007846499793231487, -0.03194187581539154, 0.9653716683387756, -0.07060110569000244, -0.03959846496582031, 1.49267578125, 1.311767578125, 0.0348052978515625, 1.4970703125
34297, -0.005351443309336901, -0.056493278592824936, 0.011449550278484821, 0.0028888580854982138, -7.381560862995684e-05, -0.30178752541542053, 0.006538940593600273, 0.00016198784578591585, -0.45609837770462036, 0.15534763038158417, 0.5546318888664246, 0.057411160320043564, 0.40077075985459243, 0.04572868757614401, -2.8684383520851027, 9362.0, 30146.0, 35388.0, 9362.0, 7.99338960647583, 0.039380013942718506, -0.26607370376586914, -0.4627391993999481, 0.004218551330268383, -0.03399055451154709, 0.9645645618438721, -0.07060110569000244, -0.03959846496582031, 1.49267578125, 1.311767578125, 0.0348052978515625, 1.4970703125
34307, -0.004662203136831522, -0.05572827532887459, 0.010876953601837158, 0.0028888580854982138, -7.381560862995684e-05, -0.30178752541542053, 0.006538940593600273, 0.00016198784578591585, -0.45609837770462036, 0.15535368025302887, 0.5546295046806335, 0.05738558620214462, 0.39720768938247597, 0.04561211769453166, -2.8639538192993585, 9362.0, 30146.0, 35388.0, 9362.0, 7.99338960647583, 0.039380013942718506, -0.26607370376586914, -0.4627391993999481, 0.004761067219078541, -0.03202472999691963, 0.9635331630706787, -0.07060110569000244, -0.03959846496582031, 1.49267578125, 1.311767578125, 0.0348052978515625, 1.4970703125
34327, -0.005936226341873407, -0.05498778447508812, 0.009588598273694515, 0.00315793021582067, -6.680858496110886e-05, -0.3203100562095642, 0.006912936456501484, 0.00019054939912166446, -0.4700928032398224, 0.15534918010234833, 0.5546214580535889, 0.05737435817718506, 0.40681863563284665, 0.040807513338080526, -2.86848400882016, 9362.0, 30146.0, 35388.0, 9362.0, 7.973554611206055, 0.07752162218093872, 0.38191869854927063, 0.15926723182201385, 0.0048410347662866116, -0.03219554200768471, 0.9634217619895935, -0.07060110569000244, -0.03959846496582031, 1.49267578125, 1.311767578125, 0.0348052978515625, 1.4970703125
34337, -0.005767432972788811, -0.05720825493335724, 0.009804382920265198, 0.00315793021582067, -6.680858496110886e-05, -0.3203100562095642, 0.006912936456501484, 0.00019054939912166446, -0.4700928032398224, 0.15534110367298126, 0.5546522736549377, 0.057391803711652756, 0.405879693103436, 0.03528991523415925, -2.865165202345516, 9362.0, 30146.0, 35388.0, 9362.0, 7.973554611206055, 0.07752162218093872, 0.38191869854927063, 0.15926723182201385, 0.005359849892556667, -0.03223627805709839, 0.9665233492851257, -0.07060110569000244, -0.03959846496582031, 1.49267578125, 1.311767578125, 0.0348052978515625, 1.4970703125
34357, -0.0045725274831056595, -0.059243641793727875, 0.01147488597780466, 0.00315793021582067, -6.680858496110886e-05, -0.3203100562095642, 0.006912936456501484, 0.00019054939912166446, -0.4700928032398224, 0.155366912484169, 0.5546221733093262, 0.05738776922225952, 0.39627785828104284, 0.04732264144064402, -2.8693928278049516, 9362.0, 30146.0, 35388.0, 9362.0, 7.973554611206055, 0.05477646738290787, 0.15035802125930786, 0.0460476279258728, 0.006357958074659109, -0.03270877152681351, 0.9643906354904175, -0.07060110569000244, -0.03959846496582031, 1.49267578125, 1.311767578125, 0.0348052978515625, 1.4970703125
34367, -0.004101466853171587, -0.05955559015274048, 0.011206279508769512, 0.00315793021582067, -6.680858496110886e-05, -0.3203100562095642, 0.006912936456501484, 0.00019054939912166446, -0.4700928032398224, 0.1553574651479721, 0.554624080657959, 0.057387031614780426, 0.4029347013070463, 0.04063698378629965, -2.8747564893348265, 9362.0, 30146.0, 35388.0, 9362.0, 7.99338960647583, 0.05477646738290787, 0.15035802125930786, 0.0460476279258728, 0.0068584466353058815, -0.03062465414404869, 0.9659576416015625, -0.07060110569000244, -0.03959846496582031, 1.49267578125, 1.311767578125, 0.0348052978515625, 1.4970703125
34377, -0.004677693825215101, -0.06105813384056091, 0.012393799610435963, 0.00315793021582067, -6.680858496110886e-05, -0.3203100562095642, 0.006912936456501484, 0.00019054939912166446, -0.4700928032398224, 0.15534888207912445, 0.5546526312828064, 0.057385437190532684, 0.40472734073817007, 0.044627929362604846, -2.865388458901077, 9362.0, 30146.0, 35388.0, 9362.0, 7.973554611206055, -0.1816929578781128, 0.044236671179533005, 0.1522391438484192, 0.0068584466353058815, -0.03062465414404869, 0.9659576416015625, -0.07060110569000244, -0.03959846496582031, 1.49267578125, 1.311767578125, 0.0348052978515625, 1.4970703125
