timeTick, roll, pitch, yaw, stateX, stateY, stateZ, stateVX, stateVY, stateVZ, otX0, otY0, otZ0, otRoll0, otPitch0, otYaw0, left wing, pitch motor, yaw motor, right wing, voltage, roll rate, pitch rate, yaw rate, A_x, A_y, A_z, current, i_raw, v_raw, airflow_voltage, airflow_speed, pot_Pitch
35074, 1.1066793203353882, 2.290609836578369, 5.54809045791626, 0, 0, 0, 0, 0, 0, -0.6821538209915161, -1.1273410320281982, 0.07403790205717087, -1.7514040401357043, -0.37341840012771854, 10.924650876339946, 0, 0, 0, 0, 0, 0, 0, 0, 0, 0, 0, 0, 0, 0, 0, 0, 0
35084, 1.1061726808547974, 2.2904491424560547, 5.547252655029297, 0.0009636475006118417, 0.0005882242694497108, -22.93706512451172, 0.04448093846440315, 0.027155596762895584, -1.37040376663208, -0.68215012550354, -1.1273483037948608, 0.07404112815856934, -1.7629596299251802, -0.3750718522022112, 10.928037347841885, 9362.0, 30146.0, 35388.0, 9362.0, 0, -0.0819573923945427, 0.017591072246432304, 0.05423849821090698, 0, 0, 0, 0, 0, 0, 0, 0, 0
35094, 1.1053171157836914, 2.290240526199341, 5.548858165740967, 0.0013899627374485135, 0.0008485204889439046, -22.95077133178711, 0.04078215733170509, 0.024903535842895508, -1.371016502380371, -0.682154655456543, -1.1273425817489624, 0.07400733977556229, -1.7577898767674995, -0.3901681832456916, 10.930249825458725, 9362.0, 30146.0, 35388.0, 9362.0, 0, -0.16526205837726593, -0.2543375790119171, 0.21117959916591644, -0.08954448997974396, -0.03769388794898987, 0.993725597858429, 0, 0, 0, 1.41064453125, 0.0509490966796875, 0
35104, 1.1048047542572021, 2.290992498397827, 5.550904273986816, 0.0017793000442907214, 0.001086308155208826, -22.96448516845703, 0.0370853953063488, 0.022653868421912193, -1.3716744184494019, -0.6821619868278503, -1.1273492574691772, 0.07403707504272461, -1.7569918709380457, -0.3755209450192183, 10.932100364309814, 9362.0, 30146.0, 35388.0, 9362.0, 0, -0.16322414577007294, -0.24860408902168274, 0.23980878293514252, -0.08799023926258087, -0.03849441558122635, 0.9947865009307861, 0, 0, 0, 1.365966796875, 0.017791748046875, 1.48681640625
35114, 1.1045154333114624, 2.294677495956421, 5.552370548248291, 0.0021316453348845243, 0.0013015912845730782, -22.97820472717285, 0.03338376060128212, 0.020402664318680763, -1.3722376823425293, -0.6821553707122803, -1.1273322105407715, 0.07405555993318558, -1.7560780267769904, -0.37961049878001063, 10.93784397392396, 9362.0, 30146.0, 35388.0, 9362.0, 0, 0.08703767508268356, 0.06563802063465118, 0.30855199694633484, -0.08684486150741577, -0.0357176773250103, 0.9950257539749146, 0, 0, 0, 1.41357421875, 0.0542449951171875, 1.48681640625
35124, 1.1056267023086548, 2.293405294418335, 5.5550618171691895, 0.002446942962706089, 0.0014943612040951848, -22.99193000793457, 0.02967587485909462, 0.018151164054870605, -1.3728007078170776, -0.6821572184562683, -1.1273483037948608, 0.07406030595302582, -1.7573504158234912, -0.37249806978786637, 10.92959611560574, 9362.0, 30146.0, 35388.0, 9362.0, 0, 0.025345807895064354, 0.37814438343048096, -0.11086566001176834, -0.09034018218517303, -0.03648250922560692, 0.9951370358467102, 0, 0, 0, 1.392333984375, 0.03314208984375, 1.406982421875
35134, 1.1051981449127197, 2.290923595428467, 5.555212020874023, 0.0027251827996224165, 0.0016646123258396983, -23.005661010742188, 0.025972088798880577, 0.015899045392870903, -1.3734098672866821, -0.6821658611297607, -1.1273458003997803, 0.07403482496738434, -1.755639182340951, -0.37527987392022055, 10.929299872788578, 9362.0, 30146.0, 35388.0, 9362.0, 0, -0.136410191655159, -0.011080816388130188, 0.16206768155097961, -0.09166950732469559, -0.036918915808200836, 0.9945595860481262, 0, 0, 0, 1.434814453125, 0.081787109375, 1.406982421875
35144, 1.1053389310836792, 2.291165590286255, 5.55558443069458, 0.0029664032626897097, 0.001812346396036446, -23.019397735595703, 0.022272001951932907, 0.013647753745317459, -1.3740066289901733, -0.6821621656417847, -1.1273306608200073, 0.07405153661966324, -1.752463080677866, -0.3734506961455679, 10.935074514857188, 9362.0, 30146.0, 35388.0, 9362.0, 0, 0.16151881217956543, 0.17069977521896362, 0.1733149141073227, -0.08864133805036545, -0.03650404512882233, 0.9952117204666138, 0, 0, 0, 1.393798828125, 0.0344085693359375, 1.49560546875
35154, 1.1060755252838135, 2.2891597747802734, 5.556271076202393, 0.003170617390424013, 0.0019375639967620373, -23.033140182495117, 0.018570853397250175, 0.011395728215575218, -1.3745850324630737, -0.6821491122245789, -1.1273267269134521, 0.074049212038517, -1.7556700731087005, -0.37536567516761465, 10.93012084256382, 9362.0, 30146.0, 35388.0, 9362.0, 0, -0.09019515663385391, 0.5242636203765869, 0.18107332289218903, -0.08815789967775345, -0.03833887726068497, 0.994330883026123, 0, 0, 0, 1.35791015625, 0.015869140625, 1.49560546875
35164, 1.1050875186920166, 2.2862753868103027, 5.557873249053955, 0.0033378591760993004, 0.0020402695517987013, -23.046890258789062, 0.01487753726541996, 0.009145270101726055, -1.3752760887145996, -0.6821576952934265, -1.1273410320281982, 0.07404449582099915, -1.7535173877889239, -0.3726455324531912, 10.939663500916225, 9362.0, 30146.0, 35388.0, 9362.0, 0, -0.05180085822939873, -0.2374400943517685, 0.04706631973385811, -0.08877898752689362, -0.038471873849630356, 0.9945327639579773, 0, 0, 0, 1.354248046875, 0.0154266357421875, 1.493408203125
35174, 1.1050066947937012, 2.286616563796997, 5.558228492736816, 0.0034681723918765783, 0.0021204689983278513, -23.060646057128906, 0.011185133829712868, 0.006894588936120272, -1.3758652210235596, -0.6821511387825012, -1.1273386478424072, 0.074043869972229, -1.7584642441429992, -0.36668518129442873, 10.92979297870604, 9362.0, 30146.0, 35388.0, 9362.0, 8.370248794555664, 0.12131606042385101, -0.14061643183231354, 0.06202695146203041, -0.08755823224782944, -0.03732920065522194, 0.9958396553993225, 0, 0, 0, 1.39013671875, 0.0314483642578125, 1.493408203125
35184, 1.1058955192565918, 2.289628505706787, 5.558594226837158, 0.003561543533578515, 0.002178152557462454, -23.07440757751465, 0.007489141542464495, 0.004642128944396973, -1.376374363899231, -0.682145893573761, -1.1273335218429565, 0.07404123246669769, -1.7470042182482814, -0.3772068894145093, 10.936517890260182, 9362.0, 30146.0, 35388.0, 9362.0, 8.370248794555664, -0.01178433932363987, 0.10674047470092773, 0.008553490042686462, -0.09059268236160278, -0.03642735630273819, 0.9951314330101013, -0.04385380074381828, -0.08439826965332031, 1.489013671875, 1.4033203125, 0.043182373046875, 1.493408203125
35194, 1.1060206890106201, 2.2884695529937744, 5.558483600616455, 0.003617946757003665, 0.0022133116144686937, -23.08817481994629, 0.0037914894055575132, 0.0023896892089396715, -1.3769712448120117, -0.6821468472480774, -1.127332091331482, 0.07405378669500351, -1.749812236834536, -0.3717838160995086, 10.932037404117082, 9362.0, 30146.0, 35388.0, 9362.0, 8.370248794555664, 0.07191959768533707, -0.5653814077377319, 0.0033909878693521023, -0.08965060114860535, -0.03845036029815674, 0.9951330423355103, -0.04385380074381828, -0.08439826965332031, 1.489013671875, 1.392333984375, 0.03314208984375, 1.493408203125
35204, 1.1073274612426758, 2.2906765937805176, 5.558259963989258, 0.0036373608745634556, 0.002225932665169239, -23.101947784423828, 9.134850552072749e-05, 0.00013452295388560742, -1.3774502277374268, -0.6821604371070862, -1.1273280382156372, 0.07404711097478867, -1.7490792814317797, -0.37397970756154564, 10.936496961462465, 9362.0, 30146.0, 35388.0, 9362.0, 8.370248794555664, 0.24179159104824066, -0.024254614487290382, -0.03133248910307884, -0.08818786591291428, -0.036163415759801865, 0.9966812133789062, -0.04385380074381828, -0.08439826965332031, 1.489013671875, 1.406982421875, 0.046966552734375, 1.491943359375
35214, 1.1092277765274048, 2.2892966270446777, 5.55871057510376, 0.0036197577137500048, 0.002215990098193288, -23.115724563598633, -0.003611995605751872, -0.0021230473648756742, -1.3779380321502686, -0.6821538805961609, -1.1273342370986938, 0.07403326034545898, -1.7470953791273764, -0.3779488944128957, 10.936591155156524, 9362.0, 30146.0, 35388.0, 9362.0, 8.370248794555664, 0.19998186826705933, 0.16674719750881195, -0.2876809537410736, -0.08919668942689896, -0.04027486592531204, 0.9958611726760864, -0.04385380074381828, -0.08439826965332031, 1.489013671875, 1.390869140625, 0.0319671630859375, 1.491943359375
35224, 1.1104539632797241, 2.2863941192626953, 5.5572004318237305, 0.003565162420272827, 0.002183473901823163, -23.129507064819336, -0.007307132240384817, -0.004380096215754747, -1.3785735368728638, -0.6821560263633728, -1.1273400783538818, 0.07401248812675476, -1.758511399451955, -0.3761855121955193, 10.935925565395186, 9362.0, 30146.0, 35388.0, 9362.0, 8.370248794555664, -0.1303517073392868, -0.1498134285211563, -0.19633224606513977, -0.08798208087682724, -0.03861600160598755, 0.993287980556488, -0.04385380074381828, -0.08439826965332031, 1.489013671875, 1.3916015625, 0.0325927734375, 1.49853515625
35234, 1.1103206872940063, 2.2863810062408447, 5.556515693664551, 0.0034736539237201214, 0.0021283875685185194, -23.14329719543457, -0.010994603857398033, -0.006637141108512878, -1.3792763948440552, -0.682167112827301, -1.1273382902145386, 0.07404907047748566, -1.7559485268313975, -0.3794188047740761, 10.931523325992423, 9362.0, 30146.0, 35388.0, 9362.0, 8.370248794555664, 0.14846718311309814, 0.5158678889274597, -0.09539012610912323, -0.0882793664932251, -0.03885570541024208, 0.9942004680633545, -0.04385380074381828, -0.08439826965332031, 1.489013671875, 1.402587890625, 0.0425262451171875, 1.49853515625
35244, 1.1104824542999268, 2.2833139896392822, 5.556995868682861, 0.003345268778502941, 0.002050731098279357, -23.157093048095703, -0.01468242984265089, -0.008894196711480618, -1.3799707889556885, -0.6821601986885071, -1.1273380517959595, 0.07403989881277084, -1.759597554060199, -0.37572426700180017, 10.935681048237823, 9362.0, 30146.0, 35388.0, 9362.0, 8.370248794555664, 0.012185766361653805, 0.01991967484354973, -0.4214443862438202, -0.08864343166351318, -0.03779749944806099, 0.9940258264541626, -0.04385380074381828, -0.08439826965332031, 1.489013671875, 1.379150390625, 0.0238189697265625, 1.49267578125
35254, 1.1105340719223022, 2.2816555500030518, 5.555949687957764, 0.003180005354806781, 0.0019504888914525509, -23.170894622802734, -0.018370291218161583, -0.011154167354106903, -1.3805259466171265, -0.6821563243865967, -1.127336859703064, 0.0740538239479065, -1.7665536382506997, -0.383943859103681, 10.933348832665002, 9362.0, 30146.0, 35388.0, 9362.0, 8.370248794555664, 0.07830802351236343, 0.0016894311411306262, -0.18479248881340027, -0.08815447241067886, -0.03679889068007469, 0.9961816072463989, -0.04385380074381828, -0.08439826965332031, 1.489013671875, 1.3974609375, 0.03759765625, 1.49267578125
35264, 1.110061764717102, 2.281269073486328, 5.554920196533203, 0.0029778694733977318, 0.001827643602155149, -23.184701919555664, -0.022056933492422104, -0.013414842076599598, -1.3810398578643799, -0.6821522116661072, -1.1273397207260132, 0.07404784858226776, -1.759968566740158, -0.3734770857685419, 10.925222544620386, 9362.0, 30146.0, 35388.0, 9362.0, 8.370248794555664, -0.058364685624837875, 0.21358726918697357, 0.1323131024837494, -0.08947217464447021, -0.036056891083717346, 0.9944173693656921, -0.04385380074381828, -0.08439826965332031, 1.489013671875, 1.4091796875, 0.04937744140625, 1.493408203125
35274, 1.1090800762176514, 2.2784852981567383, 5.556836128234863, 0.0027389274910092354, 0.0016822315519675612, -23.198516845703125, -0.025731435045599937, -0.015667714178562164, -1.3818588256835938, -0.6821516752243042, -1.1273462772369385, 0.07403548061847687, -1.7554839066079744, -0.37389565262947144, 10.92807030114085, 9362.0, 30146.0, 35388.0, 9362.0, 8.390083312988281, 0.1724860668182373, -0.0161028690636158, -0.09688206017017365, -0.09025225043296814, -0.03953589126467705, 0.9924492835998535, -0.04385380074381828, -0.08439826965332031, 1.489013671875, 1.406982421875, 0.046966552734375, 1.493408203125
35284, 1.109092116355896, 2.2776906490325928, 5.556110382080078, 0.0024632499553263187, 0.0015142923220992088, -23.212339401245117, -0.029404107481241226, -0.017920076847076416, -1.3826054334640503, -0.6821639537811279, -1.1273356676101685, 0.07403142750263214, -1.7530501542307633, -0.3759173968186076, 10.934749068200533, 9362.0, 30146.0, 35388.0, 9362.0, 8.390083312988281, 0.2437044084072113, 0.19625678658485413, 0.5769281387329102, -0.08887673169374466, -0.038048043847084045, 0.99506676197052, -0.0802733302116394, 0.05000114440917969, 1.5, 1.4443359375, 0.0959930419921875, 1.496337890625
35294, 1.1101222038269043, 2.2764968872070312, 5.558991432189941, 0.002150820568203926, 0.0013238107785582542, -23.226167678833008, -0.03308168426156044, -0.020176418125629425, -1.3831837177276611, -0.6821723580360413, -1.1273436546325684, 0.07403148710727692, -1.7534511722730495, -0.3791222541965453, 10.93850229599074, 9362.0, 30146.0, 35388.0, 9362.0, 8.390083312988281, -0.021759338676929474, -0.0014737647725269198, 0.10993912070989609, -0.08974682539701462, -0.03802202269434929, 0.9953415989875793, -0.0802733302116394, 0.05000114440917969, 1.5, 1.423828125, 0.066802978515625, 1.496337890625
35304, 1.1101090908050537, 2.27591609954834, 5.560798645019531, 0.0018016051035374403, 0.0011107437312602997, -23.240001678466797, -0.036761362105607986, -0.022437116131186485, -1.3836456537246704, -0.6821575164794922, -1.1273387670516968, 0.07403536885976791, -1.7585801927127396, -0.380037062679321, 10.933856994387774, 9362.0, 30146.0, 35388.0, 9362.0, 8.390083312988281, 0.2994794249534607, 0.18225905299186707, 0.038171377032995224, -0.0867391899228096, -0.034529201686382294, 0.9965835213661194, -0.0802733302116394, 0.05000114440917969, 1.5, 1.36083984375, 0.016387939453125, 1.494873046875
35314, 1.1117300987243652, 2.2750566005706787, 5.5611748695373535, 0.0014156115939840674, 0.0008750780834816396, -23.253841400146484, -0.04043731465935707, -0.024696029722690582, -1.3841798305511475, -0.6821579933166504, -1.1273434162139893, 0.07404464483261108, -1.7538684349888805, -0.3694846759474899, 10.928838664045157, 9362.0, 30146.0, 35388.0, 9362.0, 8.390083312988281, 0.2158326804637909, 0.09088264405727386, -0.5073989629745483, -0.08916912972927094, -0.03685145452618599, 0.9945186376571655, -0.0802733302116394, 0.05000114440917969, 1.5, 1.44580078125, 0.098236083984375, 1.494873046875
35324, 1.1133852005004883, 2.274353265762329, 5.558409690856934, 0.0009928949875757098, 0.0006168271647766232, -23.26768684387207, -0.044106125831604004, -0.026953963562846184, -1.3848614692687988, -0.682154655456543, -1.12732994556427, 0.0740436241030693, -1.7591039728615894, -0.37539044469050964, 10.929098570401218, 9362.0, 30146.0, 35388.0, 9362.0, 8.390083312988281, -0.04504766687750816, 0.044308874756097794, 0.24648995697498322, -0.09012001007795334, -0.038423944264650345, 0.9941410422325134, -0.0802733302116394, 0.05000114440917969, 1.5, 1.399658203125, 0.0396575927734375, 1.494873046875
35334, 1.1130050420761108, 2.274580955505371, 5.559011459350586, 0.0005334897432476282, 0.0003359798574820161, -23.281538009643555, -0.04777488484978676, -0.029215538874268532, -1.3855037689208984, -0.6821733117103577, -1.1273282766342163, 0.07404885441064835, -1.7563696619140006, -0.377766512461136, 10.935735714407825, 9362.0, 30146.0, 35388.0, 9362.0, 8.390083312988281, -0.11681802570819855, -0.09430399537086487, 0.23343594372272491, -0.0881640613079071, -0.03502512723207474, 0.9949629306793213, -0.0802733302116394, 0.05000114440917969, 1.5, 1.39013671875, 0.0314483642578125, 1.494873046875
35344, 1.111472487449646, 2.2770462036132812, 5.56088924407959, 3.73737420886755e-05, 3.250670852139592e-05, -23.295394897460938, -0.05144822224974632, -0.03147922456264496, -1.3860347270965576, -0.6821682453155518, -1.1273308992385864, 0.07405392825603485, -1.7599152284422017, -0.3724613389528315, 10.93538182202523, 9362.0, 30146.0, 35388.0, 9362.0, 8.390083312988281, -0.06010321155190468, 0.14711494743824005, 0.01909206062555313, -0.08699262142181396, -0.03823702782392502, 0.9964673519134521, -0.0802733302116394, 0.05000114440917969, 1.5, 1.431884765625, 0.07769775390625, 1.49267578125
35354, 1.1110270023345947, 2.2758536338806152, 5.561267852783203, -0.0004955159965902567, -0.0002936044184025377, -23.30925750732422, -0.05512971803545952, -0.03374302387237549, -1.3864673376083374, -0.6821489334106445, -1.1273410320281982, 0.07405252754688263, -1.755620216669182, -0.37759942823069537, 10.933940222949744, 9362.0, 30146.0, 35388.0, 9362.0, 8.390083312988281, 0.18594110012054443, 0.1799907088279724, 0.08398169279098511, -0.08865907043218613, -0.03828806057572365, 0.9960965514183044, -0.0802733302116394, 0.05000114440917969, 1.5, 1.364501953125, 0.0173492431640625, 1.49267578125
35364, 1.1125314235687256, 2.2741706371307373, 5.561688423156738, -0.0010651890188455582, -0.0006423353916034102, -23.3231258392334, -0.05880488082766533, -0.036003198474645615, -1.3870158195495605, -0.6821516156196594, -1.1273285150527954, 0.07403732091188431, -1.7554268630070202, -0.3773155127000507, 10.939527962293244, 9362.0, 30146.0, 35388.0, 9362.0, 8.390083312988281, 0.089239202439785, 0.22461606562137604, 0.012969699688255787, -0.08830396831035614, -0.03805910795927048, 0.9956067204475403, -0.0802733302116394, 0.05000114440917969, 1.5, 1.40771484375, 0.0478363037109375, 1.49560546875
35374, 1.1133288145065308, 2.2727484703063965, 5.56387186050415, -0.0016716013196855783, -0.00101368164177984, -23.336997985839844, -0.06247749179601669, -0.03826618194580078, -1.3875460624694824, -0.6821547746658325, -1.1273361444473267, 0.07403355836868286, -1.7554426780991899, -0.379064975521743, 10.93414339177209, 9362.0, 30146.0, 35388.0, 9362.0, 8.390083312988281, 0.004672858864068985, 0.04501824080944061, 0.3872050940990448, -0.08962392807006836, -0.040627989917993546, 0.9958643913269043, -0.0802733302116394, 0.05000114440917969, 1.5, 1.348388671875, 0.0154571533203125, 1.49560546875
35384, 1.1138557195663452, 2.2732203006744385, 5.566651344299316, -0.00231471611186862, -0.0014076575171202421, -23.350875854492188, -0.06614536046981812, -0.04052919149398804, -1.388132929801941, -0.6821427345275879, -1.1273319721221924, 0.07402403652667999, -1.7572171927031726, -0.3792475498495378, 10.9280516347581, 9362.0, 30146.0, 35388.0, 9362.0, 8.390083312988281, -0.2699941396713257, 0.27867844700813293, 0.33541280031204224, -0.0892167016863823, -0.03883269429206848, 0.9940674901008606, -0.09099477529525757, -0.18295860290527344, 1.48095703125, 1.376220703125, 0.0222930908203125, 1.494873046875
35394, 1.1122981309890747, 2.271286964416504, 5.5688910484313965, -0.002994497772306204, -0.0018242599908262491, -23.364761352539062, -0.06981086730957031, -0.0427914634346962, -1.388798713684082, -0.6821564435958862, -1.1273258924484253, 0.0740283876657486, -1.7652409236769215, -0.3747774383250544, 10.934271968235903, 9362.0, 30146.0, 35388.0, 9362.0, 8.390083312988281, -0.14407901465892792, -0.35053327679634094, -0.04792284220457077, -0.09017108380794525, -0.038082100450992584, 0.9929338097572327, -0.09099477529525757, -0.18295860290527344, 1.48095703125, 1.4150390625, 0.05596923828125, 1.494873046875
35404, 1.1114879846572876, 2.273346185684204, 5.5691914558410645, -0.0037109111435711384, -0.0022634663619101048, -23.378652572631836, -0.07347173988819122, -0.04504982382059097, -1.3895070552825928, -0.6821362376213074, -1.1273419857025146, 0.07404015213251114, -1.7603078630506965, -0.36876400346278615, 10.928643011639238, 9362.0, 30146.0, 35388.0, 9362.0, 8.390083312988281, -0.16458116471767426, -0.11891653388738632, 0.3507075011730194, -0.08793843537569046, -0.03760743886232376, 0.9948844313621521, -0.09099477529525757, -0.18295860290527344, 1.48095703125, 1.38720703125, 0.0291900634765625, 1.5
35414, 1.1100454330444336, 2.274315595626831, 5.570901870727539, -0.004463975317776203, -0.0027252663858234882, -23.39255142211914, -0.07714104652404785, -0.047310274094343185, -1.3900855779647827, -0.6821463704109192, -1.1273326873779297, 0.07404418289661407, -1.7513644547415863, -0.37451796455474096, 10.935075745666838, 9362.0, 30146.0, 35388.0, 9362.0, 8.390083312988281, -0.16999347507953644, 0.19817928969860077, 0.2967784106731415, -0.08695700764656067, -0.03751986101269722, 0.9942642450332642, -0.09099477529525757, -0.18295860290527344, 1.48095703125, 1.37255859375, 0.02044677734375, 1.5
35424, 1.1092759370803833, 2.273475408554077, 5.571946620941162, -0.00525370379909873, -0.0032096365466713905, -23.406455993652344, -0.08080463111400604, -0.04956383258104324, -1.3908650875091553, -0.6821324825286865, -1.1273313760757446, 0.0740121603012085, -1.758616245694531, -0.38860402139329153, 10.930800586071015, 9362.0, 30146.0, 35388.0, 9362.0, 8.390083312988281, 0.02163585089147091, -0.029903100803494453, 0.21950887143611908, -0.09011466056108475, -0.037888508290052414, 0.9928029775619507, -0.09099477529525757, -0.18295860290527344, 1.48095703125, 1.357177734375, 0.0157928466796875, 1.494140625
35434, 1.1078850030899048, 2.2715847492218018, 5.574409484863281, -0.0060800826177001, -0.003716548439115286, -23.420368194580078, -0.08447110652923584, -0.05181874334812164, -1.3915319442749023, -0.6821450591087341, -1.1273269653320312, 0.07405407726764679, -1.7543082469287923, -0.3836103125216539, 10.939803005683002, 9362.0, 30146.0, 35388.0, 9362.0, 8.390083312988281, -0.12420055270195007, -0.19742994010448456, 0.05254856497049332, -0.0896480455994606, -0.03856419026851654, 0.9951157569885254, -0.09099477529525757, -0.18295860290527344, 1.48095703125, 1.39453125, 0.035003662109375, 1.494140625
35444, 1.107017993927002, 2.2717065811157227, 5.574406147003174, -0.006943128537386656, -0.004246007651090622, -23.43428611755371, -0.08813807368278503, -0.05407312884926796, -1.3921051025390625, -0.6821410655975342, -1.127328872680664, 0.07402992248535156, -1.7626563414007868, -0.38933951637278597, 10.934078826284408, 9362.0, 30146.0, 35388.0, 9362.0, 8.390083312988281, 0.22086495161056519, -0.45300501585006714, -0.20644748210906982, -0.09001294523477554, -0.03725508227944374, 0.995805561542511, -0.09099477529525757, -0.18295860290527344, 1.48095703125, 1.41064453125, 0.0509490966796875, 1.5
35454, 1.108994960784912, 2.2746598720550537, 5.5731048583984375, -0.007842863909900188, -0.004798014648258686, -23.448209762573242, -0.09180910885334015, -0.05632820352911949, -1.3925814628601074, -0.6821500658988953, -1.1273342370986938, 0.07402057945728302, -1.7608639110051627, -0.39366862812451586, 10.937098431298255, 9362.0, 30146.0, 35388.0, 9362.0, 8.390083312988281, -0.19741125404834747, -0.07098579406738281, 0.05859976261854172, -0.08760595321655273, -0.038213036954402924, 0.9954332113265991, -0.09099477529525757, -0.18295860290527344, 1.48095703125, 1.43115234375, 0.0766143798828125, 1.5
35464, 1.1087148189544678, 2.2758147716522217, 5.5723876953125, -0.008779284544289112, -0.005372561048716307, -23.462139129638672, -0.09547499567270279, -0.05858105421066284, -1.393318772315979, -0.6821446418762207, -1.1273137331008911, 0.0740695670247078, -1.759458138857787, -0.3853514263793443, 10.943939169298966, 9362.0, 30146.0, 35388.0, 9362.0, 8.390083312988281, 0.187338724732399, -0.13961662352085114, -0.4652719497680664, -0.08938716351985931, -0.037536513060331345, 0.9922855496406555, -0.09099477529525757, -0.18295860290527344, 1.48095703125, 1.3505859375, 0.0153045654296875, 1.494873046875
35474, 1.1090391874313354, 2.2768056392669678, 5.5713677406311035, -0.009752344340085983, -0.0059696161188185215, -23.476076126098633, -0.09913690388202667, -0.06082984805107117, -1.3942164182662964, -0.6821529269218445, -1.1273216009140015, 0.07404741644859314, -1.7618170618577216, -0.38233112443381856, 10.936204272860792, 9362.0, 30146.0, 35388.0, 9362.0, 8.390083312988281, -0.01905282773077488, -0.10890045017004013, 0.06205183267593384, -0.0882219597697258, -0.03873736411333084, 0.9923784136772156, -0.09099477529525757, -0.18295860290527344, 1.48095703125, 1.418701171875, 0.0603485107421875, 1.494873046875
35484, 1.1088075637817383, 2.277521848678589, 5.57204008102417, -0.01076207309961319, -0.006589188240468502, -23.490020751953125, -0.1028088927268982, -0.06308460235595703, -1.3948888778686523, -0.6821591854095459, -1.1273216009140015, 0.07402607798576355, -1.763140278756546, -0.3866088092519817, 10.943251158055023, 9362.0, 30146.0, 35388.0, 9362.0, 8.390083312988281, 0.08683224767446518, -0.16384273767471313, -0.006155544426292181, -0.0871189683675766, -0.03821588307619095, 0.9949327111244202, -0.08474843204021454, 0.10376167297363281, 1.50439453125, 1.452392578125, 0.10870361328125, 1.4970703125
35494, 1.109061598777771, 2.2799389362335205, 5.569940567016602, -0.011808565817773342, -0.007231329567730427, -23.503971099853516, -0.10648970305919647, -0.06534355878829956, -1.3953627347946167, -0.6821370720863342, -1.1273086071014404, 0.07403121888637543, -1.768376941605782, -0.3930470210480621, 10.92439422676856, 9362.0, 30146.0, 35388.0, 9362.0, 8.390083312988281, -0.10613138228654861, -0.24618887901306152, -0.16719381511211395, -0.08638538420200348, -0.037507716566324234, 0.9965865612030029, -0.08474843204021454, 0.10376167297363281, 1.50439453125, 1.42236328125, 0.0649566650390625, 1.4970703125
35504, 1.1086243391036987, 2.2822439670562744, 5.56901216506958, -0.012891888618469238, -0.007896064780652523, -23.517927169799805, -0.11017486453056335, -0.06760342419147491, -1.3958302736282349, -0.6821485161781311, -1.1273236274719238, 0.07402567565441132, -1.7734217895692332, -0.3965123302178313, 10.93003935992074, 9362.0, 30146.0, 35388.0, 9362.0, 8.390083312988281, -0.05229424312710762, -0.1999482959508896, -0.07965297996997833, -0.08906577527523041, -0.035189803689718246, 0.9948614239692688, -0.08474843204021454, 0.10376167297363281, 1.50439453125, 1.41064453125, 0.0509490966796875, 1.494873046875
35514, 1.108903169631958, 2.2846004962921143, 5.567489147186279, -0.014012038707733154, -0.00858336966484785, -23.531888961791992, -0.11385519802570343, -0.06985741853713989, -1.3965322971343994, -0.6821351051330566, -1.1273143291473389, 0.07401563227176666, -1.7702900141944238, -0.3966937726555386, 10.935838865073478, 9362.0, 30146.0, 35388.0, 9362.0, 8.390083312988281, -0.005442693363875151, -0.2059730738401413, -0.430364727973938, -0.08629333972930908, -0.03719709813594818, 0.9930779337882996, -0.08474843204021454, 0.10376167297363281, 1.50439453125, 1.34033203125, 0.0166168212890625, 1.494873046875
35524, 1.1079801321029663, 2.2860329151153564, 5.565251350402832, -0.015169009566307068, -0.009293216280639172, -23.54585838317871, -0.11753898859024048, -0.07211177796125412, -1.397249698638916, -0.6821420788764954, -1.1273208856582642, 0.07402275502681732, -1.7708499204590418, -0.39529976863647676, 10.937389270381688, 9362.0, 30146.0, 35388.0, 9362.0, 8.390083312988281, 0.1709124892950058, 0.21133700013160706, 0.08191102743148804, -0.08984881639480591, -0.038300443440675735, 0.9938843250274658, -0.08474843204021454, 0.10376167297363281, 1.50439453125, 1.4443359375, 0.0959930419921875, 1.487548828125
35534, 1.1096216440200806, 2.2867605686187744, 5.564167499542236, -0.01636284589767456, -0.010025608353316784, -23.559833526611328, -0.12122835218906403, -0.0743665099143982, -1.397889494895935, -0.6821567416191101, -1.127325415611267, 0.07405225932598114, -1.7653409510414828, -0.3823010684949395, 10.933972960506546, 9362.0, 30146.0, 35388.0, 9362.0, 8.390083312988281, -0.008297513239085674, 0.23147110641002655, -0.05906398221850395, -0.08949164301156998, -0.03579824045300484, 0.995771586894989, -0.08474843204021454, 0.10376167297363281, 1.50439453125, 1.392333984375, 0.03314208984375, 1.487548828125
35544, 1.1092898845672607, 2.284895896911621, 5.563839435577393, -0.01759360171854496, -0.010780573822557926, -23.573814392089844, -0.12492270767688751, -0.07662659883499146, -1.3984233140945435, -0.6821407675743103, -1.127324104309082, 0.0740605965256691, -1.762780762245848, -0.38033503959024983, 10.93946984897839, 9362.0, 30146.0, 35388.0, 9362.0, 8.390083312988281, -0.14051981270313263, 0.34787654876708984, -0.1229126900434494, -0.08725325018167496, -0.03737836703658104, 0.9952793717384338, -0.08474843204021454, 0.10376167297363281, 1.50439453125, 1.377685546875, 0.023040771484375, 1.494873046875
35554, 1.1090342998504639, 2.2831759452819824, 5.563815593719482, -0.018861277028918266, -0.011558130383491516, -23.587800979614258, -0.12861227989196777, -0.0788847804069519, -1.3990017175674438, -0.6821320652961731, -1.1273258924484253, 0.07405416667461395, -1.7615989451615712, -0.37620487686169213, 10.930881727917766, 9362.0, 30146.0, 35388.0, 9362.0, 8.390083312988281, -0.029829399660229683, -0.13855652511119843, -0.11232611536979675, -0.09000571817159653, -0.038421232253313065, 0.9949427843093872, -0.08474843204021454, 0.10376167297363281, 1.50439453125, 1.3828125, 0.0261077880859375, 1.494873046875
35564, 1.110178828239441, 2.2819771766662598, 5.563491344451904, -0.020165827125310898, -0.01235826127231121, -23.60179328918457, -0.13229764997959137, -0.081141397356987, -1.3996154069900513, -0.6821393966674805, -1.1273412704467773, 0.0740504041314125, -1.7664485837553598, -0.38092808171683146, 10.924533481894995, 9362.0, 30146.0, 35388.0, 9362.0, 8.390083312988281, -0.23698845505714417, -0.01990603841841221, 0.21493126451969147, -0.08730288594961166, -0.0359690822660923, 0.9951603412628174, -0.08474843204021454, 0.10376167297363281, 1.50439453125, 1.409912109375, 0.0501251220703125, 1.497802734375
35574, 1.1089427471160889, 2.2797629833221436, 5.564816951751709, -0.021507207304239273, -0.013180959969758987, -23.615793228149414, -0.13597853481769562, -0.0833984985947609, -1.400287389755249, -0.6821222901344299, -1.1273410320281982, 0.07402275502681732, -1.759894177948441, -0.38982352748283233, 10.92678757980272, 9362.0, 30146.0, 35388.0, 9362.0, 8.370248794555664, -0.09981169551610947, -0.007993001490831375, 0.15030229091644287, -0.08935524523258209, -0.03382093459367752, 0.9937768578529358, -0.08474843204021454, 0.10376167297363281, 1.50439453125, 1.36669921875, 0.01806640625, 1.497802734375
35584, 1.1087566614151, 2.28153920173645, 5.56444787979126, -0.02288537658751011, -0.014026216231286526, -23.629798889160156, -0.13965533673763275, -0.08565278351306915, -1.4009729623794556, -0.6821315288543701, -1.1273502111434937, 0.07404273748397827, -1.754944043739689, -0.39210158524852545, 10.9294960406474, 9362.0, 30146.0, 35388.0, 9362.0, 8.370248794555664, -0.06419919431209564, 0.533496618270874, 0.21158847212791443, -0.08782149851322174, -0.03661379963159561, 0.9948078989982605, -0.08788514137268066, 0.06792068481445312, 1.50146484375, 1.40478515625, 0.0446624755859375, 1.4970703125
35594, 1.1080694198608398, 2.2773051261901855, 5.5657877922058105, -0.0243003498762846, -0.014894028194248676, -23.64381217956543, -0.14333941042423248, -0.0879097431898117, -1.4015474319458008, -0.6821450591087341, -1.1273506879806519, 0.07404881715774536, -1.7477678897001399, -0.370243532972097, 10.936605238759544, 9362.0, 30146.0, 35388.0, 9362.0, 8.370248794555664, -0.09267573803663254, 0.11134522408246994, 0.12036987394094467, -0.08725656569004059, -0.0388515368103981, 0.9955053925514221, -0.08788514137268066, 0.06792068481445312, 1.50146484375, 1.4033203125, 0.043182373046875, 1.4970703125
35604, 1.1074105501174927, 2.273918628692627, 5.566526412963867, -0.025752130895853043, -0.015784401446580887, -23.6578311920166, -0.1470167338848114, -0.09016507863998413, -1.402111530303955, -0.6821509599685669, -1.127331256866455, 0.07404590398073196, -1.7513021591771623, -0.37321151863363866, 10.934558021822758, 9362.0, 30146.0, 35388.0, 9362.0, 8.370248794555664, 0.10263150930404663, -0.3113501965999603, -0.3148992657661438, -0.08820188790559769, -0.03930935263633728, 0.9954294562339783, -0.08788514137268066, 0.06792068481445312, 1.50146484375, 1.367431640625, 0.0183258056640625, 1.491943359375
35614, 1.1075505018234253, 2.277024984359741, 5.56294059753418, -0.02724067121744156, -0.01669733040034771, -23.67185401916504, -0.15069159865379333, -0.09242039918899536, -1.4025946855545044, -0.682150661945343, -1.1273460388183594, 0.07403028756380081, -1.7565319028037683, -0.3853687477279948, 10.928815907779605, 9362.0, 30146.0, 35388.0, 9362.0, 8.370248794555664, -0.02544192038476467, 0.21721908450126648, 0.1392580270767212, -0.0907319188117981, -0.03786600008606911, 0.995745837688446, -0.08788514137268066, 0.06792068481445312, 1.50146484375, 1.367431640625, 0.0183258056640625, 1.491943359375
35624, 1.1069729328155518, 2.2750790119171143, 5.563997268676758, -0.028765996918082237, -0.017632819712162018, -23.685882568359375, -0.15437334775924683, -0.09467756003141403, -1.4030336141586304, -0.6821539402008057, -1.1273530721664429, 0.07405286282300949, -1.7592720778325805, -0.376876653427729, 10.927678833225325, 9362.0, 30146.0, 35388.0, 9362.0, 8.370248794555664, -0.21705172955989838, -0.13400600850582123, 0.014189419336616993, -0.08655913919210434, -0.03804471343755722, 0.9965049624443054, -0.08788514137268066, 0.06792068481445312, 1.50146484375, 1.367431640625, 0.0183258056640625, 1.491943359375
35634, 1.1061766147613525, 2.275789260864258, 5.564244270324707, -0.030328091233968735, -0.018590854480862617, -23.69991683959961, -0.15804558992385864, -0.09692957997322083, -1.4036387205123901, -0.682142436504364, -1.127352237701416, 0.07404838502407074, -1.7479142857192842, -0.3739137044514962, 10.927705168892816, 9362.0, 30146.0, 35388.0, 9362.0, 8.370248794555664, -0.1627110093832016, -0.1194206103682518, 0.14473086595535278, -0.08958444744348526, -0.03725287318229675, 0.9930805563926697, -0.08788514137268066, 0.06792068481445312, 1.50146484375, 1.367431640625, 0.0183258056640625, 1.491943359375
35644, 1.1052199602127075, 2.2763586044311523, 5.564396858215332, -0.03192689269781113, -0.019571391865611076, -23.713956832885742, -0.16171501576900482, -0.09917784482240677, -1.404354453086853, -0.6821503043174744, -1.127332091331482, 0.07406416535377502, -1.751537414583319, -0.37189546450113653, 10.926539388523121, 9362.0, 30146.0, 35388.0, 9362.0, 8.370248794555664, -0.27223968505859375, -0.045511092990636826, -0.021633131429553032, -0.08899985998868942, -0.038384996354579926, 0.9939634799957275, -0.08788514137268066, 0.06792068481445312, 1.50146484375, 1.367431640625, 0.0183258056640625, 1.493408203125
35654, 1.102650761604309, 2.277536630630493, 5.565042972564697, -0.033562447875738144, -0.020574435591697693, -23.728002548217773, -0.16539613902568817, -0.10143113136291504, -1.4047881364822388, -0.6821449995040894, -1.1273645162582397, 0.07406365126371384, -1.749282075295769, -0.3758987689631681, 10.928578042218469, 9362.0, 30146.0, 35388.0, 9362.0, 8.370248794555664, -0.22526970505714417, 0.007712251506745815, 0.24551761150360107, -0.08899985998868942, -0.038384996354579926, 0.9939634799957275, -0.08788514137268066, 0.06792068481445312, 1.50146484375, 1.367431640625, 0.0183258056640625, 1.493408203125
35664, 1.101380705833435, 2.2768380641937256, 5.5653581619262695, -0.035234831273555756, -0.021599994972348213, -23.74205207824707, -0.16908085346221924, -0.10368094593286514, -1.4051917791366577, -0.6821562051773071, -1.127327799797058, 0.07407083362340927, -1.7510041707465895, -0.371125460090866, 10.932345363147702, 9362.0, 30146.0, 35388.0, 9362.0, 8.370248794555664, -0.10138437896966934, -0.02769296057522297, 0.010870125144720078, -0.08899985998868942, -0.038384996354579926, 0.9939634799957275, -0.08788514137268066, 0.06792068481445312, 1.50146484375, 1.367431640625, 0.0183258056640625, 1.490478515625
35674, 1.0996832847595215, 2.2768607139587402, 5.565658092498779, -0.03694402799010277, -0.022648023441433907, -23.756107330322266, -0.17275817692279816, -0.10592462867498398, -1.4057648181915283, -0.6821398735046387, -1.1273380517959595, 0.07406381517648697, -1.7548810622366469, -0.3757148474948906, 10.931639611493395, 9362.0, 30146.0, 35388.0, 9362.0, 8.390083312988281, -0.10138437896966934, -0.02769296057522297, 0.010870125144720078, -0.08955483883619308, -0.03636171296238899, 0.9945794939994812, -0.08788514137268066, 0.06792068481445312, 1.50146484375, 1.367431640625, 0.0183258056640625, 1.490478515625
35684, 1.0969502925872803, 2.275820732116699, 5.564702033996582, -0.03694402799010277, -0.022648023441433907, -23.756107330322266, -0.17275817692279816, -0.10592462867498398, -1.4057648181915283, -0.6821427345275879, -1.1273330450057983, 0.07405737042427063, -1.754836987521475, -0.3696124930231406, 10.929423998137102, 9362.0, 30146.0, 35388.0, 9362.0, 8.390083312988281, -0.03955839201807976, -0.269918292760849, -0.04164820909500122, -0.08549794554710388, -0.03768640384078026, 0.9930832982063293, -0.08788514137268066, 0.06792068481445312, 1.50146484375, 1.367431640625, 0.0183258056640625, 1.49560546875
35694, 1.095046043395996, 2.277273416519165, 5.564666748046875, -0.040472645312547684, -0.02481125108897686, -23.784236907958984, -0.18010447919368744, -0.110396608710289, -1.4071158170700073, -0.682136595249176, -1.127334475517273, 0.07401521503925323, -1.7634653372620772, -0.3843548106904393, 10.927524569813741, 9362.0, 30146.0, 35388.0, 9362.0, 8.390083312988281, 0.05261436477303505, 0.0518878772854805, -0.04422014206647873, -0.08549794554710388, -0.03768640384078026, 0.9930832982063293, -0.08788514137268066, 0.06792068481445312, 1.50146484375, 1.367431640625, 0.0183258056640625, 1.49560546875
35704, 1.0942842960357666, 2.2791576385498047, 5.563482284545898, -0.04229210317134857, -0.025926392525434494, -23.798311233520508, -0.1837872415781021, -0.11263162642717361, -1.4075934886932373, -0.6821404695510864, -1.1273388862609863, 0.07403168827295303, -1.7646519487869137, -0.3859440710310196, 10.930251243732009, 9362.0, 30146.0, 35388.0, 9362.0, 8.390083312988281, 0.05261436477303505, 0.0518878772854805, -0.04422014206647873, -0.0894414633512497, -0.03882389888167381, 0.9953468441963196, -0.08788514137268066, 0.06792068481445312, 1.50146484375, 1.367431640625, 0.0183258056640625, 1.4912109375
35714, 1.092151165008545, 2.280442953109741, 5.564150333404541, -0.04414838179945946, -0.027063865214586258, -23.812389373779297, -0.1874684989452362, -0.11486281454563141, -1.408199667930603, -0.6821505427360535, -1.127332329750061, 0.074054054915905, -1.7603289153272192, -0.3730172154229763, 10.93253009211252, 9362.0, 30146.0, 35388.0, 9362.0, 8.390083312988281, 0.14348635077476501, 0.09488242864608765, -0.12128996104001999, -0.0894414633512497, -0.03882389888167381, 0.9953468441963196, -0.08788514137268066, 0.06792068481445312, 1.50146484375, 1.367431640625, 0.0183258056640625, 1.4912109375
35724, 1.0928575992584229, 2.2812693119049072, 5.563513278961182, -0.04604145884513855, -0.028223617002367973, -23.826475143432617, -0.19114713370800018, -0.11708741635084152, -1.408941626548767, -0.6821518540382385, -1.1273201704025269, 0.07405256479978561, -1.7579839384114817, -0.3777569766869249, 10.94537399002355, 9362.0, 30146.0, 35388.0, 9362.0, 8.390083312988281, -0.2779124081134796, -0.371145099401474, 0.06232946366071701, -0.08742161095142365, -0.03816157206892967, 0.9925638437271118, -0.08788514137268066, 0.06792068481445312, 1.50146484375, 1.367431640625, 0.0183258056640625, 1.4912109375
35734, 1.091362476348877, 2.283168077468872, 5.562918663024902, -0.04604145884513855, -0.028223617002367973, -23.826475143432617, -0.19114713370800018, -0.11708741635084152, -1.408941626548767, -0.6821346282958984, -1.127331018447876, 0.07404913008213043, -1.7671238046153728, -0.39250450406791515, 10.928620389435357, 9362.0, 30146.0, 35388.0, 9362.0, 8.390083312988281, -0.033712178468704224, 0.19627946615219116, 0.05897098779678345, -0.08742161095142365, -0.03816157206892967, 0.9925638437271118, -0.08788514137268066, 0.06792068481445312, 1.50146484375, 1.367431640625, 0.0183258056640625, 1.4912109375
35754, 1.0914644002914429, 2.284803628921509, 5.561692237854004, -0.051941774785518646, -0.03183651342988014, -23.868772506713867, -0.20221024751663208, -0.12377334386110306, -1.4106855392456055, -0.6821627020835876, -1.1273142099380493, 0.07404522597789764, -1.7660498914181666, -0.3840563615592316, 10.935188389845774, 9362.0, 30146.0, 35388.0, 9362.0, 8.390083312988281, -0.11492286622524261, 0.07432598620653152, 0.11750756949186325, -0.0890868678689003, -0.03872661665081978, 0.9955307841300964, -0.08788514137268066, 0.06792068481445312, 1.50146484375, 1.367431640625, 0.0183258056640625, 1.493408203125
35764, 1.0920377969741821, 2.2846620082855225, 5.562401294708252, -0.05398237705230713, -0.033085405826568604, -23.88288116455078, -0.20590990781784058, -0.12600557506084442, -1.4110721349716187, -0.6821409463882446, -1.1273221969604492, 0.0740608349442482, -1.7641502191886442, -0.38159050415532647, 10.934993501905417, 9362.0, 30146.0, 35388.0, 9362.0, 8.390083312988281, 0.12822692096233368, 0.1907738894224167, 0.18496932089328766, -0.0857144445180893, -0.03646225109696388, 0.9974640011787415, -0.08788514137268066, 0.06792068481445312, 1.50146484375, 1.367431640625, 0.0183258056640625, 1.48828125
35774, 1.0939100980758667, 2.283236026763916, 5.5633931159973145, -0.05605994164943695, -0.03435660898685455, -23.896995544433594, -0.20960266888141632, -0.1282348334789276, -1.4116322994232178, -0.6821476817131042, -1.1273267269134521, 0.07404986768960953, -1.7690714244832109, -0.3793778616548309, 10.936834299015239, 9362.0, 30146.0, 35388.0, 9362.0, 8.370248794555664, 0.12822692096233368, 0.1907738894224167, 0.18496932089328766, -0.0857144445180893, -0.03646225109696388, 0.9974640011787415, -0.08788514137268066, 0.06792068481445312, 1.50146484375, 1.367431640625, 0.0183258056640625, 1.48828125
35784, 1.0951710939407349, 2.283008098602295, 5.564272880554199, -0.05605994164943695, -0.03435660898685455, -23.896995544433594, -0.20960266888141632, -0.1282348334789276, -1.4116322994232178, -0.6821428537368774, -1.1273269653320312, 0.07405106723308563, -1.7638918888902115, -0.37748719435228395, 10.933278212526055, 9362.0, 30146.0, 35388.0, 9362.0, 8.370248794555664, 0.2815793752670288, 0.2447943389415741, 0.12424467504024506, -0.08866515010595322, -0.04082213714718819, 0.9954320788383484, -0.08788514137268066, 0.06792068481445312, 1.50146484375, 1.367431640625, 0.0183258056640625, 1.4970703125
35794, 1.0982885360717773, 2.280978202819824, 5.566880226135254, -0.06032576411962509, -0.03696594014763832, -23.925241470336914, -0.2169816493988037, -0.13270148634910583, -1.4127576351165771, -0.6821534633636475, -1.1273304224014282, 0.07404009997844696, -1.7622793715787763, -0.38236633964297084, 10.939265225826285, 9362.0, 30146.0, 35388.0, 9362.0, 8.370248794555664, 0.28410038352012634, 0.28601914644241333, 0.3888283371925354, -0.08866515010595322, -0.04082213714718819, 0.9954320788383484, -0.08788514137268066, 0.06792068481445312, 1.50146484375, 1.367431640625, 0.0183258056640625, 1.4970703125
35804, 1.1010165214538574, 2.279052257537842, 5.567972183227539, -0.06251399964094162, -0.038304150104522705, -23.93937110900879, -0.2206660658121109, -0.1349404752254486, -1.4133412837982178, -0.682136595249176, -1.1273301839828491, 0.07405249774456024, -1.7643886338916441, -0.3821122642260377, 10.934938580461951, 9362.0, 30146.0, 35388.0, 9362.0, 8.370248794555664, 0.38113391399383545, -0.5038326978683472, -0.2998936176300049, -0.08810355514287949, -0.03927307203412056, 0.9934114813804626, -0.08788514137268066, 0.06792068481445312, 1.50146484375, 1.367431640625, 0.0183258056640625, 1.4970703125
35814, 1.1052716970443726, 2.2794883251190186, 5.567185401916504, -0.06473901122808456, -0.03966473788022995, -23.953508377075195, -0.22433578968048096, -0.1371770054101944, -1.4142167568206787, -0.6821322441101074, -1.1273380517959595, 0.07405740022659302, -1.757315444807284, -0.38025809297778324, 10.935139243916819, 9362.0, 30146.0, 35388.0, 9362.0, 8.370248794555664, 0.35488733649253845, -0.0019312611548230052, 0.023809079080820084, -0.08810355514287949, -0.03927307203412056, 0.9934114813804626, -0.08788514137268066, 0.06792068481445312, 1.50146484375, 1.367431640625, 0.0183258056640625, 1.4970703125
35824, 1.1081000566482544, 2.280313014984131, 5.567978858947754, -0.06473901122808456, -0.03966473788022995, -23.953508377075195, -0.22433578968048096, -0.1371770054101944, -1.4142167568206787, -0.6821322441101074, -1.1273380517959595, 0.07405740022659302, -1.757315444807284, -0.38025809297778324, 10.935139243916819, 9362.0, 30146.0, 35388.0, 9362.0, 8.370248794555664, 0.11235357820987701, 0.03496324643492699, 0.014706327579915524, -0.08810355514287949, -0.03927307203412056, 0.9934114813804626, -0.08788514137268066, 0.06792068481445312, 1.50146484375, 1.367431640625, 0.0183258056640625, 1.4970703125
35834, 1.1098980903625488, 2.279648542404175, 5.566551208496094, -0.06929919868707657, -0.04245322570204735, -23.981809616088867, -0.23168720304965973, -0.14167635142803192, -1.4156715869903564, -0.6821340918540955, -1.1273325681686401, 0.0740203857421875, -1.762907430939951, -0.3973336161085115, 10.927586635088243, 9362.0, 30146.0, 35388.0, 9362.0, 8.370248794555664, 0.23658666014671326, 0.21015018224716187, 0.4107884168624878, -0.08810355514287949, -0.03927307203412056, 0.9934114813804626, -0.08788514137268066, 0.06792068481445312, 1.50146484375, 1.367431640625, 0.0183258056640625, 1.4970703125
35844, 1.1132019758224487, 2.2800421714782715, 5.567337512969971, -0.07163450866937637, -0.04388130083680153, -23.995967864990234, -0.23537418246269226, -0.14393891394138336, -1.4160776138305664, -0.6821341514587402, -1.127338171005249, 0.07401596754789352, -1.7634668098392825, -0.38927768697348597, 10.931654315158132, 9362.0, 30146.0, 35388.0, 9362.0, 8.370248794555664, 0.37682104110717773, -0.005686171818524599, -0.053950875997543335, -0.08773553371429443, -0.03617090731859207, 0.9971899390220642, -0.08788514137268066, 0.06792068481445312, 1.50146484375, 1.367431640625, 0.0183258056640625, 1.4970703125
35854, 1.1164921522140503, 2.2806143760681152, 5.566864013671875, -0.07400668412446976, -0.045332033187150955, -24.010129928588867, -0.23906131088733673, -0.14620716869831085, -1.4164819717407227, -0.6821455359458923, -1.1273480653762817, 0.07405026257038116, -1.7526112024753222, -0.3870328326060246, 10.94106047737465, 9362.0, 30146.0, 35388.0, 9362.0, 8.370248794555664, 0.21577969193458557, -0.1330733299255371, 0.06398160755634308, -0.08840706199407578, -0.03497401624917984, 0.9969989657402039, -0.08788514137268066, 0.06792068481445312, 1.50146484375, 1.367431640625, 0.0183258056640625, 1.4970703125
35864, 1.118643879890442, 2.2812399864196777, 5.5670485496521, -0.07641571015119553, -0.04680546000599861, -24.0242977142334, -0.2427440583705902, -0.14847812056541443, -1.4170140027999878, -0.6821468472480774, -1.1273318529129028, 0.07406220585107803, -1.7521541373880232, -0.3810446076581684, 10.930680915007017, 9362.0, 30146.0, 35388.0, 9362.0, 8.370248794555664, 0.2050333321094513, 0.12858200073242188, 0.16424421966075897, -0.08840706199407578, -0.03497401624917984, 0.9969989657402039, -0.08788514137268066, 0.06792068481445312, 1.50146484375, 1.367431640625, 0.0183258056640625, 1.4970703125
35874, 1.1195367574691772, 2.2797048091888428, 5.571558952331543, -0.07886155694723129, -0.04830160737037659, -24.038471221923828, -0.24642454087734222, -0.15075144171714783, -1.4176182746887207, -0.6821313500404358, -1.1273466348648071, 0.0740332305431366, -1.7635553963544384, -0.39294621741572655, 10.927289253020241, 9362.0, 30146.0, 35388.0, 9362.0, 8.370248794555664, 0.2050333321094513, 0.12858200073242188, 0.16424421966075897, -0.08840706199407578, -0.03497401624917984, 0.9969989657402039, -0.08788514137268066, 0.06792068481445312, 1.50146484375, 1.367431640625, 0.0183258056640625, 1.4970703125
35884, 1.120378017425537, 2.2798120975494385, 5.572053909301758, -0.07886155694723129, -0.04830160737037659, -24.038471221923828, -0.24642454087734222, -0.15075144171714783, -1.4176182746887207, -0.682144820690155, -1.1273479461669922, 0.0740264505147934, -1.7594585712216062, -0.3920873211589253, 10.930356229244362, 9362.0, 30146.0, 35388.0, 9362.0, 8.370248794555664, -0.14027392864227295, -0.018412919715046883, -0.02475913241505623, -0.08710052818059921, -0.03571876138448715, 0.9975751042366028, -0.08788514137268066, 0.06792068481445312, 1.50146484375, 1.367431640625, 0.0183258056640625, 1.493408203125
35894, 1.1189156770706177, 2.2803564071655273, 5.572472095489502, -0.0838637426495552, -0.05136222764849663, -24.066831588745117, -0.2537889778614044, -0.15530768036842346, -1.4185903072357178, -0.6821330785751343, -1.1273366212844849, 0.07401655614376068, -1.7617855084152032, -0.3899069274488909, 10.931269073976146, 9362.0, 30146.0, 35388.0, 9362.0, 8.370248794555664, -0.03934488072991371, -0.04820611700415611, 0.15971313416957855, -0.08710052818059921, -0.03571876138448715, 0.9975751042366028, -0.08788514137268066, 0.06792068481445312, 1.50146484375, 1.367431640625, 0.0183258056640625, 1.493408203125
35904, 1.1184494495391846, 2.2809014320373535, 5.572903633117676, -0.08642001450061798, -0.05292666330933571, -24.08102035522461, -0.2574651539325714, -0.1575797200202942, -1.419268012046814, -0.682142972946167, -1.12734055519104, 0.07402130216360092, -1.7605696676604006, -0.391686004721862, 10.931542622974892, 9362.0, 30146.0, 35388.0, 9362.0, 8.370248794555664, 0.06047939136624336, 0.09924277663230896, -0.08468624204397202, -0.08848287910223007, -0.03598560765385628, 0.9940629005432129, -0.08788514137268066, 0.06792068481445312, 1.50146484375, 1.367431640625, 0.0183258056640625, 1.493408203125
35914, 1.1189247369766235, 2.280979871749878, 5.571504592895508, -0.08901304006576538, -0.05451380833983421, -24.095216751098633, -0.26113954186439514, -0.15984919667243958, -1.4200201034545898, -0.6821253895759583, -1.1273407936096191, 0.07403688877820969, -1.7609627670082433, -0.39798327805897316, 10.937721735652845, 9362.0, 30146.0, 35388.0, 9362.0, 8.370248794555664, 0.009771939367055893, 0.0912565365433693, 0.09846977889537811, -0.08848287910223007, -0.03598560765385628, 0.9940629005432129, -0.08788514137268066, 0.06792068481445312, 1.50146484375, 1.367431640625, 0.0183258056640625, 1.493408203125
35924, 1.1187222003936768, 2.2821881771087646, 5.570641040802002, -0.09164280444383621, -0.05612364783883095, -24.109420776367188, -0.26481276750564575, -0.16211870312690735, -1.420804738998413, -0.6821396946907043, -1.1273354291915894, 0.07401059567928314, -1.7618177366625212, -0.38836136552649236, 10.935017341145041, 9362.0, 30146.0, 35388.0, 9362.0, 8.370248794555664, -0.22849705815315247, 0.05822804197669029, -0.1896616518497467, -0.09068823605775833, -0.036190059036016464, 0.9937232136726379, -0.08788514137268066, 0.06792068481445312, 1.50146484375, 1.367431640625, 0.0183258056640625, 1.493408203125
35944, 1.116007924079895, 2.279123544692993, 5.573944568634033, -0.09701255708932877, -0.05941140279173851, -24.13785171508789, -0.27216199040412903, -0.1666557490825653, -1.422362208366394, -0.6821430325508118, -1.127334713935852, 0.07405240833759308, -1.7540152438385626, -0.3833098500582821, 10.935086302920809, 9362.0, 30146.0, 35388.0, 9362.0, 8.370248794555664, -0.3062121570110321, -0.1076870784163475, 0.2966412901878357, -0.09068823605775833, -0.036190059036016464, 0.9937232136726379, -0.08788514137268066, 0.06792068481445312, 1.50146484375, 1.367431640625, 0.0183258056640625, 1.494140625
35954, 1.1136994361877441, 2.2800803184509277, 5.573000907897949, -0.09975256770849228, -0.06108930706977844, -24.15207862854004, -0.2758399546146393, -0.16892477869987488, -1.422949194908142, -0.6821458339691162, -1.127312421798706, 0.07402472198009491, -1.7628963531212114, -0.3918527244762515, 10.936765726749337, 9362.0, 30146.0, 35388.0, 9362.0, 8.370248794555664, -0.08917127549648285, 0.14267197251319885, 0.034292545169591904, -0.09068823605775833, -0.036190059036016464, 0.9937232136726379, -0.08788514137268066, 0.06792068481445312, 1.50146484375, 1.367431640625, 0.0183258056640625, 1.494140625
35964, 1.1127660274505615, 2.278862237930298, 5.574958324432373, -0.10252939909696579, -0.0627899020910263, -24.166309356689453, -0.27952688932418823, -0.1711944341659546, -1.4233512878417969, -0.6821330785751343, -1.1273326873779297, 0.07400155812501907, -1.7606369856715183, -0.39108678809063235, 10.930657990670943, 9362.0, 30146.0, 35388.0, 9362.0, 8.370248794555664, 0.18084046244621277, 0.17985014617443085, 0.11861583590507507, -0.09088101983070374, -0.034207429736852646, 0.9982905387878418, -0.08788514137268066, 0.06792068481445312, 1.50146484375, 1.367431640625, 0.0183258056640625, 1.494140625
35974, 1.1130168437957764, 2.276524782180786, 5.574647903442383, -0.10534307360649109, -0.0645131766796112, -24.180545806884766, -0.28320765495300293, -0.1734597384929657, -1.423863172531128, -0.6821402311325073, -1.1273260116577148, 0.07401780039072037, -1.7673504040047494, -0.39385470736479533, 10.9328657703886, 9362.0, 30146.0, 35388.0, 9362.0, 8.370248794555664, 0.18084046244621277, 0.17985014617443085, 0.11861583590507507, -0.08905398100614548, -0.03431224077939987, 0.9930293560028076, -0.08788514137268066, 0.06792068481445312, 1.50146484375, 1.367431640625, 0.0183258056640625, 1.494140625
35984, 1.1099199056625366, 2.273820161819458, 5.572995662689209, -0.10534307360649109, -0.0645131766796112, -24.180545806884766, -0.28320765495300293, -0.1734597384929657, -1.423863172531128, -0.682128369808197, -1.1273185014724731, 0.07403355091810226, -1.7719311620979838, -0.3950812681272282, 10.930690224277827, 9362.0, 30146.0, 35388.0, 9362.0, 8.370248794555664, -0.2176089882850647, -0.11693231016397476, 0.6464856266975403, -0.08905398100614548, -0.03431224077939987, 0.9930293560028076, -0.053850166499614716, 0.014162063598632812, 1.4970703125, 1.367431640625, 0.0183258056640625, 1.494140625
35994, 1.1079820394515991, 2.2756240367889404, 5.572296619415283, -0.11108063161373138, -0.06802757829427719, -24.209035873413086, -0.2905503511428833, -0.17798016965389252, -1.425074577331543, -0.6821342706680298, -1.1273213624954224, 0.07401739060878754, -1.769058471487853, -0.39332561747829686, 10.931446315248206, 9362.0, 30146.0, 35388.0, 9362.0, 8.370248794555664, -0.2751966714859009, 0.0578935407102108, -0.17348496615886688, -0.08905398100614548, -0.03431224077939987, 0.9930293560028076, -0.053850166499614716, 0.014162063598632812, 1.4970703125, 1.367431640625, 0.0183258056640625, 1.494140625
36004, 1.1052742004394531, 2.276136875152588, 5.570835590362549, -0.11400455236434937, -0.06981868296861649, -24.22328758239746, -0.2942343056201935, -0.18024127185344696, -1.425382375717163, -0.6821345090866089, -1.1273212432861328, 0.07399603724479675, -1.7687866535885943, -0.39341059586340066, 10.929328529015866, 9362.0, 30146.0, 35388.0, 9362.0, 8.370248794555664, -0.156700998544693, 0.03999648243188858, -0.1313391923904419, -0.08905398100614548, -0.03431224077939987, 0.9930293560028076, -0.053850166499614716, 0.014162063598632812, 1.4970703125, 1.367431640625, 0.0183258056640625, 1.4912109375
36014, 1.1041343212127686, 2.2763867378234863, 5.56959867477417, -0.11400455236434937, -0.06981868296861649, -24.22328758239746, -0.2942343056201935, -0.18024127185344696, -1.425382375717163, -0.6821317672729492, -1.1273126602172852, 0.0740121379494667, -1.7673751981696957, -0.4048719173598556, 10.937273475389205, 9362.0, 30146.0, 35388.0, 9362.0, 8.370248794555664, -0.13951197266578674, -0.05818699672818184, 0.16847975552082062, -0.08905398100614548, -0.03431224077939987, 0.9930293560028076, -0.053850166499614716, 0.014162063598632812, 1.4970703125, 1.367431640625, 0.0183258056640625, 1.4912109375
36024, 1.102886438369751, 2.272327423095703, 5.56942892074585, -0.119962677359581, -0.07346846163272858, -24.25181007385254, -0.3015742599964142, -0.18473321199417114, -1.4268320798873901, -0.6821274757385254, -1.1273057460784912, 0.07402417063713074, -1.772883973339071, -0.3998252410775933, 10.936580107728476, 9362.0, 30146.0, 35388.0, 9362.0, 8.370248794555664, -0.18763184547424316, 0.5303444862365723, -0.07440288364887238, -0.08684998005628586, -0.03957124426960945, 0.9918938279151917, -0.053850166499614716, 0.014162063598632812, 1.4970703125, 1.367431640625, 0.0183258056640625, 1.4912109375
36034, 1.1016459465026855, 2.2685399055480957, 5.5698981285095215, -0.119962677359581, -0.07346846163272858, -24.25181007385254, -0.3015742599964142, -0.18473321199417114, -1.4268320798873901, -0.6821271777153015, -1.1273082494735718, 0.0740252435207367, -1.774269009633607, -0.40113493921282384, 10.934036554948664, 9362.0, 30146.0, 35388.0, 9362.0, 8.370248794555664, -0.04457215219736099, -0.12657971680164337, 0.11319264024496078, -0.08684998005628586, -0.03957124426960945, 0.9918938279151917, -0.053850166499614716, 0.014162063598632812, 1.4970703125, 1.367431640625, 0.0183258056640625, 1.4912109375
36044, 1.1016128063201904, 2.2687618732452393, 5.570146560668945, -0.12606745958328247, -0.07720798999071121, -24.28036117553711, -0.3089071214199066, -0.1892222911119461, -1.4279632568359375, -0.6821262240409851, -1.1273163557052612, 0.07400240004062653, -1.7774166966413654, -0.3942749997399062, 10.932404751360055, 9362.0, 30146.0, 35388.0, 9362.0, 8.370248794555664, 0.018353335559368134, 0.04415666684508324, 0.18132947385311127, -0.08948291838169098, -0.03923638164997101, 0.9986506104469299, -0.053850166499614716, 0.014162063598632812, 1.4970703125, 1.367431640625, 0.0183258056640625, 1.490478515625
36054, 1.1008416414260864, 2.267650842666626, 5.57130765914917, -0.12917490303516388, -0.07911146432161331, -24.294641494750977, -0.312582403421402, -0.19147266447544098, -1.428219199180603, -0.6821377873420715, -1.1273094415664673, 0.07400956004858017, -1.7739251869144455, -0.40442635396166793, 10.940032704933156, 9362.0, 30146.0, 35388.0, 9362.0, 8.370248794555664, -0.16043902933597565, -0.1835593432188034, -0.1416851282119751, -0.08948291838169098, -0.03923638164997101, 0.9986506104469299, -0.053850166499614716, 0.014162063598632812, 1.4970703125, 1.367431640625, 0.0183258056640625, 1.490478515625
36064, 1.1006540060043335, 2.2671685218811035, 5.570547580718994, -0.13231903314590454, -0.08103739470243454, -24.308927536010742, -0.3162437379360199, -0.19371406733989716, -1.428798794746399, -0.68211430311203, -1.127314567565918, 0.07401549816131592, -1.7739998699286499, -0.4049512751772113, 10.9309523241528, 9362.0, 30146.0, 35388.0, 9362.0, 8.370248794555664, 0.3579157292842865, 0.11416810750961304, -0.040925413370132446, -0.08843300491571426, -0.039182957261800766, 0.9936427474021912, -0.053850166499614716, 0.014162063598632812, 1.4970703125, 1.367431640625, 0.0183258056640625, 1.490478515625
36074, 1.1020952463150024, 2.267853021621704, 5.570323467254639, -0.1354997456073761, -0.08298572152853012, -24.323219299316406, -0.31989842653274536, -0.1959514021873474, -1.4295364618301392, -0.682147741317749, -1.1273301839828491, 0.07402990013360977, -1.7682612043225852, -0.38813543685981244, 10.941239445726458, 9362.0, 30146.0, 35388.0, 9362.0, 8.390083312988281, 0.20651750266551971, 0.45417168736457825, -0.032321441918611526, -0.08843300491571426, -0.039182957261800766, 0.9936427474021912, -0.053850166499614716, 0.014162063598632812, 1.4970703125, 1.367431640625, 0.0183258056640625, 1.490478515625
36084, 1.1026138067245483, 2.2643632888793945, 5.571418285369873, -0.1354997456073761, -0.08298572152853012, -24.323219299316406, -0.31989842653274536, -0.1959514021873474, -1.4295364618301392, -0.6821503639221191, -1.1273199319839478, 0.0740344300866127, -1.7688503267495386, -0.38563495283474936, 10.93937797770589, 9362.0, 30146.0, 35388.0, 9362.0, 8.390083312988281, 0.22634240984916687, -0.08161509782075882, -0.1940954476594925, -0.08843300491571426, -0.039182957261800766, 0.9936427474021912, -0.053850166499614716, 0.014162063598632812, 1.4970703125, 1.367431640625, 0.0183258056640625, 1.49267578125
