timeTick, roll, pitch, yaw, stateX, stateY, stateZ, stateVX, stateVY, stateVZ, otX0, otY0, otZ0, otRoll0, otPitch0, otYaw0, left wing, pitch motor, yaw motor, right wing, voltage, roll rate, pitch rate, yaw rate, A_x, A_y, A_z, current, i_raw, v_raw, airflow_voltage, airflow_speed, pot_Pitch
16328, -0.05270836874842644, 2.2629971504211426, -0.5000476241111755, 0, 0, 0, 0, 0, 0, -0.6720395088195801, -1.1252585649490356, 0.07508177310228348, 0.8556940507329323, -1.0027675452107871, -0.8452242841873941, 0, 0, 0, 0, 0, 0, 0, 0, 0, 0, 0, 0, 0, 0, 0, 0, 0
16338, -0.0515768900513649, 2.2642319202423096, -0.5026519894599915, -0.003895533736795187, 0.00012209443957544863, 23.14129066467285, -0.1357928365468979, 0.004258899483829737, 3.146428346633911, -0.672041118144989, -1.1252648830413818, 0.07508333772420883, 0.8526601101677188, -0.9987868067422596, -0.844265773379514, 9362.0, 30146.0, 35388.0, 9362.0, 0, 0.12070897966623306, 0.18041051924228668, 0.09608076512813568, -0.10498587787151337, -0.04312796890735626, 1.0224354267120361, 0, 0, 0, 0, 0, 0
16348, -0.05021229013800621, 2.2621192932128906, -0.5019035339355469, -0.0052732746116817, 0.0001653088111197576, 23.172765731811523, -0.13975532352924347, 0.004383869003504515, 3.148571491241455, -0.672042965888977, -1.1252745389938354, 0.07507653534412384, 0.8584906171687221, -0.9896259947523447, -0.8463011116889989, 9362.0, 30146.0, 35388.0, 9362.0, 0, 0.01655711606144905, -0.5064171552658081, -0.030873047187924385, -0.10215173661708832, -0.04076133295893669, 1.0205885171890259, 0, 0, 0, 1.546875, 0.2949676513671875, 0
16358, -0.050162073224782944, 2.264261484146118, -0.5021325945854187, -0.006690583191812038, 0.0002097593096550554, 23.204261779785156, -0.1437065303325653, 0.0045062461867928505, 3.1505188941955566, -0.6720388531684875, -1.125256896018982, 0.07507374882698059, 0.8540308496828632, -0.9948308833895965, -0.8481879171613665, 9362.0, 30146.0, 35388.0, 9362.0, 0, 0.08638430386781693, 0.3333108127117157, 0.008161547593772411, -0.10293358564376831, -0.04141928628087044, 1.0223537683486938, 0, 0, 0, 1.4443359375, 0.0959930419921875, 1.5
16368, -0.049654487520456314, 2.264495849609375, -0.5006213784217834, -0.008147446438670158, 0.00025543413357809186, 23.235776901245117, -0.14766621589660645, 0.004628594499081373, 3.1525869369506836, -0.6720401644706726, -1.1252630949020386, 0.07507435232400894, 0.8523957335070212, -0.9943137766332768, -0.8505137856520292, 9362.0, 30146.0, 35388.0, 9362.0, 0, -0.05181702971458435, -0.4062679409980774, -0.12795941531658173, -0.10504229366779327, -0.042133405804634094, 1.0199087858200073, 0, 0, 0, 1.5146484375, 0.225494384765625, 1.5
16378, -0.05000726133584976, 2.265873432159424, -0.5017163157463074, -0.00964388344436884, 0.0003023266908712685, 23.26731300354004, -0.1516212821006775, 0.004750008694827557, 3.154526948928833, -0.6720207929611206, -1.1252696514129639, 0.07509709149599075, 0.8603765274779883, -1.0035730258099704, -0.8553412763057554, 9362.0, 30146.0, 35388.0, 9362.0, 0, 0.04554082080721855, -0.1745244860649109, -0.024176741018891335, -0.10462336242198944, -0.038110196590423584, 1.0221471786499023, 0, 0, 0, 1.550537109375, 0.303131103515625, 1.494140625
16388, -0.04923006519675255, 2.2683722972869873, -0.5011065006256104, -0.011179888620972633, 0.0003504371561575681, 23.29886817932129, -0.1555798500776291, 0.0048720138147473335, 3.156494140625, -0.6720519065856934, -1.1252578496932983, 0.075081005692482, 0.85184593896945, -0.9944142538802225, -0.850193800015142, 9362.0, 30146.0, 35388.0, 9362.0, 0, -0.024717630818486214, -0.15112105011940002, -0.1081223338842392, -0.10287505388259888, -0.03958765044808388, 1.0236899852752686, 0, 0, 0, 1.552001953125, 0.3063201904296875, 1.494140625
16398, -0.04854493960738182, 2.269280195236206, -0.5017346143722534, -0.012755555100739002, 0.00039976247353479266, 23.3304443359375, -0.15955345332622528, 0.0049930657260119915, 3.15873122215271, -0.6720508337020874, -1.125259280204773, 0.0750766471028328, 0.8601030009773142, -0.9897657917494769, -0.8429721565575291, 9362.0, 30146.0, 35388.0, 9362.0, 0, 0.034773219376802444, -0.18840472400188446, 0.002663664985448122, -0.10193340480327606, -0.041036199778318405, 1.0214998722076416, 0, 0, 0, 1.44873046875, 0.102813720703125, 1.49560546875
16408, -0.048678942024707794, 2.270794153213501, -0.5013315081596375, -0.01437094435095787, 0.0004502919618971646, 23.362041473388672, -0.16352438926696777, 0.005112807732075453, 3.1608595848083496, -0.6720331311225891, -1.1252578496932983, 0.07509924471378326, 0.8613773640739627, -0.9945270682937064, -0.8590009691311844, 9362.0, 30146.0, 35388.0, 9362.0, 0, -0.04441913962364197, -0.2211466133594513, 0.19117091596126556, -0.10455258935689926, -0.041215550154447556, 1.020430564880371, 0, 0, 0, 1.540283203125, 0.280364990234375, 1.49560546875
16418, -0.04907143861055374, 2.271721601486206, -0.49888718128204346, -0.016026023775339127, 0.0005020190728828311, 23.393659591674805, -0.16749164462089539, 0.005232457537204027, 3.162829637527466, -0.6720502972602844, -1.1252572536468506, 0.07508327811956406, 0.8531641202978433, -0.9947863436907483, -0.8404650376430997, 9362.0, 30146.0, 35388.0, 9362.0, 0, -0.16867779195308685, 0.1798398345708847, 0.18346688151359558, -0.1044389009475708, -0.04123489186167717, 1.0217550992965698, 0, 0, 0, 1.587890625, 0.38861083984375, 1.491943359375
16428, -0.05001169443130493, 2.2717702388763428, -0.49819332361221313, -0.017720796167850494, 0.0005549456691369414, 23.4252986907959, -0.17146287858486176, 0.005352851003408432, 3.1648595333099365, -0.6720430850982666, -1.1252624988555908, 0.07507748156785965, 0.8589912191663526, -0.9876375760503606, -0.8474099754877954, 9362.0, 30146.0, 35388.0, 9362.0, 8.310744285583496, -0.21240423619747162, -0.2586687207221985, 0.09059751033782959, -0.10340819507837296, -0.041897475719451904, 1.0205637216567993, -0.06445268541574478, -0.04855918884277344, 1.491943359375, 1.552001953125, 0.3063201904296875, 1.491943359375
16438, -0.0510525219142437, 2.273641586303711, -0.49883344769477844, -0.01945527270436287, 0.0006090839742682874, 23.45695686340332, -0.17543265223503113, 0.005474888253957033, 3.166849136352539, -0.6720378994941711, -1.1252580881118774, 0.07506908476352692, 0.854460682152974, -0.9965980369232739, -0.8501070356349375, 9362.0, 30146.0, 35388.0, 9362.0, 8.310744285583496, 0.015660040080547333, -0.43390512466430664, -0.2550497055053711, -0.1009909138083458, -0.04124656692147255, 1.0203030109405518, -0.06445268541574478, -0.04855918884277344, 1.491943359375, 1.4150390625, 0.05596923828125, 1.493408203125
16448, -0.05023105815052986, 2.275815725326538, -0.49899566173553467, -0.021229445934295654, 0.000664451508782804, 23.48863410949707, -0.17940205335617065, 0.005598604679107666, 3.1687469482421875, -0.672046959400177, -1.1252607107162476, 0.07508201152086258, 0.8549323658850628, -0.9930235750825602, -0.8451012050628594, 9362.0, 30146.0, 35388.0, 9362.0, 8.310744285583496, -0.09743473678827286, 0.23680011928081512, -0.07769013941287994, -0.10347278416156769, -0.038012389093637466, 1.0222504138946533, -0.06445268541574478, -0.04855918884277344, 1.491943359375, 1.527099609375, 0.2517852783203125, 1.493408203125
16458, -0.05085759237408638, 2.2752881050109863, -0.49839144945144653, -0.02304336428642273, 0.0007210502517409623, 23.52033233642578, -0.18338145315647125, 0.005721122957766056, 3.1708035469055176, -0.672026515007019, -1.1252632141113281, 0.07509282231330872, 0.8603710613517139, -1.0050446859842452, -0.854541316569025, 9362.0, 30146.0, 35388.0, 9362.0, 8.310744285583496, -0.38980767130851746, -0.2270001471042633, -0.19291400909423828, -0.10435247421264648, -0.041158560663461685, 1.0234969854354858, -0.06445268541574478, -0.04855918884277344, 1.491943359375, 1.53369140625, 0.265960693359375, 1.494140625
16468, -0.053317055106163025, 2.277280569076538, -0.5007001161575317, -0.02489708736538887, 0.0007788799121044576, 23.552051544189453, -0.1873634159564972, 0.0058450656943023205, 3.172945022583008, -0.6720371842384338, -1.1252551078796387, 0.07507123053073883, 0.8513388111176665, -0.99945599682016, -0.841325565103487, 9362.0, 30146.0, 35388.0, 9362.0, 8.310744285583496, 0.13231012225151062, 0.3955676853656769, -0.09974824637174606, -0.10235443711280823, -0.04348500072956085, 1.0237876176834106, -0.06445268541574478, -0.04855918884277344, 1.491943359375, 1.5380859375, 0.2755889892578125, 1.494140625
16478, -0.0527784489095211, 2.2743372917175293, -0.4999699294567108, -0.02679068222641945, 0.0008379725622944534, 23.583791732788086, -0.19135534763336182, 0.0059733921661973, 3.17525577545166, -0.6720421314239502, -1.125253438949585, 0.07509489357471466, 0.8544868754816565, -1.0015637428452635, -0.8441593259067953, 9362.0, 30146.0, 35388.0, 9362.0, 8.310744285583496, -0.18927037715911865, 0.06299944967031479, 0.043076131492853165, -0.10359445214271545, -0.04182468727231026, 1.020664095878601, -0.06445268541574478, -0.04855918884277344, 1.491943359375, 1.54248046875, 0.28521728515625, 1.4912109375
16488, -0.05367347598075867, 2.274134635925293, -0.49865779280662537, -0.02872410975396633, 0.000898341357242316, 23.615554809570312, -0.19533005356788635, 0.006100304424762726, 3.1772592067718506, -0.672024667263031, -1.1252647638320923, 0.07509361207485199, 0.8594115244583874, -1.0003896876588385, -0.8580191467843685, 9362.0, 30146.0, 35388.0, 9362.0, 8.310744285583496, 0.02057402953505516, -0.09294669330120087, -0.09801425039768219, -0.10326284170150757, -0.04097548499703407, 1.0216691493988037, -0.06445268541574478, -0.04855918884277344, 1.491943359375, 1.5615234375, 0.3278350830078125, 1.4912109375
16498, -0.054423291236162186, 2.2752037048339844, -0.4988681375980377, -0.030697278678417206, 0.0009599864715710282, 23.647336959838867, -0.1993037462234497, 0.0062287673354148865, 3.1792454719543457, -0.672010064125061, -1.1252599954605103, 0.07509267330169678, 0.8655310701700485, -1.0060532791441972, -0.8558194934017546, 9362.0, 30146.0, 35388.0, 9362.0, 8.310744285583496, -0.07884001731872559, 0.5650570392608643, -0.1442314088344574, -0.10280022025108337, -0.039471667259931564, 1.0235379934310913, -0.06445268541574478, -0.04855918884277344, 1.491943359375, 1.5615234375, 0.3278350830078125, 1.4970703125
16508, -0.054896917194128036, 2.2727410793304443, -0.49976837635040283, -0.032710231840610504, 0.0010229242034256458, 23.679140090942383, -0.20328649878501892, 0.0063588498160243034, 3.1814160346984863, -0.6720407605171204, -1.1252491474151611, 0.07506528496742249, 0.8599424239037045, -0.9974967619903339, -0.8476435165762165, 9362.0, 30146.0, 35388.0, 9362.0, 8.310744285583496, -0.13544124364852905, -0.1446145921945572, -0.10171782225370407, -0.10276460647583008, -0.039048612117767334, 1.0243842601776123, -0.06445268541574478, -0.04855918884277344, 1.491943359375, 1.414306640625, 0.05517578125, 1.4970703125
16518, -0.055109359323978424, 2.272305727005005, -0.5009860992431641, -0.03476301580667496, 0.001087167882360518, 23.710966110229492, -0.20727023482322693, 0.006489971652626991, 3.1837189197540283, -0.6720314025878906, -1.1252577304840088, 0.07506974041461945, 0.85640272115683, -1.0031448602063904, -0.8458860885082083, 9362.0, 30146.0, 35388.0, 9362.0, 8.310744285583496, 0.22981709241867065, 0.2131425142288208, 0.25703006982803345, -0.10456053912639618, -0.04088882356882095, 1.0231088399887085, -0.06445268541574478, -0.04855918884277344, 1.491943359375, 1.493408203125, 0.1825714111328125, 1.494140625
16528, -0.05342114344239235, 2.2716128826141357, -0.5011288523674011, -0.03685561567544937, 0.0011527244932949543, 23.742815017700195, -0.2112499624490738, 0.006621284876018763, 3.1859405040740967, -0.6720343828201294, -1.1252548694610596, 0.07507515698671341, 0.8565989698548939, -1.0056696361880029, -0.847296503328363, 9362.0, 30146.0, 35388.0, 9362.0, 8.310744285583496, 0.018240753561258316, 0.17941394448280334, 0.0620928555727005, -0.10359295457601547, -0.04400554671883583, 1.0198948383331299, -0.07786896824836731, -0.13815879821777344, 1.484619140625, 1.51025390625, 0.2164154052734375, 1.494140625
16538, -0.05286524072289467, 2.2688686847686768, -0.5015220642089844, -0.03898795694112778, 0.0012195778544992208, 23.77468490600586, -0.2152184695005417, 0.006749383639544249, 3.1879115104675293, -0.6720178723335266, -1.1252573728561401, 0.07509909570217133, 0.8557516233166321, -1.0015377778445895, -0.857305473043338, 9362.0, 30146.0, 35388.0, 9362.0, 8.310744285583496, 0.22280588746070862, 0.05704233795404434, 0.17916062474250793, -0.10364321619272232, -0.043171148747205734, 1.020967721939087, -0.07786896824836731, -0.13815879821777344, 1.484619140625, 1.376220703125, 0.0222930908203125, 1.48828125
16548, -0.05095486342906952, 2.2699270248413086, -0.5014674663543701, -0.041159965097904205, 0.0012877073604613543, 23.80657386779785, -0.2191830277442932, 0.006876438390463591, 3.189898729324341, -0.6720417141914368, -1.1252596378326416, 0.07509861886501312, 0.8489370373230514, -1.001498739915064, -0.8465093775400961, 9362.0, 30146.0, 35388.0, 9362.0, 8.310744285583496, -0.1721080094575882, 0.13699030876159668, 0.012783123180270195, -0.10200324654579163, -0.04105908051133156, 1.0203604698181152, -0.07786896824836731, -0.13815879821777344, 1.484619140625, 1.527099609375, 0.2517852783203125, 1.48828125
16558, -0.05213743448257446, 2.269162654876709, -0.5001419186592102, -0.04337161034345627, 0.0013570901937782764, 23.838481903076172, -0.22314609587192535, 0.007000084035098553, 3.1918041706085205, -0.6720330715179443, -1.1252555847167969, 0.07506083697080612, 0.8526876482830057, -1.0013196784848049, -0.8466720330270845, 9362.0, 30146.0, 35388.0, 9362.0, 8.310744285583496, -0.07854337245225906, 0.22379617393016815, -0.43837612867355347, -0.10286172479391098, -0.040535349398851395, 1.0204750299453735, -0.07786896824836731, -0.13815879821777344, 1.484619140625, 1.524169921875, 0.2455596923828125, 1.494873046875
16568, -0.05251418054103851, 2.267927408218384, -0.5026921033859253, -0.04562288522720337, 0.0014277196023613214, 23.87040901184082, -0.2271091490983963, 0.007125976961106062, 3.1937429904937744, -0.6720282435417175, -1.125246286392212, 0.07506687194108963, 0.8516486244353205, -0.9982388660732227, -0.8413789376476679, 9362.0, 30146.0, 35388.0, 9362.0, 8.310744285583496, -0.05635964125394821, -0.028752228245139122, 0.10519221425056458, -0.10138412564992905, -0.03945894166827202, 1.020040512084961, -0.07786896824836731, -0.13815879821777344, 1.484619140625, 1.512451171875, 0.2209625244140625, 1.494873046875
16578, -0.05186842381954193, 2.266885757446289, -0.5019417405128479, -0.047913771122694016, 0.0014996116515249014, 23.902355194091797, -0.23106816411018372, 0.0072523606941103935, 3.195634365081787, -0.6720149517059326, -1.1252669095993042, 0.07509789615869522, 0.8572188459675892, -1.0017690775469532, -0.8553364245567368, 9362.0, 30146.0, 35388.0, 9362.0, 8.310744285583496, -0.07035356014966965, -0.22601552307605743, -0.17803093791007996, -0.10382366925477982, -0.04344891756772995, 1.0201081037521362, -0.07786896824836731, -0.13815879821777344, 1.484619140625, 1.465576171875, 0.130889892578125, 1.49560546875
16588, -0.05210495740175247, 2.26692533493042, -0.5008206963539124, -0.05024423822760582, 0.0015727615682408214, 23.9343204498291, -0.23502548038959503, 0.007377556525170803, 3.19752836227417, -0.6720302700996399, -1.125260353088379, 0.07507333159446716, 0.8568159368758826, -1.0029887435979958, -0.8460453758274407, 9362.0, 30146.0, 35388.0, 9362.0, 8.310744285583496, 0.1882587969303131, -0.08115405589342117, -0.1135350838303566, -0.10391376912593842, -0.042638447135686874, 1.0221112966537476, -0.07786896824836731, -0.13815879821777344, 1.484619140625, 1.540283203125, 0.280364990234375, 1.49560546875
16598, -0.05171921104192734, 2.2677783966064453, -0.5011347532272339, -0.05261430889368057, 0.0016471660928800702, 23.966306686401367, -0.23898880183696747, 0.00750335119664669, 3.199570417404175, -0.6720411777496338, -1.1252548694610596, 0.07505260407924652, 0.8556153132366382, -1.0010846230106552, -0.8450974286930383, 9362.0, 30146.0, 35388.0, 9362.0, 8.310744285583496, -0.03348001465201378, -0.25192761421203613, 0.07823368161916733, -0.10339808464050293, -0.043274350464344025, 1.0216379165649414, -0.07786896824836731, -0.13815879821777344, 1.484619140625, 1.51171875, 0.21942138671875, 1.494140625
16608, -0.05174754187464714, 2.2691972255706787, -0.5001710057258606, -0.055024031549692154, 0.0017228256911039352, 23.99831199645996, -0.2429559975862503, 0.00762851070612669, 3.2016727924346924, -0.6720330715179443, -1.1252564191818237, 0.07507503032684326, 0.8585811414418568, -0.9981353207134873, -0.8470276396238501, 9362.0, 30146.0, 35388.0, 9362.0, 8.310744285583496, 0.13763128221035004, -0.15598829090595245, -0.04309083893895149, -0.10440351814031601, -0.042015191167593, 1.021965742111206, -0.07786896824836731, -0.13815879821777344, 1.484619140625, 1.500732421875, 0.1970977783203125, 1.494140625
16618, -0.05107332393527031, 2.27107834815979, -0.5006290674209595, -0.057473428547382355, 0.0017997365212067962, 24.030338287353516, -0.24692308902740479, 0.0077536641620099545, 3.203709363937378, -0.6720314621925354, -1.12526535987854, 0.0750817209482193, 0.8535340897210003, -0.9962628803442897, -0.844017619625557, 9362.0, 30146.0, 35388.0, 9362.0, 8.310744285583496, -0.0042297872714698315, 0.18252408504486084, 0.16635747253894806, -0.10391747951507568, -0.039511412382125854, 1.0241053104400635, -0.07786896824836731, -0.13815879821777344, 1.484619140625, 1.4970703125, 0.18975830078125, 1.4970703125
16628, -0.05091638118028641, 2.269749164581299, -0.5001682639122009, -0.059962548315525055, 0.0018778943922370672, 24.06238555908203, -0.250900536775589, 0.007877875119447708, 3.2059268951416016, -0.6720373034477234, -1.1252467632293701, 0.07505636662244797, 0.8456782842739942, -0.9985569007950517, -0.8442772099535493, 9362.0, 30146.0, 35388.0, 9362.0, 8.310744285583496, -0.166486918926239, 0.14842583239078522, 0.3956114947795868, -0.1044602319598198, -0.038890231400728226, 1.0231099128723145, -0.08697915077209473, 0.03208160400390625, 1.49853515625, 1.529296875, 0.2564849853515625, 1.4970703125
16638, -0.05198672413825989, 2.269587755203247, -0.4980103671550751, -0.06249144300818443, 0.0019572931341826916, 24.09445571899414, -0.25487831234931946, 0.008001773618161678, 3.208209276199341, -0.6720263361930847, -1.125253438949585, 0.07506191730499268, 0.8528369101854347, -1.0020174024172093, -0.8451729554551544, 9362.0, 30146.0, 35388.0, 9362.0, 8.310744285583496, 0.10437233746051788, 0.028115836903452873, 0.06307440996170044, -0.10277224332094193, -0.0399298258125782, 1.0228736400604248, -0.08697915077209473, 0.03208160400390625, 1.49853515625, 1.535888671875, 0.2707366943359375, 1.493408203125
16648, -0.050737734884023666, 2.2709691524505615, -0.4970586597919464, -0.0650600865483284, 0.0020379386842250824, 24.126548767089844, -0.2588506042957306, 0.008127223700284958, 3.210359573364258, -0.6720342636108398, -1.1252615451812744, 0.07505588233470917, 0.8566751965735484, -0.9992845849240268, -0.8359750847599406, 9362.0, 30146.0, 35388.0, 9362.0, 8.310744285583496, 0.040940579026937485, -0.29184234142303467, -0.06442829221487045, -0.10432282835245132, -0.04230925068259239, 1.0203840732574463, -0.08697915077209473, 0.03208160400390625, 1.49853515625, 1.51611328125, 0.2286224365234375, 1.493408203125
16658, -0.050155460834503174, 2.2734639644622803, -0.4972285032272339, -0.06766843050718307, 0.0021198266185820103, 24.158662796020508, -0.26281848549842834, 0.008250332437455654, 3.212336540222168, -0.6720153093338013, -1.12525475025177, 0.07505626231431961, 0.8630357431330304, -0.9971688852870386, -0.8576419456361569, 9362.0, 30146.0, 35388.0, 9362.0, 8.310744285583496, -0.2657024562358856, -0.005894072353839874, 0.19863498210906982, -0.10538022220134735, -0.04194722697138786, 1.023468255996704, -0.08697915077209473, 0.03208160400390625, 1.49853515625, 1.557861328125, 0.3195037841796875, 1.497802734375
16668, -0.05068320408463478, 2.2726833820343018, -0.4964495599269867, -0.07031650096178055, 0.0022029413376003504, 24.1907958984375, -0.2667955756187439, 0.008372600190341473, 3.2144384384155273, -0.6720271706581116, -1.1252456903457642, 0.07507746666669846, 0.8566402359773675, -1.0032402453059603, -0.8445140411195887, 9362.0, 30146.0, 35388.0, 9362.0, 8.310744285583496, 0.11706822365522385, -0.11112295836210251, 0.08409089595079422, -0.1053762137889862, -0.04290284588932991, 1.0230365991592407, -0.08697915077209473, 0.03208160400390625, 1.49853515625, 1.544677734375, 0.2900543212890625, 1.497802734375
16678, -0.0501638762652874, 2.27287220954895, -0.49704596400260925, -0.07300437241792679, 0.0022872842382639647, 24.222951889038086, -0.270778626203537, 0.008496005088090897, 3.216723918914795, -0.6720306873321533, -1.1252490282058716, 0.07505777478218079, 0.8570079039248949, -0.9990934681307237, -0.8430755124602566, 9362.0, 30146.0, 35388.0, 9362.0, 8.310744285583496, -0.03062848001718521, -0.36972904205322266, 0.28129178285598755, -0.10296276956796646, -0.04106340557336807, 1.0211631059646606, -0.08697915077209473, 0.03208160400390625, 1.49853515625, 1.550537109375, 0.303131103515625, 1.494873046875
16688, -0.05027737841010094, 2.274415969848633, -0.4959411919116974, -0.07573202252388, 0.002372855320572853, 24.255128860473633, -0.27475133538246155, 0.008618123829364777, 3.218738317489624, -0.6720359325408936, -1.1252468824386597, 0.07505524158477783, 0.8562917707399929, -1.00155166383675, -0.8418490277187157, 9362.0, 30146.0, 35388.0, 9362.0, 8.310744285583496, 0.05130237340927124, -0.1983552724123001, -0.030916497111320496, -0.10358303040266037, -0.041525308042764664, 1.0205332040786743, -0.08697915077209473, 0.03208160400390625, 1.49853515625, 1.490478515625, 0.1768646240234375, 1.494873046875
16698, -0.04987914860248566, 2.2745630741119385, -0.4958691895008087, -0.07849939912557602, 0.0024596478324383497, 24.28732681274414, -0.2787245213985443, 0.008740372955799103, 3.2206993103027344, -0.6720394492149353, -1.1252628564834595, 0.07507246732711792, 0.864282282897173, -0.981525119541601, -0.8507516434168952, 9362.0, 30146.0, 35388.0, 9362.0, 8.310744285583496, -0.07484240084886551, 0.05339394509792328, 0.34246012568473816, -0.10469108074903488, -0.04045531526207924, 1.0217998027801514, -0.08697915077209473, 0.03208160400390625, 1.49853515625, 1.53369140625, 0.265960693359375, 1.493408203125
16708, -0.05069439113140106, 2.2754104137420654, -0.49532806873321533, -0.08130651712417603, 0.0025476596783846617, 24.319543838500977, -0.2826997935771942, 0.00886198878288269, 3.222705602645874, -0.6720392107963562, -1.1252516508102417, 0.07505418360233307, 0.8595150341463579, -1.0033526614280106, -0.840478602510771, 9362.0, 30146.0, 35388.0, 9362.0, 8.310744285583496, -0.015735797584056854, -0.29144152998924255, 0.15227974951267242, -0.10257226973772049, -0.042115602642297745, 1.025081753730774, -0.08697915077209473, 0.03208160400390625, 1.49853515625, 1.51318359375, 0.2224273681640625, 1.493408203125
16718, -0.0516093410551548, 2.2770378589630127, -0.49369052052497864, -0.0841534435749054, 0.002636896213516593, 24.351781845092773, -0.2866862714290619, 0.008985240012407303, 3.2249562740325928, -0.6720144152641296, -1.1252533197402954, 0.07506634294986725, 0.8609089565108767, -1.0037009521886375, -0.8573122494377905, 9362.0, 30146.0, 35388.0, 9362.0, 8.310744285583496, 0.11493673175573349, 0.06821295619010925, -0.2557257413864136, -0.10197991877794266, -0.042188581079244614, 1.023301124572754, -0.08697915077209473, 0.03208160400390625, 1.49853515625, 1.5234375, 0.2439727783203125, 1.496337890625
16728, -0.0517951101064682, 2.2781503200531006, -0.493850439786911, -0.08704026788473129, 0.002727373270317912, 24.384042739868164, -0.29067808389663696, 0.009110176004469395, 3.227268934249878, -0.6720302104949951, -1.1252530813217163, 0.07506586611270905, 0.8506253330974591, -1.0000149724349399, -0.8419025824083046, 9362.0, 30146.0, 35388.0, 9362.0, 8.310744285583496, 0.08986276388168335, 0.1932751089334488, 0.18736426532268524, -0.104351706802845, -0.04113383591175079, 1.0233384370803833, -0.05209125950932503, -0.021678924560546875, 1.494140625, 1.471435546875, 0.14129638671875, 1.496337890625
16738, -0.05093948915600777, 2.276947498321533, -0.4939955472946167, -0.08996698260307312, 0.002819100394845009, 24.41632652282715, -0.2946650981903076, 0.009235217235982418, 3.229414939880371, -0.6720279455184937, -1.1252521276474, 0.07505065202713013, 0.8527877244439458, -1.006693535391804, -0.8416759172727425, 9362.0, 30146.0, 35388.0, 9362.0, 8.310744285583496, 0.23310695588588715, 0.03997877985239029, 0.19771230220794678, -0.10210771858692169, -0.038086216896772385, 1.0228084325790405, -0.05209125950932503, -0.021678924560546875, 1.494140625, 1.5439453125, 0.2884979248046875, 1.493408203125
16748, -0.05126931145787239, 2.2775893211364746, -0.49393230676651, -0.09293356537818909, 0.0029120706021785736, 24.448631286621094, -0.2986510396003723, 0.009358811192214489, 3.2315845489501953, -0.6720252633094788, -1.125251054763794, 0.07508321106433868, 0.8539214469612916, -0.994924349473024, -0.8421177559421386, 9362.0, 30146.0, 35388.0, 9362.0, 8.310744285583496, 0.009982398711144924, 0.3175743520259857, 0.18126459419727325, -0.10056985169649124, -0.04017768055200577, 1.025352954864502, -0.05209125950932503, -0.021678924560546875, 1.494140625, 1.4765625, 0.1505584716796875, 1.493408203125
16758, -0.05125178396701813, 2.275796413421631, -0.4931443929672241, -0.09594003856182098, 0.0030062803998589516, 24.480958938598633, -0.3026440441608429, 0.009483112953603268, 3.2339067459106445, -0.6720433235168457, -1.1252542734146118, 0.07504773139953613, 0.849339071593279, -1.0032981608325429, -0.8449364947891563, 9362.0, 30146.0, 35388.0, 9362.0, 8.310744285583496, -0.06787889450788498, -0.20698779821395874, -0.3880435824394226, -0.0994442030787468, -0.04220178723335266, 1.022712230682373, -0.05209125950932503, -0.021678924560546875, 1.494140625, 1.51904296875, 0.2346954345703125, 1.489013671875
16768, -0.052036307752132416, 2.278759241104126, -0.49503934383392334, -0.09898641705513, 0.003101732349023223, 24.513309478759766, -0.3066311776638031, 0.009607427753508091, 3.2361538410186768, -0.6720315217971802, -1.1252506971359253, 0.07504208385944366, 0.8537248511614403, -1.0044971216600231, -0.8392963000708348, 9362.0, 30146.0, 35388.0, 9362.0, 8.310744285583496, -0.10048927366733551, -0.06868381053209305, 0.13095512986183167, -0.10227451473474503, -0.04208262264728546, 1.022658109664917, -0.05209125950932503, -0.021678924560546875, 1.494140625, 1.5380859375, 0.2755889892578125, 1.489013671875
16778, -0.05190097540616989, 2.2800891399383545, -0.495676189661026, -0.10207265615463257, 0.0031984341330826283, 24.54568099975586, -0.3106173574924469, 0.009732982143759727, 3.238250255584717, -0.6720331311225891, -1.125261902809143, 0.07508109509944916, 0.8510433574253439, -0.9990319303822446, -0.8367790974421045, 9362.0, 30146.0, 35388.0, 9362.0, 8.310744285583496, 0.10451069474220276, 0.06380803138017654, 0.12331424653530121, -0.10241685807704926, -0.04137640446424484, 1.0234428644180298, -0.05209125950932503, -0.021678924560546875, 1.494140625, 1.53369140625, 0.265960693359375, 1.49267578125
16788, -0.05190599709749222, 2.27982759475708, -0.4970276653766632, -0.10519878566265106, 0.0032963911071419716, 24.578073501586914, -0.31460878252983093, 0.009858512319624424, 3.2404208183288574, -0.6720336675643921, -1.1252481937408447, 0.0750679150223732, 0.8543735340521964, -1.0039329925949971, -0.8460395752916472, 9362.0, 30146.0, 35388.0, 9362.0, 8.310744285583496, 0.05767891928553581, 0.2790673077106476, 0.40365052223205566, -0.10415653884410858, -0.041631948202848434, 1.023203730583191, -0.05209125950932503, -0.021678924560546875, 1.494140625, 1.51611328125, 0.2286224365234375, 1.49267578125
16798, -0.05068141967058182, 2.2786672115325928, -0.4954744875431061, -0.10836483538150787, 0.0033956042025238276, 24.610488891601562, -0.3186013996601105, 0.009983941912651062, 3.242633581161499, -0.6720333099365234, -1.1252604722976685, 0.07504978030920029, 0.8529091086340986, -0.996602439262432, -0.8378892535207895, 9362.0, 30146.0, 35388.0, 9362.0, 8.310744285583496, -0.1520206481218338, 0.030166102573275566, 0.33743223547935486, -0.10345674306154251, -0.042361143976449966, 1.0236619710922241, -0.05209125950932503, -0.021678924560546875, 1.494140625, 1.482421875, 0.161529541015625, 1.4912109375
16808, -0.05092298984527588, 2.2776694297790527, -0.4935164749622345, -0.1115707978606224, 0.003496060147881508, 24.642927169799805, -0.3225918114185333, 0.010107124224305153, 3.244840145111084, -0.6720162630081177, -1.125262975692749, 0.07508452981710434, 0.8582992681472844, -1.0042075126062002, -0.8495045179934357, 9362.0, 30146.0, 35388.0, 9362.0, 8.310744285583496, 0.12757602334022522, 0.29963549971580505, 0.21499930322170258, -0.10396470874547958, -0.04252033680677414, 1.0217342376708984, -0.05209125950932503, -0.021678924560546875, 1.494140625, 1.54248046875, 0.28521728515625, 1.4912109375
16818, -0.051775723695755005, 2.2758171558380127, -0.49248576164245605, -0.11481664329767227, 0.0035977486986666918, 24.675386428833008, -0.3265766203403473, 0.010230546817183495, 3.246952772140503, -0.6720590591430664, -1.1252585649490356, 0.07505911588668823, 0.8496692504942597, -0.9761830655680797, -0.8462803976119612, 9362.0, 30146.0, 35388.0, 9362.0, 8.310744285583496, 0.12207301706075668, 0.04277773201465607, -0.16566914319992065, -0.10441223531961441, -0.041689433157444, 1.020151138305664, -0.05209125950932503, -0.021678924560546875, 1.494140625, 1.469970703125, 0.1386566162109375, 1.494140625
16828, -0.05185834318399429, 2.2767090797424316, -0.4939618706703186, -0.11810228228569031, 0.003700677305459976, 24.70786476135254, -0.3305511176586151, 0.010355285368859768, 3.248884439468384, -0.6720348596572876, -1.125249981880188, 0.07506636530160904, 0.8522770252192626, -0.9996525628045845, -0.8496436776032029, 9362.0, 30146.0, 35388.0, 9362.0, 8.310744285583496, -0.1955088973045349, -0.09317032992839813, -0.12599407136440277, -0.10192900151014328, -0.04075424373149872, 1.020914077758789, -0.07827681303024292, 0.06792068481445312, 1.50146484375, 1.505859375, 0.2073974609375, 1.494140625
16838, -0.05361884459853172, 2.2771084308624268, -0.4938390851020813, -0.12142767757177353, 0.00380485481582582, 24.74036407470703, -0.33452850580215454, 0.010480276308953762, 3.2508513927459717, -0.672041654586792, -1.1252589225769043, 0.07506781816482544, 0.8501177948053922, -0.9841011546161837, -0.8430887724541475, 9362.0, 30146.0, 35388.0, 9362.0, 8.310744285583496, -0.13002605736255646, -0.2993255853652954, -0.3057032823562622, -0.1038951650261879, -0.04063606262207031, 1.0235525369644165, -0.07827681303024292, 0.06792068481445312, 1.50146484375, 1.5205078125, 0.237762451171875, 1.4970703125
16848, -0.05403755232691765, 2.2777092456817627, -0.49620115756988525, -0.12479289621114731, 0.003910298924893141, 24.772884368896484, -0.33851513266563416, 0.010608740150928497, 3.2530317306518555, -0.672034502029419, -1.1252655982971191, 0.0750659853219986, 0.8632469061961492, -0.9998290767742049, -0.8420221184725711, 9362.0, 30146.0, 35388.0, 9362.0, 8.310744285583496, -0.20069755613803864, -0.19750288128852844, 0.039113469421863556, -0.10156917572021484, -0.041470717638731, 1.0213199853897095, -0.07827681303024292, 0.06792068481445312, 1.50146484375, 1.4912109375, 0.178253173828125, 1.4970703125
16858, -0.05370284989476204, 2.280324697494507, -0.4952199459075928, -0.12819796800613403, 0.004017031751573086, 24.8054256439209, -0.34249845147132874, 0.010737708769738674, 3.255100727081299, -0.6720260977745056, -1.1252573728561401, 0.07508040219545364, 0.8526147503077517, -1.0008259015150998, -0.8480619916480545, 9362.0, 30146.0, 35388.0, 9362.0, 8.310744285583496, 0.08405834436416626, -0.06344945728778839, -0.2408938854932785, -0.10302557796239853, -0.043332409113645554, 1.0213481187820435, -0.07827681303024292, 0.06792068481445312, 1.50146484375, 1.509521484375, 0.2148895263671875, 1.494140625
16868, -0.052354905754327774, 2.280517339706421, -0.49772486090660095, -0.1316428780555725, 0.0041250502690672874, 24.83798599243164, -0.34648269414901733, 0.010866153985261917, 3.2570807933807373, -0.672026515007019, -1.125260353088379, 0.0750768855214119, 0.8500876165838204, -1.0024225581108226, -0.8448851678856145, 9362.0, 30146.0, 35388.0, 9362.0, 8.310744285583496, -0.07232728600502014, 0.22061946988105774, 0.3933769762516022, -0.10430409014225006, -0.04217175766825676, 1.0237253904342651, -0.07827681303024292, 0.06792068481445312, 1.50146484375, 1.5087890625, 0.21337890625, 1.494140625
16878, -0.053208641707897186, 2.2797656059265137, -0.4952958822250366, -0.13512766361236572, 0.004234343767166138, 24.870567321777344, -0.35047417879104614, 0.010992376133799553, 3.2592341899871826, -0.6720343232154846, -1.1252567768096924, 0.07508146017789841, 0.8531804284697719, -1.0045077697545537, -0.8409385976111746, 9362.0, 30146.0, 35388.0, 9362.0, 8.310744285583496, 0.04123165085911751, -0.15782389044761658, -0.13985313475131989, -0.10343741625547409, -0.04016341269016266, 1.0229288339614868, -0.07827681303024292, 0.06792068481445312, 1.50146484375, 1.477294921875, 0.1519775390625, 1.489013671875
16888, -0.0532325878739357, 2.279256582260132, -0.49507418274879456, -0.13865236937999725, 0.0043449061922729015, 24.90317153930664, -0.3544674515724182, 0.01112013403326273, 3.261465549468994, -0.6720167994499207, -1.1252517700195312, 0.07506716996431351, 0.8603343314479154, -1.003201302604083, -0.8552057250109178, 9362.0, 30146.0, 35388.0, 9362.0, 8.310744285583496, 0.09404107928276062, 0.1355605125427246, -0.19314703345298767, -0.10201551765203476, -0.040323808789253235, 1.0226399898529053, -0.07827681303024292, 0.06792068481445312, 1.50146484375, 1.527099609375, 0.2517852783203125, 1.489013671875
16898, -0.052268948405981064, 2.279311180114746, -0.4963911175727844, -0.1422169804573059, 0.0044567459262907505, 24.9357967376709, -0.35845544934272766, 0.011247838847339153, 3.2635865211486816, -0.6720355749130249, -1.1252495050430298, 0.07506844401359558, 0.8547854207857073, -1.0028591638495357, -0.8481306795325632, 9362.0, 30146.0, 35388.0, 9362.0, 8.310744285583496, -0.2916872799396515, 0.22927819192409515, 0.018675701692700386, -0.10092707723379135, -0.04115039482712746, 1.022898554801941, -0.07827681303024292, 0.06792068481445312, 1.50146484375, 1.524169921875, 0.2455596923828125, 1.4970703125
16908, -0.05299229919910431, 2.277057409286499, -0.49608114361763, -0.1458214819431305, 0.0045698550529778, 24.968442916870117, -0.36244502663612366, 0.01137395016849041, 3.265747547149658, -0.6720077395439148, -1.1252589225769043, 0.0750945508480072, 0.8646761883173871, -1.0051013702144473, -0.8584987794182497, 9362.0, 30146.0, 35388.0, 9362.0, 8.310744285583496, -0.10494665056467056, 0.01893138326704502, 0.5349984169006348, -0.10195926576852798, -0.042055148631334305, 1.0241204500198364, -0.07827681303024292, 0.06792068481445312, 1.50146484375, 1.48095703125, 0.1587677001953125, 1.4970703125
16918, -0.054114215075969696, 2.2765724658966064, -0.49392351508140564, -0.149465873837471, 0.004684231244027615, 25.00111198425293, -0.3664326071739197, 0.011501221917569637, 3.2679555416107178, -0.67203289270401, -1.1252515316009521, 0.07507041841745377, 0.8551651626648916, -1.0033702946586232, -0.8361200373672169, 9362.0, 30146.0, 35388.0, 9362.0, 8.310744285583496, -0.03991396725177765, -0.19750945270061493, -0.04095417633652687, -0.10231810063123703, -0.043025605380535126, 1.0226216316223145, -0.07827681303024292, 0.06792068481445312, 1.50146484375, 1.541748046875, 0.2835540771484375, 1.49560546875
16938, -0.05399032309651375, 2.2769036293029785, -0.495390921831131, -0.15315012633800507, 0.004799889400601387, 25.033802032470703, -0.37041813135147095, 0.01163042988628149, 3.2701327800750732, -0.6720283031463623, -1.1252455711364746, 0.07508555054664612, 0.8560688858085546, -1.0023502606443913, -0.8443484973915246, 9362.0, 30146.0, 35388.0, 9362.0, 8.310744285583496, -0.20986945927143097, -0.2125391960144043, -0.15322278439998627, -0.10442141443490982, -0.04059523716568947, 1.0220829248428345, -0.07827681303024292, 0.06792068481445312, 1.50146484375, 1.541748046875, 0.2835540771484375, 1.49560546875
16948, -0.05507911741733551, 2.2782111167907715, -0.49572378396987915, -0.15315012633800507, 0.004799889400601387, 25.033802032470703, -0.37041813135147095, 0.01163042988628149, 3.2701327800750732, -0.6720311641693115, -1.1252543926239014, 0.07508821040391922, 0.8529533336187809, -1.0075179043571438, -0.8398193837375584, 9362.0, 30146.0, 35388.0, 9362.0, 8.310744285583496, 0.09936219453811646, 0.10271898657083511, 0.10981782525777817, -0.10442141443490982, -0.04059523716568947, 1.0220829248428345, -0.07827681303024292, 0.06792068481445312, 1.50146484375, 1.446533203125, 0.09930419921875, 1.49560546875
16958, -0.05410567298531532, 2.277560234069824, -0.4957228899002075, -0.15315012633800507, 0.004799889400601387, 25.033802032470703, -0.37041813135147095, 0.01163042988628149, 3.2701327800750732, -0.6720587611198425, -1.125248670578003, 0.07508894801139832, 0.8529886785032884, -0.9844300165477193, -0.8411084619824573, 9362.0, 30146.0, 35388.0, 9362.0, 8.310744285583496, 0.1939394772052765, -0.1140090748667717, -0.174661785364151, -0.10232502967119217, -0.040001098066568375, 1.0228698253631592, -0.07827681303024292, 0.06792068481445312, 1.50146484375, 1.446533203125, 0.09930419921875, 1.49267578125
16968, -0.05421072617173195, 2.2789063453674316, -0.4963788092136383, -0.16828535497188568, 0.005275422241538763, 25.164772033691406, -0.38635241985321045, 0.012147688306868076, 3.2785160541534424, -0.6720304489135742, -1.1252516508102417, 0.07509885728359222, 0.8503787779183611, -0.999633875303914, -0.8431613930287825, 9362.0, 30146.0, 35388.0, 9362.0, 8.310744285583496, -0.14989127218723297, -0.3836941421031952, -0.051843058317899704, -0.10356217622756958, -0.04175487905740738, 1.0231362581253052, -0.07827681303024292, 0.06792068481445312, 1.50146484375, 1.446533203125, 0.09930419921875, 1.49267578125
16978, -0.05562689155340195, 2.281458854675293, -0.49668723344802856, -0.16828535497188568, 0.005275422241538763, 25.164772033691406, -0.38635241985321045, 0.012147688306868076, 3.2785160541534424, -0.672027587890625, -1.1252497434616089, 0.07509510219097137, 0.8540969867801154, -1.004236518456139, -0.847308329070603, 9362.0, 30146.0, 35388.0, 9362.0, 8.310744285583496, 0.11922397464513779, -0.18008261919021606, -0.04139331728219986, -0.10350063443183899, -0.04318568855524063, 1.0239368677139282, -0.07827681303024292, 0.06792068481445312, 1.50146484375, 1.41943359375, 0.0612945556640625, 1.49267578125
16988, -0.054955434054136276, 2.2843942642211914, -0.4977858066558838, -0.1760922223329544, 0.005520980339497328, 25.23038673400879, -0.39433959126472473, 0.012409505434334278, 3.2829535007476807, -0.6720346212387085, -1.1252471208572388, 0.07510895282030106, 0.8521539173587973, -1.0037478279387244, -0.8426803316049006, 9362.0, 30146.0, 35388.0, 9362.0, 8.310744285583496, 0.2561849057674408, -0.08586760610342026, -0.26483771204948425, -0.10435403138399124, -0.04118580371141434, 1.0222874879837036, -0.07827681303024292, 0.06792068481445312, 1.50146484375, 1.41943359375, 0.0612945556640625, 1.49267578125
16998, -0.05387086048722267, 2.285978078842163, -0.4988376498222351, -0.1760922223329544, 0.005520980339497328, 25.23038673400879, -0.39433959126472473, 0.012409505434334278, 3.2829535007476807, -0.6720048189163208, -1.1252630949020386, 0.07512329518795013, 0.8562950667997944, -1.0052754112221294, -0.8463580051733793, 9362.0, 30146.0, 35388.0, 9362.0, 8.310744285583496, -0.029591873288154602, 0.27903276681900024, 0.23217567801475525, -0.10353966057300568, -0.03996259346604347, 1.0209730863571167, -0.07827681303024292, 0.06792068481445312, 1.50146484375, 1.4736328125, 0.1452178955078125, 1.49267578125
17008, -0.0538770817220211, 2.286548614501953, -0.49872347712516785, -0.1760922223329544, 0.005520980339497328, 25.23038673400879, -0.39433959126472473, 0.012409505434334278, 3.2829535007476807, -0.6720253825187683, -1.1252487897872925, 0.07508796453475952, 0.8523033978060413, -1.0003834404404301, -0.8433137443394589, 9362.0, 30146.0, 35388.0, 9362.0, 8.310744285583496, 0.09860150516033173, 0.013742350041866302, -0.4660854935646057, -0.10412739217281342, -0.04031628370285034, 1.0199065208435059, -0.07827681303024292, 0.06792068481445312, 1.50146484375, 1.530029296875, 0.2581329345703125, 1.49267578125
17018, -0.05307149887084961, 2.2862842082977295, -0.5010700225830078, -0.1760922223329544, 0.005520980339497328, 25.23038673400879, -0.39433959126472473, 0.012409505434334278, 3.2829535007476807, -0.6720243096351624, -1.1252518892288208, 0.07507733255624771, 0.8574390050849486, -1.0029611844123565, -0.8489816206388473, 9362.0, 30146.0, 35388.0, 9362.0, 8.310744285583496, 0.008172459900379181, 0.24695393443107605, 0.03432849049568176, -0.10474777966737747, -0.040967877954244614, 1.0198966264724731, -0.07827681303024292, 0.06792068481445312, 1.50146484375, 1.41650390625, 0.0577545166015625, 1.49267578125
17038, -0.052219800651073456, 2.285367727279663, -0.5034139156341553, -0.19218546152114868, 0.006027742754667997, 25.36186981201172, -0.41031455993652344, 0.012926130555570126, 3.2908661365509033, -0.6720259785652161, -1.1252509355545044, 0.07509761303663254, 0.8490975340013802, -1.0016981550269293, -0.8416378420270517, 9362.0, 30146.0, 35388.0, 9362.0, 8.310744285583496, 0.14968550205230713, 0.04910622537136078, -0.09355398267507553, -0.10112765431404114, -0.04091654717922211, 1.0230786800384521, -0.07180343568325043, -0.2546367645263672, 1.47509765625, 1.41650390625, 0.0577545166015625, 1.49267578125
17048, -0.052276208996772766, 2.2848193645477295, -0.5032028555870056, -0.2004716694355011, 0.006288816221058369, 25.42772674560547, -0.41830843687057495, 0.01318056508898735, 3.2949538230895996, -0.6720340251922607, -1.1252646446228027, 0.0750962570309639, 0.8490226301542682, -1.0052657584340068, -0.840211445550984, 9362.0, 30146.0, 35388.0, 9362.0, 8.310744285583496, 0.016905302181839943, 0.11315573751926422, -0.21967831254005432, -0.10254821181297302, -0.041405580937862396, 1.022435188293457, -0.07180343568325043, -0.2546367645263672, 1.47509765625, 1.41650390625, 0.0577545166015625, 1.49267578125
17058, -0.05132456496357918, 2.2832231521606445, -0.5040245652198792, -0.2004716694355011, 0.006288816221058369, 25.42772674560547, -0.41830843687057495, 0.01318056508898735, 3.2949538230895996, -0.6720516085624695, -1.1252374649047852, 0.07510671764612198, 0.8454493201475858, -0.9895068619580627, -0.8389872069595693, 9362.0, 30146.0, 35388.0, 9362.0, 8.310744285583496, 0.02787257730960846, -0.015320232138037682, 0.10780127346515656, -0.1012941226363182, -0.040553558617830276, 1.0227607488632202, -0.07180343568325043, -0.2546367645263672, 1.47509765625, 1.51171875, 0.21942138671875, 1.49267578125
17068, -0.05018403381109238, 2.280923366546631, -0.5051557421684265, -0.2004716694355011, 0.006288816221058369, 25.42772674560547, -0.41830843687057495, 0.01318056508898735, 3.2949538230895996, -0.6720514893531799, -1.1252470016479492, 0.07510673999786377, 0.8480177861320486, -0.9859364568388571, -0.8373183230597611, 9362.0, 30146.0, 35388.0, 9362.0, 8.310744285583496, 0.1415218710899353, 0.25503629446029663, -0.02758200839161873, -0.10205211490392685, -0.04003141075372696, 1.0220897197723389, -0.07180343568325043, -0.2546367645263672, 1.47509765625, 1.4326171875, 0.0786895751953125, 1.49267578125
17078, -0.04921761527657509, 2.279435396194458, -0.504774808883667, -0.2004716694355011, 0.006288816221058369, 25.42772674560547, -0.41830843687057495, 0.01318056508898735, 3.2949538230895996, -0.6720231771469116, -1.1252477169036865, 0.07508743554353714, 0.848798700842628, -1.0025642508574606, -0.8451547766752185, 9362.0, 30146.0, 35388.0, 9362.0, 8.310744285583496, 0.1778988093137741, 0.23175780475139618, -0.22254909574985504, -0.10421352833509445, -0.04222977161407471, 1.0226401090621948, -0.07180343568325043, -0.2546367645263672, 1.47509765625, 1.417236328125, 0.058624267578125, 1.49267578125
17088, -0.04875781014561653, 2.275402069091797, -0.5054323673248291, -0.21752366423606873, 0.006826050579547882, 25.559696197509766, -0.4342823028564453, 0.013676618225872517, 3.303494691848755, -0.6720089912414551, -1.1252602338790894, 0.07509488612413406, 0.8565866586969738, -1.0088854515032608, -0.8552531764597249, 9362.0, 30146.0, 35388.0, 9362.0, 8.310744285583496, -0.06634364277124405, -0.007385993376374245, 0.05563223734498024, -0.10196593403816223, -0.039251383394002914, 1.0230019092559814, -0.07180343568325043, -0.2546367645263672, 1.47509765625, 1.513916015625, 0.224029541015625, 1.49267578125
17098, -0.04779985919594765, 2.2753918170928955, -0.5058801770210266, -0.21752366423606873, 0.006826050579547882, 25.559696197509766, -0.4342823028564453, 0.013676618225872517, 3.303494691848755, -0.6720249056816101, -1.1252381801605225, 0.07508811354637146, 0.847197661091768, -1.006356753761935, -0.8447328238718494, 9362.0, 30146.0, 35388.0, 9362.0, 8.310744285583496, 0.012317722663283348, -0.1512572020292282, 0.3057544529438019, -0.10183459520339966, -0.04085886850953102, 1.023115634918213, -0.07180343568325043, -0.2546367645263672, 1.47509765625, 1.491943359375, 0.179656982421875, 1.493408203125
17108, -0.04724676534533501, 2.276273488998413, -0.5052342414855957, -0.21752366423606873, 0.006826050579547882, 25.559696197509766, -0.4342823028564453, 0.013676618225872517, 3.303494691848755, -0.6720194220542908, -1.1252434253692627, 0.0750994011759758, 0.8482030572644732, -1.0022027180061457, -0.8410017304726308, 9362.0, 30146.0, 35388.0, 9362.0, 8.310744285583496, 0.2007952332496643, -0.05448627099394798, -0.01724410429596901, -0.0989043340086937, -0.04272398352622986, 1.0220478773117065, -0.07180343568325043, -0.2546367645263672, 1.47509765625, 1.4677734375, 0.1347198486328125, 1.493408203125
17118, -0.04661770164966583, 2.277465343475342, -0.5054457783699036, -0.21752366423606873, 0.006826050579547882, 25.559696197509766, -0.4342823028564453, 0.013676618225872517, 3.303494691848755, -0.6720303297042847, -1.1252484321594238, 0.07508505880832672, 0.850069448438475, -1.0044282991369755, -0.8447038236682896, 9362.0, 30146.0, 35388.0, 9362.0, 8.310744285583496, -0.02306954190135002, -0.34915775060653687, -0.28844964504241943, -0.10254468023777008, -0.03950859233736992, 1.0215003490447998, -0.07180343568325043, -0.2546367645263672, 1.47509765625, 1.442138671875, 0.0926361083984375, 1.493408203125
17138, -0.04624846577644348, 2.2773756980895996, -0.5075084567070007, -0.21752366423606873, 0.006826050579547882, 25.559696197509766, -0.4342823028564453, 0.013676618225872517, 3.303494691848755, -0.6720229387283325, -1.1252474784851074, 0.07508525997400284, 0.8511573394100894, -0.9994293993581209, -0.8438420809796621, 9362.0, 30146.0, 35388.0, 9362.0, 8.310744285583496, 0.0858066976070404, -0.14097635447978973, 0.1087389811873436, -0.10272326320409775, -0.04252391308546066, 1.0225683450698853, -0.07991369813680649, 0.0052013397216796875, 1.496337890625, 1.442138671875, 0.0926361083984375, 1.493408203125
17148, -0.04632895812392235, 2.2798070907592773, -0.505857527256012, -0.24429765343666077, 0.007668003439903259, 25.758291244506836, -0.4581835865974426, 0.014383585192263126, 3.3161416053771973, -0.6719914078712463, -1.1252535581588745, 0.07509647309780121, 0.856067638115557, -1.004869392074795, -0.8542985879580816, 9362.0, 30146.0, 35388.0, 9362.0, 8.310744285583496, 0.0025758822448551655, -0.34938037395477295, -0.23480147123336792, -0.1023142859339714, -0.042084015905857086, 1.0238769054412842, -0.07991369813680649, 0.0052013397216796875, 1.496337890625, 1.43994140625, 0.089324951171875, 1.493408203125
17158, -0.04683989658951759, 2.2831509113311768, -0.5064285397529602, -0.24429765343666077, 0.007668003439903259, 25.758291244506836, -0.4581835865974426, 0.014383585192263126, 3.3161416053771973, -0.6720350384712219, -1.1252527236938477, 0.07509307563304901, 0.8538829291602914, -0.9958707746955042, -0.8396160541205826, 9362.0, 30146.0, 35388.0, 9362.0, 8.310744285583496, -0.10104255378246307, 0.2677716612815857, 0.26309436559677124, -0.10177981853485107, -0.04036429151892662, 1.0232477188110352, -0.07991369813680649, 0.0052013397216796875, 1.496337890625, 1.52783203125, 0.253387451171875, 1.49560546875
17168, -0.047477222979068756, 2.2801499366760254, -0.5040877461433411, -0.24429765343666077, 0.007668003439903259, 25.758291244506836, -0.4581835865974426, 0.014383585192263126, 3.3161416053771973, -0.6720100045204163, -1.1252609491348267, 0.07509930431842804, 0.8515997371043157, -1.0038685510947403, -0.8506917283833889, 9362.0, 30146.0, 35388.0, 9362.0, 8.310744285583496, 0.039491817355155945, -0.017668267711997032, 0.0001251643116120249, -0.10195276886224747, -0.04051889479160309, 1.0206513404846191, -0.07991369813680649, 0.0052013397216796875, 1.496337890625, 1.431884765625, 0.07769775390625, 1.49560546875
17178, -0.0477275550365448, 2.279299736022949, -0.5037192702293396, -0.24429765343666077, 0.007668003439903259, 25.758291244506836, -0.4581835865974426, 0.014383585192263126, 3.3161416053771973, -0.6720234751701355, -1.125250220298767, 0.07510257512331009, 0.8506383600853336, -1.0071596341058182, -0.842830103320964, 9362.0, 30146.0, 35388.0, 9362.0, 8.310744285583496, 0.2031690776348114, -0.07353107631206512, 0.0816197618842125, -0.10293025523424149, -0.04048576578497887, 1.020948052406311, -0.07991369813680649, 0.0052013397216796875, 1.496337890625, 1.423828125, 0.066802978515625, 1.49560546875
17188, -0.04737437516450882, 2.2806503772735596, -0.5047816038131714, -0.26294443011283875, 0.008252721279859543, 25.891111373901367, -0.4741430878639221, 0.014853945933282375, 3.3245701789855957, -0.6720428466796875, -1.1252429485321045, 0.07507254183292389, 0.8508084207654335, -0.9861779617551463, -0.8361854483629776, 9362.0, 30146.0, 35388.0, 9362.0, 8.310744285583496, -0.013322051614522934, -0.1161717027425766, -0.037082452327013016, -0.10320938378572464, -0.039468903094530106, 1.023167610168457, -0.07991369813680649, 0.0052013397216796875, 1.496337890625, 1.5380859375, 0.2755889892578125, 1.49560546875
17198, -0.04691137745976448, 2.281316041946411, -0.5045667886734009, -0.26294443011283875, 0.008252721279859543, 25.891111373901367, -0.4741430878639221, 0.014853945933282375, 3.3245701789855957, -0.6720269918441772, -1.1252508163452148, 0.07507568597793579, 0.8536372387414075, -1.0017265121647085, -0.8447294850564683, 9362.0, 30146.0, 35388.0, 9362.0, 8.310744285583496, -0.04058213159441948, 0.2541675567626953, -0.06626877933740616, -0.10247456282377243, -0.03903031721711159, 1.0240074396133423, -0.07991369813680649, 0.0052013397216796875, 1.496337890625, 1.453125, 0.1099090576171875, 1.49560546875
17208, -0.0463319793343544, 2.278275728225708, -0.503760039806366, -0.2725071609020233, 0.008552159182727337, 25.9576473236084, -0.4821319580078125, 0.015089401043951511, 3.328982353210449, -0.6720573306083679, -1.1252483129501343, 0.07508385181427002, 0.848036743069136, -0.9856369680314856, -0.8419003888181794, 9362.0, 30146.0, 35388.0, 9362.0, 8.310744285583496, -0.10651395469903946, 0.05078578740358353, 0.0404086671769619, -0.1045464277267456, -0.04021911695599556, 1.0240423679351807, -0.07991369813680649, 0.0052013397216796875, 1.496337890625, 1.50146484375, 0.1985626220703125, 1.49560546875
17218, -0.04697898030281067, 2.2787773609161377, -0.5032916069030762, -0.2725071609020233, 0.008552159182727337, 25.9576473236084, -0.4821319580078125, 0.015089401043951511, 3.328982353210449, -0.6720266938209534, -1.1252416372299194, 0.07509024441242218, 0.8459209374185716, -1.0043798137138253, -0.8453387894801311, 9362.0, 30146.0, 35388.0, 9362.0, 8.310744285583496, 0.18494002521038055, 0.37567996978759766, 0.14832258224487305, -0.10603530704975128, -0.04002583026885986, 1.020122766494751, -0.07991369813680649, 0.0052013397216796875, 1.496337890625, 1.462646484375, 0.125823974609375, 1.49560546875
17248, -0.04417154937982559, 2.2777163982391357, -0.503900408744812, -0.292111337184906, 0.0091650215908885, 26.090974807739258, -0.49806344509124756, 0.01555083878338337, 3.337238073348999, -0.672036349773407, -1.1252509355545044, 0.07507606595754623, 0.8524760600257509, -1.0061353909953539, -0.8417934192077725, 9362.0, 30146.0, 35388.0, 9362.0, 8.310744285583496, -0.08357560634613037, -0.07147873193025589, -0.004077574238181114, -0.10395365953445435, -0.04152164235711098, 1.0231224298477173, -0.07826536148786545, -0.09335899353027344, 1.48828125, 1.461181640625, 0.1233062744140625, 1.49560546875
17258, -0.04462637007236481, 2.277489423751831, -0.5021397471427917, -0.292111337184906, 0.0091650215908885, 26.090974807739258, -0.49806344509124756, 0.01555083878338337, 3.337238073348999, -0.6720194220542908, -1.1252411603927612, 0.07510901987552643, 0.8486527252451502, -1.0023835808338788, -0.845956710771234, 9362.0, 30146.0, 35388.0, 9362.0, 8.310744285583496, 0.0007584739360027015, 0.06599237769842148, 0.3029577434062958, -0.10454153269529343, -0.04182529076933861, 1.0231842994689941, -0.07826536148786545, -0.09335899353027344, 1.48828125, 1.47509765625, 0.147857666015625, 1.49560546875
17268, -0.045410335063934326, 2.2765440940856934, -0.4994558095932007, -0.3021523356437683, 0.00947828870266676, 26.15776252746582, -0.5060356259346008, 0.015776054933667183, 3.3415274620056152, -0.6720239520072937, -1.1252397298812866, 0.07509220391511917, 0.8443911769044894, -1.0069227304390438, -0.8419358362099326, 9362.0, 30146.0, 35388.0, 9362.0, 8.310744285583496, -0.11640103906393051, 0.1105571910738945, -0.14740058779716492, -0.10085682570934296, -0.039997268468141556, 1.0221550464630127, -0.07826536148786545, -0.09335899353027344, 1.48828125, 1.47509765625, 0.147857666015625, 1.49560546875
17278, -0.04660431295633316, 2.275219202041626, -0.5012050867080688, -0.3021523356437683, 0.00947828870266676, 26.15776252746582, -0.5060356259346008, 0.015776054933667183, 3.3415274620056152, -0.6720288991928101, -1.125252604484558, 0.07507776468992233, 0.8539458958884112, -1.0039763522751741, -0.8418244441099377, 9362.0, 30146.0, 35388.0, 9362.0, 8.310744285583496, -0.2603709101676941, 0.23005901277065277, -0.002321267034858465, -0.10354393720626831, -0.040672216564416885, 1.021558403968811, -0.07826536148786545, -0.09335899353027344, 1.48828125, 1.49267578125, 0.1811065673828125, 1.494873046875
17288, -0.048020120710134506, 2.274658203125, -0.5020062327384949, -0.3123527467250824, 0.00979610811918974, 26.22463607788086, -0.5140014290809631, 0.01600700616836548, 3.3458056449890137, -0.6720024347305298, -1.1252578496932983, 0.07508733123540878, 0.8580389592915345, -1.0033541465192002, -0.8532438370171583, 9362.0, 30146.0, 35388.0, 9362.0, 8.310744285583496, -0.0809021145105362, -0.10974293202161789, 0.2209690511226654, -0.10283974558115005, -0.037979356944561005, 1.0186799764633179, -0.07826536148786545, -0.09335899353027344, 1.48828125, 1.4853515625, 0.1669921875, 1.494873046875
17298, -0.04942568764090538, 2.2734785079956055, -0.4996454417705536, -0.3123527467250824, 0.00979610811918974, 26.22463607788086, -0.5140014290809631, 0.01600700616836548, 3.3458056449890137, -0.6720219254493713, -1.1252540349960327, 0.07507935166358948, 0.8480051205292298, -1.0054462472477042, -0.8387579925431339, 9362.0, 30146.0, 35388.0, 9362.0, 8.310744285583496, 0.1721690148115158, 0.3684568703174591, 0.2481570541858673, -0.10531266033649445, -0.038698285818099976, 1.0210213661193848, -0.07826536148786545, -0.09335899353027344, 1.48828125, 1.44873046875, 0.102813720703125, 1.494873046875
17308, -0.04924556985497475, 2.272273063659668, -0.5004352331161499, -0.32271215319633484, 0.010118630714714527, 26.291587829589844, -0.5219394564628601, 0.01624649576842785, 3.3495497703552246, -0.6720150709152222, -1.1252464056015015, 0.0750880241394043, 0.8462646325253147, -1.0033588128116264, -0.8549626127834528, 9362.0, 30146.0, 35388.0, 9362.0, 8.310744285583496, -0.034188948571681976, 0.064992256462574, 0.04450328275561333, -0.1025610864162445, -0.04317822307348251, 1.0236533880233765, -0.07826536148786545, -0.09335899353027344, 1.48828125, 1.44873046875, 0.102813720703125, 1.494873046875
17318, -0.04922957718372345, 2.2717792987823486, -0.5002259612083435, -0.32271215319633484, 0.010118630714714527, 26.291587829589844, -0.5219394564628601, 0.01624649576842785, 3.3495497703552246, -0.6719986200332642, -1.1252598762512207, 0.0750797912478447, 0.8598573431584565, -1.0050109528003475, -0.851703953881145, 9362.0, 30146.0, 35388.0, 9362.0, 8.310744285583496, 0.02229692041873932, -0.17236842215061188, -0.052932146936655045, -0.10053594410419464, -0.04306774586439133, 1.0217268466949463, -0.07826536148786545, -0.09335899353027344, 1.48828125, 1.4794921875, 0.155975341796875, 1.494873046875
17338, -0.04843498021364212, 2.2719171047210693, -0.5001710653305054, -0.32271215319633484, 0.010118630714714527, 26.291587829589844, -0.5219394564628601, 0.01624649576842785, 3.3495497703552246, -0.6720491647720337, -1.125240683555603, 0.07507778704166412, 0.8464144876668913, -0.9843329785494177, -0.8371069951083121, 9362.0, 30146.0, 35388.0, 9362.0, 8.310744285583496, -0.03417721763253212, 0.045415040105581284, 0.09267798811197281, -0.1037430539727211, -0.039943765848875046, 1.021750569343567, -0.08468211442232132, -0.06647872924804688, 1.490478515625, 1.47802734375, 0.1532745361328125, 1.494873046875
17348, -0.049500346183776855, 2.2707161903381348, -0.49860724806785583, -0.34390774369239807, 0.010778159834444523, 26.425739288330078, -0.5378350615501404, 0.016728749498724937, 3.357916831970215, -0.6720222234725952, -1.1252315044403076, 0.07508386671543121, 0.8495323845848665, -1.0121868304293002, -0.8393115745966958, 9362.0, 30146.0, 35388.0, 9362.0, 8.310744285583496, 0.14807255566120148, 0.05739264562726021, 0.14291180670261383, -0.10666931420564651, -0.04053385183215141, 1.0248587131500244, -0.08468211442232132, -0.06647872924804688, 1.490478515625, 1.47802734375, 0.1532745361328125, 1.494873046875
17358, -0.04860930144786835, 2.2704834938049316, -0.49941176176071167, -0.34390774369239807, 0.010778159834444523, 26.425739288330078, -0.5378350615501404, 0.016728749498724937, 3.357916831970215, -0.6719966530799866, -1.125241756439209, 0.0751037523150444, 0.8532352475786208, -1.0090966964652068, -0.8615094091996227, 9362.0, 30146.0, 35388.0, 9362.0, 8.310744285583496, -0.21813972294330597, 0.34442171454429626, 0.5705236196517944, -0.10197208821773529, -0.039569463580846786, 1.0226759910583496, -0.08468211442232132, -0.06647872924804688, 1.490478515625, 1.47802734375, 0.1532745361328125, 1.5
17368, -0.05048011615872383, 2.2696549892425537, -0.4990546405315399, -0.354744017124176, 0.01111515611410141, 26.492942810058594, -0.5457927584648132, 0.016970137134194374, 3.3624587059020996, -0.6719969511032104, -1.1252541542053223, 0.07508464902639389, 0.855752241583017, -1.0107698719986615, -0.8524166776291794, 9362.0, 30146.0, 35388.0, 9362.0, 8.310744285583496, -0.02053430676460266, -0.012504929676651955, 0.25434768199920654, -0.10486873984336853, -0.0413668155670166, 1.021329641342163, -0.08468211442232132, -0.06647872924804688, 1.490478515625, 1.49267578125, 0.1811065673828125, 1.5
