timeTick, roll, pitch, yaw, stateX, stateY, stateZ, stateVX, stateVY, stateVZ, otX0, otY0, otZ0, otRoll0, otPitch0, otYaw0, left wing, pitch motor, yaw motor, right wing, voltage, roll rate, pitch rate, yaw rate, A_x, A_y, A_z, current, i_raw, v_raw, airflow_voltage, airflow_speed, pot_Pitch, voltage_nKF, kFFx, state, State, volt_KF
31167, -0.0017970249755308032, -0.002370817121118307, 0.042295631021261215, 0, 0, 0, 0, 0, 0, -0.8209383487701416, -0.9671130180358887, 0.0578325092792511, -1.5678462740381738, 0.18271929581098334, 179.35492702504732, 0, 0, 0, 0, 0, 0, 0, 0, 0, 0, 0, 0, 0, 0, 0, 0, 0, 0, 0, 0, 0, 0
31177, -0.001021569943986833, -7.036032184259966e-05, 0.03643465042114258, 0.0, 0.0, 1.136318314820528e-05, 9.398571165775138e-08, 7.134818247322983e-08, 0.00227262987755239, -0.8207034468650818, -0.9668480753898621, 0.05733200162649155, -1.1393828642946378, 0.5472397897214307, 179.34654102687512, 9362.0, 30146.0, 35388.0, 9362.0, 0, 0.32556861639022827, -0.44396013021469116, -13.089425086975098, -0.0786314457654953, -0.03627209737896919, 1.0219500064849854, 0, 0, 0, 0, 0, 0, 0, 0, 0, 0, 0
31187, -0.0014221260789781809, 0.002518785884603858, -0.003949272446334362, 2.167651658169234e-08, 1.6455480533750233e-08, 4.5014137867838144e-05, 4.153920144744916e-06, 3.1896868222247576e-06, 0.004457949195057154, -0.8209406733512878, -0.967093288898468, 0.05780693143606186, -1.5469873532979554, 0.17366311766784293, 179.354760973186, 9362.0, 30146.0, 35388.0, 9362.0, 0, 0.1935129314661026, 0.3190302848815918, 5.00729513168335, -0.08558221906423569, -0.0328352227807045, 1.0242083072662354, 0, 0, 0, 1.702880859375, 0.6757049560546875, 0, 0, 0, 0, 0, 0
31197, -0.0009971515974029899, 0.0025023547932505608, -0.017671620473265648, 6.38259081142678e-08, 5.729475205384915e-08, 0.00010061549255624413, 4.177582923148293e-06, 4.99343059345847e-06, 0.006662724073976278, -0.8199007511138916, -0.9666441679000854, 0.056565918028354645, -0.5467470433579571, 1.0581168870588726, 179.0484016471212, 9362.0, 30146.0, 35388.0, 9362.0, 0, -0.5368037819862366, 0.9182966351509094, 15.739578247070312, -0.07915382087230682, -0.027266252785921097, 1.0225831270217896, 0, 0, 0, 1.698486328125, 0.6639404296875, 1.491943359375, 0, 0, 0, 0, 0
31207, -0.0010183996055275202, -0.0007393676787614822, 0.011231256648898125, 8.351111091542407e-08, 1.1970358571034012e-07, 0.00017926504369825125, -2.392538362983032e-07, 7.471557182725519e-06, 0.009067579172551632, -0.8206857442855835, -0.967433750629425, 0.05781953036785126, -1.5182693516019012, 0.2697295435638978, 179.13679108492073, 9362.0, 30146.0, 35388.0, 9362.0, 0, -0.497669517993927, 0.6500754952430725, 4.556283473968506, -0.06544432044029236, -0.030896097421646118, 1.0246148109436035, 0, 0, 0, 1.742431640625, 0.7872772216796875, 1.491943359375, 1.74169921875, 10.0, 1.0, 10.0, 1.6713594198226929
31217, -0.00235823099501431, -0.004398415330797434, 0.045443277806043625, 5.919272894061578e-08, 2.0316409177212336e-07, 0.0002815320040099323, -4.494130280363606e-06, 9.219092135026585e-06, 0.011386222206056118, -0.8198820352554321, -0.9666280150413513, 0.05654696747660637, -0.5267161546153485, 1.0809564812245753, 179.06546722958555, 9362.0, 30146.0, 35388.0, 9362.0, 0, 0.5216375589370728, -0.45918020606040955, -13.959329605102539, -0.06525328755378723, -0.036734677851200104, 1.0242139101028442, 0, 0, 0, 1.69921875, 0.665863037109375, 1.490478515625, 1.702880859375, 10.0, 1.0, 10.0, 1.6715143918991089
31227, -0.0020593053195625544, -0.003980085253715515, 0.03266128525137901, 2.0731892647063432e-08, 3.0428481068156543e-07, 0.00040721928235143423, -3.048024836971308e-06, 1.1061039913329296e-05, 0.013751625083386898, -0.8207848072052002, -0.9674322009086609, 0.05773274227976799, -1.5480502472766333, 0.20196109383024918, 179.1423543280019, 9362.0, 30146.0, 35388.0, 9362.0, 0, 0.9014426469802856, -0.5163818001747131, -10.417766571044922, -0.08082646876573563, -0.03890903294086456, 1.0258417129516602, 0, 0, 0, 1.673583984375, 0.598541259765625, 1.490478515625, 1.711669921875, 10.0, 1.0, 10.0, 1.6715255975723267
31237, -0.00038242683513090014, -0.002035941695794463, -0.002077404409646988, 2.878408267292798e-08, 4.3559387563618657e-07, 0.0005563894519582391, 4.6423824642261025e-06, 1.5186874406936113e-05, 0.016082793474197388, -0.820726215839386, -0.9674404859542847, 0.0578017383813858, -1.5355554504589766, 0.230258557661557, 179.13941187100295, 9362.0, 30146.0, 35388.0, 9362.0, 0, 0.30459439754486084, 0.42012667655944824, 6.969404697418213, -0.09178806096315384, -0.03613174706697464, 1.0251117944717407, 0, 0, 0, 1.69921875, 0.665863037109375, 1.493408203125, 1.67578125, 10.0, 1.0, 10.0, 1.671610713005066
31247, 0.0015875002136453986, -0.0006714979535900056, -0.012238651514053345, 1.1014748224624782e-07, 6.055656740500126e-07, 0.0007298415875993669, 1.1546959285624325e-05, 1.872918801382184e-05, 0.018608031794428825, -0.8199166655540466, -0.9666498899459839, 0.05657176300883293, -0.5568743095755527, 1.0480770572951883, 179.0504406231896, 9362.0, 30146.0, 35388.0, 9362.0, 0, -0.6644474864006042, 0.36255112290382385, 15.124458312988281, -0.08179004490375519, -0.026554444804787636, 1.024210810661316, 0, 0, 0, 1.70068359375, 0.6697845458984375, 1.493408203125, 1.713134765625, 10.0, 1.0, 10.0, 1.6716169118881226
31257, 0.00045143169700168073, 0.00015557743608951569, 0.02125648409128189, 2.434835266740265e-07, 7.962128734106955e-07, 0.000928217894397676, 1.5061846170283388e-05, 1.9315044482937083e-05, 0.021067628636956215, -0.8199539184570312, -0.9666644930839539, 0.05659068748354912, -0.5649251528080629, 1.0123331337404977, 179.03131685780906, 9362.0, 30146.0, 35388.0, 9362.0, 0, -0.4648016393184662, 0.032953884452581406, 1.976537823677063, -0.06727606058120728, -0.028060443699359894, 1.0267592668533325, 0, 0, 0, 1.645751953125, 0.5281219482421875, 1.4970703125, 1.68310546875, 10.0, 1.0, 10.0, 1.671509861946106
31267, -0.0014070196775719523, -0.002091983798891306, 0.04736518859863281, 3.999913360530627e-07, 9.754319307830883e-07, 0.001151158707216382, 1.6206047803279944e-05, 1.6578165741520934e-05, 0.0235209409147501, -0.8207327723503113, -0.9674555063247681, 0.05777987092733383, -1.549841178084733, 0.21880794909893098, 179.1422735972548, 9362.0, 30146.0, 35388.0, 9362.0, 8.191736221313477, 0.6031339168548584, -0.7224050164222717, -13.746602058410645, -0.06469704955816269, -0.031924862414598465, 1.024151086807251, -0.06467655301094055, 0.014162063598632812, 1.4970703125, 1.660400390625, 0.5649566650390625, 1.4970703125, 1.64208984375, 10.0, 1.0, 10.0, 1.6715164184570312
31277, -0.00010617199586704373, -0.0005208012880757451, 0.03905758261680603, 5.606871127383783e-07, 1.1372490007488523e-06, 0.0013989913277328014, 1.603260898264125e-05, 1.586687722010538e-05, 0.02604595199227333, -0.819895327091217, -0.9666842222213745, 0.05656393989920616, -0.5629997709216918, 1.0703366225419302, 179.05393507132308, 9362.0, 30146.0, 35388.0, 9362.0, 8.191736221313477, 0.5371867418289185, -0.6327303647994995, -11.34650993347168, -0.07932348549365997, -0.04059269279241562, 1.024556279182434, -0.06467655301094055, 0.014162063598632812, 1.4970703125, 1.6142578125, 0.4512786865234375, 1.4912109375, 1.634033203125, 10.0, 1.0, 10.0, 1.671541452407837
31287, 0.0011509087635204196, 0.00010099781502503902, 0.010203390382230282, 7.393333589789108e-07, 1.3082615168968914e-06, 0.0016709868796169758, 1.9633818737929687e-05, 1.828261520131491e-05, 0.028353555127978325, -0.8206640481948853, -0.9668469429016113, 0.057345911860466, -1.1274072573939973, 0.5702213660435689, 179.33062299096687, 9362.0, 30146.0, 35388.0, 9362.0, 8.191736221313477, -0.1512845903635025, -0.16095055639743805, 0.8513148427009583, -0.0885951817035675, -0.03637048602104187, 1.0240451097488403, -0.06467655301094055, 0.014162063598632812, 1.4970703125, 1.74609375, 0.7981414794921875, 1.4912109375, 1.724853515625, 10.0, 1.0, 10.0, 1.6716172695159912
31297, 0.0014100584667176008, 0.0006504922057501972, -0.0032491630408912897, 9.402407954439695e-07, 1.4920224202796817e-06, 0.0019667763262987137, 2.0521336409728974e-05, 1.8415261365589686e-05, 0.030804721638560295, -0.8199242949485779, -0.9666503071784973, 0.05662884563207626, -0.5412850304705059, 1.0483433193200256, 179.04283712684997, 9362.0, 30146.0, 35388.0, 9362.0, 8.191736221313477, -0.31842872500419617, 1.1665507555007935, 12.558406829833984, -0.0852990671992302, -0.03616204857826233, 1.0227115154266357, -0.06467655301094055, 0.014162063598632812, 1.4970703125, 1.65673828125, 0.55560302734375, 1.48974609375, 1.69921875, 10.0, 1.0, 10.0, 1.671535611152649
31307, 0.0008474847418256104, -0.0029263764154165983, 0.0052219172939658165, 1.144570205724449e-06, 1.6660808341839584e-06, 0.0022868383675813675, 2.0321034753578715e-05, 1.6385552953579463e-05, 0.03320808708667755, -0.8198980093002319, -0.9666401743888855, 0.05655253678560257, -0.5365476955824757, 1.0735157711623344, 179.04391430577044, 9362.0, 30146.0, 35388.0, 9362.0, 8.191736221313477, -0.1992441564798355, 0.29949069023132324, 11.741789817810059, -0.07328946888446808, -0.029489677399396896, 1.024566411972046, -0.06467655301094055, 0.014162063598632812, 1.4970703125, 1.682373046875, 0.6212310791015625, 1.48974609375, 1.658935546875, 10.0, 1.0, 10.0, 1.671560525894165
31317, 0.0022042805794626474, -0.003359641646966338, 0.03802606090903282, 1.3420805089481291e-06, 1.8175824152422138e-06, 0.0026304149068892, 1.9324930690345354e-05, 1.3937040421296842e-05, 0.03550761938095093, -0.8198831081390381, -0.9666171669960022, 0.05657576024532318, -0.5256572722995752, 1.0608826679921606, 179.03441738438426, 9362.0, 30146.0, 35388.0, 9362.0, 8.191736221313477, -0.08846784383058548, 0.10427597910165787, -4.328723430633545, -0.06048664078116417, -0.030723635107278824, 1.0245667695999146, -0.06467655301094055, 0.014162063598632812, 1.4970703125, 1.68017578125, 0.6156768798828125, 1.493408203125, 1.72412109375, 10.0, 1.0, 10.0, 1.6715136766433716
31327, 0.0003629240090958774, -0.006915648467838764, 0.05106114223599434, 1.561004410177702e-06, 1.9495198557706317e-06, 0.002997660543769598, 2.4478888008161448e-05, 1.2395722478686366e-05, 0.037941910326480865, -0.8199157118797302, -0.966636061668396, 0.05653636157512665, -0.5430891519313005, 1.051367791037336, 179.0484650467501, 9362.0, 30146.0, 35388.0, 9362.0, 8.191736221313477, 0.6341714859008789, -0.5969881415367126, -13.36790943145752, -0.06622432172298431, -0.032986145466566086, 1.0231175422668457, -0.06467655301094055, 0.014162063598632812, 1.4970703125, 1.73876953125, 0.776458740234375, 1.493408203125, 1.6787109375, 10.0, 1.0, 10.0, 1.6716219186782837
31337, 0.001179817714728415, -0.005549699068069458, 0.03461436554789543, 1.8352493498241529e-06, 2.054178821708774e-06, 0.0033887075260281563, 3.051535713893827e-05, 8.611987141193822e-06, 0.040267907083034515, -0.8198353052139282, -0.9666755795478821, 0.056569501757621765, -0.5653451339873794, 1.0682664262458843, 179.05648530461082, 9362.0, 30146.0, 35388.0, 9362.0, 8.191736221313477, 0.3666691184043884, -0.3925389051437378, -7.651307106018066, -0.08281006664037704, -0.036283545196056366, 1.024576187133789, -0.06467655301094055, 0.014162063598632812, 1.4970703125, 1.682373046875, 0.6212310791015625, 1.493408203125, 1.716796875, 10.0, 1.0, 10.0, 1.6717206239700317
31347, 0.0014089400647208095, -0.002043980173766613, 0.00417314050719142, 2.2009812710166443e-06, 2.137173851224361e-06, 0.0038027504924684763, 4.2576768464641646e-05, 7.95095729699824e-06, 0.04254107177257538, -0.8199095129966736, -0.9666374325752258, 0.05656508728861809, -0.5425770715214123, 1.061103335710527, 179.05120750503843, 9362.0, 30146.0, 35388.0, 9362.0, 8.191736221313477, 0.12739010155200958, 0.5885867476463318, 9.41734504699707, -0.08854959905147552, -0.03543384373188019, 1.023801565170288, -0.06467655301094055, 0.014162063598632812, 1.4970703125, 1.730712890625, 0.7531585693359375, 1.493408203125, 1.7021484375, 10.0, 1.0, 10.0, 1.6718097925186157
31357, 0.0015264117391780019, -0.00038208503974601626, -0.003992737736552954, 2.6754485134006245e-06, 2.2063611595513066e-06, 0.004240375943481922, 5.216619683778845e-05, 5.870847871847218e-06, 0.044984426349401474, -0.8198837041854858, -0.966633141040802, 0.05652661621570587, -0.5350124902188205, 1.0683064910958535, 179.06042641163214, 9362.0, 30146.0, 35388.0, 9362.0, 8.191736221313477, -0.5908753275871277, 0.8282902240753174, 14.50811767578125, -0.08013945072889328, -0.02624318189918995, 1.0245976448059082, -0.06467655301094055, 0.014162063598632812, 1.4970703125, 1.723388671875, 0.7321929931640625, 1.48828125, 1.686767578125, 10.0, 1.0, 10.0, 1.6720119714736938
31367, 0.0012612811988219619, -0.0040826029144227505, 0.02272387407720089, 3.2150355764315464e-06, 2.252715603390243e-06, 0.0047021592035889626, 5.5681619414826855e-05, 3.394555733393645e-06, 0.04737263172864914, -0.8198671340942383, -0.9666473865509033, 0.056588031351566315, -0.534581154815414, 1.0799408864054953, 179.04540957469797, 9362.0, 30146.0, 35388.0, 9362.0, 8.191736221313477, -0.22621425986289978, 0.027231864631175995, 3.0157432556152344, -0.0691639706492424, -0.02773186005651951, 1.0241384506225586, -0.06859836727380753, -0.10231781005859375, 1.487548828125, 1.728515625, 0.7468719482421875, 1.48828125, 1.644287109375, 10.0, 1.0, 10.0, 1.672234296798706
31377, 0.0009957387810572982, -0.005717045161873102, 0.04867452755570412, 3.7752038224425633e-06, 2.2732654088031268e-06, 0.005188199691474438, 5.65123773412779e-05, 7.2647867455089e-07, 0.04983588308095932, -0.8206856846809387, -0.9668548107147217, 0.05728277564048767, -1.1390332823662954, 0.5627335998767933, 179.33602774721336, 9362.0, 30146.0, 35388.0, 9362.0, 8.191736221313477, 0.21318136155605316, -1.1181800365447998, -11.887531280517578, -0.0638631284236908, -0.031441763043403625, 1.023266315460205, -0.06859836727380753, -0.10231781005859375, 1.487548828125, 1.670654296875, 0.59100341796875, 1.49267578125, 1.7021484375, 10.0, 1.0, 10.0, 1.6723148822784424
31387, 0.0004107881395611912, -0.002206798642873764, 0.04293515160679817, 4.376106971903937e-06, 2.269491915285471e-06, 0.005698130000382662, 6.373532232828438e-05, -1.4674578778794967e-06, 0.052150577306747437, -0.8208941221237183, -0.9671258330345154, 0.05781750753521919, -1.5597943313787936, 0.20452274384228986, 179.3538356067539, 9362.0, 30146.0, 35388.0, 9362.0, 8.191736221313477, 0.4911583662033081, -0.47628092765808105, -11.734935760498047, -0.0762597918510437, -0.03820955753326416, 1.0235294103622437, -0.06859836727380753, -0.10231781005859375, 1.487548828125, 1.69921875, 0.665863037109375, 1.49267578125, 1.711669921875, 10.0, 1.0, 10.0, 1.6723003387451172
31397, 0.0006505818455480039, 0.000712288951035589, 0.010142287239432335, 5.063531261839671e-06, 2.2461401840701e-06, 0.006230869330465794, 7.361173629760742e-05, -3.1812071483727777e-06, 0.05439772829413414, -0.8198627233505249, -0.9666522145271301, 0.05656224489212036, -0.552998907614597, 1.0516238712508255, 179.0593149182048, 9362.0, 30146.0, 35388.0, 9362.0, 8.191736221313477, 0.31753236055374146, 0.43156057596206665, 2.1042263507843018, -0.08451086282730103, -0.04187577962875366, 1.0250554084777832, -0.06859836727380753, -0.10231781005859375, 1.487548828125, 1.72998046875, 0.7509765625, 1.49560546875, 1.673583984375, 10.0, 1.0, 10.0, 1.6721980571746826
31407, 0.002226821379736066, -0.0008320323540829122, -0.001667972537688911, 5.8189925766782835e-06, 2.2107424229034223e-06, 0.006786508020013571, 7.736140105407685e-05, -3.911153271474177e-06, 0.05673041194677353, -0.8198870420455933, -0.9666166305541992, 0.05652938783168793, -0.519098140284673, 1.081448921894122, 179.058885011024, 9362.0, 30146.0, 35388.0, 9362.0, 8.191736221313477, -0.3883862793445587, 0.4254888892173767, 10.280513763427734, -0.08430261164903641, -0.034895140677690506, 1.0266036987304688, -0.06859836727380753, -0.10231781005859375, 1.487548828125, 1.726318359375, 0.7405853271484375, 1.49560546875, 1.689697265625, 10.0, 1.0, 10.0, 1.6724013090133667
31417, 0.0020795571617782116, -0.0013090195134282112, -0.0018219093326479197, 6.586351901205489e-06, 2.16591615753714e-06, 0.007366499863564968, 7.617879600729793e-05, -5.123464234202402e-06, 0.059268414974212646, -0.8198965787887573, -0.9666500687599182, 0.05657096207141876, -0.5367645091044524, 1.0670487493152905, 179.03997950772944, 9362.0, 30146.0, 35388.0, 9362.0, 8.191736221313477, -0.3123055696487427, 0.8349005579948425, 12.421011924743652, -0.0748649537563324, -0.024029042571783066, 1.0213152170181274, -0.06859836727380753, -0.10231781005859375, 1.487548828125, 1.673583984375, 0.598541259765625, 1.49560546875, 1.70361328125, 10.0, 1.0, 10.0, 1.6724883317947388
31427, 0.0024580885656177998, -0.0030326051637530327, 0.029939064756035805, 7.355449724855134e-06, 2.0951160877302755e-06, 0.007972092367708683, 7.766222552163526e-05, -9.029906323121395e-06, 0.061850424855947495, -0.819926381111145, -0.9666662216186523, 0.05654031038284302, -0.5548694837742919, 1.0463729727756856, 179.0520563474703, 9362.0, 30146.0, 35388.0, 9362.0, 8.191736221313477, -0.2134123593568802, -0.11844518780708313, -3.096625804901123, -0.06289611756801605, -0.025626564398407936, 1.0230791568756104, -0.06859836727380753, -0.10231781005859375, 1.487548828125, 1.6904296875, 0.642578125, 1.49560546875, 1.739501953125, 10.0, 1.0, 10.0, 1.6725749969482422
31437, 0.002258275169879198, -0.0038590524345636368, 0.04671907052397728, 8.143517334247008e-06, 1.9866331513185287e-06, 0.008601084351539612, 8.001628884812817e-05, -1.2679727660724893e-05, 0.06394835561513901, -0.8198620080947876, -0.9666090607643127, 0.05649043992161751, -0.5418451317995359, 1.1075262321591026, 179.0625104237572, 9362.0, 30146.0, 35388.0, 9362.0, 8.191736221313477, 0.19058576226234436, -0.7767876386642456, -13.569783210754395, -0.06798354536294937, -0.03564846143126488, 1.0254440307617188, -0.06859836727380753, -0.10231781005859375, 1.487548828125, 1.663330078125, 0.5723114013671875, 1.493408203125, 1.664794921875, 10.0, 1.0, 10.0, 1.6727030277252197
31447, 0.0016540569486096501, -0.002130361506715417, 0.03154666721820831, 8.970234375738073e-06, 1.8383351516604307e-06, 0.009251553565263748, 8.536013774573803e-05, -1.6970774595392868e-05, 0.06614597141742706, -0.8209317326545715, -0.9671277403831482, 0.05779590830206871, -1.5780540565486911, 0.17534336710806997, 179.34871186680212, 9362.0, 30146.0, 35388.0, 9362.0, 8.191736221313477, 0.4213789105415344, -0.5619028806686401, -9.430318832397461, -0.08196493983268738, -0.03764808177947998, 1.0255733728408813, -0.06859836727380753, -0.10231781005859375, 1.487548828125, 1.716796875, 0.7138519287109375, 1.493408203125, 1.72119140625, 10.0, 1.0, 10.0, 1.6728907823562622
31467, 0.0035038329660892487, 0.0017253028927370906, -0.0060442849062383175, 9.857719305728097e-06, 1.6488360188304796e-06, 0.009925352409482002, 9.20613674679771e-05, -2.090514863084536e-05, 0.06861410290002823, -0.819854199886322, -0.9666207432746887, 0.056531839072704315, -0.5250767185322095, 1.0873679788984703, 179.04709254332076, 9362.0, 30146.0, 35388.0, 9362.0, 8.191736221313477, -0.27595284581184387, 0.7170390486717224, 14.101024627685547, -0.08931909501552582, -0.033881984651088715, 1.0258135795593262, -0.02586042694747448, -0.14711761474609375, 1.48388671875, 1.70068359375, 0.6697845458984375, 1.489013671875, 1.69775390625, 10.0, 1.0, 10.0, 1.6730268001556396
31477, 0.003952012863010168, -0.0006925312918610871, 0.021958937868475914, 9.857719305728097e-06, 1.6488360188304796e-06, 0.009925352409482002, 9.20613674679771e-05, -2.090514863084536e-05, 0.06861410290002823, -0.8198100328445435, -0.9666211605072021, 0.05652150511741638, -0.5150182966025608, 1.0832524362000413, 179.06291613073535, 9362.0, 30146.0, 35388.0, 9362.0, 8.191736221313477, -0.2581525444984436, 0.25741177797317505, 4.685901641845703, -0.07017598301172256, -0.031120702624320984, 1.0251046419143677, -0.02586042694747448, -0.14711761474609375, 1.48388671875, 1.70068359375, 0.6697845458984375, 1.489013671875, 1.69775390625, 10.0, 1.0, 10.0, 1.6729013919830322
31487, 0.002845147857442498, -0.003049146616831422, 0.050816610455513, 9.857719305728097e-06, 1.6488360188304796e-06, 0.009925352409482002, 9.20613674679771e-05, -2.090514863084536e-05, 0.06861410290002823, -0.8198994398117065, -0.9666733145713806, 0.05656978487968445, -0.5681705386573197, 1.0351524054525214, 179.0488903114726, 9362.0, 30146.0, 35388.0, 9362.0, 8.191736221313477, 0.25522834062576294, -0.43433576822280884, -11.93780517578125, -0.07017598301172256, -0.031120702624320984, 1.0251046419143677, -0.02586042694747448, -0.14711761474609375, 1.48388671875, 1.70068359375, 0.6697845458984375, 1.489013671875, 1.69775390625, 10.0, 1.0, 10.0, 1.6730029582977295
31507, 0.005551462527364492, -0.00022762261505704373, 0.01881832256913185, 1.3605249478132464e-05, 4.4904956553182274e-07, 0.012872154824435711, 9.311176836490631e-05, -4.2253435822203755e-05, 0.07865364104509354, -0.8198881149291992, -0.9666377305984497, 0.05655866861343384, -0.5424028868114488, 1.071318632788092, 179.05105906867655, 9362.0, 30146.0, 35388.0, 9362.0, 8.191736221313477, 0.6616160869598389, -0.025865109637379646, 1.8987030982971191, -0.07556016743183136, -0.04265812039375305, 1.0240024328231812, -0.02586042694747448, -0.14711761474609375, 1.48388671875, 1.70068359375, 0.6697845458984375, 1.50146484375, 1.69775390625, 10.0, 1.0, 10.0, 1.6731081008911133
31527, 0.012442322447896004, -0.00019071984570473433, 0.01642613112926483, 1.5580153558403254e-05, -5.014444468542933e-07, 0.014492422342300415, 0.00010477326577529311, -5.3440267947735265e-05, 0.08341034501791, -0.8198802471160889, -0.9666177034378052, 0.05652016028761864, -0.5177289011520746, 1.0853524186919117, 179.04878187346048, 9362.0, 30146.0, 35388.0, 9362.0, 8.191736221313477, -0.36135751008987427, 0.5486236214637756, 11.309532165527344, -0.07137703895568848, -0.02458367869257927, 1.0228947401046753, -0.02586042694747448, -0.14711761474609375, 1.48388671875, 1.70068359375, 0.6697845458984375, 1.4970703125, 1.69775390625, 10.0, 1.0, 10.0, 1.673282265663147
31547, 0.012036806903779507, 0.00015221261128317565, 0.06484048813581467, 1.8714048565016128e-05, -2.733395604082034e-06, 0.01710944063961506, 0.0001042613439494744, -0.00010340174048906192, 0.09079568833112717, -0.8198627233505249, -0.966618537902832, 0.056499335914850235, -0.5242980225726697, 1.0861290321009562, 179.05448159601946, 9362.0, 30146.0, 35388.0, 9362.0, 8.191736221313477, -0.21867956221103668, -0.8679060935974121, -9.720121383666992, -0.0710403248667717, -0.036055415868759155, 1.0258897542953491, -0.02586042694747448, -0.14711761474609375, 1.48388671875, 1.70068359375, 0.6697845458984375, 1.490478515625, 1.69775390625, 10.0, 1.0, 10.0, 1.6733688116073608
31567, 0.0159310195595026, 0.005278704222291708, 0.02063058875501156, 2.087037864839658e-05, -5.276055162539706e-06, 0.01897437497973442, 0.00010866847878787667, -0.00014918249507900327, 0.09572242945432663, -0.8198975920677185, -0.9666458964347839, 0.05654890462756157, -0.5387288261354217, 1.061152083031061, 179.06282084314086, 9362.0, 30146.0, 35388.0, 9362.0, 8.191736221313477, 0.1861371248960495, 0.7026538252830505, 9.132696151733398, -0.0710403248667717, -0.036055415868759155, 1.0258897542953491, -0.04168010875582695, -0.07543754577636719, 1.48974609375, 1.70068359375, 0.6697845458984375, 1.484619140625, 1.69775390625, 10.0, 1.0, 10.0, 1.673534631729126
31577, 0.01788858138024807, 0.004641916137188673, 0.014650905504822731, 2.193121144955512e-05, -6.889325504744193e-06, 0.019943220540881157, 0.00010339581785956398, -0.00017355455202050507, 0.09804697334766388, -0.8199747800827026, -0.966510534286499, 0.0565589964389801, -0.4926976173272732, 1.04282280388, 179.06332280848272, 9362.0, 30146.0, 35388.0, 9362.0, 8.191736221313477, -0.5490453243255615, 0.8650846481323242, 14.825433731079102, -0.07661532610654831, -0.026207098737359047, 1.0262924432754517, -0.04168010875582695, -0.07543754577636719, 1.48974609375, 1.70068359375, 0.6697845458984375, 1.49267578125, 1.69775390625, 10.0, 1.0, 10.0, 1.673534631729126
31587, 0.018131772056221962, 0.0033127623610198498, 0.0501030795276165, 2.193121144955512e-05, -6.889325504744193e-06, 0.019943220540881157, 0.00010339581785956398, -0.00017355455202050507, 0.09804697334766388, -0.8197841048240662, -0.9666466116905212, 0.0565480962395668, -0.5268643250551838, 1.1186579228325115, 179.0590451814919, 9362.0, 30146.0, 35388.0, 9362.0, 8.191736221313477, -0.49233224987983704, -0.14016154408454895, 0.11355865001678467, -0.06471390277147293, -0.025011450052261353, 1.0223650932312012, -0.04168010875582695, -0.07543754577636719, 1.48974609375, 1.70068359375, 0.6697845458984375, 1.49267578125, 1.69775390625, 10.0, 1.0, 10.0, 1.6733390092849731
31597, 0.016208652406930923, 0.0024315952323377132, 0.07346124947071075, 2.3819833586458117e-05, -1.0937803381239064e-05, 0.021953698247671127, 8.609815267845988e-05, -0.00023304489150177687, 0.1030588448047638, -0.8198906183242798, -0.9666223526000977, 0.0565490759909153, -0.5197602947777034, 1.0627860950343688, 179.05305646266197, 9362.0, 30146.0, 35388.0, 9362.0, 8.191736221313477, 0.44624707102775574, -0.8297075033187866, -12.826075553894043, -0.06435856968164444, -0.03157321363687515, 1.0216951370239258, -0.04168010875582695, -0.07543754577636719, 1.48974609375, 1.70068359375, 0.6697845458984375, 1.49560546875, 1.69775390625, 10.0, 1.0, 10.0, 1.6734206676483154
31607, 0.016259416937828064, 0.00344521040096879, 0.06554301828145981, 2.4651970306877047e-05, -1.3426912119030021e-05, 0.02299506589770317, 8.03759103291668e-05, -0.00026470719603821635, 0.10521513223648071, -0.819907009601593, -0.9666287302970886, 0.05651380494236946, -0.5299669780526876, 1.0637839619088822, 179.04678609330279, 9362.0, 30146.0, 35388.0, 9362.0, 8.191736221313477, 0.44624707102775574, -0.8297075033187866, -12.826075553894043, -0.07748427242040634, -0.03557504341006279, 1.0225199460983276, -0.04168010875582695, -0.07543754577636719, 1.48974609375, 1.70068359375, 0.6697845458984375, 1.49560546875, 1.69775390625, 10.0, 1.0, 10.0, 1.6732639074325562
31617, 0.015057172626256943, 0.004349892493337393, 0.03318198397755623, 2.5434663257328793e-05, -1.6215642972383648e-05, 0.02405736781656742, 7.612298941239715e-05, -0.00029304029885679483, 0.10724563151597977, -0.8199041485786438, -0.9666295051574707, 0.056539930403232574, -0.5219520991513523, 1.0533665493649096, 179.0593740844166, 9362.0, 30146.0, 35388.0, 9362.0, 8.191736221313477, 0.22107522189617157, 0.593144416809082, 2.6916756629943848, -0.07748427242040634, -0.03557504341006279, 1.0225199460983276, -0.04168010875582695, -0.07543754577636719, 1.48974609375, 1.70068359375, 0.6697845458984375, 1.491943359375, 1.71826171875, 10.0, 1.0, 10.0, 1.67320716381073
31627, 0.015055522322654724, 0.003103091614320874, 0.01743805781006813, 2.6165884264628403e-05, -1.928847450471949e-05, 0.025141101330518723, 7.006884698057547e-05, -0.00032147590536624193, 0.10950137674808502, -0.8198841214179993, -0.9666023850440979, 0.05647958442568779, -0.5227001156397293, 1.0837691991508223, 179.05639664495277, 9362.0, 30146.0, 35388.0, 9362.0, 8.191736221313477, 0.22107522189617157, 0.593144416809082, 2.6916756629943848, -0.08317749202251434, -0.030892161652445793, 1.0273538827896118, -0.04168010875582695, -0.07543754577636719, 1.48974609375, 1.70068359375, 0.6697845458984375, 1.491943359375, 1.71826171875, 10.0, 1.0, 10.0, 1.6733309030532837
31637, 0.013154632411897182, 0.0027907618787139654, 0.034371066838502884, 2.682844569790177e-05, -2.263549504277762e-05, 0.026248812675476074, 6.249154830584303e-05, -0.00034792564110830426, 0.11204132437705994, -0.8199242949485779, -0.9666497707366943, 0.05653861537575722, -0.5331212007048908, 1.0400404142150705, 179.04393343428197, 9362.0, 30146.0, 35388.0, 9362.0, 8.191736221313477, -0.7528210878372192, 0.19354045391082764, 8.826350212097168, -0.08317749202251434, -0.030892161652445793, 1.0273538827896118, -0.04168010875582695, -0.07543754577636719, 1.48974609375, 1.679443359375, 0.613677978515625, 1.49560546875, 1.71826171875, 10.0, 1.0, 10.0, 1.673505187034607
31647, 0.009338036179542542, 0.0013167138677090406, 0.07127082347869873, 2.7426105589256622e-05, -2.62471912719775e-05, 0.027382709085941315, 5.70635347685311e-05, -0.00037432575481943786, 0.11473847180604935, -0.8199756741523743, -0.9665217995643616, 0.05660301446914673, -0.5167304967296226, 1.028577211105727, 179.05271090337035, 9362.0, 30146.0, 35388.0, 9362.0, 8.191736221313477, 0.09579315036535263, -0.16592702269554138, -10.886503219604492, -0.06364890187978745, -0.03249978646636009, 1.0236239433288574, -0.04168010875582695, -0.07543754577636719, 1.48974609375, 1.679443359375, 0.613677978515625, 1.49560546875, 1.71826171875, 10.0, 1.0, 10.0, 1.6736187934875488
31687, 0.008806183934211731, -0.0003698484506458044, 0.014609672129154205, 2.9514540074160323e-05, -4.2715619201771915e-05, 0.03216344490647316, 5.442245310405269e-05, -0.00044128860463388264, 0.12444599717855453, -0.8206789493560791, -0.966825544834137, 0.057333193719387054, -1.105548031959083, 0.5585652955877833, 179.32910396984792, 9362.0, 30146.0, 35388.0, 9362.0, 8.191736221313477, -0.11997950077056885, 0.5670597553253174, 10.521821975708008, -0.0847930982708931, -0.03650599345564842, 1.0242416858673096, -0.032565660774707794, 0.04104042053222656, 1.499267578125, 1.679443359375, 0.613677978515625, 1.4912109375, 1.69921875, 10.0, 1.0, 10.0, 1.6735568046569824
31697, 0.00793932843953371, -0.001458552316762507, 0.04394232854247093, 3.0073100788285956e-05, -4.720592551166192e-05, 0.03341996297240257, 5.7235902204411104e-05, -0.00045677198795601726, 0.1268576830625534, -0.8199253082275391, -0.9666391015052795, 0.056600213050842285, -0.5396501050837427, 1.0565658561901898, 179.05739109509992, 9362.0, 30146.0, 35388.0, 9362.0, 8.191736221313477, -0.11997950077056885, 0.5670597553253174, 10.521821975708008, -0.06850426644086838, -0.027650192379951477, 1.0232181549072266, -0.032565660774707794, 0.04104042053222656, 1.499267578125, 1.679443359375, 0.613677978515625, 1.4912109375, 1.69921875, 10.0, 1.0, 10.0, 1.6735568046569824
31707, 0.006400308571755886, -0.0037187172565609217, 0.062183067202568054, 3.0073100788285956e-05, -4.720592551166192e-05, 0.03341996297240257, 5.7235902204411104e-05, -0.00045677198795601726, 0.1268576830625534, -0.8199781179428101, -0.966267466545105, 0.05639518052339554, -0.3597515334548894, 0.9732138508166202, 178.96818825899143, 9362.0, 30146.0, 35388.0, 9362.0, 8.191736221313477, 0.28127700090408325, -0.8418242931365967, -11.042102813720703, -0.06850426644086838, -0.027650192379951477, 1.0232181549072266, -0.032565660774707794, 0.04104042053222656, 1.499267578125, 1.679443359375, 0.613677978515625, 1.4912109375, 1.69921875, 10.0, 1.0, 10.0, 1.673506259918213
31727, 0.00557732256129384, -0.0037075302097946405, 0.025728600099682808, 3.1240953831002116e-05, -5.664205673383549e-05, 0.036003269255161285, 6.060000305296853e-05, -0.0004860157205257565, 0.13144196569919586, -0.8207352757453918, -0.9673895835876465, 0.05774862691760063, -1.5092791790400828, 0.22093223095612302, 179.14103981018877, 9362.0, 30146.0, 35388.0, 9362.0, 8.191736221313477, 0.45998331904411316, 0.1594463586807251, 3.3768866062164307, -0.06850426644086838, -0.027650192379951477, 1.0232181549072266, -0.032565660774707794, 0.04104042053222656, 1.499267578125, 1.679443359375, 0.613677978515625, 1.49267578125, 1.69921875, 10.0, 1.0, 10.0, 1.6736036539077759
31747, 0.008873576298356056, -0.00704484386369586, 0.0262386966496706, 3.330909748910926e-05, -7.17416187399067e-05, 0.040057223290205, 7.724072929704562e-05, -0.0005196949932724237, 0.13881821930408478, -0.8199018239974976, -0.9666298031806946, 0.05659402534365654, -0.5305235748116494, 1.0506826579564859, 179.0422850070557, 9362.0, 30146.0, 35388.0, 9362.0, 8.191736221313477, -0.377257764339447, 0.14819662272930145, 8.403454780578613, -0.07512227445840836, -0.030170226469635963, 1.0238512754440308, -0.032565660774707794, 0.04104042053222656, 1.499267578125, 1.679443359375, 0.613677978515625, 1.4912109375, 1.69921875, 10.0, 1.0, 10.0, 1.673645257949829
31757, 0.008432633243501186, -0.008260984905064106, 0.042246654629707336, 3.4101729397661984e-05, -7.700098649365827e-05, 0.04145681858062744, 8.147759217536077e-05, -0.0005322486395016313, 0.14110106229782104, -0.8198925852775574, -0.9666104912757874, 0.05654733628034592, -0.5173396897175954, 1.0645760663331885, 179.05292514841437, 9362.0, 30146.0, 35388.0, 9362.0, 8.191736221313477, -0.006526507902890444, -0.12392309308052063, -2.6438236236572266, -0.06450857222080231, -0.02354872040450573, 1.023374319076538, -0.032565660774707794, 0.04104042053222656, 1.499267578125, 1.679443359375, 0.613677978515625, 1.48828125, 1.69921875, 10.0, 1.0, 10.0, 1.673649787902832
31777, 0.009669682011008263, -0.010378322564065456, 0.046688105911016464, 3.4101729397661984e-05, -7.700098649365827e-05, 0.04145681858062744, 8.147759217536077e-05, -0.0005322486395016313, 0.14110106229782104, -0.8207118511199951, -0.9673935174942017, 0.05780162662267685, -1.5098320678881478, 0.24164625581508403, 179.14488333232802, 9362.0, 30146.0, 35388.0, 9362.0, 8.191736221313477, 0.9526612162590027, -0.11331024020910263, -6.386085033416748, -0.08907873183488846, -0.02903790771961212, 1.023544430732727, -0.032565660774707794, 0.04104042053222656, 1.499267578125, 1.679443359375, 0.613677978515625, 1.48828125, 1.69921875, 10.0, 1.0, 10.0, 1.6738157272338867
31787, 0.013619381003081799, -0.008200880140066147, 0.021474670618772507, 3.4101729397661984e-05, -7.700098649365827e-05, 0.04145681858062744, 8.147759217536077e-05, -0.0005322486395016313, 0.14110106229782104, -0.8199825882911682, -0.9662818908691406, 0.05646033585071564, -0.3772878247774696, 0.9405728467131951, 178.9826405641979, 9362.0, 30146.0, 35388.0, 9362.0, 8.191736221313477, -0.4007819890975952, 0.409989595413208, 6.098857402801514, -0.08907873183488846, -0.02903790771961212, 1.023544430732727, -0.032565660774707794, 0.04104042053222656, 1.499267578125, 1.679443359375, 0.613677978515625, 1.48828125, 1.69921875, 10.0, 1.0, 10.0, 1.6739375591278076
31797, 0.014331537298858166, -0.0060568866319954395, 0.018068045377731323, 3.8530481106135994e-05, -9.954980487236753e-05, 0.04728547856211662, 0.0001452842989237979, -0.0005970706697553396, 0.15040016174316406, -0.8207322359085083, -0.9674050807952881, 0.0577743723988533, -1.527665094137032, 0.235275140463159, 179.13635444438327, 9362.0, 30146.0, 35388.0, 9362.0, 8.191736221313477, -0.4007819890975952, 0.409989595413208, 6.098857402801514, -0.08295117318630219, -0.042043037712574005, 1.0244160890579224, -0.032565660774707794, 0.04104042053222656, 1.499267578125, 1.679443359375, 0.613677978515625, 1.48828125, 1.69921875, 10.0, 1.0, 10.0, 1.6739375591278076
31807, 0.014464253559708595, -0.0034157410264015198, 0.03240969777107239, 3.8530481106135994e-05, -9.954980487236753e-05, 0.04728547856211662, 0.0001452842989237979, -0.0005970706697553396, 0.15040016174316406, -0.8199184536933899, -0.9666381478309631, 0.056596215814352036, -0.5557789314446592, 1.0476823637185646, 179.04879641697806, 9362.0, 30146.0, 35388.0, 9362.0, 8.191736221313477, -0.08792826533317566, 0.25192397832870483, 4.244504451751709, -0.08295117318630219, -0.042043037712574005, 1.0244160890579224, -0.032565660774707794, 0.04104042053222656, 1.499267578125, 1.679443359375, 0.613677978515625, 1.48828125, 1.69921875, 10.0, 1.0, 10.0, 1.6741292476654053
31837, 0.018809685483574867, -0.004656017292290926, 0.04516091197729111, 4.5243978092912585e-05, -0.0001254199305549264, 0.053491540253162384, 0.00018544353952165693, -0.0006997521850280464, 0.15983177721500397, -0.8207219839096069, -0.9673944115638733, 0.057801976799964905, -1.518316734474734, 0.22937153177994674, 179.14537466550124, 9362.0, 30146.0, 35388.0, 9362.0, 8.191736221313477, -0.17161694169044495, -0.1133798360824585, -3.6726911067962646, -0.07244056463241577, -0.038189396262168884, 1.0252290964126587, -0.032565660774707794, 0.04104042053222656, 1.499267578125, 1.679443359375, 0.613677978515625, 1.494140625, 1.69921875, 10.0, 1.0, 10.0, 1.6740456819534302
31847, 0.01852469891309738, -0.002266867784783244, 0.01490251999348402, 4.5243978092912585e-05, -0.0001254199305549264, 0.053491540253162384, 0.00018544353952165693, -0.0006997521850280464, 0.15983177721500397, -0.8199087977409363, -0.9666250944137573, 0.05655006319284439, -0.5237317168340767, 1.0452454477429, 179.039921577689, 9362.0, 30146.0, 35388.0, 9362.0, 8.191736221313477, -0.01615265943109989, 0.823712944984436, 13.606125831604004, -0.08575854450464249, -0.03322312608361244, 1.0240628719329834, -0.032565660774707794, 0.04104042053222656, 1.499267578125, 1.679443359375, 0.613677978515625, 1.494140625, 1.69921875, 10.0, 1.0, 10.0, 1.6740233898162842
31857, 0.01929670013487339, -0.004097511526197195, 0.026952633634209633, 4.909954441245645e-05, -0.00013998334179632366, 0.05673827603459358, 0.00020057833171449602, -0.0007597141666337848, 0.16487543284893036, -0.8199102878570557, -0.9666057229042053, 0.05655727535486221, -0.5098348534937032, 1.061959478825088, 179.04048022779776, 9362.0, 30146.0, 35388.0, 9362.0, 8.191736221313477, -0.45178210735321045, 0.5682497024536133, 11.827199935913086, -0.07445688545703888, -0.022483309730887413, 1.0231399536132812, -0.032565660774707794, 0.04104042053222656, 1.499267578125, 1.679443359375, 0.613677978515625, 1.5, 1.69921875, 10.0, 1.0, 10.0, 1.6742209196090698
31867, 0.01883075386285782, -0.006897863931953907, 0.05910642445087433, 5.1125251047778875e-05, -0.00014774293231312186, 0.05839899927377701, 0.00020464573753997684, -0.0007922364166006446, 0.1672695279121399, -0.8199180364608765, -0.9666180610656738, 0.056601036339998245, -0.5220365564230349, 1.0463557130013896, 179.04477277068915, 9362.0, 30146.0, 35388.0, 9362.0, 8.191736221313477, -0.02254628948867321, 0.13235045969486237, -0.7184923887252808, -0.07445688545703888, -0.022483309730887413, 1.0231399536132812, -0.04515937715768814, -0.03959846496582031, 1.49267578125, 1.679443359375, 0.613677978515625, 1.5, 1.69921875, 10.0, 1.0, 10.0, 1.6743206977844238
31877, 0.017925990745425224, -0.00966742355376482, 0.08020830899477005, 5.320767741068266e-05, -0.00015583430649712682, 0.06008305773139, 0.00021197006572037935, -0.0008260173490270972, 0.1695423573255539, -0.8198723793029785, -0.9666129946708679, 0.05662618204951286, -0.5148735050857145, 1.084800472654905, 179.04788210439116, 9362.0, 30146.0, 35388.0, 9362.0, 8.191736221313477, 0.5291874408721924, -0.5478297472000122, -13.723405838012695, -0.07445688545703888, -0.022483309730887413, 1.0231399536132812, -0.04515937715768814, -0.03959846496582031, 1.49267578125, 1.679443359375, 0.613677978515625, 1.500732421875, 1.69921875, 10.0, 1.0, 10.0, 1.6741772890090942
31887, 0.018018053844571114, -0.009982479736208916, 0.0674571767449379, 5.5388019973179325e-05, -0.00016425950161647052, 0.06179026886820793, 0.00022422469919547439, -0.0008589809876866639, 0.17190060019493103, -0.8199055790901184, -0.9666175246238708, 0.05660847947001457, -0.5327152103890908, 1.0606454225078892, 179.04568419710122, 9362.0, 30146.0, 35388.0, 9362.0, 8.191736221313477, 0.48242244124412537, 0.002153549110516906, -9.968489646911621, -0.07445688545703888, -0.022483309730887413, 1.0231399536132812, -0.04515937715768814, -0.03959846496582031, 1.49267578125, 1.679443359375, 0.613677978515625, 1.500732421875, 1.69921875, 10.0, 1.0, 10.0, 1.6742193698883057
31897, 0.016742154955863953, -0.011312313377857208, 0.03182987496256828, 5.771547512267716e-05, -0.00017300678882747889, 0.06352247297763824, 0.00024127394135575742, -0.0008904830901883543, 0.17454029619693756, -0.8198927640914917, -0.9666383862495422, 0.056602705270051956, -0.5499283987093324, 1.0640887448824685, 179.04559361052853, 9362.0, 30146.0, 35388.0, 9362.0, 8.191736221313477, 0.34336304664611816, 0.6718320846557617, 6.605495452880859, -0.07445688545703888, -0.022483309730887413, 1.0231399536132812, -0.04515937715768814, -0.03959846496582031, 1.49267578125, 1.625244140625, 0.477783203125, 1.491943359375, 1.71533203125, 10.0, 1.0, 10.0, 1.6742428541183472
31927, 0.01663309894502163, -0.015837186947464943, 0.08279658854007721, 6.290339661063626e-05, -0.00019143593090120703, 0.06705918163061142, 0.00027868914185091853, -0.0009514229604974389, 0.17908014357089996, -0.8207423090934753, -0.9674087762832642, 0.057816680520772934, -1.5213905281602704, 0.2264151621204462, 179.13930906787297, 9362.0, 30146.0, 35388.0, 9362.0, 8.191736221313477, -0.564505398273468, 0.7601157426834106, 14.169292449951172, -0.06534881889820099, -0.03480637073516846, 1.0263092517852783, -0.04515937715768814, -0.03959846496582031, 1.49267578125, 1.625244140625, 0.477783203125, 1.49560546875, 1.71533203125, 10.0, 1.0, 10.0, 1.6741238832473755
31947, 0.016975635662674904, -0.01319616474211216, 0.032285772264003754, 7.227135210996494e-05, -0.00022146853734739125, 0.07253813743591309, 0.0003501766186673194, -0.0010470107663422823, 0.1863355040550232, -0.8199780583381653, -0.9662290215492249, 0.05645977333188057, -0.34229106684913224, 0.9673655591523982, 178.9783045950657, 9362.0, 30146.0, 35388.0, 9362.0, 8.191736221313477, -0.12648101150989532, 0.564444899559021, 6.4806013107299805, -0.06534881889820099, -0.03480637073516846, 1.0263092517852783, -0.04515937715768814, -0.03959846496582031, 1.49267578125, 1.625244140625, 0.477783203125, 1.487548828125, 1.71533203125, 10.0, 1.0, 10.0, 1.6741660833358765
31977, 0.014207826927304268, -0.018564846366643906, 0.08309353142976761, 7.970039587235078e-05, -0.00024295655020978302, 0.07631489634513855, 0.00039411408943124115, -0.0011033974587917328, 0.19134822487831116, -0.8198254704475403, -0.9666093587875366, 0.056546613574028015, -0.524072873803012, 1.0985116465548117, 179.0434366697645, 9362.0, 30146.0, 35388.0, 9362.0, 8.191736221313477, 0.010100766085088253, -0.5600447058677673, -10.651907920837402, -0.06353184580802917, -0.031791605055332184, 1.0257282257080078, -0.05565834045410156, -0.11127853393554688, 1.48681640625, 1.625244140625, 0.477783203125, 1.49560546875, 1.71533203125, 10.0, 1.0, 10.0, 1.6740808486938477
31987, 0.012474706396460533, -0.017195146530866623, 0.08135300129652023, 7.970039587235078e-05, -0.00024295655020978302, 0.07631489634513855, 0.00039411408943124115, -0.0011033974587917328, 0.19134822487831116, -0.8207265734672546, -0.9673953652381897, 0.0578174814581871, -1.511044582505974, 0.22699601589312124, 179.13766662126022, 9362.0, 30146.0, 35388.0, 9362.0, 8.191736221313477, 0.010100766085088253, -0.5600447058677673, -10.651907920837402, -0.06353184580802917, -0.031791605055332184, 1.0257282257080078, -0.05565834045410156, -0.11127853393554688, 1.48681640625, 1.625244140625, 0.477783203125, 1.49560546875, 1.71533203125, 10.0, 1.0, 10.0, 1.673984408378601
31997, 0.013064642436802387, -0.014018308371305466, 0.047903403639793396, 9.281448001274839e-05, -0.00027729719295166433, 0.0821639746427536, 0.0004837848828174174, -0.0011834809556603432, 0.19860610365867615, -0.8198854327201843, -0.9665789008140564, 0.05659143254160881, -0.4966339886632514, 1.0646286232717728, 179.0583944058856, 9362.0, 30146.0, 35388.0, 9362.0, 8.191736221313477, 0.010100766085088253, -0.5600447058677673, -10.651907920837402, -0.08711669594049454, -0.034696247428655624, 1.0248079299926758, -0.05565834045410156, -0.11127853393554688, 1.48681640625, 1.625244140625, 0.477783203125, 1.49267578125, 1.71533203125, 10.0, 1.0, 10.0, 1.673984408378601
32007, 0.013317156583070755, -0.014160430058836937, 0.02428845316171646, 9.281448001274839e-05, -0.00027729719295166433, 0.0821639746427536, 0.0004837848828174174, -0.0011834809556603432, 0.19860610365867615, -0.8199064135551453, -0.9666373133659363, 0.05662301927804947, -0.5265366486478298, 1.057637991548745, 179.03971261833405, 9362.0, 30146.0, 35388.0, 9362.0, 8.191736221313477, -0.4192819893360138, 0.45662981271743774, 13.95776081085205, -0.08711669594049454, -0.034696247428655624, 1.0248079299926758, -0.05565834045410156, -0.11127853393554688, 1.48681640625, 1.625244140625, 0.477783203125, 1.49267578125, 1.71533203125, 10.0, 1.0, 10.0, 1.673829436302185
32017, 0.014054397121071815, -0.014935712330043316, 0.041404929012060165, 0.00010306571493856609, -0.0003014102403540164, 0.08618815243244171, 0.0005385147524066269, -0.0012283537071198225, 0.2037230283021927, -0.8199987411499023, -0.9663026928901672, 0.05649036169052124, -0.3857163714893558, 0.9424960804243199, 178.98433571129402, 9362.0, 30146.0, 35388.0, 9362.0, 8.191736221313477, -0.4192819893360138, 0.45662981271743774, 13.95776081085205, -0.06861060112714767, -0.027582207694649696, 1.0245527029037476, -0.05565834045410156, -0.11127853393554688, 1.48681640625, 1.625244140625, 0.477783203125, 1.494873046875, 1.71533203125, 10.0, 1.0, 10.0, 1.673829436302185
32027, 0.012189553119242191, -0.018920572474598885, 0.07027343660593033, 0.00010306571493856609, -0.0003014102403540164, 0.08618815243244171, 0.0005385147524066269, -0.0012283537071198225, 0.2037230283021927, -0.8198752403259277, -0.9666482210159302, 0.05661972612142563, -0.5593435934275016, 1.0764338169011864, 179.0495528585623, 9362.0, 30146.0, 35388.0, 9362.0, 8.191736221313477, 0.007617218419909477, -0.39760902523994446, -9.359048843383789, -0.06383353471755981, -0.032377153635025024, 1.026991844177246, -0.05565834045410156, -0.11127853393554688, 1.48681640625, 1.625244140625, 0.477783203125, 1.494873046875, 1.71533203125, 10.0, 1.0, 10.0, 1.673829436302185
32037, 0.01136390957981348, -0.020390639081597328, 0.07480644434690475, 0.00010306571493856609, -0.0003014102403540164, 0.08618815243244171, 0.0005385147524066269, -0.0012283537071198225, 0.2037230283021927, -0.8198952674865723, -0.9666067361831665, 0.05660221725702286, -0.5227644181308676, 1.066319501875853, 179.04506940675412, 9362.0, 30146.0, 35388.0, 9362.0, 8.191736221313477, 0.5556818246841431, -0.5881063938140869, -15.296995162963867, -0.06383353471755981, -0.032377153635025024, 1.026991844177246, -0.05565834045410156, -0.11127853393554688, 1.48681640625, 1.625244140625, 0.477783203125, 1.497802734375, 1.71533203125, 10.0, 1.0, 10.0, 1.6738483905792236
32047, 0.01288115419447422, -0.019831756129860878, 0.04342303425073624, 0.00012040373985655606, -0.00033931981306523085, 0.09240566194057465, 0.000623093917965889, -0.0012975737918168306, 0.21094410121440887, -0.8199134469032288, -0.9666483998298645, 0.05658175051212311, -0.5488063051083371, 1.0488563579838797, 179.06051331203795, 9362.0, 30146.0, 35388.0, 9362.0, 8.191736221313477, 0.5556818246841431, -0.5881063938140869, -15.296995162963867, -0.08426052331924438, -0.036608096212148666, 1.0235285758972168, -0.05565834045410156, -0.11127853393554688, 1.48681640625, 1.625244140625, 0.477783203125, 1.497802734375, 1.71533203125, 10.0, 1.0, 10.0, 1.6738483905792236
32067, 0.014200863428413868, -0.021822450682520866, 0.021892230957746506, 0.00013357629359234124, -0.0003656833141576499, 0.09667284041643143, 0.0006936603458598256, -0.0013402232434600592, 0.2157171219587326, -0.8207549452781677, -0.9673941135406494, 0.05780389904975891, -1.5152558442167883, 0.21561849433413727, 179.14474701905166, 9362.0, 30146.0, 35388.0, 9362.0, 8.191736221313477, -0.16899001598358154, 0.6738787889480591, 14.094371795654297, -0.08818967640399933, -0.03748282045125961, 1.0242403745651245, -0.03002477064728737, 0.08584022521972656, 1.5029296875, 1.625244140625, 0.477783203125, 1.49560546875, 1.71533203125, 10.0, 1.0, 10.0, 1.6738897562026978
32077, 0.014772739261388779, -0.023681309074163437, 0.04646673426032066, 0.00013357629359234124, -0.0003656833141576499, 0.09667284041643143, 0.0006936603458598256, -0.0013402232434600592, 0.2157171219587326, -0.820680558681488, -0.9674413204193115, 0.05780479684472084, -1.5623254601805439, 0.2221417041115501, 179.14343371620942, 9362.0, 30146.0, 35388.0, 9362.0, 8.191736221313477, -0.12617149949073792, -0.030385218560695648, 2.045534610748291, -0.0632995143532753, -0.02835974097251892, 1.024828314781189, -0.03002477064728737, 0.08584022521972656, 1.5029296875, 1.625244140625, 0.477783203125, 1.494873046875, 1.71533203125, 10.0, 1.0, 10.0, 1.6740020513534546
32087, 0.015084468759596348, -0.025116953998804092, 0.07607270777225494, 0.00013357629359234124, -0.0003656833141576499, 0.09667284041643143, 0.0006936603458598256, -0.0013402232434600592, 0.2157171219587326, -0.8198744058609009, -0.9666197896003723, 0.056578557938337326, -0.5282196152637503, 1.0817849595497364, 179.05149240084341, 9362.0, 30146.0, 35388.0, 9362.0, 8.191736221313477, 0.31438982486724854, -0.7155758142471313, -14.757987976074219, -0.0661667138338089, -0.033981986343860626, 1.0256800651550293, -0.03002477064728737, 0.08584022521972656, 1.5029296875, 1.625244140625, 0.477783203125, 1.494873046875, 1.71533203125, 10.0, 1.0, 10.0, 1.6738526821136475
32097, 0.01584341563284397, -0.024556491523981094, 0.059981584548950195, 0.0001560608798172325, -0.00040707032894715667, 0.10325159877538681, 0.0008093432988971472, -0.0014180791331455112, 0.22286681830883026, -0.8199005126953125, -0.9666136503219604, 0.0565950907766819, -0.5278644207865004, 1.0710531812986517, 179.05097106053157, 9362.0, 30146.0, 35388.0, 9362.0, 8.191736221313477, 0.31438982486724854, -0.7155758142471313, -14.757987976074219, -0.07855236530303955, -0.03874148055911064, 1.0246202945709229, -0.03002477064728737, 0.08584022521972656, 1.5029296875, 1.625244140625, 0.477783203125, 1.494873046875, 1.71533203125, 10.0, 1.0, 10.0, 1.6738526821136475
32107, 0.019034912809729576, -0.022003255784511566, 0.02876948192715645, 0.0001560608798172325, -0.00040707032894715667, 0.10325159877538681, 0.0008093432988971472, -0.0014180791331455112, 0.22286681830883026, -0.8199034333229065, -0.9666183590888977, 0.056592732667922974, -0.5349402356890085, 1.0399324161367929, 179.04689581981395, 9362.0, 30146.0, 35388.0, 9362.0, 8.191736221313477, 0.24982421100139618, 0.2513231635093689, 4.0281853675842285, -0.07855236530303955, -0.03874148055911064, 1.0246202945709229, -0.03002477064728737, 0.08584022521972656, 1.5029296875, 1.625244140625, 0.477783203125, 1.494873046875, 1.71533203125, 10.0, 1.0, 10.0, 1.673964262008667
32127, 0.021183595061302185, -0.018374128267169, 0.03387792780995369, 0.00018228229600936174, -0.00045085890451446176, 0.11004802584648132, 0.0009349530446343124, -0.0015059340512380004, 0.23017603158950806, -0.8198941946029663, -0.9666649699211121, 0.05658645182847977, -0.5685086356295279, 1.0422485915539426, 179.05297103533076, 9362.0, 30146.0, 35388.0, 9362.0, 8.191736221313477, -0.0909881517291069, 0.7215114235877991, 9.372529983520508, -0.06788908690214157, -0.025362761691212654, 1.0237393379211426, -0.03002477064728737, 0.08584022521972656, 1.5029296875, 1.625244140625, 0.477783203125, 1.494873046875, 1.71533203125, 10.0, 1.0, 10.0, 1.673969030380249
32177, 0.028487684205174446, -0.02126375027000904, 0.02560696378350258, 0.00022254149371292442, -0.0005141452420502901, 0.11944366991519928, 0.0010871514678001404, -0.0016625106800347567, 0.23982606828212738, -0.8199076652526855, -0.9666150808334351, 0.05657050758600235, -0.5298903562907676, 1.0534280583380564, 179.0547515365436, 9362.0, 30146.0, 35388.0, 9362.0, 8.191736221313477, -0.7406200766563416, 0.7563356161117554, 15.35628890991211, -0.0886988565325737, -0.03093739040195942, 1.0239388942718506, -0.026186181232333183, -0.030637741088867188, 1.493408203125, 1.625244140625, 0.477783203125, 1.491943359375, 1.71533203125, 10.0, 1.0, 10.0, 1.6738227605819702
32187, 0.02749728225171566, -0.024238575249910355, 0.06696298718452454, 0.00022254149371292442, -0.0005141452420502901, 0.11944366991519928, 0.0010871514678001404, -0.0016625106800347567, 0.23982606828212738, -0.8199959993362427, -0.9662548303604126, 0.05644078552722931, -0.3772868106613957, 0.952577904844162, 178.9735492507235, 9362.0, 30146.0, 35388.0, 9362.0, 8.191736221313477, -0.62224942445755, -0.24840852618217468, -1.698595643043518, -0.0886988565325737, -0.03093739040195942, 1.0239388942718506, -0.026186181232333183, -0.030637741088867188, 1.493408203125, 1.625244140625, 0.477783203125, 1.491943359375, 1.71533203125, 10.0, 1.0, 10.0, 1.673653244972229
32197, 0.024477120488882065, -0.02452571876347065, 0.08847123384475708, 0.00022254149371292442, -0.0005141452420502901, 0.11944366991519928, 0.0010871514678001404, -0.0016625106800347567, 0.23982606828212738, -0.8198286294937134, -0.9665955901145935, 0.05655648186802864, -0.5122546012549745, 1.1144271831459776, 179.04780308064997, 9362.0, 30146.0, 35388.0, 9362.0, 8.191736221313477, -0.62224942445755, -0.24840852618217468, -1.698595643043518, -0.0886988565325737, -0.03093739040195942, 1.0239388942718506, -0.026186181232333183, -0.030637741088867188, 1.493408203125, 1.6845703125, 0.62701416015625, 1.493408203125, 1.71533203125, 10.0, 1.0, 10.0, 1.6736738681793213
32207, 0.023678842931985855, -0.02255934663116932, 0.07123509049415588, 0.00022254149371292442, -0.0005141452420502901, 0.11944366991519928, 0.0010871514678001404, -0.0016625106800347567, 0.23982606828212738, -0.8207382559776306, -0.9673874378204346, 0.057797469198703766, -1.5242459381507516, 0.21580038371274668, 179.13861818277664, 9362.0, 30146.0, 35388.0, 9362.0, 8.191736221313477, 0.5006939768791199, -0.10422587394714355, -9.227360725402832, -0.08302100747823715, -0.0393429733812809, 1.023657202720642, -0.026186181232333183, -0.030637741088867188, 1.493408203125, 1.6845703125, 0.62701416015625, 1.493408203125, 1.71533203125, 10.0, 1.0, 10.0, 1.6734932661056519
32227, 0.02545861154794693, -0.022219402715563774, 0.03446580469608307, 0.00028185476548969746, -0.0006031064549461007, 0.13173839449882507, 0.0012887758202850819, -0.0018950385274365544, 0.251921683549881, -0.819999098777771, -0.9662560820579529, 0.056453365832567215, -0.35767461640762643, 0.9435001631401008, 178.97806646272147, 9362.0, 30146.0, 35388.0, 9362.0, 8.191736221313477, 0.13646332919597626, 0.6451421976089478, 9.041181564331055, -0.07966997474431992, -0.031041517853736877, 1.0233250856399536, -0.026186181232333183, -0.030637741088867188, 1.493408203125, 1.6845703125, 0.62701416015625, 1.49560546875, 1.71533203125, 10.0, 1.0, 10.0, 1.6733990907669067
32247, 0.02060389332473278, -0.025494534522294998, 0.09728565067052841, 0.0003084107011090964, -0.0006418410339392722, 0.13682295382022858, 0.0013657895615324378, -0.0019789051730185747, 0.2565145790576935, -0.8199099898338318, -0.9666469097137451, 0.05660669505596161, -0.560526919577467, 1.0412639388224818, 179.04428658177127, 9362.0, 30146.0, 35388.0, 9362.0, 8.191736221313477, -0.61427241563797, -0.1630818396806717, 2.437709331512451, -0.06658696383237839, -0.03725561499595642, 1.0239619016647339, -0.026186181232333183, -0.030637741088867188, 1.493408203125, 1.6845703125, 0.62701416015625, 1.5, 1.71533203125, 10.0, 1.0, 10.0, 1.6734625101089478
32287, 0.01887389086186886, -0.022319022566080093, 0.05723319202661514, 0.00038193544605746865, -0.0007457720348611474, 0.14994032680988312, 0.0015765165444463491, -0.002164890756830573, 0.26819613575935364, -0.8198755979537964, -0.9666517972946167, 0.05657867714762688, -0.5522599139364605, 1.0798196822481145, 179.05172721921582, 9362.0, 30146.0, 35388.0, 9362.0, 8.191736221313477, -0.9378530383110046, 0.059158239513635635, 6.970848560333252, -0.08706048130989075, -0.035273849964141846, 1.0231502056121826, -0.07861170917749405, -0.2635974884033203, 1.474365234375, 1.6845703125, 0.62701416015625, 1.49560546875, 1.71533203125, 10.0, 1.0, 10.0, 1.6733551025390625
32297, 0.01570809818804264, -0.023648569360375404, 0.09488201141357422, 0.00038193544605746865, -0.0007457720348611474, 0.14994032680988312, 0.0015765165444463491, -0.002164890756830573, 0.26819613575935364, -0.8199228644371033, -0.9666028618812561, 0.05658487230539322, -0.5230350017737224, 1.0428710933545915, 179.04701351714576, 9362.0, 30146.0, 35388.0, 9362.0, 8.191736221313477, 0.022923914715647697, -0.509228527545929, -11.715145111083984, -0.061884693801403046, -0.03435451164841652, 1.027756690979004, -0.07861170917749405, -0.2635974884033203, 1.474365234375, 1.6845703125, 0.62701416015625, 1.49560546875, 1.71533203125, 10.0, 1.0, 10.0, 1.673397421836853
32307, 0.013056025840342045, -0.023473385721445084, 0.09155263751745224, 0.00038193544605746865, -0.0007457720348611474, 0.14994032680988312, 0.0015765165444463491, -0.002164890756830573, 0.26819613575935364, -0.819871723651886, -0.966600239276886, 0.05658048763871193, -0.5098781803215731, 1.0916509389637667, 179.03986596363166, 9362.0, 30146.0, 35388.0, 9362.0, 8.191736221313477, 0.022923914715647697, -0.509228527545929, -11.715145111083984, -0.061884693801403046, -0.03435451164841652, 1.027756690979004, -0.07861170917749405, -0.2635974884033203, 1.474365234375, 1.6845703125, 0.62701416015625, 1.49560546875, 1.71533203125, 10.0, 1.0, 10.0, 1.6735806465148926
32317, 0.015271872282028198, -0.021571876481175423, 0.05530247464776039, 0.0004310382064431906, -0.0008121683495119214, 0.15810401737689972, 0.001697863102890551, -0.0022579538635909557, 0.2760905623435974, -0.8199055194854736, -0.9666116237640381, 0.05655641108751297, -0.5359410002883652, 1.0684711477675535, 179.0499489322103, 9362.0, 30146.0, 35388.0, 9362.0, 8.191736221313477, 0.022923914715647697, -0.509228527545929, -11.715145111083984, -0.08736012130975723, -0.03694682568311691, 1.0250612497329712, -0.07861170917749405, -0.2635974884033203, 1.474365234375, 1.6845703125, 0.62701416015625, 1.49560546875, 1.71533203125, 10.0, 1.0, 10.0, 1.6735806465148926
32337, 0.017951156944036484, -0.02599867433309555, 0.054577380418777466, 0.00046580337220802903, -0.0008578058332204819, 0.16367721557617188, 0.0017770518315955997, -0.002307785442098975, 0.281187504529953, -0.8200685977935791, -0.9664832949638367, 0.056596364825963974, -0.49479078678293975, 1.012567511173188, 179.06213737250442, 9362.0, 30146.0, 35388.0, 9362.0, 8.191736221313477, -0.22422514855861664, 0.8224205374717712, 13.989541053771973, -0.08736012130975723, -0.03694682568311691, 1.0250612497329712, -0.07861170917749405, -0.2635974884033203, 1.474365234375, 1.6845703125, 0.62701416015625, 1.49560546875, 1.71533203125, 10.0, 1.0, 10.0, 1.673728585243225
32347, 0.01602497696876526, -0.028878841549158096, 0.09101073443889618, 0.00046580337220802903, -0.0008578058332204819, 0.16367721557617188, 0.0017770518315955997, -0.002307785442098975, 0.281187504529953, -0.8207478523254395, -0.967407763004303, 0.0577898770570755, -1.5323751460264226, 0.21278647359542902, 179.12726246727496, 9362.0, 30146.0, 35388.0, 9362.0, 8.191736221313477, -0.22422514855861664, 0.8224205374717712, 13.989541053771973, -0.08736012130975723, -0.03694682568311691, 1.0250612497329712, -0.07861170917749405, -0.2635974884033203, 1.474365234375, 1.6845703125, 0.62701416015625, 1.49560546875, 1.71533203125, 10.0, 1.0, 10.0, 1.673577904701233
32357, 0.0155543377622962, -0.02602401189506054, 0.08192449063062668, 0.0005022007972002029, -0.0009045415790751576, 0.1693478226661682, 0.0018646973185241222, -0.0023673102259635925, 0.2858235239982605, -0.8199045658111572, -0.9666053652763367, 0.05659116432070732, -0.5200930103060699, 1.0548388676942295, 179.05740700231775, 9362.0, 30146.0, 35388.0, 9362.0, 8.191736221313477, 0.8365322351455688, -0.0994715541601181, -13.306238174438477, -0.08736012130975723, -0.03694682568311691, 1.0250612497329712, -0.07861170917749405, -0.2635974884033203, 1.474365234375, 1.6845703125, 0.62701416015625, 1.49267578125, 1.71533203125, 10.0, 1.0, 10.0, 1.673422932624817
