timeTick, roll, pitch, yaw, stateX, stateY, stateZ, stateVX, stateVY, stateVZ, otX0, otY0, otZ0, otRoll0, otPitch0, otYaw0, left wing, pitch motor, yaw motor, right wing, voltage, roll rate, pitch rate, yaw rate, A_x, A_y, A_z, current, i_raw, v_raw, airflow_voltage, airflow_speed, pot_Pitch, voltage_nKF, kFFx, state, State, volt_KF
14865, 0.8441755771636963, -0.21247686445713043, -0.6291571855545044, 0, 0, 0, 0, 0, 0, -0.843376636505127, -0.956398606300354, 0.055509865283966064, -0.4852577700730234, -0.22377587851681824, -5.061790217319568, 0, 0, 0, 0, 0, 0, 0, 0, 0, 0, 0, 0, 0, 0, 0, 0, 0, 0, 0, 0, 0, 0
14875, 0.8435968160629272, -0.21453994512557983, -0.6247790455818176, -2.8594637115020305e-05, 0.00012048721691826358, -3.3483691215515137, -0.0010845382930710912, 0.0045781745575368404, -0.5058345794677734, -0.8434221744537354, -0.9564162492752075, 0.05555073916912079, -0.47162409985297715, -0.21377552430249125, -5.043232418022982, 9362.0, 30146.0, 35388.0, 9362.0, 0, 0, 0, 0, 0, 0, 0, 0, 0, 0, 0, 0, 0, 0, 0, 0, 0, 0
14885, 0.844909131526947, -0.21362155675888062, -0.6232122778892517, -3.770291732507758e-05, 0.0001590320753166452, -3.3534281253814697, -0.0007370117818936706, 0.0031308226753026247, -0.5059705376625061, -0.8433420658111572, -0.9564298391342163, 0.055500175803899765, -0.4796623016797434, -0.255202109801985, -5.05581979534092, 9362.0, 30146.0, 35388.0, 9362.0, 0, 0.11079436540603638, -0.028490353375673294, 0.1599103808403015, -0.07709851115942001, 0.006742991041392088, 0.9976564049720764, 0, 0, 0, 2.999267578125, 102.66284942626953, 0, 2.999267578125, 23.0, 6.0, 10.0, 2.856355905532837
14895, 0.8454284071922302, -0.2156524658203125, -0.6218013763427734, -4.3319865653757006e-05, 0.0001831172703532502, -3.3584890365600586, -0.0003863344609271735, 0.001686230767518282, -0.506227970123291, -0.8434114456176758, -0.9564255475997925, 0.05555765703320503, -0.4662465985572087, -0.20689184678522565, -5.0358888359316, 9362.0, 30146.0, 35388.0, 9362.0, 0, -0.08244717866182327, 0.18983009457588196, 0.3215603232383728, -0.07861549407243729, 0.007436353247612715, 0.9975618720054626, 0, 0, 0, 2.999267578125, 102.66284942626953, 1.49560546875, 2.999267578125, 23.0, 6.0, 10.0, 2.856823682785034
14905, 0.8443611860275269, -0.21441911160945892, -0.6237813234329224, -4.543809700408019e-05, 0.00019274668011348695, -3.3635525703430176, -3.728567389771342e-05, 0.000239663349930197, -0.5065018534660339, -0.8433486223220825, -0.9564260244369507, 0.055502913892269135, -0.4775458522656342, -0.24292521467862116, -5.062431820880434, 9362.0, 30146.0, 35388.0, 9362.0, 0, -0.15370608866214752, -0.30894362926483154, -0.27366119623184204, -0.07825462520122528, 0.004348566755652428, 0.9987670183181763, 0, 0, 0, 2.999267578125, 102.66284942626953, 1.49560546875, 2.999267578125, 23.0, 6.0, 10.0, 2.8572897911071777
14915, 0.8446143865585327, -0.21247932314872742, -0.6220012903213501, -4.404623541631736e-05, 0.00018789706518873572, -3.3686182498931885, 0.0003156109887640923, -0.0012096016434952617, -0.5066570043563843, -0.8433831930160522, -0.9564101696014404, 0.055513717234134674, -0.48159588570709744, -0.2326413211085594, -5.051521860710842, 9362.0, 30146.0, 35388.0, 9362.0, 0, 0.055537149310112, -0.2432459443807602, 0.3390710949897766, -0.0749225988984108, 0.004267177544534206, 0.998091459274292, 0, 0, 0, 2.999267578125, 102.66284942626953, 1.49560546875, 2.999267578125, 23.0, 6.0, 10.0, 2.8577542304992676
14925, 0.8441972732543945, -0.21265193819999695, -0.6227027177810669, -3.913657565135509e-05, 0.00016856592264957726, -3.373685836791992, 0.0006663720705546439, -0.0026566165033727884, -0.5068385601043701, -0.8433986902236938, -0.9564636945724487, 0.05554842948913574, -0.44319128780492273, -0.23232347866243686, -5.046256661850964, 9362.0, 30146.0, 35388.0, 9362.0, 0, -0.11637838929891586, -0.047012995928525925, -0.10182815045118332, -0.07823336124420166, 0.005547629669308662, 0.9961498379707336, 0, 0, 0, 2.999267578125, 102.66284942626953, 1.49560546875, 2.999267578125, 23.0, 6.0, 10.0, 2.8582170009613037
14935, 0.8462501168251038, -0.21560686826705933, -0.6231392621994019, -3.073791231145151e-05, 0.00013477202446665615, -3.378755807876587, 0.0010133418254554272, -0.004102170001715422, -0.5071461200714111, -0.8433676362037659, -0.9564828872680664, 0.05549009144306183, -0.441875086111073, -0.2606189324807815, -5.056696523411051, 9362.0, 30146.0, 35388.0, 9362.0, 0, 0.23983338475227356, 0.44126737117767334, -0.08715412020683289, -0.07815838605165482, 0.006676742807030678, 0.9964136481285095, 0, 0, 0, 2.999267578125, 102.66284942626953, 1.496337890625, 2.999267578125, 23.0, 6.0, 10.0, 2.8586783409118652
14945, 0.8475238680839539, -0.21595579385757446, -0.6228988170623779, -1.886969039333053e-05, 8.653260010760278e-05, -3.383829355239868, 0.0013602717081084847, -0.005545704159885645, -0.5075417160987854, -0.8433599472045898, -0.956429660320282, 0.05549095571041107, -0.4729031809569939, -0.23012856116017133, -5.058793556318374, 9362.0, 30146.0, 35388.0, 9362.0, 0, 0.14391054213047028, -0.006017549894750118, 0.14118815958499908, -0.07769247889518738, 0.005165208596736193, 0.9953734278678894, 0, 0, 0, 2.999267578125, 102.66284942626953, 1.496337890625, 2.999267578125, 23.0, 6.0, 10.0, 2.859138011932373
14955, 0.8470301032066345, -0.2171606719493866, -0.621124804019928, -3.5079192457487807e-06, 2.384293475188315e-05, -3.388906955718994, 0.0017120862612500787, -0.006992222275584936, -0.5079761743545532, -0.8432970643043518, -0.9564480781555176, 0.055496975779533386, -0.47791102386051104, -0.2662647600649848, -5.068683048147662, 9362.0, 30146.0, 35388.0, 9362.0, 0, -0.12955176830291748, 0.09556565433740616, 0.2387445718050003, -0.07823871821165085, 0.0062247333116829395, 0.9975377321243286, 0, 0, 0, 2.999267578125, 102.66284942626953, 1.48681640625, 2.999267578125, 23.0, 6.0, 10.0, 2.859596014022827
14965, 0.8468820452690125, -0.2178545892238617, -0.6203316450119019, 1.5377512681880035e-05, -5.33336351509206e-05, -3.3939881324768066, 0.002065039239823818, -0.008443083614110947, -0.5082645416259766, -0.8433666825294495, -0.9564366340637207, 0.05552172660827637, -0.460509827844827, -0.25488545872124746, -5.056243559181788, 9362.0, 30146.0, 35388.0, 9362.0, 8.251240730285645, 0.042683057487010956, 0.14718511700630188, -0.045922841876745224, -0.07819051295518875, 0.006915796548128128, 0.9981472492218018, 0, 0, 0, 2.999267578125, 102.66284942626953, 1.48681640625, 2.999267578125, 23.0, 6.0, 10.0, 2.8600523471832275
14975, 0.8471385836601257, -0.21881656348705292, -0.6195533871650696, 3.780518818530254e-05, -0.00014502345584332943, -3.39907169342041, 0.002420514589175582, -0.009894879534840584, -0.5084341168403625, -0.8433610796928406, -0.9564456343650818, 0.055514030158519745, -0.4670605411461689, -0.2516329853508239, -5.056760515136805, 9362.0, 30146.0, 35388.0, 9362.0, 8.251240730285645, 0.02960217371582985, 0.23049390316009521, 0.034167155623435974, -0.07497431337833405, 0.00552193121984601, 0.997232973575592, -0.09662999212741852, -0.24567794799804688, 1.475830078125, 2.999267578125, 102.66284942626953, 1.49267578125, 2.999267578125, 23.0, 6.0, 10.0, 2.8605072498321533
14985, 0.8470223546028137, -0.21820558607578278, -0.6187434196472168, 6.3791660068091e-05, -0.0002512218779884279, -3.4041574001312256, 0.002776794834062457, -0.011344799771904945, -0.5087136030197144, -0.8433677554130554, -0.9563838839530945, 0.05553723871707916, -0.493092515913154, -0.21130777068103157, -5.052210091135697, 9362.0, 30146.0, 35388.0, 9362.0, 8.251240730285645, -0.11212937533855438, -0.02303534373641014, 0.10597973316907883, -0.07681869715452194, 0.006150243803858757, 0.9967456459999084, -0.09662999212741852, -0.24567794799804688, 1.475830078125, 2.999267578125, 102.66284942626953, 1.49267578125, 2.999267578125, 23.0, 6.0, 10.0, 2.8609604835510254
14995, 0.8481687903404236, -0.21891610324382782, -0.6175517439842224, 9.334908099845052e-05, -0.0003719211963471025, -3.4092459678649902, 0.0031347128096967936, -0.012795059010386467, -0.5090007185935974, -0.8433739542961121, -0.9564021229743958, 0.05554769188165665, -0.47995571221564326, -0.2189336573266587, -5.042820319014458, 9362.0, 30146.0, 35388.0, 9362.0, 8.251240730285645, 0.04932323098182678, -0.0474284365773201, 0.12927857041358948, -0.07695554941892624, 0.005442652851343155, 0.9958350658416748, -0.09662999212741852, -0.24567794799804688, 1.475830078125, 2.999267578125, 102.66284942626953, 1.48974609375, 2.999267578125, 23.0, 6.0, 10.0, 2.8614120483398438
15005, 0.8495123982429504, -0.22244535386562347, -0.6165246367454529, 0.00012647852418012917, -0.0005071136984042823, -3.4143378734588623, 0.003491202834993601, -0.014243428595364094, -0.5094000101089478, -0.843399167060852, -0.9564496278762817, 0.05557939410209656, -0.4432804857510206, -0.22531390340711255, -5.0402677519134, 9362.0, 30146.0, 35388.0, 9362.0, 8.251240730285645, 0.14135411381721497, 0.29102823138237, 0.029187414795160294, -0.07632181793451309, 0.004467569291591644, 0.9980077743530273, -0.09662999212741852, -0.24567794799804688, 1.475830078125, 2.999267578125, 102.66284942626953, 1.48974609375, 2.999267578125, 23.0, 6.0, 10.0, 2.8618621826171875
15015, 0.8498926758766174, -0.22433851659297943, -0.6136890649795532, 0.0001631816558074206, -0.0006568105891346931, -3.419433116912842, 0.0038494367618113756, -0.01569593884050846, -0.5096526145935059, -0.8446273803710938, -0.9573113322257996, 0.054253242909908295, 0.4942642108790919, 0.8670067096924754, -5.226029489318212, 9362.0, 30146.0, 35388.0, 9362.0, 8.251240730285645, 0.08900634944438934, 0.15957312285900116, 0.22726015746593475, -0.07644221931695938, 0.004721513018012047, 0.9967423677444458, -0.09662999212741852, -0.24567794799804688, 1.475830078125, 2.999267578125, 102.66284942626953, 1.490478515625, 2.999267578125, 23.0, 6.0, 10.0, 2.8623106479644775
15025, 0.8483256101608276, -0.2240534871816635, -0.6144431233406067, 0.0002034971403190866, -0.0008210438536480069, -3.4245309829711914, 0.004213723354041576, -0.017150690779089928, -0.5099125504493713, -0.8434025645256042, -0.956457257270813, 0.05554325878620148, -0.44766755628892596, -0.23316757084106143, -5.054186000915026, 9362.0, 30146.0, 35388.0, 9362.0, 8.251240730285645, -0.2190803438425064, 0.07935485988855362, -0.12500625848770142, -0.07577446103096008, 0.005401394795626402, 0.9958840608596802, -0.09662999212741852, -0.24567794799804688, 1.475830078125, 2.999267578125, 102.66284942626953, 1.490478515625, 2.999267578125, 23.0, 6.0, 10.0, 2.862757682800293
15035, 0.8481737971305847, -0.2236568033695221, -0.6138010621070862, 0.0002474698412697762, -0.0009998194873332977, -3.4296319484710693, 0.004580801818519831, -0.018604455515742302, -0.5102857947349548, -0.8433586955070496, -0.9564355611801147, 0.055534012615680695, -0.4748885312557937, -0.24709749944722148, -5.036538625252863, 9362.0, 30146.0, 35388.0, 9362.0, 8.251240730285645, -0.09267787635326385, 0.11540235579013824, 0.11479964852333069, -0.07567664980888367, 0.004802364390343428, 0.9981491565704346, -0.09662999212741852, -0.24567794799804688, 1.475830078125, 2.999267578125, 102.66284942626953, 1.49853515625, 2.999267578125, 23.0, 6.0, 10.0, 2.8632030487060547
15045, 0.8480485677719116, -0.22318239510059357, -0.6124278903007507, 0.0002951129281427711, -0.0011931272456422448, -3.4347362518310547, 0.004947836510837078, -0.02005709521472454, -0.510553240776062, -0.8433254361152649, -0.9564587473869324, 0.05553904175758362, -0.4611987200484544, -0.27207403465729385, -5.05033443395568, 9362.0, 30146.0, 35388.0, 9362.0, 8.251240730285645, -0.10496746748685837, 0.04482327774167061, 0.20669841766357422, -0.07752640545368195, 0.005281793884932995, 0.9980202913284302, -0.09662999212741852, -0.24567794799804688, 1.475830078125, 2.999267578125, 102.66284942626953, 1.49853515625, 2.999267578125, 23.0, 6.0, 10.0, 2.863646984100342
15055, 0.8483427166938782, -0.2229548543691635, -0.6129714250564575, 0.00034642417449504137, -0.0014009643346071243, -3.439842939376831, 0.005314446520060301, -0.021510325372219086, -0.5107627511024475, -0.8433487415313721, -0.95636385679245, 0.0555274598300457, -0.5057000531218211, -0.23372551537599406, -5.052756075044752, 9362.0, 30146.0, 35388.0, 9362.0, 8.251240730285645, -0.07997126132249832, -0.06296884268522263, 0.03652236610651016, -0.07563764601945877, 0.006722391117364168, 0.9976121187210083, -0.09662999212741852, -0.24567794799804688, 1.475830078125, 2.999267578125, 102.66284942626953, 1.49560546875, 2.999267578125, 23.0, 6.0, 10.0, 2.864089250564575
15065, 0.8477883338928223, -0.22124803066253662, -0.6139769554138184, 0.0004013969737570733, -0.0016233299393206835, -3.4449517726898193, 0.0056800986640155315, -0.022962788119912148, -0.5110087990760803, -0.8433828949928284, -0.9563692212104797, 0.0555192306637764, -0.4935985685754937, -0.21011083521170804, -5.070533743929845, 9362.0, 30146.0, 35388.0, 9362.0, 8.251240730285645, -0.10258819162845612, -0.15002793073654175, -0.12010704725980759, -0.07779867202043533, 0.0060018515214324, 0.9976440668106079, -0.09662999212741852, -0.24567794799804688, 1.475830078125, 2.999267578125, 102.66284942626953, 1.49560546875, 2.999267578125, 23.0, 6.0, 10.0, 2.864530086517334
15075, 0.8474056124687195, -0.22015690803527832, -0.614518404006958, 0.0004600240208674222, -0.0018602217314764857, -3.4500632286071777, 0.0060452925972640514, -0.024415582418441772, -0.5112667679786682, -0.8434178829193115, -0.9564250707626343, 0.05551888048648834, -0.4691898718219105, -0.20842290426031695, -5.056250697839932, 9362.0, 30146.0, 35388.0, 9362.0, 8.251240730285645, 0.0335521325469017, 0.053875260055065155, -0.0397472009062767, -0.07767663896083832, 0.004699018318206072, 0.9984050989151001, -0.08346743881702423, -0.05751800537109375, 1.4912109375, 2.999267578125, 102.66284942626953, 1.49560546875, 2.999267578125, 23.0, 6.0, 10.0, 2.864969491958618
15085, 0.8468250036239624, -0.21848930418491364, -0.6148585081100464, 0.0005222892505116761, -0.00211164029315114, -3.455176830291748, 0.00640774704515934, -0.025868136435747147, -0.5114754438400269, -0.8433420658111572, -0.9564476609230042, 0.05550938844680786, -0.4707396174578729, -0.251410360255619, -5.053012925847479, 9362.0, 30146.0, 35388.0, 9362.0, 8.251240730285645, -0.21626706421375275, -0.22747792303562164, -0.06616516411304474, -0.07473265379667282, 0.00547413807362318, 0.9987821578979492, -0.08346743881702423, -0.05751800537109375, 1.4912109375, 2.999267578125, 102.66284942626953, 1.49560546875, 2.999267578125, 23.0, 6.0, 10.0, 2.8654072284698486
15095, 0.8467443585395813, -0.21844880282878876, -0.6157413721084595, 0.0005881709512323141, -0.002377586206421256, -3.460292339324951, 0.006768588908016682, -0.02732103131711483, -0.5116156935691833, -0.8433454632759094, -0.9564197659492493, 0.055509164929389954, -0.48077436157507286, -0.24385130027499713, -5.070009818732467, 9362.0, 30146.0, 35388.0, 9362.0, 8.251240730285645, -0.11525651067495346, 0.10388245433568954, -0.26041480898857117, -0.07570938020944595, 0.004616109654307365, 0.9962974190711975, -0.08346743881702423, -0.05751800537109375, 1.4912109375, 2.999267578125, 102.66284942626953, 1.48974609375, 2.999267578125, 23.0, 6.0, 10.0, 2.8658435344696045
15105, 0.84697425365448, -0.21758700907230377, -0.6175544261932373, 0.0006576437153853476, -0.0026580432895570993, -3.465409994125366, 0.0071259429678320885, -0.028770385310053825, -0.5119256377220154, -0.8433781266212463, -0.9563968181610107, 0.05550675094127655, -0.49092914282805544, -0.21384187427574375, -5.049338103636073, 9362.0, 30146.0, 35388.0, 9362.0, 8.251240730285645, 0.08791957050561905, -0.0795062780380249, -0.35672417283058167, -0.07636334747076035, 0.004527662880718708, 0.9969264268875122, -0.08346743881702423, -0.05751800537109375, 1.4912109375, 2.999267578125, 102.66284942626953, 1.48974609375, 2.999267578125, 23.0, 6.0, 10.0, 2.8662781715393066
15115, 0.8481583595275879, -0.21910670399665833, -0.615652322769165, 0.0007306899060495198, -0.0029529945459216833, -3.4705307483673096, 0.007483249995857477, -0.030219871550798416, -0.5122189521789551, -0.8433725237846375, -0.9564245343208313, 0.055517468601465225, -0.4763986565295954, -0.23096353779041578, -5.053888620829596, 9362.0, 30146.0, 35388.0, 9362.0, 8.251240730285645, 0.16809551417827606, 0.0692402645945549, 0.2344062626361847, -0.0769607424736023, 0.00463472492992878, 0.9991650581359863, -0.08346743881702423, -0.05751800537109375, 1.4912109375, 2.999267578125, 102.66284942626953, 1.496337890625, 2.999267578125, 23.0, 6.0, 10.0, 2.866711378097534
15145, 0.8468868136405945, -0.2243390679359436, -0.6092368960380554, 0.0008874980849213898, -0.0035864522214978933, -3.4807775020599365, 0.00819910317659378, -0.03312765434384346, -0.5123968124389648, -0.8433564305305481, -0.9564212560653687, 0.055510781705379486, -0.47380407404954394, -0.2434846980283396, -5.053532581996052, 9362.0, 30146.0, 35388.0, 9362.0, 8.251240730285645, -0.08281588554382324, -0.036001794040203094, 0.21158140897750854, -0.07748978585004807, 0.0072916969656944275, 0.9996898770332336, -0.08346743881702423, -0.05751800537109375, 1.4912109375, 2.999267578125, 102.66284942626953, 1.496337890625, 2.999267578125, 23.0, 6.0, 10.0, 2.86800217628479
15175, 0.8458879590034485, -0.22503508627414703, -0.6079010963439941, 0.0011497845407575369, -0.0046456377021968365, -3.4961600303649902, 0.009290607646107674, -0.03748178109526634, -0.5132048726081848, -0.8433598279953003, -0.9563824534416199, 0.055504318326711655, -0.5122743028362304, -0.24243222952026144, -5.05584733145333, 9362.0, 30146.0, 35388.0, 9362.0, 8.231406211853027, -0.08281588554382324, -0.036001794040203094, 0.21158140897750854, -0.07748978585004807, 0.0072916969656944275, 0.9996898770332336, -0.06363582611083984, -0.10231781005859375, 1.487548828125, 2.999267578125, 102.66284942626953, 1.49560546875, 2.999267578125, 23.0, 6.0, 10.0, 2.869279623031616
15185, 0.8470072746276855, -0.2235250622034073, -0.6093850135803223, 0.001342880423180759, -0.0054242778569459915, -3.5064287185668945, 0.010020405054092407, -0.040381431579589844, -0.5136961340904236, -0.8433856964111328, -0.9563713669776917, 0.0554942861199379, -0.507145212540628, -0.21951820227647545, -5.062499314429189, 9362.0, 30146.0, 35388.0, 9362.0, 8.231406211853027, -0.08281588554382324, -0.036001794040203094, 0.21158140897750854, -0.07748978585004807, 0.0072916969656944275, 0.9996898770332336, -0.06363582611083984, -0.10231781005859375, 1.487548828125, 2.999267578125, 102.66284942626953, 1.49560546875, 2.999267578125, 23.0, 6.0, 10.0, 2.8697025775909424
15205, 0.8452535271644592, -0.22664868831634521, -0.6098284721374512, 0.0014449266018345952, -0.005835324991494417, -3.5115675926208496, 0.010388802736997604, -0.04182802513241768, -0.5140902996063232, -0.843383252620697, -0.956388533115387, 0.05547533184289932, -0.490534235840123, -0.2278762966329282, -5.0703985426267835, 9362.0, 30146.0, 35388.0, 9362.0, 8.231406211853027, -0.08281588554382324, -0.036001794040203094, 0.21158140897750854, -0.07748978585004807, 0.0072916969656944275, 0.9996898770332336, -0.06363582611083984, -0.10231781005859375, 1.487548828125, 2.999267578125, 102.66284942626953, 1.49560546875, 2.999267578125, 23.0, 6.0, 10.0, 2.870544195175171
15285, 0.8471112847328186, -0.21991237998008728, -0.6082977056503296, 0.0025298213586211205, -0.01018640398979187, -3.5579559803009033, 0.013715123757719994, -0.05486370250582695, -0.5168200135231018, -0.8433565497398376, -0.9564288258552551, 0.05543730780482292, -0.48388731194909523, -0.23199394158658038, -5.061197625837149, 9362.0, 30146.0, 35388.0, 9362.0, 8.251240730285645, -0.08281588554382324, -0.036001794040203094, 0.21158140897750854, -0.07748978585004807, 0.0072916969656944275, 0.9996898770332336, -0.04572244733572006, 0.0052013397216796875, 1.496337890625, 2.999267578125, 102.66284942626953, 1.49560546875, 2.999267578125, 23.0, 6.0, 10.0, 2.873852491378784
15325, 0.8458930850028992, -0.22154565155506134, -0.6086400151252747, 0.0031074057333171368, -0.0124970693141222, -3.578645706176758, 0.015159742906689644, -0.06066639721393585, -0.5180092453956604, -0.8433893322944641, -0.9564281702041626, 0.05548962950706482, -0.46751337297409234, -0.22302539221882967, -5.065205090304605, 9362.0, 30146.0, 35388.0, 9362.0, 8.251240730285645, -0.08281588554382324, -0.036001794040203094, 0.21158140897750854, -0.07748978585004807, 0.0072916969656944275, 0.9996898770332336, -0.04572244733572006, 0.0052013397216796875, 1.496337890625, 2.999267578125, 102.66284942626953, 1.49267578125, 2.999267578125, 23.0, 6.0, 10.0, 2.8754727840423584
15335, 0.8473433256149292, -0.22237147390842438, -0.6074740886688232, 0.0032608190085738897, -0.013110996223986149, -3.583827257156372, 0.015522964298725128, -0.06211898475885391, -0.5182791948318481, -0.8433641791343689, -0.9564290642738342, 0.05554754287004471, -0.4676623928496754, -0.23067795698321447, -5.045236376562973, 9362.0, 30146.0, 35388.0, 9362.0, 8.251240730285645, -0.08281588554382324, -0.036001794040203094, 0.21158140897750854, -0.07517372071743011, 0.005545672029256821, 0.9978389739990234, -0.04572244733572006, 0.0052013397216796875, 1.496337890625, 2.999267578125, 102.66284942626953, 1.49267578125, 2.999267578125, 23.0, 6.0, 10.0, 2.8758745193481445
15345, 0.8461725115776062, -0.220338374376297, -0.6070127487182617, 0.0034178642090409994, -0.013739431276917458, -3.5890111923217773, 0.01588609628379345, -0.0635681077837944, -0.5184975862503052, -0.8434024453163147, -0.9564179182052612, 0.05552850663661957, -0.4839327303477576, -0.21480318143011345, -5.0434486544615975, 9362.0, 30146.0, 35388.0, 9362.0, 8.251240730285645, -0.08281588554382324, -0.036001794040203094, 0.21158140897750854, -0.07517372071743011, 0.005545672029256821, 0.9978389739990234, -0.04572244733572006, 0.0052013397216796875, 1.496337890625, 2.999267578125, 102.66284942626953, 1.49267578125, 2.999267578125, 23.0, 6.0, 10.0, 2.876274824142456
15375, 0.8468466997146606, -0.22116167843341827, -0.606490969657898, 0.0039107706397771835, -0.01571168750524521, -3.604580879211426, 0.01697259023785591, -0.0679134801030159, -0.5195921659469604, -0.843368411064148, -0.9563652276992798, 0.05549443140625954, -0.5180807759453359, -0.2342603188734529, -5.0501911416500045, 9362.0, 30146.0, 35388.0, 9362.0, 8.251240730285645, -0.08281588554382324, -0.036001794040203094, 0.21158140897750854, -0.07517372071743011, 0.005545672029256821, 0.9978389739990234, -0.06839080154895782, 0.05896186828613281, 1.500732421875, 2.999267578125, 102.66284942626953, 1.49560546875, 2.999267578125, 23.0, 6.0, 10.0, 2.877467393875122
15385, 0.8471882343292236, -0.22292999923229218, -0.6079769134521484, 0.004082304425537586, -0.01639806106686592, -3.609778642654419, 0.017334165051579475, -0.06936132162809372, -0.5199368596076965, -0.8433867692947388, -0.9563804268836975, 0.0555322989821434, -0.4954429658501223, -0.21706163358780373, -5.042498001393705, 9362.0, 30146.0, 35388.0, 9362.0, 8.251240730285645, -0.08281588554382324, -0.036001794040203094, 0.21158140897750854, -0.07517372071743011, 0.005545672029256821, 0.9978389739990234, -0.06839080154895782, 0.05896186828613281, 1.500732421875, 2.999267578125, 102.66284942626953, 1.49560546875, 2.999267578125, 23.0, 6.0, 10.0, 2.8778622150421143
15405, 0.8465779423713684, -0.22495698928833008, -0.6073176264762878, 0.00443623960018158, -0.017814256250858307, -3.620185136795044, 0.018061017617583275, -0.07225912809371948, -0.5206645131111145, -0.8434045314788818, -0.9564433097839355, 0.05555561184883118, -0.46119757210666296, -0.2248175976167488, -5.0414613597309845, 9362.0, 30146.0, 35388.0, 9362.0, 8.251240730285645, -0.08281588554382324, -0.036001794040203094, 0.21158140897750854, -0.07517372071743011, 0.005545672029256821, 0.9978389739990234, -0.06839080154895782, 0.05896186828613281, 1.500732421875, 2.999267578125, 102.66284942626953, 1.49560546875, 2.999267578125, 23.0, 6.0, 10.0, 2.878647804260254
15485, 0.8450009226799011, -0.23173269629478455, -0.6019392013549805, 0.005998778156936169, -0.024059180170297623, -3.6619155406951904, 0.021018359810113907, -0.08386091887950897, -0.5230231285095215, -0.8433182835578918, -0.9563988447189331, 0.05544797331094742, -0.5014596021266879, -0.2462079646427071, -5.069810273105042, 9362.0, 30146.0, 35388.0, 9362.0, 8.231406211853027, -0.08281588554382324, -0.036001794040203094, 0.21158140897750854, -0.07517372071743011, 0.005545672029256821, 0.9978389739990234, -0.06839080154895782, 0.05896186828613281, 1.500732421875, 2.999267578125, 102.66284942626953, 1.5, 2.999267578125, 23.0, 6.0, 10.0, 2.88173770904541
15515, 0.8454981446266174, -0.23576736450195312, -0.5968589186668396, 0.006426744628697634, -0.025765307247638702, -3.6723830699920654, 0.021778956055641174, -0.08675409853458405, -0.5235875248908997, -0.8433730602264404, -0.9563961625099182, 0.055531688034534454, -0.49113841796824664, -0.22846732105392675, -5.04907049433579, 9362.0, 30146.0, 35388.0, 9362.0, 8.231406211853027, -0.08281588554382324, -0.036001794040203094, 0.21158140897750854, -0.07517372071743011, 0.005545672029256821, 0.9978389739990234, -0.06839080154895782, 0.05896186828613281, 1.500732421875, 2.999267578125, 102.66284942626953, 1.49560546875, 2.999267578125, 23.0, 6.0, 10.0, 2.8828747272491455
15535, 0.8443047404289246, -0.2359399050474167, -0.5921669006347656, 0.007097363471984863, -0.02843313291668892, -3.6880991458892822, 0.0229332335293293, -0.09110087901353836, -0.5241817831993103, -0.8434100151062012, -0.9563519358634949, 0.05550294741988182, -0.5149926090888051, -0.19269238240974573, -5.038353558246897, 9362.0, 30146.0, 35388.0, 9362.0, 8.231406211853027, -0.08281588554382324, -0.036001794040203094, 0.21158140897750854, -0.07517372071743011, 0.005545672029256821, 0.9978389739990234, -0.06839080154895782, 0.05896186828613281, 1.500732421875, 2.999267578125, 102.66284942626953, 1.49560546875, 2.999267578125, 23.0, 6.0, 10.0, 2.8836264610290527
15575, 0.841983437538147, -0.24460208415985107, -0.5865517854690552, 0.007563804276287556, -0.030284099280834198, -3.698587417602539, 0.02371048741042614, -0.09399530291557312, -0.5246229767799377, -0.8433810472488403, -0.9564076066017151, 0.05548955500125885, -0.4869675607850849, -0.22520894703183103, -5.052689912676453, 9362.0, 30146.0, 35388.0, 9362.0, 8.231406211853027, -0.08281588554382324, -0.036001794040203094, 0.21158140897750854, -0.07517372071743011, 0.005545672029256821, 0.9978389739990234, -0.06839080154895782, 0.05896186828613281, 1.500732421875, 2.999267578125, 102.66284942626953, 1.49560546875, 2.999267578125, 23.0, 6.0, 10.0, 2.8851146697998047
15585, 0.8424866795539856, -0.24444463849067688, -0.5873726010322571, 0.008292891085147858, -0.03316880762577057, -3.7143445014953613, 0.02489958517253399, -0.09831520169973373, -0.5260298252105713, -0.8433903455734253, -0.9564183950424194, 0.055466193705797195, -0.48757649987643864, -0.21340615087223114, -5.066011689201466, 9362.0, 30146.0, 35388.0, 9362.0, 8.231406211853027, -0.09231634438037872, -0.22310113906860352, -0.22860124707221985, -0.07517372071743011, 0.005545672029256821, 0.9978389739990234, -0.06839080154895782, 0.05896186828613281, 1.500732421875, 2.999267578125, 102.66284942626953, 1.49560546875, 2.999267578125, 23.0, 6.0, 10.0, 2.885483503341675
15605, 0.8440538048744202, -0.24918225407600403, -0.585380494594574, 0.008798937313258648, -0.03516394644975662, -3.7248709201812744, 0.02570514567196369, -0.10120010375976562, -0.5265610814094543, -0.8434101939201355, -0.9563543200492859, 0.0555243045091629, -0.5225443432333703, -0.20513140382786332, -5.056077958206634, 9362.0, 30146.0, 35388.0, 9362.0, 8.231406211853027, -0.09231634438037872, -0.22310113906860352, -0.22860124707221985, -0.07972157746553421, 0.003989063668996096, 0.9956164956092834, -0.06839080154895782, 0.05896186828613281, 1.500732421875, 2.999267578125, 102.66284942626953, 1.494140625, 2.999267578125, 23.0, 6.0, 10.0, 2.8862175941467285
15765, 0.8588089942932129, -0.247116819024086, -0.5924331545829773, 0.013436637818813324, -0.05322401598095894, -3.8095180988311768, 0.03222387656569481, -0.12466161698102951, -0.5309510827064514, -0.8433732390403748, -0.956427276134491, 0.055489566177129745, -0.4868779198994641, -0.2184228866575495, -5.060691299419132, 9362.0, 30146.0, 35388.0, 9362.0, 8.231406211853027, -0.09231634438037872, -0.22310113906860352, -0.22860124707221985, -0.07530152797698975, 0.006552286446094513, 0.9969376921653748, -0.06839080154895782, 0.05896186828613281, 1.500732421875, 2.999267578125, 102.66284942626953, 1.49853515625, 2.999267578125, 23.0, 6.0, 10.0, 2.8915679454803467
15775, 0.8575364947319031, -0.24885384738445282, -0.5921794772148132, 0.013760887086391449, -0.05447797477245331, -3.8148303031921387, 0.032625917345285416, -0.12613056600093842, -0.5314877033233643, -0.843349277973175, -0.9563364386558533, 0.05542530119419098, -0.5552905518698839, -0.2179337643449344, -5.064186645251447, 9362.0, 30146.0, 35388.0, 9362.0, 8.231406211853027, -0.09231634438037872, -0.22310113906860352, -0.22860124707221985, -0.07530152797698975, 0.006552286446094513, 0.9969376921653748, -0.04981345310807228, -0.03959846496582031, 1.49267578125, 2.999267578125, 102.66284942626953, 1.49853515625, 2.999267578125, 23.0, 6.0, 10.0, 2.8915679454803467
15795, 0.8542316555976868, -0.25280436873435974, -0.5909013748168945, 0.01408917736262083, -0.05574662238359451, -3.8201472759246826, 0.03303208574652672, -0.12759923934936523, -0.5318976640701294, -0.8433995246887207, -0.9564010500907898, 0.055511221289634705, -0.4941677715717006, -0.21404570109874044, -5.054046131079546, 9362.0, 30146.0, 35388.0, 9362.0, 8.231406211853027, -0.09231634438037872, -0.22310113906860352, -0.22860124707221985, -0.07530152797698975, 0.006552286446094513, 0.9969376921653748, -0.04981345310807228, -0.03959846496582031, 1.49267578125, 2.999267578125, 102.66284942626953, 1.49267578125, 2.999267578125, 23.0, 6.0, 10.0, 2.8929495811462402
15805, 0.8510358929634094, -0.25659438967704773, -0.5874807238578796, 0.01475803554058075, -0.05832800269126892, -3.8307878971099854, 0.03385467082262039, -0.13053633272647858, -0.5321804881095886, -0.8433840274810791, -0.9563753604888916, 0.0554540753364563, -0.5178086289476315, -0.21325681354505832, -5.04959952894595, 9362.0, 30146.0, 35388.0, 9362.0, 8.231406211853027, -0.09231634438037872, -0.22310113906860352, -0.22860124707221985, -0.07530152797698975, 0.006552286446094513, 0.9969376921653748, -0.04981345310807228, -0.03959846496582031, 1.49267578125, 2.999267578125, 102.66284942626953, 1.49267578125, 2.999267578125, 23.0, 6.0, 10.0, 2.893292188644409
15815, 0.8505698442459106, -0.2604987919330597, -0.5841124653816223, 0.01509866677224636, -0.059640686959028244, -3.8361105918884277, 0.03427164629101753, -0.13200044631958008, -0.5323774814605713, -0.8433384895324707, -0.9563950896263123, 0.055469729006290436, -0.4961581059175829, -0.24681798179696557, -5.068278935787744, 9362.0, 30146.0, 35388.0, 9362.0, 8.231406211853027, -0.09231634438037872, -0.22310113906860352, -0.22860124707221985, -0.07530152797698975, 0.006552286446094513, 0.9969376921653748, -0.04981345310807228, -0.03959846496582031, 1.49267578125, 2.999267578125, 102.66284942626953, 1.4970703125, 2.999267578125, 23.0, 6.0, 10.0, 2.8936336040496826
15825, 0.8473830223083496, -0.26241403818130493, -0.5811899900436401, 0.015443495474755764, -0.06096796691417694, -3.8414366245269775, 0.034694138914346695, -0.13345544040203094, -0.532822847366333, -0.8433406352996826, -0.9563874006271362, 0.055479995906353, -0.5183918700501977, -0.22545458594581191, -5.056182858858991, 9362.0, 30146.0, 35388.0, 9362.0, 8.231406211853027, -0.09231634438037872, -0.22310113906860352, -0.22860124707221985, -0.07530152797698975, 0.006552286446094513, 0.9969376921653748, -0.04981345310807228, -0.03959846496582031, 1.49267578125, 2.999267578125, 102.66284942626953, 1.4970703125, 2.999267578125, 23.0, 6.0, 10.0, 2.8939738273620605
15835, 0.8454256653785706, -0.2633940577507019, -0.577405571937561, 0.01579258404672146, -0.06230979412794113, -3.846766948699951, 0.03512348234653473, -0.1349100023508072, -0.5332494378089905, -0.8433562517166138, -0.9564120769500732, 0.055512797087430954, -0.49416211384984804, -0.23351903995256862, -5.053459825901146, 9362.0, 30146.0, 35388.0, 9362.0, 8.231406211853027, -0.09231634438037872, -0.22310113906860352, -0.22860124707221985, -0.07530152797698975, 0.006552286446094513, 0.9969376921653748, -0.04981345310807228, -0.03959846496582031, 1.49267578125, 2.999267578125, 102.66284942626953, 1.4970703125, 2.999267578125, 23.0, 6.0, 10.0, 2.894312858581543
15855, 0.8457843661308289, -0.2714225947856903, -0.5730345249176025, 0.01650374010205269, -0.06503704190254211, -3.8574352264404297, 0.03599335998296738, -0.13781335949897766, -0.5335279107093811, -0.8433071970939636, -0.9564388990402222, 0.05542650446295738, -0.49373901655616803, -0.2788671475266824, -5.073483878253042, 9362.0, 30146.0, 35388.0, 9362.0, 8.231406211853027, -0.09231634438037872, -0.22310113906860352, -0.22860124707221985, -0.07530152797698975, 0.006552286446094513, 0.9969376921653748, -0.04981345310807228, -0.03959846496582031, 1.49267578125, 2.999267578125, 102.66284942626953, 1.4970703125, 2.999267578125, 23.0, 6.0, 10.0, 2.8949878215789795
15875, 0.8475508093833923, -0.27474337816238403, -0.5677716135978699, 0.016865886747837067, -0.06642243266105652, -3.8627710342407227, 0.03643595054745674, -0.13926415145397186, -0.53361576795578, -0.8433502316474915, -0.9563501477241516, 0.05544961243867874, -0.5367535053482063, -0.21468846087242355, -5.059970085294377, 9362.0, 30146.0, 35388.0, 9362.0, 8.231406211853027, 0.1076873242855072, 0.45328041911125183, 0.4399021863937378, -0.07530152797698975, 0.006552286446094513, 0.9969376921653748, -0.09552712738513947, -0.2098369598388672, 1.478759765625, 2.999267578125, 102.66284942626953, 1.4970703125, 2.999267578125, 23.0, 6.0, 10.0, 2.895658016204834
15885, 0.8482373356819153, -0.2722119390964508, -0.5681523680686951, 0.017603598535060883, -0.06923672556877136, -3.8734469413757324, 0.03733552619814873, -0.1421651989221573, -0.5339926481246948, -0.8433245420455933, -0.9563560485839844, 0.0554828867316246, -0.5402501185233982, -0.23512387734439244, -5.0596954224671125, 9362.0, 30146.0, 35388.0, 9362.0, 8.231406211853027, 0.1076873242855072, 0.45328041911125183, 0.4399021863937378, -0.07530152797698975, 0.006552286446094513, 0.9969376921653748, -0.09552712738513947, -0.2098369598388672, 1.478759765625, 2.999267578125, 102.66284942626953, 1.4970703125, 2.999267578125, 23.0, 6.0, 10.0, 2.895991563796997
15895, 0.849617063999176, -0.27240899205207825, -0.5675252676010132, 0.017979225143790245, -0.0706656277179718, -3.878788948059082, 0.037789683789014816, -0.14361514151096344, -0.5343928337097168, -0.8433729410171509, -0.956428587436676, 0.05547306314110756, -0.48498349082538283, -0.2365308576459597, -5.06905864850882, 9362.0, 30146.0, 35388.0, 9362.0, 8.231406211853027, 0.1076873242855072, 0.45328041911125183, 0.4399021863937378, -0.07530152797698975, 0.006552286446094513, 0.9969376921653748, -0.09552712738513947, -0.2098369598388672, 1.478759765625, 2.999267578125, 102.66284942626953, 1.49267578125, 2.999267578125, 23.0, 6.0, 10.0, 2.8963239192962646
15905, 0.8508434295654297, -0.2707616984844208, -0.5709235072135925, 0.018359366804361343, -0.07210902124643326, -3.8841357231140137, 0.038238655775785446, -0.14506343007087708, -0.534977376461029, -0.8433792591094971, -0.9563959836959839, 0.055489443242549896, -0.5040651902592709, -0.22810601062164437, -5.052697202624013, 9362.0, 30146.0, 35388.0, 9362.0, 8.231406211853027, 0.1076873242855072, 0.45328041911125183, 0.4399021863937378, -0.07530152797698975, 0.006552286446094513, 0.9969376921653748, -0.09552712738513947, -0.2098369598388672, 1.478759765625, 2.999267578125, 102.66284942626953, 1.49267578125, 2.999267578125, 23.0, 6.0, 10.0, 2.8966550827026367
15915, 0.8524219989776611, -0.2679332494735718, -0.5714717507362366, 0.018743999302387238, -0.07356690615415573, -3.889488458633423, 0.038687895983457565, -0.1465141773223877, -0.535555362701416, -0.8433863520622253, -0.9563575983047485, 0.05551382154226303, -0.5249282483178954, -0.2041122388281451, -5.057375000481515, 9362.0, 30146.0, 35388.0, 9362.0, 8.231406211853027, 0.1076873242855072, 0.45328041911125183, 0.4399021863937378, -0.07530152797698975, 0.006552286446094513, 0.9969376921653748, -0.09552712738513947, -0.2098369598388672, 1.478759765625, 2.999267578125, 102.66284942626953, 1.496337890625, 2.999267578125, 23.0, 6.0, 10.0, 2.8969852924346924
15925, 0.8532451391220093, -0.2666047215461731, -0.5715773701667786, 0.01913311704993248, -0.0750393345952034, -3.894845485687256, 0.03913568705320358, -0.14797154068946838, -0.5358307957649231, -0.8433501720428467, -0.9564120173454285, 0.05547827482223511, -0.4961649363379525, -0.2373935834617953, -5.06081428340493, 9362.0, 30146.0, 35388.0, 9362.0, 8.231406211853027, 0.1076873242855072, 0.45328041911125183, 0.4399021863937378, -0.07530152797698975, 0.006552286446094513, 0.9969376921653748, -0.09552712738513947, -0.2098369598388672, 1.478759765625, 2.999267578125, 102.66284942626953, 1.496337890625, 2.999267578125, 23.0, 6.0, 10.0, 2.8973143100738525
15975, 0.8655306696891785, -0.2628854215145111, -0.5869626402854919, 0.021144850179553032, -0.08262091130018234, -3.9216690063476562, 0.0413181371986866, -0.15530431270599365, -0.5374279618263245, -0.8433580994606018, -0.9563689827919006, 0.05547454208135605, -0.5188065611969441, -0.23911329484207045, -5.062898885452198, 9362.0, 30146.0, 35388.0, 9362.0, 8.231406211853027, 0.1076873242855072, 0.45328041911125183, 0.4399021863937378, -0.07530152797698975, 0.006552286446094513, 0.9969376921653748, -0.07427407056093216, -0.08439826965332031, 1.489013671875, 2.999267578125, 102.66284942626953, 1.5, 2.999267578125, 23.0, 6.0, 10.0, 2.8989431858062744
15985, 0.867078959941864, -0.2580268979072571, -0.5921493768692017, 0.0215601846575737, -0.08418135344982147, -3.9270451068878174, 0.04174865409731865, -0.15678390860557556, -0.5377855896949768, -0.8434016108512878, -0.9564106464385986, 0.05548533797264099, -0.5043910050047157, -0.20999786762484973, -5.051951855245645, 9362.0, 30146.0, 35388.0, 9362.0, 8.231406211853027, 0.1076873242855072, 0.45328041911125183, 0.4399021863937378, -0.07530152797698975, 0.006552286446094513, 0.9969376921653748, -0.07427407056093216, -0.08439826965332031, 1.489013671875, 2.999267578125, 102.66284942626953, 1.5, 2.999267578125, 23.0, 6.0, 10.0, 2.899265766143799
16005, 0.8679680228233337, -0.2541704475879669, -0.6003723740577698, 0.022403787821531296, -0.08734668791294098, -3.9378063678741455, 0.04260748252272606, -0.15975163877010345, -0.5383188724517822, -0.8448091745376587, -0.9559695720672607, 0.05548079311847687, -0.65905527702319, 0.6848641787709937, -5.092669169542714, 9362.0, 30146.0, 35388.0, 9362.0, 8.231406211853027, 0.1076873242855072, 0.45328041911125183, 0.4399021863937378, -0.07530152797698975, 0.006552286446094513, 0.9969376921653748, -0.07427407056093216, -0.08439826965332031, 1.489013671875, 2.999267578125, 102.66284942626953, 1.4912109375, 2.999267578125, 23.0, 6.0, 10.0, 2.8999075889587402
16025, 0.8684870004653931, -0.25535696744918823, -0.605190098285675, 0.02283196523785591, -0.08895163983106613, -3.943190813064575, 0.04302775859832764, -0.16123811900615692, -0.5385560393333435, -0.8447559475898743, -0.9573783874511719, 0.05404786393046379, 0.546047329315562, 0.9933415285427998, -5.245566117879777, 9362.0, 30146.0, 35388.0, 9362.0, 8.231406211853027, -0.10459405928850174, 0.008959321305155754, -0.41498687863349915, -0.07718369364738464, 0.008315978571772575, 1.0007268190383911, -0.07427407056093216, -0.08439826965332031, 1.489013671875, 2.999267578125, 102.66284942626953, 1.4912109375, 2.999267578125, 23.0, 6.0, 10.0, 2.900545120239258
16055, 0.8655900359153748, -0.2559302747249603, -0.6043175458908081, 0.024586645886301994, -0.09552033990621567, -3.9647436141967773, 0.04470711946487427, -0.1671941578388214, -0.539326012134552, -0.8433860540390015, -0.9564109444618225, 0.05549583584070206, -0.4892315188568567, -0.23024619538284696, -5.054124414400091, 9362.0, 30146.0, 35388.0, 9362.0, 8.231406211853027, 0.025318868458271027, -0.05521167814731598, 0.24461452662944794, -0.07718369364738464, 0.008315978571772575, 1.0007268190383911, -0.07427407056093216, -0.08439826965332031, 1.489013671875, 2.999267578125, 102.66284942626953, 1.49560546875, 2.999267578125, 23.0, 6.0, 10.0, 2.901493549346924
16105, 0.8590853810310364, -0.26001107692718506, -0.5939863920211792, 0.026874806731939316, -0.1040654107928276, -3.9917428493499756, 0.046820417046546936, -0.1745932251214981, -0.5410031676292419, -0.8433802723884583, -0.9563837647438049, 0.05545812100172043, -0.5063439390665562, -0.21407622103839685, -5.060819036751137, 9362.0, 30146.0, 35388.0, 9362.0, 8.231406211853027, 0.025318868458271027, -0.05521167814731598, 0.24461452662944794, -0.07718369364738464, 0.008315978571772575, 1.0007268190383911, -0.07427407056093216, -0.08439826965332031, 1.489013671875, 2.999267578125, 102.66284942626953, 1.49560546875, 2.999267578125, 23.0, 6.0, 10.0, 2.9030532836914062
16115, 0.856667160987854, -0.26204782724380493, -0.5903578400611877, 0.026874806731939316, -0.1040654107928276, -3.9917428493499756, 0.046820417046546936, -0.1745932251214981, -0.5410031676292419, -0.8433676362037659, -0.9563873410224915, 0.05549325793981552, -0.500930453539045, -0.22903074343659569, -5.044346498944854, 9362.0, 30146.0, 35388.0, 9362.0, 8.231406211853027, 0.025318868458271027, -0.05521167814731598, 0.24461452662944794, -0.07718369364738464, 0.008315978571772575, 1.0007268190383911, -0.07427407056093216, -0.08439826965332031, 1.489013671875, 2.999267578125, 102.66284942626953, 1.496337890625, 2.999267578125, 23.0, 6.0, 10.0, 2.903362274169922
16125, 0.8537997603416443, -0.2648475766181946, -0.5891388058662415, 0.02781977504491806, -0.10758675634860992, -4.002568244934082, 0.04767720028758049, -0.1775398999452591, -0.5415090918540955, -0.8433585166931152, -0.9563952088356018, 0.055470965802669525, -0.4923900539043556, -0.23184006828887505, -5.059629202377627, 9362.0, 30146.0, 35388.0, 9362.0, 8.231406211853027, 0.025318868458271027, -0.05521167814731598, 0.24461452662944794, -0.07718369364738464, 0.008315978571772575, 1.0007268190383911, -0.07427407056093216, -0.08439826965332031, 1.489013671875, 2.999267578125, 102.66284942626953, 1.496337890625, 2.999267578125, 23.0, 6.0, 10.0, 2.903670072555542
16135, 0.8541408777236938, -0.26656001806259155, -0.5884323120117188, 0.02829870954155922, -0.10936949402093887, -4.007984638214111, 0.04810957610607147, -0.1790073662996292, -0.5417749285697937, -0.8433614373207092, -0.9564165472984314, 0.05549504607915878, -0.5003077034518341, -0.23708846003341932, -5.050779683922976, 9362.0, 30146.0, 35388.0, 9362.0, 8.231406211853027, 0.025318868458271027, -0.05521167814731598, 0.24461452662944794, -0.07718369364738464, 0.008315978571772575, 1.0007268190383911, -0.07427407056093216, -0.08439826965332031, 1.489013671875, 2.999267578125, 102.66284942626953, 1.496337890625, 2.999267578125, 23.0, 6.0, 10.0, 2.9039769172668457
16145, 0.8525193333625793, -0.2681649923324585, -0.5899254083633423, 0.028781991451978683, -0.11116688698530197, -4.013403415679932, 0.04854699596762657, -0.1804705411195755, -0.5419989824295044, -0.8433834314346313, -0.9564017653465271, 0.05549100786447525, -0.4834718477021589, -0.21584533950348828, -5.048795695982565, 9362.0, 30146.0, 35388.0, 9362.0, 8.231406211853027, 0.025318868458271027, -0.05521167814731598, 0.24461452662944794, -0.07718369364738464, 0.008315978571772575, 1.0007268190383911, -0.07427407056093216, -0.08439826965332031, 1.489013671875, 2.999267578125, 102.66284942626953, 1.496337890625, 2.999267578125, 23.0, 6.0, 10.0, 2.904282808303833
16205, 0.8501286506652832, -0.2678212523460388, -0.5916063785552979, 0.0317743755877018, -0.12225797027349472, -4.045961380004883, 0.05119989067316055, -0.18921951949596405, -0.5433840751647949, -0.8433554768562317, -0.9564096927642822, 0.055436328053474426, -0.4971366536252394, -0.2443447150607767, -5.065841160661564, 9362.0, 30146.0, 35388.0, 9362.0, 8.231406211853027, 0.025318868458271027, -0.05521167814731598, 0.24461452662944794, -0.07860086858272552, 0.0039039691910147667, 0.9972235560417175, -0.07427407056093216, -0.08439826965332031, 1.489013671875, 2.999267578125, 102.66284942626953, 1.49267578125, 2.999267578125, 23.0, 6.0, 10.0, 2.9060964584350586
16215, 0.8506119847297668, -0.26812314987182617, -0.5920535922050476, 0.0317743755877018, -0.12225797027349472, -4.045961380004883, 0.05119989067316055, -0.18921951949596405, -0.5433840751647949, -0.8433563113212585, -0.9564107060432434, 0.05543266236782074, -0.49905487650935415, -0.23239633134087967, -5.061727342959813, 9362.0, 30146.0, 35388.0, 9362.0, 8.231406211853027, 0.025318868458271027, -0.05521167814731598, 0.24461452662944794, -0.07860086858272552, 0.0039039691910147667, 0.9972235560417175, -0.07427407056093216, -0.08439826965332031, 1.489013671875, 2.999267578125, 102.66284942626953, 1.49267578125, 2.999267578125, 23.0, 6.0, 10.0, 2.906395196914673
16245, 0.8583349585533142, -0.26328524947166443, -0.5987094044685364, 0.03385765105485916, -0.12994322180747986, -4.067718029022217, 0.05296497792005539, -0.19505301117897034, -0.5441756844520569, -0.8446893095970154, -0.9573031067848206, 0.05407493934035301, 0.5010234184024412, 0.9487096195521474, -5.253694363642555, 9362.0, 30146.0, 35388.0, 9362.0, 8.231406211853027, 0.025318868458271027, -0.05521167814731598, 0.24461452662944794, -0.07860086858272552, 0.0039039691910147667, 0.9972235560417175, -0.07427407056093216, -0.08439826965332031, 1.489013671875, 2.999267578125, 102.66284942626953, 1.49267578125, 2.999267578125, 23.0, 6.0, 10.0, 2.907285690307617
16255, 0.8594613075256348, -0.2636098265647888, -0.5985028743743896, 0.03385765105485916, -0.12994322180747986, -4.067718029022217, 0.05296497792005539, -0.19505301117897034, -0.5441756844520569, -0.8433660864830017, -0.9564145803451538, 0.05546647310256958, -0.49083169061459103, -0.24427356945597012, -5.060123935599997, 9362.0, 30146.0, 35388.0, 9362.0, 8.231406211853027, 0.025318868458271027, -0.05521167814731598, 0.24461452662944794, -0.07860086858272552, 0.0039039691910147667, 0.9972235560417175, -0.07427407056093216, -0.08439826965332031, 1.489013671875, 2.999267578125, 102.66284942626953, 1.4912109375, 2.999267578125, 23.0, 6.0, 10.0, 2.907580614089966
16375, 0.8710734844207764, -0.2514403462409973, -0.5949458479881287, 0.041106026619672775, -0.1565496325492859, -4.13864278793335, 0.058483246713876724, -0.21434463560581207, -0.547150194644928, -0.843309223651886, -0.9564192891120911, 0.055455856025218964, -0.498302154762186, -0.25753636051791773, -5.062164613593219, 9362.0, 30146.0, 35388.0, 9362.0, 8.231406211853027, 0.025318868458271027, -0.05521167814731598, 0.24461452662944794, -0.07894928008317947, 0.004539017099887133, 0.9962869882583618, -0.07427407056093216, -0.08439826965332031, 1.489013671875, 2.999267578125, 102.66284942626953, 1.497802734375, 2.999267578125, 23.0, 6.0, 10.0, 2.9110445976257324
16385, 0.8701165318489075, -0.2533911466598511, -0.5936813354492188, 0.041692931205034256, -0.15870052576065063, -4.144116401672363, 0.05889798700809479, -0.21583452820777893, -0.547589898109436, -0.8434374332427979, -0.956354022026062, 0.05545610189437866, -0.5109731757843734, -0.1680498388547278, -5.0499563284926525, 9362.0, 30146.0, 35388.0, 9362.0, 8.231406211853027, 0.025318868458271027, -0.05521167814731598, 0.24461452662944794, -0.07894928008317947, 0.004539017099887133, 0.9962869882583618, -0.07427407056093216, -0.08439826965332031, 1.489013671875, 2.999267578125, 102.66284942626953, 1.497802734375, 2.999267578125, 23.0, 6.0, 10.0, 2.9113271236419678
16405, 0.8664745092391968, -0.2574930787086487, -0.5911245346069336, 0.04287918284535408, -0.16304704546928406, -4.155074119567871, 0.05972893908619881, -0.2188158929347992, -0.5481708645820618, -0.843377411365509, -0.9564076066017151, 0.05551193654537201, -0.49027692210392276, -0.20287735593072398, -5.064318003782849, 9362.0, 30146.0, 35388.0, 9362.0, 8.231406211853027, 0.025318868458271027, -0.05521167814731598, 0.24461452662944794, -0.07894928008317947, 0.004539017099887133, 0.9962869882583618, -0.07427407056093216, -0.08439826965332031, 1.489013671875, 2.999267578125, 102.66284942626953, 1.4912109375, 2.999267578125, 23.0, 6.0, 10.0, 2.9118893146514893
16425, 0.8642119765281677, -0.26043087244033813, -0.5896865129470825, 0.044082190841436386, -0.1674530953168869, -4.166043281555176, 0.060574110597372055, -0.22178764641284943, -0.5486864447593689, -0.8434086441993713, -0.9563961029052734, 0.05548945814371109, -0.4960467288115982, -0.23168337277780893, -5.052432610381802, 9362.0, 30146.0, 35388.0, 9362.0, 8.231406211853027, 0.025318868458271027, -0.05521167814731598, 0.24461452662944794, -0.07894928008317947, 0.004539017099887133, 0.9962869882583618, -0.07427407056093216, -0.08439826965332031, 1.489013671875, 2.999267578125, 102.66284942626953, 1.493408203125, 2.999267578125, 23.0, 6.0, 10.0, 2.912447690963745
16505, 0.8590818047523499, -0.26634514331817627, -0.5919716358184814, 0.049066293984651566, -0.18566849827766418, -4.210057258605957, 0.06404813379049301, -0.23358169198036194, -0.5513802170753479, -0.8433845639228821, -0.9563739895820618, 0.05546996742486954, -0.5135969225638864, -0.19897008448546671, -5.057729581643397, 9362.0, 30146.0, 35388.0, 9362.0, 8.231406211853027, 0.025318868458271027, -0.05521167814731598, 0.24461452662944794, -0.07894928008317947, 0.004539017099887133, 0.9962869882583618, -0.07427407056093216, -0.08439826965332031, 1.489013671875, 2.999267578125, 102.66284942626953, 1.49560546875, 2.999267578125, 23.0, 6.0, 10.0, 2.914645195007324
16585, 0.8720116019248962, -0.261575311422348, -0.6000714898109436, 0.054329946637153625, -0.2048266977071762, -4.254260540008545, 0.0675346702337265, -0.24539323151111603, -0.5539261698722839, -0.8433500528335571, -0.9564122557640076, 0.05542315915226936, -0.5043393872480851, -0.25177474651852094, -5.062929964687645, 9362.0, 30146.0, 35388.0, 9362.0, 8.231406211853027, 0.025318868458271027, -0.05521167814731598, 0.24461452662944794, -0.07894928008317947, 0.004539017099887133, 0.9962869882583618, -0.07427407056093216, -0.08439826965332031, 1.489013671875, 2.999267578125, 102.66284942626953, 1.4912109375, 2.999267578125, 23.0, 6.0, 10.0, 2.916785478591919
16595, 0.8720964789390564, -0.2623503506183624, -0.601326048374176, 0.054329946637153625, -0.2048266977071762, -4.254260540008545, 0.0675346702337265, -0.24539323151111603, -0.5539261698722839, -0.8447161912918091, -0.9573628902435303, 0.05404430627822876, 0.5335328771925424, 0.9500101585776122, -5.263402239578273, 9362.0, 30146.0, 35388.0, 9362.0, 8.231406211853027, 0.025318868458271027, -0.05521167814731598, 0.24461452662944794, -0.07894928008317947, 0.004539017099887133, 0.9962869882583618, -0.07427407056093216, -0.08439826965332031, 1.489013671875, 2.999267578125, 102.66284942626953, 1.494873046875, 2.999267578125, 23.0, 6.0, 10.0, 2.9170491695404053
16605, 0.8724316358566284, -0.2602596879005432, -0.6020618677139282, 0.055689264088869095, -0.20976436138153076, -4.265347003936768, 0.06839645653963089, -0.2483747899532318, -0.5546852350234985, -0.8433321118354797, -0.9564034938812256, 0.05545840039849281, -0.5023178409112313, -0.25967908539450946, -5.060366232813266, 9362.0, 30146.0, 35388.0, 9362.0, 8.231406211853027, 0.025318868458271027, -0.05521167814731598, 0.24461452662944794, -0.07894928008317947, 0.004539017099887133, 0.9962869882583618, -0.07427407056093216, -0.08439826965332031, 1.489013671875, 2.999267578125, 102.66284942626953, 1.494873046875, 2.999267578125, 23.0, 6.0, 10.0, 2.917311906814575
16615, 0.8733596801757812, -0.2596472501754761, -0.6035140156745911, 0.05637538805603981, -0.2122555673122406, -4.270895957946777, 0.06882800906896591, -0.24986600875854492, -0.5551245808601379, -0.8433545827865601, -0.9564225077629089, 0.05543645843863487, -0.4943198266057765, -0.24030620022872995, -5.065137041986938, 9362.0, 30146.0, 35388.0, 9362.0, 8.231406211853027, 0.18959163129329681, -0.0784325823187828, -0.17645791172981262, -0.07894928008317947, 0.004539017099887133, 0.9962869882583618, -0.07427407056093216, -0.08439826965332031, 1.489013671875, 2.999267578125, 102.66284942626953, 1.494873046875, 2.999267578125, 23.0, 6.0, 10.0, 2.917573928833008
16625, 0.8749933838844299, -0.26102498173713684, -0.6027071475982666, 0.05706581100821495, -0.21476168930530548, -4.276449203491211, 0.06925620883703232, -0.2513587176799774, -0.5555048584938049, -0.8433601260185242, -0.9564260840415955, 0.05546233803033829, -0.48356879141246667, -0.24140120006165944, -5.051984959240462, 9362.0, 30146.0, 35388.0, 9362.0, 8.231406211853027, 0.3616832494735718, 0.15990327298641205, -0.09014899283647537, -0.07894928008317947, 0.004539017099887133, 0.9962869882583618, -0.07427407056093216, -0.08439826965332031, 1.489013671875, 2.999267578125, 102.66284942626953, 1.494873046875, 2.999267578125, 23.0, 6.0, 10.0, 2.917834997177124
16635, 0.8741655349731445, -0.2625464200973511, -0.5998990535736084, 0.057760510593652725, -0.2172827422618866, -4.28200626373291, 0.06968339532613754, -0.252853125333786, -0.5558722019195557, -0.8433778882026672, -0.9563803672790527, 0.0554550439119339, -0.5226129061371535, -0.20818294364133294, -5.06029843426853, 9362.0, 30146.0, 35388.0, 9362.0, 8.231406211853027, 0.018246542662382126, 0.1413320153951645, 0.272857129573822, -0.07919780910015106, 0.0056892381981015205, 0.9977433085441589, -0.07427407056093216, -0.08439826965332031, 1.489013671875, 2.999267578125, 102.66284942626953, 1.49853515625, 2.999267578125, 23.0, 6.0, 10.0, 2.918095111846924
16645, 0.8753968477249146, -0.2603263258934021, -0.5984397530555725, 0.05845949426293373, -0.21981877088546753, -4.287566184997559, 0.07011337578296661, -0.25435173511505127, -0.5561496019363403, -0.843401312828064, -0.9563907384872437, 0.055477749556303024, -0.5035135794045951, -0.21599690032263652, -5.062692708530945, 9362.0, 30146.0, 35388.0, 9362.0, 8.231406211853027, 0.24107134342193604, -0.1696958988904953, 0.16413535177707672, -0.07919780910015106, 0.0056892381981015205, 0.9977433085441589, -0.07427407056093216, -0.08439826965332031, 1.489013671875, 2.999267578125, 102.66284942626953, 1.49853515625, 2.999267578125, 23.0, 6.0, 10.0, 2.9183545112609863
16655, 0.8749701380729675, -0.2605648338794708, -0.5977686047554016, 0.05916278809309006, -0.22236977517604828, -4.2931294441223145, 0.07054565846920013, -0.25584766268730164, -0.5565090179443359, -0.843386709690094, -0.9564653038978577, 0.05550896376371384, -0.4501417292883491, -0.23227182362677468, -5.045708949754207, 9362.0, 30146.0, 35388.0, 9362.0, 8.231406211853027, 0.01621447131037712, 0.09546564519405365, 0.061896342784166336, -0.07906951010227203, 0.005227125249803066, 0.9959200024604797, -0.07427407056093216, -0.08439826965332031, 1.489013671875, 2.999267578125, 102.66284942626953, 1.49560546875, 2.999267578125, 23.0, 6.0, 10.0, 2.9186129570007324
16685, 0.8713890910148621, -0.2645028829574585, -0.5962259769439697, 0.06129845976829529, -0.23011259734630585, -4.309839725494385, 0.07183513790369034, -0.2603391706943512, -0.5574261546134949, -0.8433498740196228, -0.9563905596733093, 0.05546874925494194, -0.5161867260082492, -0.23325232970805132, -5.065924871231367, 9362.0, 30146.0, 35388.0, 9362.0, 8.231406211853027, 0.01621447131037712, 0.09546564519405365, 0.061896342784166336, -0.07906951010227203, 0.005227125249803066, 0.9959200024604797, -0.07427407056093216, -0.08439826965332031, 1.489013671875, 2.999267578125, 102.66284942626953, 1.493408203125, 2.999267578125, 23.0, 6.0, 10.0, 2.9193835258483887
16695, 0.8700791001319885, -0.26563429832458496, -0.5963451862335205, 0.062018983066082, -0.23272345960140228, -4.315415859222412, 0.07226934283971786, -0.26183322072029114, -0.5577781796455383, -0.8433916568756104, -0.9564043283462524, 0.055490922182798386, -0.49781284084118566, -0.206314158678083, -5.051831700186147, 9362.0, 30146.0, 35388.0, 9362.0, 8.231406211853027, 0.01621447131037712, 0.09546564519405365, 0.061896342784166336, -0.07906951010227203, 0.005227125249803066, 0.9959200024604797, -0.07427407056093216, -0.08439826965332031, 1.489013671875, 2.999267578125, 102.66284942626953, 1.49267578125, 2.999267578125, 23.0, 6.0, 10.0, 2.9196386337280273
16705, 0.8674357533454895, -0.2662077844142914, -0.5945160984992981, 0.06274385005235672, -0.23534923791885376, -4.320995807647705, 0.07270464301109314, -0.2633230984210968, -0.5582287907600403, -0.8434104919433594, -0.9563787579536438, 0.05546041578054428, -0.514044569505866, -0.2054015714299453, -5.042670455290469, 9362.0, 30146.0, 35388.0, 9362.0, 8.231406211853027, 0.01621447131037712, 0.09546564519405365, 0.061896342784166336, -0.07906951010227203, 0.005227125249803066, 0.9959200024604797, -0.07427407056093216, -0.08439826965332031, 1.489013671875, 2.999267578125, 102.66284942626953, 1.49267578125, 2.999267578125, 23.0, 6.0, 10.0, 2.9198930263519287
16725, 0.8658760190010071, -0.2647054195404053, -0.5925135016441345, 0.06420670449733734, -0.24064546823501587, -4.332167148590088, 0.0735819935798645, -0.2662994861602783, -0.5587607026100159, -0.8433730602264404, -0.9563974142074585, 0.05544385313987732, -0.5026184724564356, -0.2304299673536434, -5.059268020020808, 9362.0, 30146.0, 35388.0, 9362.0, 8.231406211853027, 0.01621447131037712, 0.09546564519405365, 0.061896342784166336, -0.07559623569250107, 0.005054394248872995, 0.9987806677818298, -0.07427407056093216, -0.08439826965332031, 1.489013671875, 2.999267578125, 102.66284942626953, 1.49267578125, 2.999267578125, 23.0, 6.0, 10.0, 2.9203991889953613
16735, 0.8649587035179138, -0.2676975131034851, -0.591552197933197, 0.06494471430778503, -0.2433158904314041, -4.3377556800842285, 0.07401962578296661, -0.2677854895591736, -0.5589208006858826, -0.8433675169944763, -0.9563846588134766, 0.05542243272066116, -0.5224427703496896, -0.2294330382256078, -5.058605207326315, 9362.0, 30146.0, 35388.0, 9362.0, 8.231406211853027, 0.01621447131037712, 0.09546564519405365, 0.061896342784166336, -0.07747778296470642, 0.005320852622389793, 0.997780442237854, -0.07427407056093216, -0.08439826965332031, 1.489013671875, 2.999267578125, 102.66284942626953, 1.49560546875, 2.999267578125, 23.0, 6.0, 10.0, 2.9206509590148926
16745, 0.8639217019081116, -0.26895999908447266, -0.5896241068840027, 0.06568709760904312, -0.24600116908550262, -4.343346118927002, 0.07445652037858963, -0.2692693769931793, -0.5591440200805664, -0.8433493375778198, -0.9564241170883179, 0.05541983246803284, -0.4876009449221275, -0.2475457900742697, -5.074164720169872, 9362.0, 30146.0, 35388.0, 9362.0, 8.231406211853027, 0.01621447131037712, 0.09546564519405365, 0.061896342784166336, -0.07747778296470642, 0.005320852622389793, 0.997780442237854, -0.07427407056093216, -0.08439826965332031, 1.489013671875, 2.999267578125, 102.66284942626953, 1.49560546875, 2.999267578125, 23.0, 6.0, 10.0, 2.9209020137786865
16755, 0.8639620542526245, -0.27262207865715027, -0.5892717242240906, 0.0664338767528534, -0.248701274394989, -4.348938465118408, 0.07489892095327377, -0.27075278759002686, -0.5592954754829407, -0.8447998762130737, -0.9559714794158936, 0.05548400804400444, -0.6566129351446244, 0.6903227133943801, -5.089227425596513, 9362.0, 30146.0, 35388.0, 9362.0, 8.231406211853027, 0.01621447131037712, 0.09546564519405365, 0.061896342784166336, -0.07747778296470642, 0.005320852622389793, 0.997780442237854, -0.07427407056093216, -0.08439826965332031, 1.489013671875, 2.999267578125, 102.66284942626953, 1.493408203125, 2.999267578125, 23.0, 6.0, 10.0, 2.921152114868164
