timeTick, roll, pitch, yaw, stateX, stateY, stateZ, stateVX, stateVY, stateVZ, otX0, otY0, otZ0, otRoll0, otPitch0, otYaw0, left wing, pitch motor, yaw motor, right wing, voltage, roll rate, pitch rate, yaw rate, A_x, A_y, A_z, current, i_raw, v_raw, airflow_voltage, airflow_speed, pot_Pitch, voltage_nKF, kFFx, state, State, volt_KF
32498, -0.3054174780845642, 5.481262683868408, 1.227576494216919, 0, 0, 0, 0, 0, 0, -0.8190230131149292, -0.9764050245285034, 0.0541568286716938, -2.858439790861658, -0.7027074420787471, 176.9339753165964, 0, 0, 0, 0, 0, 0, 0, 0, 0, 0, 0, 0, 0, 0, 0, 0, 0, 0, 0, 0, 0, 0
32508, -0.30529627203941345, 5.47995662689209, 1.22817862033844, 0.0017800305504351854, -6.119633326306939e-05, -15.881333351135254, 0.0796610489487648, -0.0027388737071305513, -1.0255279541015625, -0.8190037608146667, -0.9764054417610168, 0.05417260527610779, -2.8583886585867178, -0.6974967033361565, 176.93122377386652, 9362.0, 30146.0, 35388.0, 9362.0, 0, -0.04234040901064873, 0.19738560914993286, -0.042983975261449814, 0, 0, 0, 0, 0, 0, 0, 0, 0, 0, 0, 0, 0, 0
32518, -0.30550268292427063, 5.478823184967041, 1.2288810014724731, 0.0025299570988863707, -8.698212332092226e-05, -15.891592979431152, 0.07032422721385956, -0.002418381627649069, -1.0264214277267456, -0.819073498249054, -0.9764291048049927, 0.05418059602379799, -2.884846003721013, -0.7603842633124316, 176.9387119995511, 9362.0, 30146.0, 35388.0, 9362.0, 0, -0.04189179837703705, -0.19858084619045258, 0.487272709608078, -0.07601776719093323, -0.04403067007660866, 0.9967716336250305, 0, 0, 0, 1.4619140625, 0.1246185302734375, 0, 1.573974609375, 10.0, 1.0, 10.0, 1.4661998748779297
32528, -0.30592411756515503, 5.4800567626953125, 1.2321758270263672, 0.0031864691991358995, -0.00010956230835290626, -15.901861190795898, 0.06097815930843353, -0.002097770106047392, -1.0271955728530884, -0.8190721273422241, -0.9764597415924072, 0.054213911294937134, -2.909820985178913, -0.7527601569459819, 176.93213763616174, 9362.0, 30146.0, 35388.0, 9362.0, 0, 0.18688471615314484, -0.2601138651371002, 0.19023573398590088, -0.07657590508460999, -0.04480789229273796, 0.9952008128166199, 0, 0, 0, 1.494140625, 0.183990478515625, 1.491943359375, 1.549072265625, 10.0, 1.0, 10.0, 1.4663459062576294
32538, -0.30429691076278687, 5.481810569763184, 1.2333728075027466, 0.003749590367078781, -0.00012893705570604652, -15.912137985229492, 0.051646098494529724, -0.0017777156317606568, -1.0280953645706177, -0.8190863728523254, -0.9764109253883362, 0.05424967035651207, -2.8724283528686425, -0.7430572574882603, 176.91645818886425, 9362.0, 30146.0, 35388.0, 9362.0, 0, -0.001292765373364091, -0.15240347385406494, -0.1537921279668808, -0.07402079552412033, -0.04350098595023155, 0.9980441331863403, 0, 0, 0, 1.505859375, 0.2073974609375, 1.491943359375, 1.50439453125, 10.0, 1.0, 10.0, 1.4666602611541748
32548, -0.3041072189807892, 5.483078479766846, 1.2322396039962769, 0.0042192768305540085, -0.00014510702749248594, -15.922422409057617, 0.042291246354579926, -0.0014564803568646312, -1.028780460357666, -0.8213114738464355, -0.9755663275718689, 0.05608205869793892, -1.9161904150527074, -1.8205167850317139, 176.63530760038134, 9362.0, 30146.0, 35388.0, 9362.0, 0, -0.03014049120247364, -0.24219033122062683, 0.11854730546474457, -0.07561668753623962, -0.042001329362392426, 0.9942684173583984, 0, 0, 0, 1.461181640625, 0.1233062744140625, 1.494873046875, 1.5556640625, 10.0, 1.0, 10.0, 1.4668904542922974
32558, -0.3047059178352356, 5.484254837036133, 1.2337024211883545, 0.004595497623085976, -0.00015808313037268817, -15.932714462280273, 0.03295289725065231, -0.0011385568650439382, -1.0296677350997925, -0.821310818195343, -0.9755854606628418, 0.05604153126478195, -1.939418089464882, -1.836647835194782, 176.65255216655902, 9362.0, 30146.0, 35388.0, 9362.0, 0, -0.033269159495830536, -0.08842213451862335, -0.35368266701698303, -0.07658841460943222, -0.039548251777887344, 0.9956923723220825, 0, 0, 0, 1.493408203125, 0.1825714111328125, 1.494873046875, 1.5380859375, 10.0, 1.0, 10.0, 1.4670019149780273
32568, -0.3044900596141815, 5.484886169433594, 1.2326499223709106, 0.004878329113125801, -0.00016788110951893032, -15.943016052246094, 0.023613404482603073, -0.0008212756365537643, -1.030565857887268, -0.8190360069274902, -0.9764456748962402, 0.05418916046619415, -2.88779933862747, -0.7081451776263918, 176.92885960419977, 9362.0, 30146.0, 35388.0, 9362.0, 0, -0.024440649896860123, -0.17682534456253052, 0.06895188242197037, -0.07572142034769058, -0.040768761187791824, 0.9956831932067871, 0, 0, 0, 1.54833984375, 0.298126220703125, 1.491943359375, 1.5556640625, 10.0, 1.0, 10.0, 1.467221736907959
32578, -0.305101215839386, 5.486515045166016, 1.2337355613708496, 0.005067730788141489, -0.00017450173618271947, -15.953326225280762, 0.014266962185502052, -0.0005026774015277624, -1.0314127206802368, -0.8213038444519043, -0.9755717515945435, 0.05604172125458717, -1.9219047542609324, -1.813284697337366, 176.63925154396046, 9362.0, 30146.0, 35388.0, 9362.0, 0, -0.1772417277097702, -0.13386578857898712, 0.05616794154047966, -0.0749911367893219, -0.040379978716373444, 0.9952446222305298, 0, 0, 0, 1.53369140625, 0.265960693359375, 1.491943359375, 1.55859375, 10.0, 1.0, 10.0, 1.4672929048538208
32588, -0.30545711517333984, 5.4874958992004395, 1.2346100807189941, 0.005163691006600857, -0.0001779384328983724, -15.963644981384277, 0.004925066605210304, -0.00018483879102859646, -1.0323179960250854, -0.8212761878967285, -0.9755218029022217, 0.05601359158754349, -1.8854023973956546, -1.7993650974674438, 176.65513436332984, 9362.0, 30146.0, 35388.0, 9362.0, 0, -0.015419923700392246, -0.21645598113536835, -0.12865804135799408, -0.076055608689785, -0.04088364914059639, 0.9955039024353027, 0, 0, 0, 1.571044921875, 0.349578857421875, 1.494873046875, 1.538818359375, 10.0, 1.0, 10.0, 1.467585802078247
32598, -0.30473238229751587, 5.489156246185303, 1.2339445352554321, 0.005166212562471628, -0.00017819252389017493, -15.97397232055664, -0.0044207265600562096, 0.00013387792569119483, -1.0332120656967163, -0.8212901949882507, -0.975522518157959, 0.05606958270072937, -1.8978528043080858, -1.8021302034778728, 176.634732994144, 9362.0, 30146.0, 35388.0, 9362.0, 8.390083312988281, -0.15599890053272247, -0.14725612103939056, 0.037819430232048035, -0.07943370938301086, -0.04059695452451706, 0.9951968193054199, 0, 0, 0, 1.5498046875, 0.3014678955078125, 1.494873046875, 1.53955078125, 10.0, 1.0, 10.0, 1.4677621126174927
32608, -0.30511635541915894, 5.490189552307129, 1.2343329191207886, 0.005075282417237759, -0.00017525781004223973, -15.984309196472168, -0.013765235431492329, 0.00045317300828173757, -1.0341370105743408, -0.8190169334411621, -0.9765458106994629, 0.05417650192975998, -2.9734044985338532, -0.7273720039139278, 176.93964897944892, 9362.0, 30146.0, 35388.0, 9362.0, 8.390083312988281, -0.1521121710538864, 0.05830923840403557, 0.2277156263589859, -0.07414418458938599, -0.042737409472465515, 0.9967594742774963, -0.10224435478448868, -0.1291980743408203, 1.4853515625, 1.55859375, 0.3211212158203125, 1.493408203125, 1.552734375, 10.0, 1.0, 10.0, 1.4680304527282715
32618, -0.3054390847682953, 5.490850448608398, 1.235640048980713, 0.004890828859061003, -0.00016913389845285565, -15.994654655456543, -0.023125430569052696, 0.000771546910982579, -1.034928321838379, -0.8213043808937073, -0.9756319522857666, 0.05605645850300789, -1.9698261474511414, -1.825366287709869, 176.64356668217815, 9362.0, 30146.0, 35388.0, 9362.0, 8.390083312988281, 0.09369359910488129, -0.19169853627681732, -0.22129887342453003, -0.07517416775226593, -0.041513826698064804, 0.9954267740249634, -0.10224435478448868, -0.1291980743408203, 1.4853515625, 1.5322265625, 0.2628021240234375, 1.493408203125, 1.5, 10.0, 1.0, 10.0, 1.4681915044784546
32628, -0.30455470085144043, 5.492204189300537, 1.235168218612671, 0.004612812772393227, -0.0001598251110408455, -16.005008697509766, -0.032477810978889465, 0.001089998404495418, -1.035819172859192, -0.8189269304275513, -0.9764359593391418, 0.05410851910710335, -2.886101461707177, -0.6396998632270652, 176.9207406328935, 9362.0, 30146.0, 35388.0, 9362.0, 8.390083312988281, -0.18424755334854126, 0.06341562420129776, -0.09967225044965744, -0.07668609917163849, -0.041853319853544235, 0.9956476092338562, -0.10224435478448868, -0.1291980743408203, 1.4853515625, 1.540283203125, 0.280364990234375, 1.493408203125, 1.569580078125, 10.0, 1.0, 10.0, 1.468259572982788
32638, -0.3061753213405609, 5.4923906326293945, 1.2351508140563965, 0.004241260699927807, -0.00014733003627043217, -16.015371322631836, -0.0418325774371624, 0.0014090948970988393, -1.036697268486023, -0.8190740942955017, -0.9764294624328613, 0.05418691784143448, -2.875533622808507, -0.7638333510464008, 176.93267357449648, 9362.0, 30146.0, 35388.0, 9362.0, 8.390083312988281, 0.17778053879737854, -0.4242423176765442, 0.05200719088315964, -0.07582692056894302, -0.041009388864040375, 0.9954225420951843, -0.10224435478448868, -0.1291980743408203, 1.4853515625, 1.538818359375, 0.2772674560546875, 1.493408203125, 1.550537109375, 10.0, 1.0, 10.0, 1.4686049222946167
32648, -0.30521997809410095, 5.496504306793213, 1.2359514236450195, 0.0037761603016406298, -0.00013165174459572881, -16.02574348449707, -0.051187511533498764, 0.0017265661153942347, -1.0375975370407104, -0.818875789642334, -0.9764174818992615, 0.05409149080514908, -2.8688434601025503, -0.6116816770174296, 176.92866524363512, 9362.0, 30146.0, 35388.0, 9362.0, 8.390083312988281, 0.15220461785793304, 0.1489757001399994, -0.004106242675334215, -0.07674934715032578, -0.039943501353263855, 0.9957077503204346, -0.10224435478448868, -0.1291980743408203, 1.4853515625, 1.528564453125, 0.2548828125, 1.49560546875, 1.55126953125, 10.0, 1.0, 10.0, 1.4688382148742676
32658, -0.3038206696510315, 5.496520042419434, 1.235314965248108, 0.003217501798644662, -0.0001127847281168215, -16.036123275756836, -0.06054411828517914, 0.002046707784757018, -1.0384842157363892, -0.821308434009552, -0.9755669236183167, 0.05605899915099144, -1.9198054784705065, -1.8271069404389095, 176.6372100444036, 9362.0, 30146.0, 35388.0, 9362.0, 8.390083312988281, 0.008094456046819687, 0.010869722813367844, 0.14285768568515778, -0.07834861427545547, -0.04294288158416748, 0.9961833357810974, -0.10224435478448868, -0.1291980743408203, 1.4853515625, 1.50439453125, 0.2044219970703125, 1.49560546875, 1.559326171875, 10.0, 1.0, 10.0, 1.4691540002822876
32668, -0.30380725860595703, 5.497483253479004, 1.2357271909713745, 0.0025652216281741858, -9.07251305761747e-05, -16.046512603759766, -0.0699118971824646, 0.002365312771871686, -1.039327621459961, -0.8188949823379517, -0.9764883518218994, 0.05409091338515282, -2.9179865511981107, -0.6307524004697314, 176.93415555168065, 9362.0, 30146.0, 35388.0, 9362.0, 8.390083312988281, 0.004229347687214613, 0.3473822772502899, 0.326199471950531, -0.07534070312976837, -0.04172729700803757, 0.9973405003547668, -0.10224435478448868, -0.1291980743408203, 1.4853515625, 1.530029296875, 0.2581329345703125, 1.494140625, 1.56005859375, 10.0, 1.0, 10.0, 1.469334602355957
32678, -0.3040179908275604, 5.495339393615723, 1.2373244762420654, 0.0018192229326814413, -6.548951205331832e-05, -16.056909561157227, -0.0792878195643425, 0.0026817424222826958, -1.0400863885879517, -0.818963348865509, -0.9764562249183655, 0.05408148467540741, -2.8920416156128375, -0.6788647839692885, 176.92531951525814, 9362.0, 30146.0, 35388.0, 9362.0, 8.390083312988281, 0.1340828239917755, 0.08993634581565857, 0.23839950561523438, -0.07780971378087997, -0.04163379222154617, 0.9979429244995117, -0.10224435478448868, -0.1291980743408203, 1.4853515625, 1.510986328125, 0.217864990234375, 1.494140625, 1.56884765625, 10.0, 1.0, 10.0, 1.4694684743881226
32688, -0.303013414144516, 5.4950270652771, 1.2389863729476929, 0.000979413278400898, -3.708875010488555e-05, -16.06731414794922, -0.0886741429567337, 0.002998148091137409, -1.0407541990280151, -0.818971574306488, -0.9764931797981262, 0.054151829332113266, -2.9287680801958484, -0.7137841830984542, 176.94389605208136, 9362.0, 30146.0, 35388.0, 9362.0, 8.390083312988281, -0.12090172618627548, -0.04925624653697014, 0.057239387184381485, -0.07528677582740784, -0.04263254627585411, 0.9966168403625488, -0.10224435478448868, -0.1291980743408203, 1.4853515625, 1.5439453125, 0.2884979248046875, 1.4970703125, 1.53955078125, 10.0, 1.0, 10.0, 1.4697221517562866
32698, -0.30387452244758606, 5.495079517364502, 1.239431381225586, 4.5796274207532406e-05, -5.524321750272065e-06, -16.077726364135742, -0.09804925322532654, 0.003314462024718523, -1.0415003299713135, -0.8212966918945312, -0.9755898118019104, 0.05597575008869171, -1.9418510919198577, -1.8201681141415236, 176.65530815491687, 9362.0, 30146.0, 35388.0, 9362.0, 8.370248794555664, 0.11370181292295456, 0.19687816500663757, 0.18228654563426971, -0.07529016584157944, -0.04177942872047424, 0.9962694048881531, -0.10224435478448868, -0.1291980743408203, 1.4853515625, 1.53662109375, 0.27239990234375, 1.4970703125, 1.566650390625, 10.0, 1.0, 10.0, 1.4699009656906128
32708, -0.3031461536884308, 5.494143962860107, 1.2399159669876099, -0.000981563120149076, 2.9193168302299455e-05, -16.088144302368164, -0.10742263495922089, 0.0036289645358920097, -1.0422589778900146, -0.8212937116622925, -0.9756035208702087, 0.05602101981639862, -1.9469228742414657, -1.8082586144540471, 176.64438270757563, 9362.0, 30146.0, 35388.0, 9362.0, 8.370248794555664, 0.29403749108314514, 0.008450902998447418, 0.0766349583864212, -0.07588928937911987, -0.042344413697719574, 0.9950865507125854, -0.10071907192468643, -0.11127853393554688, 1.48681640625, 1.51171875, 0.21942138671875, 1.494140625, 1.5498046875, 10.0, 1.0, 10.0, 1.4699405431747437
32718, -0.3019735515117645, 5.494353771209717, 1.2397669553756714, -0.0021025892347097397, 6.70603767503053e-05, -16.09857177734375, -0.11678261309862137, 0.003944397903978825, -1.043157696723938, -0.8205446600914001, -0.9767892360687256, 0.05532640963792801, -2.4692030067101562, -1.4947049451340035, 176.65647722700933, 9362.0, 30146.0, 35388.0, 9362.0, 8.370248794555664, -0.3323032259941101, -0.3256380558013916, 0.10851438343524933, -0.07614370435476303, -0.040253836661577225, 0.9954542517662048, -0.10071907192468643, -0.11127853393554688, 1.48681640625, 1.560791015625, 0.3262176513671875, 1.494140625, 1.541748046875, 10.0, 1.0, 10.0, 1.4703083038330078
32728, -0.30462732911109924, 5.495787620544434, 1.2409758567810059, -0.003317225258797407, 0.00010807609942276031, -16.109006881713867, -0.12614457309246063, 0.0042587690986692905, -1.044019103050232, -0.8189266324043274, -0.9764525890350342, 0.05410832166671753, -2.9067127789928913, -0.6585566203989117, 176.9383574096813, 9362.0, 30146.0, 35388.0, 9362.0, 8.370248794555664, 0.08828632533550262, 0.1826840043067932, 0.3618467152118683, -0.07773502171039581, -0.04038258641958237, 0.9949682354927063, -0.10071907192468643, -0.11127853393554688, 1.48681640625, 1.5439453125, 0.2884979248046875, 1.50146484375, 1.56298828125, 10.0, 1.0, 10.0, 1.470348834991455
32738, -0.3040343225002289, 5.495184898376465, 1.243295431137085, -0.004625414498150349, 0.00015222333604469895, -16.11945152282715, -0.1354931890964508, 0.004570478107780218, -1.0450222492218018, -0.8189897537231445, -0.9764961004257202, 0.05411713570356369, -2.9450138644896136, -0.7112829840738755, 176.94581411717334, 9362.0, 30146.0, 35388.0, 9362.0, 8.370248794555664, 0.052202582359313965, 0.2003728300333023, 0.15278133749961853, -0.07700750231742859, -0.0407375805079937, 0.9966585636138916, -0.10071907192468643, -0.11127853393554688, 1.48681640625, 1.518310546875, 0.2331390380859375, 1.50146484375, 1.53076171875, 10.0, 1.0, 10.0, 1.4706645011901855
32748, -0.3037768006324768, 5.49429988861084, 1.2445231676101685, -0.006027191877365112, 0.00019951205467805266, -16.129905700683594, -0.1448623239994049, 0.0048868837766349316, -1.0458391904830933, -0.818988025188446, -0.976464569568634, 0.05412672460079193, -2.898590497055352, -0.6874088090025339, 176.93392502456223, 9362.0, 30146.0, 35388.0, 9362.0, 8.370248794555664, -0.037847571074962616, -0.28169193863868713, -0.14058856666088104, -0.07738418877124786, -0.04134907200932503, 0.9967150092124939, -0.10071907192468643, -0.11127853393554688, 1.48681640625, 1.544677734375, 0.2900543212890625, 1.49560546875, 1.573974609375, 10.0, 1.0, 10.0, 1.470840334892273
32758, -0.3035672605037689, 5.4954142570495605, 1.2443037033081055, -0.0075226747430861, 0.00024995862622745335, -16.14036750793457, -0.15423424541950226, 0.005202226806432009, -1.0466159582138062, -0.8189781308174133, -0.9764754176139832, 0.0541117899119854, -2.9234778278980937, -0.7039016457996183, 176.93263789987307, 9362.0, 30146.0, 35388.0, 9362.0, 8.370248794555664, -0.1585298329591751, -0.2344643920660019, 0.10202711820602417, -0.0771883949637413, -0.042555034160614014, 0.9958083033561707, -0.10071907192468643, -0.11127853393554688, 1.48681640625, 1.543212890625, 0.286834716796875, 1.49560546875, 1.573974609375, 10.0, 1.0, 10.0, 1.470840334892273
32768, -0.3041265606880188, 5.497166156768799, 1.2456997632980347, -0.009111828170716763, 0.00030355420312844217, -16.15083885192871, -0.16359639167785645, 0.005516925826668739, -1.0474780797958374, -0.8205674886703491, -0.9767498970031738, 0.05535556748509407, -2.452967684423079, -1.4892268122043504, 176.64047173386936, 9362.0, 30146.0, 35388.0, 9362.0, 8.370248794555664, 0.09011957794427872, 0.0061848098412156105, 0.11963722854852676, -0.0771883949637413, -0.042555034160614014, 0.9958083033561707, -0.10071907192468643, -0.11127853393554688, 1.48681640625, 1.543212890625, 0.286834716796875, 1.49560546875, 1.52490234375, 10.0, 1.0, 10.0, 1.470840334892273
32788, -0.3039880692958832, 5.497941970825195, 1.2483311891555786, -0.012571210041642189, 0.0004201849806122482, -16.171804428100586, -0.18233779072761536, 0.00614624610170722, -1.0490971803665161, -0.8189351558685303, -0.9764665961265564, 0.05404194816946983, -2.929610831090587, -0.679887368289485, 176.95291410443133, 9362.0, 30146.0, 35388.0, 9362.0, 8.370248794555664, -0.22658470273017883, -0.1216670572757721, 0.022173486649990082, -0.0771883949637413, -0.042555034160614014, 0.9958083033561707, -0.10071907192468643, -0.11127853393554688, 1.48681640625, 1.543212890625, 0.286834716796875, 1.494140625, 1.566650390625, 10.0, 1.0, 10.0, 1.4709242582321167
32808, -0.3032527565956116, 5.496823310852051, 1.2500734329223633, -0.014441506937146187, 0.00048321986105293036, -16.18229866027832, -0.1917215883731842, 0.006460352800786495, -1.0498143434524536, -0.8189417123794556, -0.9764874577522278, 0.054104749113321304, -2.908579959818349, -0.6700610529196638, 176.93867122409418, 9362.0, 30146.0, 35388.0, 9362.0, 8.390083312988281, -0.08832960575819016, -0.4851403534412384, -0.16001486778259277, -0.0771883949637413, -0.042555034160614014, 0.9958083033561707, -0.08876441419124603, -0.09335899353027344, 1.48828125, 1.543212890625, 0.286834716796875, 1.497802734375, 1.49267578125, 10.0, 1.0, 10.0, 1.4713406562805176
32838, -0.30287840962409973, 5.499599933624268, 1.2504377365112305, -0.022860759869217873, 0.0007667844183743, -16.22435188293457, -0.2292368859052658, 0.007716836407780647, -1.052839756011963, -0.8190040588378906, -0.976473331451416, 0.054120875895023346, -2.915888488679071, -0.7021134455365825, 176.93251414532287, 9362.0, 30146.0, 35388.0, 9362.0, 8.390083312988281, 0.08652056753635406, -0.030068714171648026, 0.25921350717544556, -0.0771883949637413, -0.042555034160614014, 0.9958083033561707, -0.08876441419124603, -0.09335899353027344, 1.48828125, 1.543212890625, 0.286834716796875, 1.497802734375, 1.45166015625, 10.0, 1.0, 10.0, 1.4719892740249634
32858, -0.30199307203292847, 5.500987529754639, 1.2520666122436523, -0.02763323485851288, 0.0009273794130422175, -16.245424270629883, -0.2479979544878006, 0.008341667242348194, -1.0543969869613647, -0.8189882040023804, -0.9764670729637146, 0.05413519963622093, -2.9120379458436774, -0.6948815530092531, 176.93904398752935, 9362.0, 30146.0, 35388.0, 9362.0, 8.390083312988281, 0.35515719652175903, -0.14783786237239838, 0.08704598993062973, -0.0771883949637413, -0.042555034160614014, 0.9958083033561707, -0.08876441419124603, -0.09335899353027344, 1.48828125, 1.50439453125, 0.2044219970703125, 1.497802734375, 1.53076171875, 10.0, 1.0, 10.0, 1.47211492061615
32888, -0.2987839877605438, 5.503610134124756, 1.2506506443023682, -0.03549475967884064, 0.001191566581837833, -16.277097702026367, -0.27610892057418823, 0.009268486872315407, -1.0570688247680664, -0.8190438151359558, -0.9764661192893982, 0.05412955582141876, -2.9173102299148232, -0.7528999057994668, 176.9504967408014, 9362.0, 30146.0, 35388.0, 9362.0, 8.390083312988281, -0.038688380271196365, -0.06003937870264053, 0.16816815733909607, -0.0771883949637413, -0.042555034160614014, 0.9958083033561707, -0.08876441419124603, -0.09335899353027344, 1.48828125, 1.50439453125, 0.2044219970703125, 1.49267578125, 1.529296875, 10.0, 1.0, 10.0, 1.4731215238571167
32908, -0.29992014169692993, 5.504186153411865, 1.2501505613327026, -0.038302771747112274, 0.0012857825495302677, -16.28767204284668, -0.2854931652545929, 0.009574820287525654, -1.0578454732894897, -0.8212984204292297, -0.9755968451499939, 0.05596977472305298, -1.9504956059959422, -1.8341858177473966, 176.66381041846327, 9362.0, 30146.0, 35388.0, 9362.0, 8.390083312988281, -0.3110407888889313, -0.12329220771789551, -0.02738850750029087, -0.0771883949637413, -0.042555034160614014, 0.9958083033561707, -0.08141333609819412, -0.2994365692138672, 1.471435546875, 1.50439453125, 0.2044219970703125, 1.49267578125, 1.54248046875, 10.0, 1.0, 10.0, 1.4733636379241943
32918, -0.30136942863464355, 5.505435943603516, 1.2501574754714966, -0.04420042410492897, 0.0014833846362307668, -16.3088436126709, -0.3042714595794678, 0.010185599327087402, -1.0593570470809937, -0.818929135799408, -0.9764378070831299, 0.05410280078649521, -2.907448099152804, -0.6519127027271736, 176.93479989510507, 9362.0, 30146.0, 35388.0, 9362.0, 8.390083312988281, 0.3159869909286499, -0.27640771865844727, -0.18304647505283356, -0.0771883949637413, -0.042555034160614014, 0.9958083033561707, -0.08141333609819412, -0.2994365692138672, 1.471435546875, 1.50439453125, 0.2044219970703125, 1.49267578125, 1.509521484375, 10.0, 1.0, 10.0, 1.4733636379241943
32938, -0.2994898557662964, 5.508142471313477, 1.2528403997421265, -0.05047355219721794, 0.0016932483995333314, -16.330047607421875, -0.32303622364997864, 0.010801693424582481, -1.0610337257385254, -0.8213120102882385, -0.9755448698997498, 0.05600707232952118, -1.9028714810549863, -1.8209758594464347, 176.6489976216913, 9362.0, 30146.0, 35388.0, 9362.0, 8.390083312988281, 0.18137092888355255, 0.1699163168668747, -0.140745609998703, -0.0771883949637413, -0.042555034160614014, 0.9958083033561707, -0.08141333609819412, -0.2994365692138672, 1.471435546875, 1.50439453125, 0.2044219970703125, 1.49267578125, 1.552734375, 10.0, 1.0, 10.0, 1.474211573600769
32948, -0.2987178862094879, 5.508136749267578, 1.2519893646240234, -0.05375083163380623, 0.0018027941696345806, -16.340662002563477, -0.33241984248161316, 0.011107117868959904, -1.0618990659713745, -0.8189614415168762, -0.9764796495437622, 0.05410587415099144, -2.9187950612944524, -0.6774766212215297, 176.9338229587022, 9362.0, 30146.0, 35388.0, 9362.0, 8.390083312988281, 0.18137092888355255, 0.1699163168668747, -0.140745609998703, -0.0771883949637413, -0.042555034160614014, 0.9958083033561707, -0.08141333609819412, -0.2994365692138672, 1.471435546875, 1.50439453125, 0.2044219970703125, 1.49267578125, 1.559326171875, 10.0, 1.0, 10.0, 1.474403977394104
32958, -0.2997843027114868, 5.511259078979492, 1.2535293102264404, -0.05375083163380623, 0.0018027941696345806, -16.340662002563477, -0.33241984248161316, 0.011107117868959904, -1.0618990659713745, -0.8189387321472168, -0.9764780402183533, 0.05408215522766113, -2.9081963182881707, -0.6739533472236872, 176.9314581608677, 9362.0, 30146.0, 35388.0, 9362.0, 8.390083312988281, 0.18579289317131042, -0.18027162551879883, -0.03406708315014839, -0.0771883949637413, -0.042555034160614014, 0.9958083033561707, -0.08141333609819412, -0.2994365692138672, 1.471435546875, 1.50439453125, 0.2044219970703125, 1.49267578125, 1.559326171875, 10.0, 1.0, 10.0, 1.474403977394104
32968, -0.2993837893009186, 5.51265811920166, 1.2537791728973389, -0.06058705598115921, 0.002031045500189066, -16.36191749572754, -0.3512018024921417, 0.011717149056494236, -1.063515305519104, -0.8190004825592041, -0.976393461227417, 0.05413069576025009, -2.8492634077828747, -0.6878805096719702, 176.93696433714706, 9362.0, 30146.0, 35388.0, 9362.0, 8.390083312988281, 0.10403551906347275, 0.15506204962730408, 0.0914875939488411, -0.0771883949637413, -0.042555034160614014, 0.9958083033561707, -0.08141333609819412, -0.2994365692138672, 1.471435546875, 1.50439453125, 0.2044219970703125, 1.494873046875, 1.559326171875, 10.0, 1.0, 10.0, 1.474616527557373
32978, -0.30008867383003235, 5.511307239532471, 1.254761815071106, -0.06058705598115921, 0.002031045500189066, -16.36191749572754, -0.3512018024921417, 0.011717149056494236, -1.063515305519104, -0.8212949633598328, -0.9756050109863281, 0.05603908747434616, -1.9594091090590313, -1.830437577667226, 176.66380339160546, 9362.0, 30146.0, 35388.0, 9362.0, 8.390083312988281, -0.06869734078645706, 0.229788675904274, 0.18826456367969513, -0.0771883949637413, -0.042555034160614014, 0.9958083033561707, -0.08141333609819412, -0.2994365692138672, 1.471435546875, 1.50439453125, 0.2044219970703125, 1.494873046875, 1.559326171875, 10.0, 1.0, 10.0, 1.474616527557373
32988, -0.3009798228740692, 5.510708808898926, 1.256650447845459, -0.06779910624027252, 0.002271505305543542, -16.383203506469727, -0.3699999451637268, 0.012328140437602997, -1.0651003122329712, -0.8205152750015259, -0.9766887426376343, 0.05536985024809837, -2.4206128569619447, -1.463816886745036, 176.65728095262227, 9362.0, 30146.0, 35388.0, 9362.0, 8.390083312988281, 0.07170474529266357, 0.2393435686826706, 0.2736692428588867, -0.0771883949637413, -0.042555034160614014, 0.9958083033561707, -0.08141333609819412, -0.2994365692138672, 1.471435546875, 1.50439453125, 0.2044219970703125, 1.493408203125, 1.559326171875, 10.0, 1.0, 10.0, 1.474616527557373
33008, -0.3006615936756134, 5.506372928619385, 1.2592542171478271, -0.06779910624027252, 0.002271505305543542, -16.383203506469727, -0.3699999451637268, 0.012328140437602997, -1.0651003122329712, -0.8188666701316833, -0.9763964414596558, 0.054055068641901016, -2.879762990874458, -0.609015810743017, 176.94753864271547, 9362.0, 30146.0, 35388.0, 9362.0, 8.390083312988281, 0.09901779890060425, -0.20673319697380066, 0.011016864329576492, -0.0771883949637413, -0.042555034160614014, 0.9958083033561707, -0.07732223719358444, -0.19191741943359375, 1.480224609375, 1.50439453125, 0.2044219970703125, 1.49560546875, 1.5146484375, 10.0, 1.0, 10.0, 1.4750757217407227
33028, -0.30016300082206726, 5.504910945892334, 1.2582932710647583, -0.08335099369287491, 0.002789177931845188, -16.425867080688477, -0.40758153796195984, 0.01355601567775011, -1.068228840827942, -0.818970799446106, -0.9764196276664734, 0.054194800555706024, -2.882134264262802, -0.6788143124629471, 176.93040192839115, 9362.0, 30146.0, 35388.0, 9362.0, 8.390083312988281, -0.19135677814483643, -0.17211274802684784, 0.07540421932935715, -0.0771883949637413, -0.042555034160614014, 0.9958083033561707, -0.07732223719358444, -0.19191741943359375, 1.480224609375, 1.50439453125, 0.2044219970703125, 1.49560546875, 1.553466796875, 10.0, 1.0, 10.0, 1.475523591041565
33038, -0.30150771141052246, 5.505652904510498, 1.2583129405975342, -0.08747373521327972, 0.0029262679163366556, -16.436553955078125, -0.41696688532829285, 0.01386190764605999, -1.069067120552063, -0.8190089464187622, -0.9764163494110107, 0.05418602004647255, -2.878210851821736, -0.7231323211179301, 176.94333146222596, 9362.0, 30146.0, 35388.0, 9362.0, 8.390083312988281, 0.07510173320770264, -0.1437189280986786, 0.03508644923567772, -0.0771883949637413, -0.042555034160614014, 0.9958083033561707, -0.07732223719358444, -0.19191741943359375, 1.480224609375, 1.50439453125, 0.2044219970703125, 1.49560546875, 1.470703125, 10.0, 1.0, 10.0, 1.475523591041565
33058, -0.3003939092159271, 5.511340618133545, 1.2567667961120605, -0.0960007756948471, 0.003209637477993965, -16.457950592041016, -0.43573129177093506, 0.014476040378212929, -1.070765495300293, -0.8189440965652466, -0.976392388343811, 0.05409398674964905, -2.8671384847745234, -0.6595773339868742, 176.94143803062704, 9362.0, 30146.0, 35388.0, 9362.0, 8.390083312988281, -0.07059132307767868, 0.06092766672372818, -0.004557024221867323, -0.0771883949637413, -0.042555034160614014, 0.9958083033561707, -0.07732223719358444, -0.19191741943359375, 1.480224609375, 1.50439453125, 0.2044219970703125, 1.49560546875, 1.48974609375, 10.0, 1.0, 10.0, 1.4758859872817993
33068, -0.30014729499816895, 5.512013912200928, 1.256056547164917, -0.10040499269962311, 0.0033559303265064955, -16.46866226196289, -0.4451116919517517, 0.014782744459807873, -1.0716904401779175, -0.8189795613288879, -0.976390540599823, 0.054120488464832306, -2.866168366245856, -0.6656560918610808, 176.93828819710262, 9362.0, 30146.0, 35388.0, 9362.0, 8.390083312988281, -0.07059132307767868, 0.06092766672372818, -0.004557024221867323, -0.0771883949637413, -0.042555034160614014, 0.9958083033561707, -0.07732223719358444, -0.19191741943359375, 1.480224609375, 1.50439453125, 0.2044219970703125, 1.49560546875, 1.5439453125, 10.0, 1.0, 10.0, 1.4758859872817993
33088, -0.2983195185661316, 5.511431694030762, 1.2568680047988892, -0.10949524492025375, 0.003657716093584895, -16.4901123046875, -0.4639129340648651, 0.015395788475871086, -1.0732338428497314, -0.8189891576766968, -0.9764432311058044, 0.05413346737623215, -2.9044113563035276, -0.6970979393908294, 176.9478327374143, 9362.0, 30146.0, 35388.0, 9362.0, 8.390083312988281, 0.14499905705451965, -0.47065213322639465, -0.3007952570915222, -0.0771883949637413, -0.042555034160614014, 0.9958083033561707, -0.07732223719358444, -0.19191741943359375, 1.480224609375, 1.50439453125, 0.2044219970703125, 1.499267578125, 1.5380859375, 10.0, 1.0, 10.0, 1.4763352870941162
33108, -0.29799482226371765, 5.514292240142822, 1.2569568157196045, -0.11418138444423676, 0.0038132003974169493, -16.5008487701416, -0.4733150899410248, 0.01570076495409012, -1.0740199089050293, -0.8189167380332947, -0.976508378982544, 0.05404270067811012, -2.952988118829293, -0.6717064091162399, 176.95989832463786, 9362.0, 30146.0, 35388.0, 9362.0, 8.390083312988281, 0.021811209619045258, -0.4129248559474945, -0.31368473172187805, -0.0771883949637413, -0.042555034160614014, 0.9958083033561707, -0.07882789522409439, 0.08584022521972656, 1.5029296875, 1.50439453125, 0.2044219970703125, 1.494140625, 1.519775390625, 10.0, 1.0, 10.0, 1.476860523223877
33128, -0.2966245710849762, 5.518669605255127, 1.2567315101623535, -0.12880320847034454, 0.004297816194593906, -16.533109664916992, -0.5014749765396118, 0.016606595367193222, -1.0768356323242188, -0.8205496072769165, -0.9766478538513184, 0.05543568730354309, -2.3819319945434434, -1.4543887982804335, 176.62909362392358, 9362.0, 30146.0, 35388.0, 9362.0, 8.390083312988281, -0.08929568529129028, -0.08052164316177368, -0.3043506443500519, -0.0771883949637413, -0.042555034160614014, 0.9958083033561707, -0.07882789522409439, 0.08584022521972656, 1.5029296875, 1.50439453125, 0.2044219970703125, 1.494140625, 1.489013671875, 10.0, 1.0, 10.0, 1.477081537246704
33138, -0.2973518669605255, 5.518678188323975, 1.2546160221099854, -0.13386501371860504, 0.00446538720279932, -16.543882369995117, -0.5108869671821594, 0.01690732315182686, -1.077595591545105, -0.8205249309539795, -0.9766650795936584, 0.05539233237504959, -2.4053419163708702, -1.4540537219037333, 176.65038630842406, 9362.0, 30146.0, 35388.0, 9362.0, 8.390083312988281, 0.4137103855609894, 0.025319037958979607, -0.14787591993808746, -0.0771883949637413, -0.042555034160614014, 0.9958083033561707, -0.07882789522409439, 0.08584022521972656, 1.5029296875, 1.50439453125, 0.2044219970703125, 1.494140625, 1.515380859375, 10.0, 1.0, 10.0, 1.477081537246704
33158, -0.29516923427581787, 5.521279811859131, 1.2536213397979736, -0.14427082240581512, 0.0048095365054905415, -16.565452575683594, -0.5296913981437683, 0.01750844530761242, -1.0793520212173462, -0.8188799619674683, -0.9764955639839172, 0.05400385707616806, -2.946022133368616, -0.6340801854714755, 176.96055084850178, 9362.0, 30146.0, 35388.0, 9362.0, 8.390083312988281, 0.056630440056324005, 0.2224593311548233, -0.033509790897369385, -0.0771883949637413, -0.042555034160614014, 0.9958083033561707, -0.07882789522409439, 0.08584022521972656, 1.5029296875, 1.50439453125, 0.2044219970703125, 1.494140625, 1.531494140625, 10.0, 1.0, 10.0, 1.4775396585464478
33168, -0.2955784499645233, 5.5207390785217285, 1.2540260553359985, -0.14427082240581512, 0.0048095365054905415, -16.565452575683594, -0.5296913981437683, 0.01750844530761242, -1.0793520212173462, -0.8205716013908386, -0.9766879081726074, 0.05537459999322891, -2.4152827929589558, -1.4954098911154006, 176.65255650115435, 9362.0, 30146.0, 35388.0, 9362.0, 8.390083312988281, 0.056630440056324005, 0.2224593311548233, -0.033509790897369385, -0.0771883949637413, -0.042555034160614014, 0.9958083033561707, -0.07882789522409439, 0.08584022521972656, 1.5029296875, 1.50439453125, 0.2044219970703125, 1.494140625, 1.57763671875, 10.0, 1.0, 10.0, 1.477683663368225
33188, -0.294400691986084, 5.5293474197387695, 1.2527079582214355, -0.16058500111103058, 0.00534818647429347, -16.597869873046875, -0.5579382181167603, 0.018402615562081337, -1.0816442966461182, -0.8213096857070923, -0.9756256937980652, 0.05593908578157425, -1.9675139210334036, -1.8370869842977982, 176.65947401681743, 9362.0, 30146.0, 35388.0, 9362.0, 8.390083312988281, -0.07438351213932037, 0.12665525078773499, 0.0382656566798687, -0.0771883949637413, -0.042555034160614014, 0.9958083033561707, -0.07882789522409439, 0.08584022521972656, 1.5029296875, 1.50439453125, 0.2044219970703125, 1.494140625, 1.517578125, 10.0, 1.0, 10.0, 1.4778894186019897
33198, -0.2939966917037964, 5.529087543487549, 1.2529988288879395, -0.1662115454673767, 0.005533697549253702, -16.60869026184082, -0.5673699378967285, 0.018699707463383675, -1.0823076963424683, -0.8212981224060059, -0.975600004196167, 0.05599137768149376, -1.9507714731433683, -1.816894548801372, 176.63894544393386, 9362.0, 30146.0, 35388.0, 9362.0, 8.390083312988281, -0.07438351213932037, 0.12665525078773499, 0.0382656566798687, -0.0771883949637413, -0.042555034160614014, 0.9958083033561707, -0.07882789522409439, 0.08584022521972656, 1.5029296875, 1.50439453125, 0.2044219970703125, 1.494140625, 1.52490234375, 10.0, 1.0, 10.0, 1.478028655052185
33208, -0.29364755749702454, 5.530004024505615, 1.253650426864624, -0.1662115454673767, 0.005533697549253702, -16.60869026184082, -0.5673699378967285, 0.018699707463383675, -1.0823076963424683, -0.8213186264038086, -0.9755635857582092, 0.056006088852882385, -1.9089234185262707, -1.7916744810178784, 176.64356302945833, 9362.0, 30146.0, 35388.0, 9362.0, 8.390083312988281, -0.08228805661201477, 0.0070128547959029675, -0.15502791106700897, -0.0771883949637413, -0.042555034160614014, 0.9958083033561707, -0.09063086658716202, -0.11127853393554688, 1.48681640625, 1.50439453125, 0.2044219970703125, 1.497802734375, 1.52490234375, 10.0, 1.0, 10.0, 1.4782506227493286
33228, -0.2926400601863861, 5.528247833251953, 1.2518417835235596, -0.18365678191184998, 0.00610799714922905, -16.641197204589844, -0.595637857913971, 0.019585851579904556, -1.084877371788025, -0.8213129639625549, -0.9755417108535767, 0.055952802300453186, -1.8995617778105738, -1.785362330072303, 176.63764758904995, 9362.0, 30146.0, 35388.0, 9362.0, 8.390083312988281, -0.007912144996225834, -0.1656709909439087, 0.007158286403864622, -0.0771883949637413, -0.042555034160614014, 0.9958083033561707, -0.09063086658716202, -0.11127853393554688, 1.48681640625, 1.50439453125, 0.2044219970703125, 1.496337890625, 1.449462890625, 10.0, 1.0, 10.0, 1.478515863418579
33238, -0.2922562062740326, 5.529027462005615, 1.252907633781433, -0.18966014683246613, 0.006305330898612738, -16.65205192565918, -0.6050362586975098, 0.01988093927502632, -1.0859965085983276, -0.8212797045707703, -0.975588321685791, 0.05602692812681198, -1.9286053247886727, -1.7694916490236778, 176.63868872545214, 9362.0, 30146.0, 35388.0, 9362.0, 8.390083312988281, 0.05374695360660553, 0.13292883336544037, 0.15868136286735535, -0.0771883949637413, -0.042555034160614014, 0.9958083033561707, -0.09063086658716202, -0.11127853393554688, 1.48681640625, 1.50439453125, 0.2044219970703125, 1.496337890625, 1.453857421875, 10.0, 1.0, 10.0, 1.478515863418579
33258, -0.29098978638648987, 5.529634952545166, 1.2556132078170776, -0.2019491344690323, 0.006708804052323103, -16.673789978027344, -0.6238695979118347, 0.020465949550271034, -1.0878019332885742, -0.8213328719139099, -0.9754582643508911, 0.0560285821557045, -1.8453810245584, -1.7843495418402142, 176.63205079459146, 9362.0, 30146.0, 35388.0, 9362.0, 8.390083312988281, 0.2249375432729721, -0.22001585364341736, -0.11226841807365417, -0.0771883949637413, -0.042555034160614014, 0.9958083033561707, -0.09063086658716202, -0.11127853393554688, 1.48681640625, 1.50439453125, 0.2044219970703125, 1.496337890625, 1.50146484375, 10.0, 1.0, 10.0, 1.4790040254592896
33278, -0.2895198464393616, 5.532563209533691, 1.2593104839324951, -0.21461500227451324, 0.0071239350363612175, -16.6955623626709, -0.6427212953567505, 0.021046824753284454, -1.0894439220428467, -0.8213077783584595, -0.9755541086196899, 0.05602432042360306, -1.9186869130776094, -1.8031181177341011, 176.63801485593865, 9362.0, 30146.0, 35388.0, 9362.0, 8.390083312988281, -0.0463167205452919, -0.2747008502483368, 0.5766626000404358, -0.0771883949637413, -0.042555034160614014, 0.9958083033561707, -0.09063086658716202, -0.11127853393554688, 1.48681640625, 1.50439453125, 0.2044219970703125, 1.496337890625, 1.53515625, 10.0, 1.0, 10.0, 1.479196310043335
33288, -0.2893144190311432, 5.535710334777832, 1.2651220560073853, -0.22108933329582214, 0.007335838861763477, -16.70646095275879, -0.6521456837654114, 0.021333204582333565, -1.0903162956237793, -0.8213433623313904, -0.9756041169166565, 0.05600246042013168, -1.9470931200713328, -1.8184092965574052, 176.62689788810636, 9362.0, 30146.0, 35388.0, 9362.0, 8.390083312988281, -0.0463167205452919, -0.2747008502483368, 0.5766626000404358, -0.0771883949637413, -0.042555034160614014, 0.9958083033561707, -0.09063086658716202, -0.11127853393554688, 1.48681640625, 1.50439453125, 0.2044219970703125, 1.494873046875, 1.53515625, 10.0, 1.0, 10.0, 1.479196310043335
33348, -0.32847219705581665, 5.531327247619629, 1.2948739528656006, -0.26191556453704834, 0.008667145855724812, -16.772037506103516, -0.70880126953125, 0.023067165166139603, -1.0947976112365723, -0.8213075995445251, -0.9754738807678223, 0.0559731051325798, -1.8627585468469492, -1.8045201830745725, 176.65822080732994, 9362.0, 30146.0, 35388.0, 9362.0, 8.390083312988281, -1.1641125679016113, 0.15398679673671722, -0.7293215394020081, -0.0771883949637413, -0.042555034160614014, 0.9958083033561707, -0.09063086658716202, -0.11127853393554688, 1.48681640625, 1.50439453125, 0.2044219970703125, 1.49267578125, 1.517578125, 10.0, 1.0, 10.0, 1.4808142185211182
33358, -0.34049877524375916, 5.529120445251465, 1.30088210105896, -0.26905083656311035, 0.008899468928575516, -16.782987594604492, -0.7182512879371643, 0.023397063836455345, -1.095382809638977, -0.8189934492111206, -0.9763886332511902, 0.054178278893232346, -2.8516477010354855, -0.6789503743853231, 176.92782237200996, 9362.0, 30146.0, 35388.0, 9362.0, 8.390083312988281, -1.076439619064331, 0.30646565556526184, 0.03949497267603874, -0.0797862559556961, -0.04749969020485878, 0.9931415319442749, -0.09063086658716202, -0.11127853393554688, 1.48681640625, 1.50439453125, 0.2044219970703125, 1.49267578125, 1.53369140625, 10.0, 1.0, 10.0, 1.4808100461959839
33368, -0.35153812170028687, 5.526462078094482, 1.3003041744232178, -0.2762804329395294, 0.009135173633694649, -16.7939453125, -0.7276704907417297, 0.02374291978776455, -1.096325397491455, -0.8190379738807678, -0.9764478802680969, 0.05412282049655914, -2.9026092830825725, -0.7230227624741588, 176.93773415231388, 9362.0, 30146.0, 35388.0, 9362.0, 8.390083312988281, -0.7413678765296936, -0.23077599704265594, -0.05679350718855858, -0.07865092158317566, -0.05283535644412041, 0.989501416683197, -0.09063086658716202, -0.11127853393554688, 1.48681640625, 1.50439453125, 0.2044219970703125, 1.493408203125, 1.53369140625, 10.0, 1.0, 10.0, 1.4809399843215942
33378, -0.3601548969745636, 5.527872562408447, 1.2995203733444214, -0.2836039960384369, 0.009374426677823067, -16.804916381835938, -0.7370436787605286, 0.024107692763209343, -1.0977063179016113, -0.8189144730567932, -0.9764593243598938, 0.05407918244600296, -2.906588216950731, -0.6596377138503442, 176.9410906506989, 9362.0, 30146.0, 35388.0, 9362.0, 8.390083312988281, -0.137320414185524, 0.012194372713565826, -0.19538824260234833, -0.07751832902431488, -0.04600055143237114, 0.9950509667396545, -0.09063086658716202, -0.11127853393554688, 1.48681640625, 1.50439453125, 0.2044219970703125, 1.493408203125, 1.568115234375, 10.0, 1.0, 10.0, 1.4810048341751099
33388, -0.3637092411518097, 5.528001308441162, 1.298992395401001, -0.2910213768482208, 0.009617426432669163, -16.815898895263672, -0.746435284614563, 0.024492397904396057, -1.0988563299179077, -0.8189898133277893, -0.9764540791511536, 0.054137732833623886, -2.892543864917894, -0.6858742391625867, 176.9338119503758, 9362.0, 30146.0, 35388.0, 9362.0, 8.390083312988281, -0.016865970566868782, -0.4837445616722107, 0.5138167142868042, -0.07451541721820831, -0.0425843745470047, 0.9960471391677856, -0.09063086658716202, -0.11127853393554688, 1.48681640625, 1.50439453125, 0.2044219970703125, 1.493408203125, 1.53662109375, 10.0, 1.0, 10.0, 1.4811666011810303
33408, -0.3448212146759033, 5.530422687530518, 1.2958660125732422, -0.2985328435897827, 0.009864353574812412, -16.82689094543457, -0.7558600306510925, 0.024893103167414665, -1.0996907949447632, -0.8189405798912048, -0.976424515247345, 0.054121848195791245, -2.877898306032682, -0.6563264105787141, 176.9216389020319, 9362.0, 30146.0, 35388.0, 9362.0, 8.390083312988281, 2.747711181640625, -0.9837329387664795, -4.161942958831787, -0.07451541721820831, -0.0425843745470047, 0.9960471391677856, -0.08938739448785782, -0.22775840759277344, 1.477294921875, 1.50439453125, 0.2044219970703125, 1.493408203125, 1.53955078125, 10.0, 1.0, 10.0, 1.4814863204956055
33418, -0.3167724311351776, 5.536272048950195, 1.2726188898086548, -0.31383928656578064, 0.010370355099439621, -16.848894119262695, -0.7747840881347656, 0.02570519782602787, -1.1006556749343872, -0.8189165592193604, -0.976457953453064, 0.05411322042346001, -2.8966052684845778, -0.6382457825253596, 176.92501396180296, 9362.0, 30146.0, 35388.0, 9362.0, 8.390083312988281, 3.576751470565796, 0.7970430850982666, -2.658496856689453, -0.07451541721820831, -0.0425843745470047, 0.9960471391677856, -0.08938739448785782, -0.22775840759277344, 1.477294921875, 1.50439453125, 0.2044219970703125, 1.493408203125, 1.529296875, 10.0, 1.0, 10.0, 1.4814863204956055
33428, -0.2847524583339691, 5.532863140106201, 1.2686594724655151, -0.32163360714912415, 0.010629256255924702, -16.85991096496582, -0.7840816974639893, 0.026079364120960236, -1.1028400659561157, -0.819015383720398, -0.9765260219573975, 0.05416598543524742, -2.9350771172311068, -0.6983232460358124, 176.91956259888042, 9362.0, 30146.0, 35388.0, 9362.0, 8.390083312988281, 3.808450222015381, -1.0375597476959229, 2.501304864883423, -0.07451541721820831, -0.0425843745470047, 0.9960471391677856, -0.08938739448785782, -0.22775840759277344, 1.477294921875, 1.50439453125, 0.2044219970703125, 1.49267578125, 1.529296875, 10.0, 1.0, 10.0, 1.4819098711013794
33438, -0.2510617971420288, 5.54000997543335, 1.2894662618637085, -0.32952097058296204, 0.010891681537032127, -16.87095069885254, -0.7933919429779053, 0.026406999677419662, -1.1049870252609253, -0.821301281452179, -0.9755046367645264, 0.05595129728317261, -1.886195496447417, -1.7961761659461501, 176.64728678397955, 9362.0, 30146.0, 35388.0, 9362.0, 8.390083312988281, 3.0398635864257812, 0.2724020779132843, 3.375833749771118, -0.07451541721820831, -0.0425843745470047, 0.9960471391677856, -0.08938739448785782, -0.22775840759277344, 1.477294921875, 1.50439453125, 0.2044219970703125, 1.49267578125, 1.5234375, 10.0, 1.0, 10.0, 1.4819809198379517
33448, -0.22246123850345612, 5.539416313171387, 1.3132320642471313, -0.3375023603439331, 0.011157145723700523, -16.882001876831055, -0.8028859496116638, 0.026681864634156227, -1.1051654815673828, -0.8212834596633911, -0.9755150079727173, 0.05597449839115143, -1.9001141433145863, -1.7864736489894142, 176.644082268204, 9362.0, 30146.0, 35388.0, 9362.0, 8.390083312988281, 3.0398635864257812, 0.2724020779132843, 3.375833749771118, -0.0769597515463829, -0.04392722249031067, 1.0104758739471436, -0.08938739448785782, -0.22775840759277344, 1.477294921875, 1.50439453125, 0.2044219970703125, 1.49267578125, 1.522705078125, 10.0, 1.0, 10.0, 1.4819809198379517
33458, -0.19447144865989685, 5.552262783050537, 1.319067120552063, -0.3455791771411896, 0.011425060220062733, -16.893049240112305, -0.8124762177467346, 0.026896288618445396, -1.104467511177063, -0.8212597370147705, -0.9755795001983643, 0.055963099002838135, -1.9114275689164566, -1.7696562144086272, 176.6475322828389, 9362.0, 30146.0, 35388.0, 9362.0, 8.390083312988281, 2.3105838298797607, -0.767202615737915, 0.0528356172144413, -0.0769597515463829, -0.04392722249031067, 1.0104758739471436, -0.08938739448785782, -0.22775840759277344, 1.477294921875, 1.50439453125, 0.2044219970703125, 1.49267578125, 1.47509765625, 10.0, 1.0, 10.0, 1.4819809198379517
33478, -0.15335401892662048, 5.573017120361328, 1.3221884965896606, -0.3620178997516632, 0.011965996585786343, -16.91515350341797, -0.8313508033752441, 0.027171455323696136, -1.106392502784729, -0.8213656544685364, -0.9755979776382446, 0.056018900126218796, -1.9281402515590547, -1.8476404807993845, 176.63792878729402, 9362.0, 30146.0, 35388.0, 9362.0, 8.390083312988281, 2.3105838298797607, -0.767202615737915, 0.0528356172144413, -0.0769597515463829, -0.04392722249031067, 1.0104758739471436, -0.08938739448785782, -0.22775840759277344, 1.477294921875, 1.50439453125, 0.2044219970703125, 1.49267578125, 1.52197265625, 10.0, 1.0, 10.0, 1.4819809198379517
33488, -0.1402648240327835, 5.581921577453613, 1.2996809482574463, -0.37037840485572815, 0.01223808340728283, -16.926225662231445, -0.8407506942749023, 0.02724645286798477, -1.1079798936843872, -0.8213231563568115, -0.9755843877792358, 0.05599670857191086, -1.9302859369460328, -1.795520782559322, 176.638539223085, 9362.0, 30146.0, 35388.0, 9362.0, 8.390083312988281, 0.42546772956848145, -0.40230828523635864, -2.2509453296661377, -0.0769597515463829, -0.04392722249031067, 1.0104758739471436, -0.08938739448785782, -0.22775840759277344, 1.477294921875, 1.50439453125, 0.2044219970703125, 1.49267578125, 1.53955078125, 10.0, 1.0, 10.0, 1.4819809198379517
33528, -0.14721131324768066, 5.587141513824463, 1.1791975498199463, -0.40477168560028076, 0.013330597430467606, -16.970582962036133, -0.8788917064666748, 0.02736428752541542, -1.1104432344436646, -0.8213139772415161, -0.9756255149841309, 0.05592667683959007, -1.965328641143323, -1.8197948091993794, 176.64815045861582, 9362.0, 30146.0, 35388.0, 9362.0, 8.370248794555664, -2.0007665157318115, 0.9187096953392029, -1.9958527088165283, -0.0769597515463829, -0.04392722249031067, 1.0104758739471436, -0.08938739448785782, -0.22775840759277344, 1.477294921875, 1.50439453125, 0.2044219970703125, 1.49267578125, 1.50732421875, 10.0, 1.0, 10.0, 1.482650637626648
33538, -0.1631391942501068, 5.578619003295898, 1.1593058109283447, -0.41360801458358765, 0.013604400679469109, -16.981693267822266, -0.8883719444274902, 0.027401141822338104, -1.1117517948150635, -0.8213173151016235, -0.9755573272705078, 0.0559823177754879, -1.917543652966741, -1.8117834854894284, 176.64892372412478, 9362.0, 30146.0, 35388.0, 9362.0, 8.370248794555664, -2.389763355255127, 0.9599849581718445, -1.557042121887207, -0.0769597515463829, -0.04392722249031067, 1.0104758739471436, -0.08938739448785782, -0.22775840759277344, 1.477294921875, 1.50439453125, 0.2044219970703125, 1.49267578125, 1.5029296875, 10.0, 1.0, 10.0, 1.4829840660095215
33548, -0.18461492657661438, 5.567984580993652, 1.1448254585266113, -0.4225393235683441, 0.013878688216209412, -16.992815017700195, -0.8978878259658813, 0.02745964005589485, -1.1126079559326172, -0.8212882280349731, -0.9755765199661255, 0.055988725274801254, -1.9264473744828834, -1.7899248031274624, 176.64555266320957, 9362.0, 30146.0, 35388.0, 9362.0, 8.370248794555664, -2.389763355255127, 0.9599849581718445, -1.557042121887207, -0.07171770930290222, -0.0276949480175972, 1.0014666318893433, -0.08938739448785782, -0.22775840759277344, 1.477294921875, 1.50439453125, 0.2044219970703125, 1.494873046875, 1.517578125, 10.0, 1.0, 10.0, 1.4829938411712646
33558, -0.20986886322498322, 5.5534539222717285, 1.142103672027588, -0.43156594038009644, 0.014153716154396534, -17.003942489624023, -0.9074330925941467, 0.02754855901002884, -1.1130197048187256, -0.8213037848472595, -0.9755599498748779, 0.056016381829977036, -1.9183801459729364, -1.8021770219231428, 176.63941458639877, 9362.0, 30146.0, 35388.0, 9362.0, 8.370248794555664, -2.88309907913208, 1.5410135984420776, -0.3742736279964447, -0.07171770930290222, -0.0276949480175972, 1.0014666318893433, -0.08938739448785782, -0.22775840759277344, 1.477294921875, 1.50439453125, 0.2044219970703125, 1.494873046875, 1.5087890625, 10.0, 1.0, 10.0, 1.4831539392471313
33568, -0.23859663307666779, 5.540135383605957, 1.1368823051452637, -0.4406879246234894, 0.014429830946028233, -17.01507568359375, -0.9169608950614929, 0.02767510898411274, -1.1134283542633057, -0.8190009593963623, -0.9764165878295898, 0.054154831916093826, -2.87074478358039, -0.6930934988517663, 176.9231179925928, 9362.0, 30146.0, 35388.0, 9362.0, 8.370248794555664, -2.9041104316711426, 1.0796425342559814, -1.9235752820968628, -0.07171770930290222, -0.0276949480175972, 1.0014666318893433, -0.08938739448785782, -0.22775840759277344, 1.477294921875, 1.50439453125, 0.2044219970703125, 1.494873046875, 1.550537109375, 10.0, 1.0, 10.0, 1.4831539392471313
33578, -0.2674177289009094, 5.529143810272217, 1.1223407983779907, -0.4499047100543976, 0.01470742654055357, -17.026214599609375, -0.9263961911201477, 0.027844706550240517, -1.114542007446289, -0.819048285484314, -0.9764580726623535, 0.054131701588630676, -2.8989885446518158, -0.7122471778026522, 176.91780880475136, 9362.0, 30146.0, 35388.0, 9362.0, 8.370248794555664, -3.0639724731445312, 0.7049909830093384, 0.09977292269468307, -0.07681791484355927, -0.03722887486219406, 0.997219979763031, -0.08938739448785782, -0.22775840759277344, 1.477294921875, 1.50439453125, 0.2044219970703125, 1.494873046875, 1.472900390625, 10.0, 1.0, 10.0, 1.4832066297531128
33588, -0.2972365915775299, 5.521435737609863, 1.121638536453247, -0.45921584963798523, 0.014986971393227577, -17.037364959716797, -0.9358304142951965, 0.028066575527191162, -1.1154398918151855, -0.8190035820007324, -0.976478636264801, 0.05408427491784096, -2.909097988933119, -0.698292707565713, 176.93702941834232, 9362.0, 30146.0, 35388.0, 9362.0, 8.370248794555664, -3.0639724731445312, 0.7049909830093384, 0.09977292269468307, -0.07681791484355927, -0.03722887486219406, 0.997219979763031, -0.08938739448785782, -0.22775840759277344, 1.477294921875, 1.50439453125, 0.2044219970703125, 1.494873046875, 1.5615234375, 10.0, 1.0, 10.0, 1.4833753108978271
33598, -0.32397040724754333, 5.5121989250183105, 1.1267598867416382, -0.4686213731765747, 0.01526899728924036, -17.04852294921875, -0.9452720284461975, 0.028338927775621414, -1.116079568862915, -0.8189823627471924, -0.9764937162399292, 0.05409063398838043, -2.938008430573735, -0.7053286214943171, 176.95517220165067, 9362.0, 30146.0, 35388.0, 9362.0, 8.390083312988281, -3.0639724731445312, 0.7049909830093384, 0.09977292269468307, -0.07681791484355927, -0.03722887486219406, 0.997219979763031, -0.08938739448785782, -0.22775840759277344, 1.477294921875, 1.50439453125, 0.2044219970703125, 1.494873046875, 1.5615234375, 10.0, 1.0, 10.0, 1.4833753108978271
33608, -0.3484927713871002, 5.506015300750732, 1.1333731412887573, -0.4686213731765747, 0.01526899728924036, -17.04852294921875, -0.9452720284461975, 0.028338927775621414, -1.116079568862915, -0.8189820051193237, -0.9764701724052429, 0.05414903163909912, -2.9194861617193735, -0.707477885663792, 176.9493814480361, 9362.0, 30146.0, 35388.0, 9362.0, 8.390083312988281, -1.9603147506713867, 0.21855705976486206, 2.174030303955078, -0.07681791484355927, -0.03722887486219406, 0.997219979763031, -0.10632369667291641, 0.06792068481445312, 1.50146484375, 1.50439453125, 0.2044219970703125, 1.494140625, 1.5615234375, 10.0, 1.0, 10.0, 1.4833753108978271
33618, -0.3700466752052307, 5.503229141235352, 1.1528226137161255, -0.4686213731765747, 0.01526899728924036, -17.04852294921875, -0.9452720284461975, 0.028338927775621414, -1.116079568862915, -0.818960964679718, -0.9764453768730164, 0.0540602020919323, -2.9066802961753755, -0.6849859239879663, 176.9398684477967, 9362.0, 30146.0, 35388.0, 9362.0, 8.390083312988281, -1.9603147506713867, 0.21855705976486206, 2.174030303955078, -0.07681791484355927, -0.03722887486219406, 0.997219979763031, -0.10632369667291641, 0.06792068481445312, 1.50146484375, 1.50439453125, 0.2044219970703125, 1.494140625, 1.527099609375, 10.0, 1.0, 10.0, 1.4833753108978271
33628, -0.38828009366989136, 5.500277042388916, 1.168001413345337, -0.4974024295806885, 0.016134759411215782, -17.082046508789062, -0.9734269380569458, 0.029431574046611786, -1.118969440460205, -0.8190372586250305, -0.9764495491981506, 0.05409099906682968, -2.8963522334206844, -0.7129062904516559, 176.9435281433813, 9362.0, 30146.0, 35388.0, 9362.0, 8.390083312988281, -1.9603147506713867, 0.21855705976486206, 2.174030303955078, -0.07681791484355927, -0.03722887486219406, 0.997219979763031, -0.10632369667291641, 0.06792068481445312, 1.50146484375, 1.50439453125, 0.2044219970703125, 1.48974609375, 1.5234375, 10.0, 1.0, 10.0, 1.4833753108978271
33648, -0.40537193417549133, 5.497964859008789, 1.2106668949127197, -0.5170585513114929, 0.016732357442378998, -17.104442596435547, -0.9921990633010864, 0.03033967688679695, -1.1205132007598877, -0.8190476894378662, -0.9764233827590942, 0.05417066812515259, -2.8724042694834138, -0.7217718156043134, 176.9239685967273, 9362.0, 30146.0, 35388.0, 9362.0, 8.390083312988281, 0.29539695382118225, -0.35328081250190735, 3.531998872756958, -0.07681791484355927, -0.03722887486219406, 0.997219979763031, -0.10632369667291641, 0.06792068481445312, 1.50146484375, 1.50439453125, 0.2044219970703125, 1.48974609375, 1.53515625, 10.0, 1.0, 10.0, 1.4840670824050903
33658, -0.40615934133529663, 5.498617649078369, 1.2437726259231567, -0.5270274877548218, 0.017038196325302124, -17.115652084350586, -1.0015850067138672, 0.030824702233076096, -1.121246099472046, -0.8190332651138306, -0.97647625207901, 0.05415376275777817, -2.9217346634289245, -0.7269404885933568, 176.94107188249592, 9362.0, 30146.0, 35388.0, 9362.0, 8.390083312988281, 0.7866196632385254, 0.15466228127479553, 2.1734695434570312, -0.07681791484355927, -0.03722887486219406, 0.997219979763031, -0.10632369667291641, 0.06792068481445312, 1.50146484375, 1.50439453125, 0.2044219970703125, 1.48974609375, 1.46044921875, 10.0, 1.0, 10.0, 1.4840670824050903
33678, -0.3914526402950287, 5.50186824798584, 1.2999756336212158, -0.5472463369369507, 0.017664466053247452, -17.138097763061523, -1.0203022956848145, 0.03179598227143288, -1.1232678890228271, -0.8189945220947266, -0.9765105247497559, 0.05408593267202377, -2.952730907021489, -0.707572397059721, 176.95099076102358, 9362.0, 30146.0, 35388.0, 9362.0, 8.390083312988281, 1.7890186309814453, -0.49163544178009033, 2.1463003158569336, -0.07681791484355927, -0.03722887486219406, 0.997219979763031, -0.10632369667291641, 0.06792068481445312, 1.50146484375, 1.50439453125, 0.2044219970703125, 1.48974609375, 1.51611328125, 10.0, 1.0, 10.0, 1.4844547510147095
33728, -0.29298558831214905, 5.528471946716309, 1.36086106300354, -0.5994341373443604, 0.019309520721435547, -17.194368362426758, -1.0671861171722412, 0.03388278931379318, -1.1279619932174683, -0.8212870955467224, -0.9755317568778992, 0.055932361632585526, -1.8900248403720077, -1.7801826807530574, 176.65529404038364, 9362.0, 30146.0, 35388.0, 9362.0, 8.370248794555664, 2.190558910369873, -0.9034311175346375, 0.1273634135723114, -0.07681791484355927, -0.03722887486219406, 0.997219979763031, -0.10582628846168518, 0.04104042053222656, 1.499267578125, 1.50439453125, 0.2044219970703125, 1.48974609375, 1.516845703125, 10.0, 1.0, 10.0, 1.4844547510147095
33748, -0.25007152557373047, 5.543159008026123, 1.3417092561721802, -0.5994341373443604, 0.019309520721435547, -17.194368362426758, -1.0671861171722412, 0.03388278931379318, -1.1279619932174683, -0.8213335871696472, -0.9755753874778748, 0.055974509567022324, -1.942411560278003, -1.8423801154750663, 176.64662365973427, 9362.0, 30146.0, 35388.0, 9362.0, 8.370248794555664, 1.6712738275527954, -1.147063136100769, -2.3407599925994873, -0.07853514701128006, -0.03663099929690361, 0.9962617754936218, -0.10582628846168518, 0.04104042053222656, 1.499267578125, 1.50439453125, 0.2044219970703125, 1.48974609375, 1.516845703125, 10.0, 1.0, 10.0, 1.4854248762130737
33758, -0.2311413288116455, 5.553810119628906, 1.3200956583023071, -0.631873369216919, 0.02033921331167221, -17.22824478149414, -1.0954442024230957, 0.03471324220299721, -1.1305638551712036, -0.8213179111480713, -0.9755163788795471, 0.05599580332636833, -1.8886587214402466, -1.7936226637158654, 176.63836703153785, 9362.0, 30146.0, 35388.0, 9362.0, 8.370248794555664, 1.5785273313522339, -0.7694183588027954, -2.3986940383911133, -0.07853514701128006, -0.03663099929690361, 0.9962617754936218, -0.10582628846168518, 0.04104042053222656, 1.499267578125, 1.50439453125, 0.2044219970703125, 1.48974609375, 1.48974609375, 10.0, 1.0, 10.0, 1.485510230064392
33768, -0.2134493887424469, 5.5628204345703125, 1.2962400913238525, -0.6428749561309814, 0.020687371492385864, -17.23955535888672, -1.104877233505249, 0.03492189198732376, -1.1315401792526245, -0.8213024139404297, -0.9755346775054932, 0.055965177714824677, -1.8943076115803057, -1.7911162101253524, 176.63750847659298, 9362.0, 30146.0, 35388.0, 9362.0, 8.370248794555664, 0.9662743806838989, -0.738149881362915, -2.8835337162017822, -0.07853514701128006, -0.03663099929690361, 0.9962617754936218, -0.10582628846168518, 0.04104042053222656, 1.499267578125, 1.50439453125, 0.2044219970703125, 1.4912109375, 1.48974609375, 10.0, 1.0, 10.0, 1.485710859298706
33778, -0.2004467099905014, 5.5704216957092285, 1.267127275466919, -0.6539709568023682, 0.021037470549345016, -17.25087547302246, -1.1143261194229126, 0.03510180115699768, -1.1325374841690063, -0.8213235139846802, -0.9755734801292419, 0.055961973965168, -1.929172496355433, -1.8225360167432427, 176.6429568327135, 9362.0, 30146.0, 35388.0, 9362.0, 8.370248794555664, 0.5527298450469971, -0.5009003281593323, -2.7037711143493652, -0.07050995528697968, -0.030879290774464607, 0.9994588494300842, -0.10582628846168518, 0.04104042053222656, 1.499267578125, 1.50439453125, 0.2044219970703125, 1.4912109375, 1.48974609375, 10.0, 1.0, 10.0, 1.4857096672058105
