timeTick, roll, pitch, yaw, stateX, stateY, stateZ, stateVX, stateVY, stateVZ, otX0, otY0, otZ0, otRoll0, otPitch0, otYaw0, left wing, pitch motor, yaw motor, right wing, voltage, roll rate, pitch rate, yaw rate, A_x, A_y, A_z, current, i_raw, v_raw, airflow_voltage, airflow_speed, pot_Pitch, voltage_nKF, kFFx, state, State, volt_KF
18635, 0.9058713912963867, -5.439661026000977, -2.25515079498291, 0, 0, 0, 0, 0, 0, -0.20132078230381012, -1.0602751970291138, 0.0527014322578907, -0.41046982182565395, 0.9934108862978235, 3.256638923272437, 0, 0, 0, 0, 0, 0, 0, 0, 0, 0, 0, 0, 0, 0, 0, 0, 0, 0, 0, 0, 0, 0
18645, 0.9056041836738586, -5.440838813781738, -2.2552378177642822, -0.00024787470465525985, 5.143834641785361e-05, -2.656555652618408, -0.020186256617307663, 0.004189163446426392, -0.311698317527771, -0.20132648944854736, -1.0602976083755493, 0.05267152190208435, -0.4095422825702928, 1.0052710443331705, 3.253196857541027, 9362.0, 30146.0, 35388.0, 9362.0, 0, 0.007063975557684898, -0.2471304088830948, -0.12768994271755219, -0.08315785229206085, 0.00029267685022205114, 0.9979004859924316, 0, 0, 0, 0, 0, 0, 0, 0, 0, 0, 0
18655, 0.9053462147712708, -5.440404891967773, -2.255464553833008, -0.000403722922783345, 8.378025086130947e-05, -2.6596763134002686, -0.010983406566083431, 0.0022792050149291754, -0.3124418258666992, -0.20133046805858612, -1.060266137123108, 0.0526752695441246, -0.4135690470764248, 0.9977811418611395, 3.258200956718292, 9362.0, 30146.0, 35388.0, 9362.0, 0, 0.06456534564495087, 0.41164496541023254, 0.1622200608253479, -0.08683950453996658, 0.0008115907548926771, 0.9981972575187683, 0, 0, 0, 1.634765625, 0.5010528564453125, 0, 1.657470703125, 10.0, 1.0, 10.0, 1.619762659072876
18665, 0.9056599736213684, -5.443450927734375, -2.2543702125549316, -0.00046750062028877437, 9.701775707071647e-05, -2.662804126739502, -0.001772141782566905, 0.00036826057475991547, -0.31311771273612976, -0.20133669674396515, -1.060293436050415, 0.05268369987607002, -0.4125846590240552, 0.9991417356288537, 3.2504233167737557, 9362.0, 30146.0, 35388.0, 9362.0, 0, -0.07231736928224564, 0.06279028207063675, 0.16944506764411926, -0.08201595395803452, 0.0033984999172389507, 0.998151421546936, 0, 0, 0, 1.59521484375, 0.4058380126953125, 1.49560546875, 1.576171875, 10.0, 1.0, 10.0, 1.6197266578674316
18675, 0.9044445157051086, -5.444582939147949, -2.252974033355713, -0.0004391599213704467, 9.11460374481976e-05, -2.66593861579895, 0.007440281566232443, -0.0015424276934936643, -0.3137742877006531, -0.20132721960544586, -1.06027090549469, 0.05270127207040787, -0.41258090643262313, 0.9971333346863673, 3.2489126512601536, 9362.0, 30146.0, 35388.0, 9362.0, 0, 0.025535406544804573, -0.05911078304052353, -0.13314072787761688, -0.08015326410531998, 0.0012345471186563373, 0.9973976016044617, 0, 0, 0, 1.491943359375, 0.179656982421875, 1.49560546875, 1.6728515625, 10.0, 1.0, 10.0, 1.6198948621749878
18685, 0.9047690629959106, -5.444744110107422, -2.2533137798309326, -0.00031864200718700886, 6.615901656914502e-05, -2.669079303741455, 0.016663331538438797, -0.003454743418842554, -0.3143738806247711, -0.20132611691951752, -1.060290813446045, 0.0526786632835865, -0.40544553883284257, 1.0020881487805866, 3.2517793547844076, 9362.0, 30146.0, 35388.0, 9362.0, 0, -0.15969304740428925, -0.17317929863929749, -0.23477163910865784, -0.07956474274396896, 0.0007288204506039619, 0.9968438148498535, 0, 0, 0, 1.631103515625, 0.49212646484375, 1.4970703125, 1.57763671875, 10.0, 1.0, 10.0, 1.619918704032898
18695, 0.9041332006454468, -5.44401741027832, -2.255340099334717, -0.00010590738384053111, 2.2064934455556795e-05, -2.6722261905670166, 0.025883588939905167, -0.0053641302511096, -0.315024197101593, -0.20128963887691498, -1.0602587461471558, 0.05274512246251106, -0.41596375958964465, 1.0118776779701761, 3.2751626122547215, 9362.0, 30146.0, 35388.0, 9362.0, 0, 0.12370974570512772, -0.1691252440214157, 0.05451693385839462, -0.07881554961204529, 0.0022204911801964045, 0.9943416118621826, 0, 0, 0, 1.613525390625, 0.44940185546875, 1.4970703125, 1.66552734375, 10.0, 1.0, 10.0, 1.620063066482544
18705, 0.9046175479888916, -5.443866729736328, -2.2551355361938477, 0.00019898614846169949, -4.111681118956767e-05, -2.675380229949951, 0.03509506583213806, -0.0072725447826087475, -0.3157693147659302, -0.2012840360403061, -1.0602506399154663, 0.052739474922418594, -0.4177886945424809, 1.0132162554913577, 3.2707491285448325, 9362.0, 30146.0, 35388.0, 9362.0, 0, -0.008152171038091183, -0.09161543846130371, -0.027687164023518562, -0.08019223809242249, 0.001499223173595965, 0.9964774250984192, 0, 0, 0, 1.60693359375, 0.4335479736328125, 1.49560546875, 1.584228515625, 10.0, 1.0, 10.0, 1.6196389198303223
18715, 0.9038583040237427, -5.444324970245361, -2.255725145339966, 0.0005958796245977283, -0.0001233561779372394, -2.6785428524017334, 0.04428364336490631, -0.009175297804176807, -0.3167438805103302, -0.20132383704185486, -1.0602909326553345, 0.05269281193614006, -0.402592919088622, 1.0009822633342083, 3.250178685596071, 9362.0, 30146.0, 35388.0, 9362.0, 0, -0.08211322873830795, 0.3352663218975067, 0.045229144394397736, -0.08110518008470535, 0.0024283253587782383, 0.9967020153999329, 0, 0, 0, 1.540283203125, 0.280364990234375, 1.49560546875, 1.62744140625, 10.0, 1.0, 10.0, 1.6196635961532593
18725, 0.9030396342277527, -5.446104526519775, -2.2560887336730957, 0.001084714662283659, -0.00022463881759904325, -2.6817145347595215, 0.053483303636312485, -0.011081324890255928, -0.3175976872444153, -0.20132195949554443, -1.060267686843872, 0.0526898093521595, -0.40998836290124724, 0.993057034101696, 3.2511610525614323, 9362.0, 30146.0, 35388.0, 9362.0, 0, -0.04620449244976044, 0.19653856754302979, 0.10823480784893036, -0.08380363136529922, 0.0036110312212258577, 0.9980322122573853, 0, 0, 0, 1.546875, 0.2949676513671875, 1.494140625, 1.5615234375, 10.0, 1.0, 10.0, 1.6195305585861206
18735, 0.9036983251571655, -5.448359489440918, -2.25604248046875, 0.0016655880026519299, -0.00034498368040658534, -2.684894323348999, 0.06269132345914841, -0.012987704947590828, -0.31837230920791626, -0.20129840075969696, -1.0602511167526245, 0.05272520333528519, -0.4194729966462262, 1.0155392204061116, 3.2756132974034173, 9362.0, 30146.0, 35388.0, 9362.0, 8.310744285583496, -0.03640718385577202, 0.0829203724861145, -0.009668109938502312, -0.07987622171640396, 0.00203310395590961, 0.9997371435165405, -0.06441698968410492, -0.28151702880859375, 1.472900390625, 1.575439453125, 0.3596649169921875, 1.494140625, 1.5322265625, 10.0, 1.0, 10.0, 1.619254231452942
18745, 0.9037541747093201, -5.450449466705322, -2.2553796768188477, 0.0023386150132864714, -0.0004843982751481235, -2.6880812644958496, 0.07191405445337296, -0.014895214699208736, -0.3190242648124695, -0.2013213038444519, -1.060274362564087, 0.05266506224870682, -0.4102868757217764, 1.0081778271152473, 3.2529919021623193, 9362.0, 30146.0, 35388.0, 9362.0, 8.310744285583496, 0.2220371663570404, -0.18289488554000854, -0.23819291591644287, -0.08241547644138336, 0.0017991607310250401, 0.9983610510826111, -0.06441698968410492, -0.28151702880859375, 1.472900390625, 1.59814453125, 0.4127655029296875, 1.4970703125, 1.5732421875, 10.0, 1.0, 10.0, 1.619187355041504
18755, 0.9045537114143372, -5.449429988861084, -2.2561933994293213, 0.003103948198258877, -0.0006429066997952759, -2.6912741661071777, 0.08115257322788239, -0.01680636592209339, -0.3195499777793884, -0.2013344019651413, -1.0602799654006958, 0.0526873916387558, -0.40852055517191876, 0.9970144429129846, 3.260752865671368, 9362.0, 30146.0, 35388.0, 9362.0, 8.310744285583496, -0.054534438997507095, 0.1514972746372223, 0.020637156441807747, -0.08178061991930008, 0.002077211160212755, 1.0010123252868652, -0.06441698968410492, -0.28151702880859375, 1.472900390625, 1.73876953125, 0.776458740234375, 1.4970703125, 1.69921875, 10.0, 1.0, 10.0, 1.6194406747817993
18765, 0.9043920040130615, -5.4507222175598145, -2.2557566165924072, 0.003961661830544472, -0.0008205226040445268, -2.694472551345825, 0.09039008617401123, -0.018716949969530106, -0.32012367248535156, -0.20131942629814148, -1.060275912284851, 0.052662238478660583, -0.403623223068388, 1.0047943069906182, 3.2570940352789783, 9362.0, 30146.0, 35388.0, 9362.0, 8.310744285583496, 0.22274601459503174, -0.30367568135261536, -0.2892390191555023, -0.07839900255203247, 0.0007184130954556167, 0.9987518191337585, -0.06441698968410492, -0.28151702880859375, 1.472900390625, 1.623779296875, 0.4742889404296875, 1.49853515625, 1.65234375, 10.0, 1.0, 10.0, 1.6191993951797485
18775, 0.9052568674087524, -5.449825763702393, -2.2573766708374023, 0.004911820869892836, -0.0010172679321840405, -2.6976757049560547, 0.09964174032211304, -0.020632050931453705, -0.32052940130233765, -0.20132674276828766, -1.060285210609436, 0.05269438773393631, -0.4094745763503385, 0.9965312453638262, 3.2493961116085077, 9362.0, 30146.0, 35388.0, 9362.0, 8.310744285583496, 0.11511439830064774, -0.1431632936000824, 0.23485513031482697, -0.07887030392885208, 0.0016979590291157365, 0.9986099600791931, -0.06441698968410492, -0.28151702880859375, 1.472900390625, 1.64208984375, 0.519073486328125, 1.49853515625, 1.59521484375, 10.0, 1.0, 10.0, 1.6191234588623047
18785, 0.9060167670249939, -5.447694301605225, -2.2562415599823, 0.005954461637884378, -0.001233153510838747, -2.700883626937866, 0.10888637602329254, -0.022545328363776207, -0.32103219628334045, -0.20132775604724884, -1.0602853298187256, 0.05267425999045372, -0.4084987447223063, 0.995069234857425, 3.252967429095824, 9362.0, 30146.0, 35388.0, 9362.0, 8.310744285583496, -0.08802404999732971, -0.3975560665130615, -0.30597707629203796, -0.08134767413139343, 0.0013772172387689352, 1.0001397132873535, -0.06441698968410492, -0.28151702880859375, 1.472900390625, 1.496337890625, 0.1883087158203125, 1.494140625, 1.63330078125, 10.0, 1.0, 10.0, 1.6192008256912231
18795, 0.9051118493080139, -5.445786476135254, -2.2581827640533447, 0.007089485414326191, -0.001468168804422021, -2.704097032546997, 0.11811841279268265, -0.024457551538944244, -0.3216511011123657, -0.20133338868618011, -1.0602772235870361, 0.052695129066705704, -0.4125436723052917, 1.0038454974360889, 3.252665149350609, 9362.0, 30146.0, 35388.0, 9362.0, 8.310744285583496, 0.0321979783475399, 0.4252192974090576, 0.08263051509857178, -0.08245427161455154, 0.0023083239793777466, 0.9959871768951416, -0.06441698968410492, -0.28151702880859375, 1.472900390625, 1.6083984375, 0.437225341796875, 1.494140625, 1.5791015625, 10.0, 1.0, 10.0, 1.6190738677978516
18805, 0.9052240252494812, -5.448913097381592, -2.257159948348999, 0.008316878229379654, -0.0017223251052200794, -2.7073159217834473, 0.12736020982265472, -0.026374027132987976, -0.32212746143341064, -0.20132169127464294, -1.060255765914917, 0.05269850045442581, -0.41069602630806384, 0.9977351081817005, 3.25698574042219, 9362.0, 30146.0, 35388.0, 9362.0, 8.310744285583496, 0.030731486156582832, -0.15632638335227966, -0.018225260078907013, -0.08186882734298706, 0.0014573578955605626, 0.9948161244392395, -0.06441698968410492, -0.28151702880859375, 1.472900390625, 1.623779296875, 0.4742889404296875, 1.49853515625, 1.56591796875, 10.0, 1.0, 10.0, 1.6190053224563599
18815, 0.9060452580451965, -5.448307991027832, -2.2568323612213135, 0.009636531583964825, -0.001995610073208809, -2.710541009902954, 0.13657042384147644, -0.02828279137611389, -0.3229036331176758, -0.20131748914718628, -1.0602790117263794, 0.05268997699022293, -0.40770559011422514, 0.9952518290675414, 3.25439053839286, 9362.0, 30146.0, 35388.0, 9362.0, 8.310744285583496, -0.05680026859045029, 0.38493120670318604, -0.11492542177438736, -0.08194328844547272, 0.0014732738491147757, 0.9955392479896545, -0.06441698968410492, -0.28151702880859375, 1.472900390625, 1.613525390625, 0.44940185546875, 1.49853515625, 1.64794921875, 10.0, 1.0, 10.0, 1.6190968751907349
18825, 0.9049186706542969, -5.451672077178955, -2.2575347423553467, 0.011048231273889542, -0.002287966664880514, -2.7137749195098877, 0.14576950669288635, -0.030188487842679024, -0.3238542377948761, -0.20129376649856567, -1.0602574348449707, 0.05273183062672615, -0.4240829288028426, 1.0191736127907518, 3.270039056033448, 9362.0, 30146.0, 35388.0, 9362.0, 8.310744285583496, 0.06629247218370438, 0.432238906621933, 0.08335580676794052, -0.08048037439584732, 0.002169591374695301, 0.9959071278572083, -0.06441698968410492, -0.28151702880859375, 1.472900390625, 1.517578125, 0.231689453125, 1.48828125, 1.50146484375, 10.0, 1.0, 10.0, 1.6190861463546753
18835, 0.9045523405075073, -5.4547648429870605, -2.257197141647339, 0.01255194190889597, -0.0025993920862674713, -2.717017889022827, 0.15497249364852905, -0.03209669888019562, -0.3247518837451935, -0.20133686065673828, -1.0602710247039795, 0.05268865451216698, -0.4110254331020223, 0.999029309562502, 3.2525040447880786, 9362.0, 30146.0, 35388.0, 9362.0, 8.310744285583496, -0.10364315658807755, 0.03858906403183937, 0.34025442600250244, -0.08039652556180954, 0.0015246870461851358, 0.9957203269004822, -0.0681622177362442, -0.08439826965332031, 1.489013671875, 1.58935546875, 0.3920440673828125, 1.48828125, 1.5849609375, 10.0, 1.0, 10.0, 1.6189781427383423
18845, 0.9042847752571106, -5.4549150466918945, -2.255573272705078, 0.014147724024951458, -0.0029298942536115646, -2.7202696800231934, 0.1641838252544403, -0.034003689885139465, -0.32562288641929626, -0.20129112899303436, -1.0602563619613647, 0.05271761491894722, -0.42510588515517833, 1.0153592050805287, 3.273939742719306, 9362.0, 30146.0, 35388.0, 9362.0, 8.310744285583496, 0.030144911259412766, 0.15383219718933105, -0.03358090668916702, -0.07914497703313828, 0.0006841722060926259, 0.9946253299713135, -0.0681622177362442, -0.08439826965332031, 1.489013671875, 1.60400390625, 0.4266204833984375, 1.49560546875, 1.629638671875, 10.0, 1.0, 10.0, 1.619062900543213
18855, 0.9046781659126282, -5.455568790435791, -2.255406141281128, 0.015835657715797424, -0.003279466647654772, -2.7235300540924072, 0.17340296506881714, -0.035910505801439285, -0.3264688551425934, -0.20133520662784576, -1.060275673866272, 0.05267539992928505, -0.411376348830066, 0.9956760787114547, 3.254814067953487, 9362.0, 30146.0, 35388.0, 9362.0, 8.310744285583496, 0.041689734905958176, -0.0062376451678574085, -0.056978024542331696, -0.08148795366287231, 0.002885781694203615, 0.9963037967681885, -0.0681622177362442, -0.08439826965332031, 1.489013671875, 1.595947265625, 0.4075927734375, 1.49560546875, 1.61865234375, 10.0, 1.0, 10.0, 1.6190615892410278
18865, 0.905350923538208, -5.456328868865967, -2.2550971508026123, 0.01761571690440178, -0.0036480894777923822, -2.726799726486206, 0.1826086938381195, -0.037814024835824966, -0.3274584114551544, -0.2013346403837204, -1.0602786540985107, 0.052696507424116135, -0.41039034007712266, 1.0040934220972417, 3.254838829315748, 9362.0, 30146.0, 35388.0, 9362.0, 8.310744285583496, 0.0586562305688858, 0.2653316557407379, -0.059250373393297195, -0.08485628664493561, 0.0018789514433592558, 0.9961263537406921, -0.0681622177362442, -0.08439826965332031, 1.489013671875, 1.537353515625, 0.27386474609375, 1.4970703125, 1.62890625, 10.0, 1.0, 10.0, 1.6188702583312988
18875, 0.9061926007270813, -5.459220886230469, -2.254528284072876, 0.019487900659441948, -0.004035763908177614, -2.73007869720459, 0.1918281763792038, -0.03972082957625389, -0.3283146619796753, -0.20132865011692047, -1.0602577924728394, 0.052686791867017746, -0.4083620493639077, 0.9989430813851072, 3.252845081776007, 9362.0, 30146.0, 35388.0, 9362.0, 8.310744285583496, 0.08286155760288239, -0.075254425406456, -0.1740797758102417, -0.08288948237895966, 0.0021457960829138756, 0.9967430830001831, -0.0681622177362442, -0.08439826965332031, 1.489013671875, 1.6142578125, 0.4512786865234375, 1.4970703125, 1.5849609375, 10.0, 1.0, 10.0, 1.618978500366211
18885, 0.9063677787780762, -5.45831298828125, -2.255251169204712, 0.021452302113175392, -0.004442515317350626, -2.733366012573242, 0.2010520100593567, -0.041629381477832794, -0.32913869619369507, -0.20133312046527863, -1.0602771043777466, 0.05269359424710274, -0.405817537788022, 0.9999990262319045, 3.2548666505714325, 9362.0, 30146.0, 35388.0, 9362.0, 8.310744285583496, 0.08800190687179565, 0.0024922590237110853, -0.2850572466850281, -0.0800057053565979, 0.0012197777396067977, 0.994349479675293, -0.0681622177362442, -0.08439826965332031, 1.489013671875, 1.52197265625, 0.2408599853515625, 1.49267578125, 1.58349609375, 10.0, 1.0, 10.0, 1.618717908859253
18895, 0.9060021042823792, -5.457962989807129, -2.257333755493164, 0.02350899577140808, -0.004868366289883852, -2.736661195755005, 0.2102866768836975, -0.04354090988636017, -0.3298996090888977, -0.2013249695301056, -1.0602740049362183, 0.05268937721848488, -0.41010054258317147, 1.0018935893304217, 3.2592007614239815, 9362.0, 30146.0, 35388.0, 9362.0, 8.310744285583496, 0.10445534437894821, 0.15035706758499146, 0.06566815823316574, -0.08210285753011703, 0.0010297585977241397, 0.9962965846061707, -0.0681622177362442, -0.08439826965332031, 1.489013671875, 1.710205078125, 0.6956787109375, 1.49267578125, 1.55419921875, 10.0, 1.0, 10.0, 1.6185137033462524
18905, 0.9061726927757263, -5.45908784866333, -2.2566022872924805, 0.025657936930656433, -0.00531331542879343, -2.7399649620056152, 0.21950149536132812, -0.045449238270521164, -0.33085310459136963, -0.201298788189888, -1.0602656602859497, 0.05271449312567711, -0.41734435309071466, 1.01508339246962, 3.2777886741444404, 9362.0, 30146.0, 35388.0, 9362.0, 8.310744285583496, 0.10445534437894821, 0.15035706758499146, 0.06566815823316574, -0.08205641061067581, 0.0022106184624135494, 0.9962092638015747, -0.0681622177362442, -0.08439826965332031, 1.489013671875, 1.63037109375, 0.490264892578125, 1.494140625, 1.55419921875, 10.0, 1.0, 10.0, 1.6185976266860962
18915, 0.9048885107040405, -5.459679126739502, -2.2544448375701904, 0.025657936930656433, -0.00531331542879343, -2.7399649620056152, 0.21950149536132812, -0.045449238270521164, -0.33085310459136963, -0.20129284262657166, -1.0602631568908691, 0.05273071676492691, -0.41448155761777056, 1.0127215540622672, 3.2677734487065, 9362.0, 30146.0, 35388.0, 9362.0, 8.310744285583496, 0.10445534437894821, 0.15035706758499146, 0.06566815823316574, -0.07979651540517807, 0.003187625901773572, 0.9945368766784668, -0.0681622177362442, -0.08439826965332031, 1.489013671875, 1.63037109375, 0.490264892578125, 1.494140625, 1.55419921875, 10.0, 1.0, 10.0, 1.6185976266860962
18925, 0.9057884812355042, -5.459971904754639, -2.253589391708374, 0.025657936930656433, -0.00531331542879343, -2.7399649620056152, 0.21950149536132812, -0.045449238270521164, -0.33085310459136963, -0.20130233466625214, -1.0602662563323975, 0.05271060764789581, -0.4206505153908785, 1.0149077311971553, 3.2771705193498843, 9362.0, 30146.0, 35388.0, 9362.0, 8.310744285583496, -0.22388190031051636, -0.07804122567176819, 0.10523578524589539, -0.07999550551176071, 0.0010656066006049514, 0.9979361891746521, -0.0681622177362442, -0.08439826965332031, 1.489013671875, 1.63037109375, 0.490264892578125, 1.49560546875, 1.55419921875, 10.0, 1.0, 10.0, 1.6185976266860962
18935, 0.904941976070404, -5.459300518035889, -2.253354072570801, 0.025657936930656433, -0.00531331542879343, -2.7399649620056152, 0.21950149536132812, -0.045449238270521164, -0.33085310459136963, -0.20133382081985474, -1.0602750778198242, 0.05268075317144394, -0.4083613695012627, 1.0061044793554004, 3.252910693219499, 9362.0, 30146.0, 35388.0, 9362.0, 8.310744285583496, 0.2397739291191101, 0.25881433486938477, 0.21942535042762756, -0.07999550551176071, 0.0010656066006049514, 0.9979361891746521, -0.060183413326740265, -0.18295860290527344, 1.48095703125, 1.63037109375, 0.490264892578125, 1.49560546875, 1.55419921875, 10.0, 1.0, 10.0, 1.6185976266860962
18945, 0.9066329598426819, -5.461647987365723, -2.252711057662964, 0.025657936930656433, -0.00531331542879343, -2.7399649620056152, 0.21950149536132812, -0.045449238270521164, -0.33085310459136963, -0.2013150155544281, -1.060280442237854, 0.05267370864748955, -0.41160485847839706, 1.005120228477466, 3.2622430337360875, 9362.0, 30146.0, 35388.0, 9362.0, 8.310744285583496, 0.2397739291191101, 0.25881433486938477, 0.21942535042762756, -0.0831122100353241, 0.0011005583219230175, 0.9965857267379761, -0.060183413326740265, -0.18295860290527344, 1.48095703125, 1.63037109375, 0.490264892578125, 1.49560546875, 1.55419921875, 10.0, 1.0, 10.0, 1.6174702644348145
18955, 0.9064149260520935, -5.464144706726074, -2.2525479793548584, 0.025657936930656433, -0.00531331542879343, -2.7399649620056152, 0.21950149536132812, -0.045449238270521164, -0.33085310459136963, -0.20132364332675934, -1.0602854490280151, 0.052677519619464874, -0.40291555206335744, 0.9949146725510047, 3.2564664013828537, 9362.0, 30146.0, 35388.0, 9362.0, 8.310744285583496, 0.07606026530265808, 0.10967431962490082, -0.11027251929044724, -0.0811096727848053, 0.0013029956026002765, 0.9959841966629028, -0.060183413326740265, -0.18295860290527344, 1.48095703125, 1.564453125, 0.3344879150390625, 1.49560546875, 1.55419921875, 10.0, 1.0, 10.0, 1.6174702644348145
18965, 0.9069240093231201, -5.46467924118042, -2.252804756164551, 0.025657936930656433, -0.00531331542879343, -2.7399649620056152, 0.21950149536132812, -0.045449238270521164, -0.33085310459136963, -0.20132769644260406, -1.0602823495864868, 0.05268203839659691, -0.40743645119988003, 1.0011791889899655, 3.25812360441917, 9362.0, 30146.0, 35388.0, 9362.0, 8.310744285583496, 0.07606026530265808, 0.10967431962490082, -0.11027251929044724, -0.07971985638141632, 0.0022681993432343006, 0.9975250959396362, -0.060183413326740265, -0.18295860290527344, 1.48095703125, 1.564453125, 0.3344879150390625, 1.49560546875, 1.55419921875, 10.0, 1.0, 10.0, 1.6170268058776855
18975, 0.9067273139953613, -5.46443510055542, -2.253222703933716, 0.025657936930656433, -0.00531331542879343, -2.7399649620056152, 0.21950149536132812, -0.045449238270521164, -0.33085310459136963, -0.20133310556411743, -1.0602803230285645, 0.052696406841278076, -0.4129005024852157, 1.0006670347435715, 3.25245700623717, 9362.0, 30146.0, 35388.0, 9362.0, 8.310744285583496, 0.07606026530265808, 0.10967431962490082, -0.11027251929044724, -0.08107367902994156, 0.002091027097776532, 0.996961236000061, -0.060183413326740265, -0.18295860290527344, 1.48095703125, 1.53515625, 0.2692413330078125, 1.49560546875, 1.55419921875, 10.0, 1.0, 10.0, 1.6169508695602417
18995, 0.9045621156692505, -5.465409755706787, -2.255185604095459, 0.025657936930656433, -0.00531331542879343, -2.7399649620056152, 0.21950149536132812, -0.045449238270521164, -0.33085310459136963, -0.20129619538784027, -1.060264229774475, 0.05272504314780235, -0.4174732613076529, 1.0153206562239632, 3.2791218034352334, 9362.0, 30146.0, 35388.0, 9362.0, 8.310744285583496, 0.07606026530265808, 0.10967431962490082, -0.11027251929044724, -0.08167129755020142, 0.0020292808767408133, 0.9954158067703247, -0.060183413326740265, -0.18295860290527344, 1.48095703125, 1.53515625, 0.2692413330078125, 1.49560546875, 1.55419921875, 10.0, 1.0, 10.0, 1.6167399883270264
19005, 0.9052374958992004, -5.463757514953613, -2.253718852996826, 0.025657936930656433, -0.00531331542879343, -2.7399649620056152, 0.21950149536132812, -0.045449238270521164, -0.33085310459136963, -0.20129945874214172, -1.060256004333496, 0.05270453914999962, -0.4230459699592063, 1.0184434687307373, 3.2787027794921193, 9362.0, 30146.0, 35388.0, 9362.0, 8.310744285583496, 0.07606026530265808, 0.10967431962490082, -0.11027251929044724, -0.08167129755020142, 0.0020292808767408133, 0.9954158067703247, -0.060183413326740265, -0.18295860290527344, 1.48095703125, 1.546875, 0.2949676513671875, 1.49560546875, 1.55419921875, 10.0, 1.0, 10.0, 1.6165791749954224
19015, 0.9050734639167786, -5.465017318725586, -2.2546629905700684, 0.05538856238126755, -0.011468238197267056, -2.776848793029785, 0.32109057903289795, -0.06646081805229187, -0.339669793844223, -0.20132829248905182, -1.0602781772613525, 0.05268259719014168, -0.3992761021799523, 0.9978858071339687, 3.2501538969007133, 9362.0, 30146.0, 35388.0, 9362.0, 8.310744285583496, 0.07606026530265808, 0.10967431962490082, -0.11027251929044724, -0.08363475650548935, 0.002470925683155656, 0.9978122115135193, -0.060183413326740265, -0.18295860290527344, 1.48095703125, 1.546875, 0.2949676513671875, 1.49560546875, 1.55419921875, 10.0, 1.0, 10.0, 1.6165791749954224
19025, 0.9049041867256165, -5.466345310211182, -2.254329204559326, 0.05538856238126755, -0.011468238197267056, -2.776848793029785, 0.32109057903289795, -0.06646081805229187, -0.339669793844223, -0.20129959285259247, -1.0602636337280273, 0.052729085087776184, -0.4226833485673378, 1.0148434113002054, 3.2732420249056666, 9362.0, 30146.0, 35388.0, 9362.0, 8.310744285583496, 0.07606026530265808, 0.10967431962490082, -0.11027251929044724, -0.08449190855026245, 0.0012529888190329075, 0.9972653985023499, -0.060183413326740265, -0.18295860290527344, 1.48095703125, 1.546875, 0.2949676513671875, 1.49560546875, 1.55419921875, 10.0, 1.0, 10.0, 1.6165791749954224
19045, 0.9040880799293518, -5.4653544425964355, -2.256420850753784, 0.05538856238126755, -0.011468238197267056, -2.776848793029785, 0.32109057903289795, -0.06646081805229187, -0.339669793844223, -0.2013232409954071, -1.0602757930755615, 0.05268632248044014, -0.40958347616358337, 0.9997357703948069, 3.249188808275194, 9362.0, 30146.0, 35388.0, 9362.0, 8.310744285583496, 0.08782100677490234, -0.06779929995536804, 0.015011741779744625, -0.08258749544620514, 0.0012698972132056952, 0.9993553161621094, -0.0715552493929863, -0.23671722412109375, 1.4765625, 1.5234375, 0.2439727783203125, 1.49267578125, 1.55419921875, 10.0, 1.0, 10.0, 1.6160004138946533
19055, 0.9041072726249695, -5.4646124839782715, -2.25718355178833, 0.06897181272506714, -0.014279477298259735, -2.7904953956604004, 0.35808929800987244, -0.0741029605269432, -0.3425231873989105, -0.2013305127620697, -1.0602844953536987, 0.05269896611571312, -0.41112244053415875, 1.004214140114641, 3.253955935716643, 9362.0, 30146.0, 35388.0, 9362.0, 8.310744285583496, 0.08782100677490234, -0.06779929995536804, 0.015011741779744625, -0.08208603411912918, 0.0029126068111509085, 0.9986417293548584, -0.0715552493929863, -0.23671722412109375, 1.4765625, 1.5234375, 0.2439727783203125, 1.49267578125, 1.55419921875, 10.0, 1.0, 10.0, 1.6157816648483276
19065, 0.904224157333374, -5.463351249694824, -2.256744861602783, 0.06897181272506714, -0.014279477298259735, -2.7904953956604004, 0.35808929800987244, -0.0741029605269432, -0.3425231873989105, -0.20133529603481293, -1.0602748394012451, 0.05269850045442581, -0.4109863574536641, 0.9978484825512624, 3.2612060523677524, 9362.0, 30146.0, 35388.0, 9362.0, 8.310744285583496, 0.08782100677490234, -0.06779929995536804, 0.015011741779744625, -0.08217061311006546, 0.0007500145584344864, 0.9943962097167969, -0.0715552493929863, -0.23671722412109375, 1.4765625, 1.5234375, 0.2439727783203125, 1.49560546875, 1.55419921875, 10.0, 1.0, 10.0, 1.6159483194351196
19075, 0.9051399230957031, -5.462801456451416, -2.2554991245269775, 0.07631891965866089, -0.01579979620873928, -2.7973568439483643, 0.3766200542449951, -0.0779288113117218, -0.3436088562011719, -0.20132769644260406, -1.0602729320526123, 0.05269470065832138, -0.40669816218783655, 0.999632032929128, 3.2453726035130193, 9362.0, 30146.0, 35388.0, 9362.0, 8.310744285583496, 0.08782100677490234, -0.06779929995536804, 0.015011741779744625, -0.08086684346199036, 0.00012042014714097604, 0.9953867793083191, -0.0715552493929863, -0.23671722412109375, 1.4765625, 1.5234375, 0.2439727783203125, 1.49560546875, 1.55419921875, 10.0, 1.0, 10.0, 1.6157065629959106
19085, 0.9053969383239746, -5.463165760040283, -2.256277084350586, 0.07631891965866089, -0.01579979620873928, -2.7973568439483643, 0.3766200542449951, -0.0779288113117218, -0.3436088562011719, -0.20132753252983093, -1.0602774620056152, 0.05268542096018791, -0.41165916242507195, 1.0016897842406536, 3.2511987517406964, 9362.0, 30146.0, 35388.0, 9362.0, 8.310744285583496, 0.08782100677490234, -0.06779929995536804, 0.015011741779744625, -0.08214649558067322, 0.0011401427909731865, 0.9982618093490601, -0.0715552493929863, -0.23671722412109375, 1.4765625, 1.5234375, 0.2439727783203125, 1.49560546875, 1.55419921875, 10.0, 1.0, 10.0, 1.6155027151107788
19095, 0.9061675667762756, -5.466084957122803, -2.255970001220703, 0.07631891965866089, -0.01579979620873928, -2.7973568439483643, 0.3766200542449951, -0.0779288113117218, -0.3436088562011719, -0.2013280987739563, -1.0602809190750122, 0.052697278559207916, -0.4102259131374843, 1.0019078636261156, 3.2548114341165024, 9362.0, 30146.0, 35388.0, 9362.0, 8.310744285583496, 0.08782100677490234, -0.06779929995536804, 0.015011741779744625, -0.08340763300657272, 0.000903250474948436, 0.9993571639060974, -0.0715552493929863, -0.23671722412109375, 1.4765625, 1.640625, 0.5154571533203125, 1.49560546875, 1.55419921875, 10.0, 1.0, 10.0, 1.615424633026123
19105, 0.9056005477905273, -5.470376968383789, -2.253872871398926, 0.07631891965866089, -0.01579979620873928, -2.7973568439483643, 0.3766200542449951, -0.0779288113117218, -0.3436088562011719, -0.20132243633270264, -1.0602729320526123, 0.052692245692014694, -0.40446319988249557, 1.0026412776097118, 3.251724543421454, 9362.0, 30146.0, 35388.0, 9362.0, 8.310744285583496, 0.08782100677490234, -0.06779929995536804, 0.015011741779744625, -0.08336275815963745, 0.002347646513953805, 0.9982921481132507, -0.0715552493929863, -0.23671722412109375, 1.4765625, 1.640625, 0.5154571533203125, 1.48974609375, 1.55419921875, 10.0, 1.0, 10.0, 1.6153745651245117
19115, 0.9061859250068665, -5.471334457397461, -2.2538046836853027, 0.07631891965866089, -0.01579979620873928, -2.7973568439483643, 0.3766200542449951, -0.0779288113117218, -0.3436088562011719, -0.20132777094841003, -1.060271978378296, 0.05267622321844101, -0.41302237539057624, 1.0031302366354566, 3.252302749914624, 9362.0, 30146.0, 35388.0, 9362.0, 8.310744285583496, 0.08782100677490234, -0.06779929995536804, 0.015011741779744625, -0.08199355751276016, 0.0031139394268393517, 0.9960750937461853, -0.0715552493929863, -0.23671722412109375, 1.4765625, 1.564453125, 0.3344879150390625, 1.48974609375, 1.55419921875, 10.0, 1.0, 10.0, 1.6153618097305298
19125, 0.9068048000335693, -5.472157955169678, -2.254507303237915, 0.07631891965866089, -0.01579979620873928, -2.7973568439483643, 0.3766200542449951, -0.0779288113117218, -0.3436088562011719, -0.20133176445960999, -1.0602803230285645, 0.0526614673435688, -0.4145805403773983, 1.0032371922958419, 3.2557330265738513, 9362.0, 30146.0, 35388.0, 9362.0, 8.310744285583496, 0.05373889580368996, 0.0650927871465683, -0.03908424451947212, -0.08130098879337311, 0.0021618239115923643, 0.9961301684379578, -0.0715552493929863, -0.23671722412109375, 1.4765625, 1.564453125, 0.3344879150390625, 1.48974609375, 1.55419921875, 10.0, 1.0, 10.0, 1.6152633428573608
19135, 0.9076703190803528, -5.472359657287598, -2.2544119358062744, 0.07631891965866089, -0.01579979620873928, -2.7973568439483643, 0.3766200542449951, -0.0779288113117218, -0.3436088562011719, -0.20132991671562195, -1.060276746749878, 0.05267767608165741, -0.4082024149681397, 0.997865862224387, 3.2525849214911786, 9362.0, 30146.0, 35388.0, 9362.0, 8.310744285583496, 0.05373889580368996, 0.0650927871465683, -0.03908424451947212, -0.08085530996322632, 0.0008815728942863643, 0.9953533411026001, -0.06416290253400803, 0.07688140869140625, 1.502197265625, 1.564453125, 0.3344879150390625, 1.48974609375, 1.55419921875, 10.0, 1.0, 10.0, 1.6152633428573608
19145, 0.906406819820404, -5.469451904296875, -2.253342390060425, 0.07631891965866089, -0.01579979620873928, -2.7973568439483643, 0.3766200542449951, -0.0779288113117218, -0.3436088562011719, -0.20133410394191742, -1.060279130935669, 0.052670978009700775, -0.40870714991951124, 0.9980820077574606, 3.260748250030709, 9362.0, 30146.0, 35388.0, 9362.0, 8.310744285583496, 0.05373889580368996, 0.0650927871465683, -0.03908424451947212, -0.08041596412658691, 0.001793260918930173, 0.995686948299408, -0.06416290253400803, 0.07688140869140625, 1.502197265625, 1.564453125, 0.3344879150390625, 1.490478515625, 1.55419921875, 10.0, 1.0, 10.0, 1.614803671836853
19155, 0.905773401260376, -5.471508502960205, -2.252068281173706, 0.07631891965866089, -0.01579979620873928, -2.7973568439483643, 0.3766200542449951, -0.0779288113117218, -0.3436088562011719, -0.20130683481693268, -1.0603066682815552, 0.052650537341833115, -0.38524226885579027, 0.9837342418537673, 3.25796187826968, 9362.0, 30146.0, 35388.0, 9362.0, 8.310744285583496, 0.05373889580368996, 0.0650927871465683, -0.03908424451947212, -0.08276490122079849, 0.0008968886104412377, 0.9967820644378662, -0.06416290253400803, 0.07688140869140625, 1.502197265625, 1.56298828125, 0.3311767578125, 1.490478515625, 1.55419921875, 10.0, 1.0, 10.0, 1.6145007610321045
19165, 0.9052982926368713, -5.473155498504639, -2.249567747116089, 0.07631891965866089, -0.01579979620873928, -2.7973568439483643, 0.3766200542449951, -0.0779288113117218, -0.3436088562011719, -0.201328843832016, -1.0602686405181885, 0.05265197157859802, -0.40532174968629464, 1.000871797522933, 3.254516707740545, 9362.0, 30146.0, 35388.0, 9362.0, 8.310744285583496, -0.08757312595844269, 0.5902925729751587, 0.11538391560316086, -0.0846441313624382, -0.0003179270133841783, 0.9967206120491028, -0.06416290253400803, 0.07688140869140625, 1.502197265625, 1.56298828125, 0.3311767578125, 1.497802734375, 1.55419921875, 10.0, 1.0, 10.0, 1.614349365234375
19175, 0.9050506949424744, -5.4769368171691895, -2.2485029697418213, 0.11860339343547821, -0.024547923356294632, -2.832109212875366, 0.4690988063812256, -0.09703916311264038, -0.35146576166152954, -0.20132695138454437, -1.0602651834487915, 0.052660420536994934, -0.4090510548896094, 0.9937982455838608, 3.258189164577546, 9362.0, 30146.0, 35388.0, 9362.0, 8.310744285583496, -0.08757312595844269, 0.5902925729751587, 0.11538391560316086, -0.08105916529893875, 0.0014191603986546397, 0.9982430934906006, -0.06416290253400803, 0.07688140869140625, 1.502197265625, 1.56298828125, 0.3311767578125, 1.497802734375, 1.55419921875, 10.0, 1.0, 10.0, 1.6142656803131104
19185, 0.9045387506484985, -5.478786945343018, -2.247901678085327, 0.11860339343547821, -0.024547923356294632, -2.832109212875366, 0.4690988063812256, -0.09703916311264038, -0.35146576166152954, -0.2013411670923233, -1.060270071029663, 0.05265694484114647, -0.41718488096100126, 1.002089205328474, 3.2542856221438585, 9362.0, 30146.0, 35388.0, 9362.0, 8.310744285583496, -0.08757312595844269, 0.5902925729751587, 0.11538391560316086, -0.08078089356422424, 0.001036413130350411, 0.998762845993042, -0.06416290253400803, 0.07688140869140625, 1.502197265625, 1.56298828125, 0.3311767578125, 1.497802734375, 1.55419921875, 10.0, 1.0, 10.0, 1.613987684249878
19195, 0.9042471051216125, -5.479426860809326, -2.248410940170288, 0.11860339343547821, -0.024547923356294632, -2.832109212875366, 0.4690988063812256, -0.09703916311264038, -0.35146576166152954, -0.20130406320095062, -1.0603121519088745, 0.052652813494205475, -0.3805228244382938, 0.9872816880381947, 3.2542392454803553, 9362.0, 30146.0, 35388.0, 9362.0, 8.310744285583496, -0.08757312595844269, 0.5902925729751587, 0.11538391560316086, -0.08036971092224121, 0.0026742301415652037, 0.9975646734237671, -0.06416290253400803, 0.07688140869140625, 1.502197265625, 1.56298828125, 0.3311767578125, 1.497802734375, 1.55419921875, 10.0, 1.0, 10.0, 1.6138657331466675
19205, 0.9033680558204651, -5.479842185974121, -2.2485368251800537, 0.11860339343547821, -0.024547923356294632, -2.832109212875366, 0.4690988063812256, -0.09703916311264038, -0.35146576166152954, -0.20130404829978943, -1.0603034496307373, 0.05265350639820099, -0.3894935710176537, 0.9918896927574394, 3.25898631864338, 9362.0, 30146.0, 35388.0, 9362.0, 8.310744285583496, -0.12000016123056412, -0.26181715726852417, -0.20724265277385712, -0.08036971092224121, 0.0026742301415652037, 0.9975646734237671, -0.06416290253400803, 0.07688140869140625, 1.502197265625, 1.56298828125, 0.3311767578125, 1.497802734375, 1.55419921875, 10.0, 1.0, 10.0, 1.6137140989303589
19215, 0.9030222296714783, -5.479589939117432, -2.2499070167541504, 0.11860339343547821, -0.024547923356294632, -2.832109212875366, 0.4690988063812256, -0.09703916311264038, -0.35146576166152954, -0.201325923204422, -1.0602823495864868, 0.05266571417450905, -0.4111196092580392, 1.00011096165278, 3.254138484960461, 9362.0, 30146.0, 35388.0, 9362.0, 8.310744285583496, 0.08723115921020508, 0.09061697870492935, 0.25604504346847534, -0.08036971092224121, 0.0026742301415652037, 0.9975646734237671, -0.06416290253400803, 0.07688140869140625, 1.502197265625, 1.56298828125, 0.3311767578125, 1.497802734375, 1.55419921875, 10.0, 1.0, 10.0, 1.613720417022705
19225, 0.903176486492157, -5.479964256286621, -2.249030590057373, 0.11860339343547821, -0.024547923356294632, -2.832109212875366, 0.4690988063812256, -0.09703916311264038, -0.35146576166152954, -0.20131756365299225, -1.0603054761886597, 0.052664242684841156, -0.38859335596788047, 0.9887233156412663, 3.2634886861242243, 9362.0, 30146.0, 35388.0, 9362.0, 8.310744285583496, 0.08723115921020508, 0.09061697870492935, 0.25604504346847534, -0.08063852041959763, 0.0015412960201501846, 0.997698187828064, -0.06416290253400803, 0.07688140869140625, 1.502197265625, 1.56298828125, 0.3311767578125, 1.4970703125, 1.55419921875, 10.0, 1.0, 10.0, 1.6134835481643677
19245, 0.9021443724632263, -5.479632377624512, -2.2524359226226807, 0.14841815829277039, -0.03071415238082409, -2.8533225059509277, 0.5247320532798767, -0.10849633812904358, -0.35571199655532837, -0.20133967697620392, -1.0602686405181885, 0.052705053240060806, -0.41941571960809404, 1.005049965135214, 3.259787978361865, 9362.0, 30146.0, 35388.0, 9362.0, 8.310744285583496, -0.09925384074449539, 0.08163271099328995, -0.26484671235084534, -0.08063852041959763, 0.0015412960201501846, 0.997698187828064, -0.05670149251818657, 0.0052013397216796875, 1.496337890625, 1.56298828125, 0.3311767578125, 1.49853515625, 1.55419921875, 10.0, 1.0, 10.0, 1.6133981943130493
19255, 0.9019001722335815, -5.479356288909912, -2.251650094985962, 0.14841815829277039, -0.03071415238082409, -2.8533225059509277, 0.5247320532798767, -0.10849633812904358, -0.35571199655532837, -0.20134393870830536, -1.0602765083312988, 0.0526815727353096, -0.4088380279372454, 1.0019044420643581, 3.256718802151571, 9362.0, 30146.0, 35388.0, 9362.0, 8.310744285583496, -0.09925384074449539, 0.08163271099328995, -0.26484671235084534, -0.07994548231363297, 0.0012626225361600518, 0.9936553239822388, -0.05670149251818657, 0.0052013397216796875, 1.496337890625, 1.613525390625, 0.44940185546875, 1.49853515625, 1.55419921875, 10.0, 1.0, 10.0, 1.6133981943130493
19265, 0.9017424583435059, -5.477357387542725, -2.2525367736816406, 0.1645774245262146, -0.03405487909913063, -2.8640260696411133, 0.5525387525558472, -0.11421503126621246, -0.35800960659980774, -0.2013188749551773, -1.0603140592575073, 0.052653718739748, -0.3792082105794297, 0.9879014654903528, 3.258465980275654, 9362.0, 30146.0, 35388.0, 9362.0, 8.310744285583496, -0.04505947232246399, -0.15918025374412537, -0.3238091468811035, -0.07994548231363297, 0.0012626225361600518, 0.9936553239822388, -0.05670149251818657, 0.0052013397216796875, 1.496337890625, 1.613525390625, 0.44940185546875, 1.49853515625, 1.55419921875, 10.0, 1.0, 10.0, 1.6133981943130493
19275, 0.9015897512435913, -5.476176738739014, -2.2543537616729736, 0.1645774245262146, -0.03405487909913063, -2.8640260696411133, 0.5525387525558472, -0.11421503126621246, -0.35800960659980774, -0.20134826004505157, -1.0602723360061646, 0.05268017575144768, -0.4106064310114428, 1.007369148831259, 3.2559833735010186, 9362.0, 30146.0, 35388.0, 9362.0, 8.310744285583496, 0.024171723052859306, -0.1012142151594162, -0.12032729387283325, -0.08094830811023712, 0.001954116392880678, 0.9964432120323181, -0.05670149251818657, 0.0052013397216796875, 1.496337890625, 1.56591796875, 0.337738037109375, 1.49853515625, 1.55419921875, 10.0, 1.0, 10.0, 1.6126378774642944
19285, 0.9020665287971497, -5.476189136505127, -2.254540205001831, 0.1645774245262146, -0.03405487909913063, -2.8640260696411133, 0.5525387525558472, -0.11421503126621246, -0.35800960659980774, -0.20134638249874115, -1.0602675676345825, 0.05265934765338898, -0.411916737717483, 1.0027936571098053, 3.2562371837784103, 9362.0, 30146.0, 35388.0, 9362.0, 8.310744285583496, 0.024171723052859306, -0.1012142151594162, -0.12032729387283325, -0.0810171589255333, -0.00024376569490414113, 0.9990084767341614, -0.05670149251818657, 0.0052013397216796875, 1.496337890625, 1.56591796875, 0.337738037109375, 1.49853515625, 1.55419921875, 10.0, 1.0, 10.0, 1.6123510599136353
19295, 0.9031184911727905, -5.476383209228516, -2.2533180713653564, 0.1645774245262146, -0.03405487909913063, -2.8640260696411133, 0.5525387525558472, -0.11421503126621246, -0.35800960659980774, -0.2013121247291565, -1.060263991355896, 0.05270785093307495, -0.41936294542545394, 1.0175629610504302, 3.2766283361868043, 9362.0, 30146.0, 35388.0, 9362.0, 8.310744285583496, 0.07574015855789185, 0.3642975389957428, 0.01927780546247959, -0.08125527948141098, 0.0006607579998672009, 0.9980735778808594, -0.05670149251818657, 0.0052013397216796875, 1.496337890625, 1.532958984375, 0.2644195556640625, 1.49853515625, 1.55419921875, 10.0, 1.0, 10.0, 1.6123510599136353
19305, 0.903476357460022, -5.479245662689209, -2.253263235092163, 0.1645774245262146, -0.03405487909913063, -2.8640260696411133, 0.5525387525558472, -0.11421503126621246, -0.35800960659980774, -0.2013462334871292, -1.060273289680481, 0.05267368257045746, -0.4118856288928301, 1.0039900566531514, 3.2563463957837695, 9362.0, 30146.0, 35388.0, 9362.0, 8.310744285583496, 0.10742781311273575, 0.19341976940631866, -0.09414026886224747, -0.08141124248504639, 0.0016333406092599034, 0.99588543176651, -0.05670149251818657, 0.0052013397216796875, 1.496337890625, 1.532958984375, 0.2644195556640625, 1.4970703125, 1.55419921875, 10.0, 1.0, 10.0, 1.6120024919509888
19315, 0.9035715460777283, -5.480309963226318, -2.253751754760742, 0.1645774245262146, -0.03405487909913063, -2.8640260696411133, 0.5525387525558472, -0.11421503126621246, -0.35800960659980774, -0.20134595036506653, -1.060280442237854, 0.05265538766980171, -0.4045665433202405, 1.0054338237011393, 3.256124906683239, 9362.0, 30146.0, 35388.0, 9362.0, 8.310744285583496, 0.10742781311273575, 0.19341976940631866, -0.09414026886224747, -0.08054623007774353, 0.003880369244143367, 0.9962304830551147, -0.05670149251818657, 0.0052013397216796875, 1.496337890625, 1.532958984375, 0.2644195556640625, 1.4970703125, 1.55419921875, 10.0, 1.0, 10.0, 1.6118775606155396
19325, 0.904047966003418, -5.479673862457275, -2.2546744346618652, 0.1645774245262146, -0.03405487909913063, -2.8640260696411133, 0.5525387525558472, -0.11421503126621246, -0.35800960659980774, -0.20134781301021576, -1.0602844953536987, 0.05267771705985069, -0.40443558138833696, 1.0089130141228964, 3.258751340950782, 9362.0, 30146.0, 35388.0, 9362.0, 8.310744285583496, -0.04219028353691101, -0.18261674046516418, -0.2632491886615753, -0.08291399478912354, 0.004707413725554943, 0.9948883056640625, -0.05670149251818657, 0.0052013397216796875, 1.496337890625, 1.532958984375, 0.2644195556640625, 1.49560546875, 1.55419921875, 10.0, 1.0, 10.0, 1.6118775606155396
19335, 0.9038681387901306, -5.479424953460693, -2.255544900894165, 0.20552387833595276, -0.04251647740602493, -2.889289140701294, 0.61738520860672, -0.12755461037158966, -0.3635649085044861, -0.20134389400482178, -1.0602800846099854, 0.052671581506729126, -0.4046450256837634, 1.0009049956819922, 3.2534077568700175, 9362.0, 30146.0, 35388.0, 9362.0, 8.310744285583496, -0.024491464719176292, -0.3085591495037079, -0.3898945152759552, -0.08291399478912354, 0.004707413725554943, 0.9948883056640625, -0.04870565980672836, 0.10376167297363281, 1.50439453125, 1.532958984375, 0.2644195556640625, 1.49560546875, 1.55419921875, 10.0, 1.0, 10.0, 1.6118775606155396
19345, 0.9043607711791992, -5.4771809577941895, -2.257830858230591, 0.20552387833595276, -0.04251647740602493, -2.889289140701294, 0.61738520860672, -0.12755461037158966, -0.3635649085044861, -0.20134702324867249, -1.0602853298187256, 0.05265229567885399, -0.4066743021649144, 1.0055572435906583, 3.258166710508667, 9362.0, 30146.0, 35388.0, 9362.0, 8.310744285583496, -0.024491464719176292, -0.3085591495037079, -0.3898945152759552, -0.08021559566259384, 0.0027348878793418407, 0.9964346289634705, -0.04870565980672836, 0.10376167297363281, 1.50439453125, 1.532958984375, 0.2644195556640625, 1.49560546875, 1.58056640625, 10.0, 1.0, 10.0, 1.6114983558654785
19355, 0.9045348167419434, -5.476836204528809, -2.2595510482788086, 0.20552387833595276, -0.04251647740602493, -2.889289140701294, 0.61738520860672, -0.12755461037158966, -0.3635649085044861, -0.20131175220012665, -1.0603251457214355, 0.052654653787612915, -0.372040122029945, 0.9937941559230978, 3.259722333871385, 9362.0, 30146.0, 35388.0, 9362.0, 8.310744285583496, -0.024491464719176292, -0.3085591495037079, -0.3898945152759552, -0.07879899442195892, 0.0005750948330387473, 0.9962489604949951, -0.04870565980672836, 0.10376167297363281, 1.50439453125, 1.543212890625, 0.286834716796875, 1.49560546875, 1.58056640625, 10.0, 1.0, 10.0, 1.6113380193710327
19365, 0.9040640592575073, -5.4788126945495605, -2.259230375289917, 0.20552387833595276, -0.04251647740602493, -2.889289140701294, 0.61738520860672, -0.12755461037158966, -0.3635649085044861, -0.20134343206882477, -1.060291051864624, 0.05266249552369118, -0.4067880083222631, 1.004721462007467, 3.2595976948221552, 9362.0, 30146.0, 35388.0, 9362.0, 8.310744285583496, -0.02884676493704319, -0.08048482239246368, 0.07285821437835693, -0.08023235201835632, -0.001229070476256311, 0.9957636594772339, -0.04870565980672836, 0.10376167297363281, 1.50439453125, 1.543212890625, 0.286834716796875, 1.49267578125, 1.58056640625, 10.0, 1.0, 10.0, 1.6113147735595703
19375, 0.9035442471504211, -5.478724002838135, -2.259265899658203, 0.20552387833595276, -0.04251647740602493, -2.889289140701294, 0.61738520860672, -0.12755461037158966, -0.3635649085044861, -0.2013017237186432, -1.0602707862854004, 0.052672937512397766, -0.414183324305637, 1.0196002192369633, 3.276786666642833, 9362.0, 30146.0, 35388.0, 9362.0, 8.310744285583496, -0.02884676493704319, -0.08048482239246368, 0.07285821437835693, -0.0818975493311882, 0.001649320824071765, 0.9960072636604309, -0.04870565980672836, 0.10376167297363281, 1.50439453125, 1.543212890625, 0.286834716796875, 1.49267578125, 1.58056640625, 10.0, 1.0, 10.0, 1.6114213466644287
19385, 0.903019905090332, -5.479231357574463, -2.258640766143799, 0.20552387833595276, -0.04251647740602493, -2.889289140701294, 0.61738520860672, -0.12755461037158966, -0.3635649085044861, -0.20131143927574158, -1.0602589845657349, 0.0526670441031456, -0.41847837083233963, 1.0157376173063994, 3.2748347618065705, 9362.0, 30146.0, 35388.0, 9362.0, 8.310744285583496, 0.11632200330495834, 0.2512528598308563, 0.1816359907388687, -0.0818975493311882, 0.001649320824071765, 0.9960072636604309, -0.04870565980672836, 0.10376167297363281, 1.50439453125, 1.543212890625, 0.286834716796875, 1.49267578125, 1.58056640625, 10.0, 1.0, 10.0, 1.6114213466644287
19395, 0.9040682315826416, -5.481865406036377, -2.255981206893921, 0.24423310160636902, -0.050513070076704025, -2.9112625122070312, 0.6729311943054199, -0.13900083303451538, -0.36876046657562256, -0.2013421207666397, -1.0602879524230957, 0.052662476897239685, -0.4089817289168751, 1.0053380846956657, 3.25950111618797, 9362.0, 30146.0, 35388.0, 9362.0, 8.310744285583496, 0.21481432020664215, 0.11087796837091446, -0.15621870756149292, -0.0818975493311882, 0.001649320824071765, 0.9960072636604309, -0.04870565980672836, 0.10376167297363281, 1.50439453125, 1.543212890625, 0.286834716796875, 1.49267578125, 1.58056640625, 10.0, 1.0, 10.0, 1.6112362146377563
19405, 0.9053672552108765, -5.483730316162109, -2.2561357021331787, 0.24423310160636902, -0.050513070076704025, -2.9112625122070312, 0.6729311943054199, -0.13900083303451538, -0.36876046657562256, -0.20131313800811768, -1.0602717399597168, 0.052701957523822784, -0.41762681373482613, 1.0164371842992637, 3.2871948428639337, 9362.0, 30146.0, 35388.0, 9362.0, 8.310744285583496, 0.21481432020664215, 0.11087796837091446, -0.15621870756149292, -0.0810503214597702, -0.00025958396145142615, 0.994821310043335, -0.04870565980672836, 0.10376167297363281, 1.50439453125, 1.549072265625, 0.2998809814453125, 1.49267578125, 1.58056640625, 10.0, 1.0, 10.0, 1.6109399795532227
19415, 0.9060117602348328, -5.48513650894165, -2.2556464672088623, 0.2578771114349365, -0.053331248462200165, -2.9186530113220215, 0.6914761662483215, -0.14281858503818512, -0.3702599108219147, -0.20131002366542816, -1.0602656602859497, 0.05268783122301102, -0.41644075991599955, 1.018301867000872, 3.2709796815330967, 9362.0, 30146.0, 35388.0, 9362.0, 8.310744285583496, 0.1256096065044403, 0.4968706965446472, 0.2643890976905823, -0.08218202739953995, 0.000541608955245465, 0.9989311695098877, -0.04870565980672836, 0.10376167297363281, 1.50439453125, 1.549072265625, 0.2998809814453125, 1.49267578125, 1.58056640625, 10.0, 1.0, 10.0, 1.6111334562301636
19425, 0.9075191020965576, -5.487468242645264, -2.2540512084960938, 0.2578771114349365, -0.053331248462200165, -2.9186530113220215, 0.6914761662483215, -0.14281858503818512, -0.3702599108219147, -0.20134924352169037, -1.0602784156799316, 0.052640270441770554, -0.4110258184220114, 1.0102208944850588, 3.2536952763920945, 9362.0, 30146.0, 35388.0, 9362.0, 8.310744285583496, 0.35069751739501953, -0.05255505442619324, 0.0144857969135046, -0.08218202739953995, 0.000541608955245465, 0.9989311695098877, -0.04870565980672836, 0.10376167297363281, 1.50439453125, 1.549072265625, 0.2998809814453125, 1.494140625, 1.58056640625, 10.0, 1.0, 10.0, 1.6110460758209229
19445, 0.9120205044746399, -5.487490653991699, -2.254077672958374, 0.2578771114349365, -0.053331248462200165, -2.9186530113220215, 0.6914761662483215, -0.14281858503818512, -0.3702599108219147, -0.20131579041481018, -1.060265302658081, 0.052682455629110336, -0.4207081434834997, 1.0200042099303914, 3.2766621727189604, 9362.0, 30146.0, 35388.0, 9362.0, 8.310744285583496, 0.09848187118768692, -0.021766304969787598, -0.05960528552532196, -0.08228723704814911, 0.00027355356724001467, 0.9933133721351624, -0.055637191981077194, -0.07543754577636719, 1.48974609375, 1.601806640625, 0.42144775390625, 1.49267578125, 1.58056640625, 10.0, 1.0, 10.0, 1.611094355583191
19455, 0.9133329391479492, -5.4881181716918945, -2.254244089126587, 0.286278635263443, -0.05919709429144859, -2.9335227012634277, 0.7286418676376343, -0.15048788487911224, -0.37284451723098755, -0.20130711793899536, -1.0602492094039917, 0.05266701057553291, -0.424421243977662, 1.0188490662826553, 3.277392483323654, 9362.0, 30146.0, 35388.0, 9362.0, 8.310744285583496, 0.09848187118768692, -0.021766304969787598, -0.05960528552532196, -0.08228723704814911, 0.00027355356724001467, 0.9933133721351624, -0.055637191981077194, -0.07543754577636719, 1.48974609375, 1.601806640625, 0.42144775390625, 1.49267578125, 1.58056640625, 10.0, 1.0, 10.0, 1.6106480360031128
19465, 0.9149563908576965, -5.488646030426025, -2.2543106079101562, 0.286278635263443, -0.05919709429144859, -2.9335227012634277, 0.7286418676376343, -0.15048788487911224, -0.37284451723098755, -0.20133771002292633, -1.0602771043777466, 0.05265934765338898, -0.40740824740601933, 1.0092113264764464, 3.253390962021888, 9362.0, 30146.0, 35388.0, 9362.0, 8.310744285583496, 0.09848187118768692, -0.021766304969787598, -0.05960528552532196, -0.08093003928661346, 0.0013558996142819524, 0.9971402883529663, -0.055637191981077194, -0.07543754577636719, 1.48974609375, 1.573974609375, 0.35626220703125, 1.49267578125, 1.58056640625, 10.0, 1.0, 10.0, 1.6104695796966553
19475, 0.9162577390670776, -5.488642692565918, -2.2528891563415527, 0.3010365664958954, -0.062245212495326996, -2.9410006999969482, 0.7471474409103394, -0.15432414412498474, -0.37500521540641785, -0.2013402283191681, -1.0602765083312988, 0.052657805383205414, -0.4086932801959454, 1.0012239973406452, 3.2635351807663935, 9362.0, 30146.0, 35388.0, 9362.0, 8.310744285583496, 0.09848187118768692, -0.021766304969787598, -0.05960528552532196, -0.08364322781562805, 0.003164884867146611, 1.001552700996399, -0.055637191981077194, -0.07543754577636719, 1.48974609375, 1.573974609375, 0.35626220703125, 1.49267578125, 1.58056640625, 10.0, 1.0, 10.0, 1.6104212999343872
19485, 0.9155780673027039, -5.48900842666626, -2.2540154457092285, 0.3010365664958954, -0.062245212495326996, -2.9410006999969482, 0.7471474409103394, -0.15432414412498474, -0.37500521540641785, -0.20133598148822784, -1.0602648258209229, 0.05267627537250519, -0.42010822753303984, 1.0022946614120087, 3.2567902236017816, 9362.0, 30146.0, 35388.0, 9362.0, 8.310744285583496, 0.09848187118768692, -0.021766304969787598, -0.05960528552532196, -0.08229180425405502, 0.0011090954067185521, 0.9990209341049194, -0.055637191981077194, -0.07543754577636719, 1.48974609375, 1.573974609375, 0.35626220703125, 1.49267578125, 1.58056640625, 10.0, 1.0, 10.0, 1.6105098724365234
19495, 0.9157290458679199, -5.490573406219482, -2.2542366981506348, 0.3010365664958954, -0.062245212495326996, -2.9410006999969482, 0.7471474409103394, -0.15432414412498474, -0.37500521540641785, -0.20130224525928497, -1.0603163242340088, 0.05265023931860924, -0.37982055499899714, 0.9808438264182371, 3.262743581359093, 9362.0, 30146.0, 35388.0, 9362.0, 8.310744285583496, 0.09848187118768692, -0.021766304969787598, -0.05960528552532196, -0.08206748962402344, 0.001386626623570919, 0.9925616383552551, -0.055637191981077194, -0.07543754577636719, 1.48974609375, 1.597412109375, 0.4110870361328125, 1.49267578125, 1.58056640625, 10.0, 1.0, 10.0, 1.6103712320327759
19505, 0.9149450063705444, -5.492239952087402, -2.2543060779571533, 0.3010365664958954, -0.062245212495326996, -2.9410006999969482, 0.7471474409103394, -0.15432414412498474, -0.37500521540641785, -0.20134340226650238, -1.060278296470642, 0.052634239196777344, -0.41785070570596433, 1.0064596519038957, 3.2599100376812085, 9362.0, 30146.0, 35388.0, 9362.0, 8.310744285583496, 0.09848187118768692, -0.021766304969787598, -0.05960528552532196, -0.08046881854534149, 0.0011785462265834212, 0.9956699013710022, -0.055637191981077194, -0.07543754577636719, 1.48974609375, 1.597412109375, 0.4110870361328125, 1.49267578125, 1.58056640625, 10.0, 1.0, 10.0, 1.6103712320327759
19515, 0.9156413674354553, -5.495179653167725, -2.2553179264068604, 0.3010365664958954, -0.062245212495326996, -2.9410006999969482, 0.7471474409103394, -0.15432414412498474, -0.37500521540641785, -0.2013145238161087, -1.0603172779083252, 0.05264797434210777, -0.38444782228306856, 0.9869443335327333, 3.2659535453332587, 9362.0, 30146.0, 35388.0, 9362.0, 8.310744285583496, 0.09848187118768692, -0.021766304969787598, -0.05960528552532196, -0.08243690431118011, 0.0017592567019164562, 0.9970234036445618, -0.055637191981077194, -0.07543754577636719, 1.48974609375, 1.5498046875, 0.3014678955078125, 1.49267578125, 1.58056640625, 10.0, 1.0, 10.0, 1.6101765632629395
19525, 0.9138941764831543, -5.495524883270264, -2.2565553188323975, 0.3010365664958954, -0.062245212495326996, -2.9410006999969482, 0.7471474409103394, -0.15432414412498474, -0.37500521540641785, -0.20130769908428192, -1.0602586269378662, 0.05268903821706772, -0.4217116085087161, 1.0192559049834529, 3.2814512655282946, 9362.0, 30146.0, 35388.0, 9362.0, 8.310744285583496, 0.09848187118768692, -0.021766304969787598, -0.05960528552532196, -0.07979875057935715, 0.001483793486841023, 0.9993574619293213, -0.055637191981077194, -0.07543754577636719, 1.48974609375, 1.530029296875, 0.2581329345703125, 1.49267578125, 1.58056640625, 10.0, 1.0, 10.0, 1.6102635860443115
19535, 0.9127280712127686, -5.495813846588135, -2.2560698986053467, 0.347538024187088, -0.0718521773815155, -2.963625907897949, 0.8028833866119385, -0.1659029871225357, -0.3794892132282257, -0.20133453607559204, -1.0602763891220093, 0.05266396328806877, -0.4164106913136805, 1.007073670299235, 3.2635220112037353, 9362.0, 30146.0, 35388.0, 9362.0, 8.310744285583496, 0.09848187118768692, -0.021766304969787598, -0.05960528552532196, -0.0842694640159607, 0.0013316356344148517, 0.9984097480773926, -0.055637191981077194, -0.07543754577636719, 1.48974609375, 1.530029296875, 0.2581329345703125, 1.49267578125, 1.58056640625, 10.0, 1.0, 10.0, 1.6102635860443115
19545, 0.9127706289291382, -5.497699737548828, -2.2580909729003906, 0.347538024187088, -0.0718521773815155, -2.963625907897949, 0.8028833866119385, -0.1659029871225357, -0.3794892132282257, -0.20134800672531128, -1.0602885484695435, 0.052671972662210464, -0.40983607773089425, 1.0002107523546044, 3.254251746617508, 9362.0, 30146.0, 35388.0, 9362.0, 8.310744285583496, 0.09848187118768692, -0.021766304969787598, -0.05960528552532196, -0.0842694640159607, 0.0013316356344148517, 0.9984097480773926, -0.055637191981077194, -0.07543754577636719, 1.48974609375, 1.530029296875, 0.2581329345703125, 1.48974609375, 1.58056640625, 10.0, 1.0, 10.0, 1.6100322008132935
19555, 0.9120198488235474, -5.498802661895752, -2.260892868041992, 0.347538024187088, -0.0718521773815155, -2.963625907897949, 0.8028833866119385, -0.1659029871225357, -0.3794892132282257, -0.20134492218494415, -1.0602751970291138, 0.05266585946083069, -0.4178990030142061, 1.0119206238858567, 3.2576510919917854, 9362.0, 30146.0, 35388.0, 9362.0, 8.310744285583496, 0.09848187118768692, -0.021766304969787598, -0.05960528552532196, -0.08405068516731262, 0.00320083973929286, 0.99424147605896, -0.055637191981077194, -0.07543754577636719, 1.48974609375, 1.530029296875, 0.2581329345703125, 1.48974609375, 1.58056640625, 10.0, 1.0, 10.0, 1.6095058917999268
19565, 0.9119303226470947, -5.501003742218018, -2.2610487937927246, 0.347538024187088, -0.0718521773815155, -2.963625907897949, 0.8028833866119385, -0.1659029871225357, -0.3794892132282257, -0.20135028660297394, -1.0602717399597168, 0.05264076218008995, -0.41193502283887484, 1.0044091420627979, 3.262476988979294, 9362.0, 30146.0, 35388.0, 9362.0, 8.310744285583496, -0.31799545884132385, -0.285062313079834, -0.10978156328201294, -0.08297494053840637, 0.003805421059951186, 0.9977895021438599, -0.055637191981077194, -0.07543754577636719, 1.48974609375, 1.530029296875, 0.2581329345703125, 1.48974609375, 1.58056640625, 10.0, 1.0, 10.0, 1.6095058917999268
19575, 0.9101250171661377, -5.498813629150391, -2.2627203464508057, 0.38039812445640564, -0.07864261418581009, -2.978856325149536, 0.8400923013687134, -0.17361050844192505, -0.38238847255706787, -0.2013196349143982, -1.0602511167526245, 0.05269402265548706, -0.4174805322944523, 1.0148933769932, 3.272743520319017, 9362.0, 30146.0, 35388.0, 9362.0, 8.310744285583496, -0.31799545884132385, -0.285062313079834, -0.10978156328201294, -0.08272897452116013, 0.002585137728601694, 0.9980133771896362, -0.055637191981077194, -0.07543754577636719, 1.48974609375, 1.530029296875, 0.2581329345703125, 1.48974609375, 1.58056640625, 10.0, 1.0, 10.0, 1.6094245910644531
19585, 0.9081316590309143, -5.501045227050781, -2.2627079486846924, 0.38039812445640564, -0.07864261418581009, -2.978856325149536, 0.8400923013687134, -0.17361050844192505, -0.38238847255706787, -0.20131133496761322, -1.0602673292160034, 0.052695974707603455, -0.41446925279599306, 1.0134101569121299, 3.2755380551399313, 9362.0, 30146.0, 35388.0, 9362.0, 8.310744285583496, -0.31799545884132385, -0.285062313079834, -0.10978156328201294, -0.08046448975801468, 0.0009199462947435677, 0.9960271716117859, -0.055637191981077194, -0.07543754577636719, 1.48974609375, 1.530029296875, 0.2581329345703125, 1.48974609375, 1.58056640625, 10.0, 1.0, 10.0, 1.6093820333480835
