timeTick, roll, pitch, yaw, stateX, stateY, stateZ, stateVX, stateVY, stateVZ, otX0, otY0, otZ0, otRoll0, otPitch0, otYaw0, left wing, pitch motor, yaw motor, right wing, voltage, roll rate, pitch rate, yaw rate, A_x, A_y, A_z, current, i_raw, v_raw, airflow_voltage, airflow_speed, pot_Pitch, voltage_nKF, kFFx, state, State, volt_KF
21524, 5.127906799316406, 67.0790786743164, -3.373239040374756, 0, 0, 0, 0, 0, 0, 0, 0, 0, 0, 0, 0, 0, 0, 0, 0, 0, 0, 0, 0, 0, 0, 0, 0, 0, 0, 0, 0, 0, 0, 0, 0, 0, 0
21534, 5.151265621185303, 67.17149353027344, -3.395263910293579, 0.0, 0.0, 23.474842071533203, 0.0, 0.0, 1.6702651977539062, 0, 0, 0, 0, 0, 0, 9362.0, 30146.0, 35388.0, 9362.0, 0, -0.12470193952322006, 0.33820706605911255, 0.04858611524105072, 0.9996532797813416, 0.03944980725646019, 0.030504779890179634, 0, 0, 0, 1.541748046875, 0.2835540771484375, 0, 0, 0, 0, 0, 0
21544, 5.164788722991943, 67.23332214355469, -3.4069151878356934, 0.0, 0.0, 23.491060256958008, 0.0, 0.0, 1.6218185424804688, 0, 0, 0, 0, 0, 0, 9362.0, 30146.0, 35388.0, 9362.0, 0, 0.08390791714191437, 0.2250402718782425, 0.33017823100090027, 1.0008355379104614, 0.03920434042811394, 0.02860865369439125, 0, 0, 0, 1.522705078125, 0.242462158203125, 1.490478515625, 1.51904296875, 10.0, 1.0, 10.0, 1.492676019668579
21554, 5.192084789276123, 67.32896423339844, -3.4323997497558594, 0.0, 0.0, 23.505718231201172, 0.0, 0.0, 1.4657974243164062, 0, 0, 0, 0, 0, 0, 9362.0, 30146.0, 35388.0, 9362.0, 0, -0.06089846044778824, -0.09669797122478485, -0.08235783129930496, 1.0010769367218018, 0.03844377025961876, 0.028509093448519707, 0, 0, 0, 1.49267578125, 0.1811065673828125, 1.490478515625, 1.55859375, 10.0, 1.0, 10.0, 1.492777943611145
21564, 5.21044397354126, 67.39398193359375, -3.4486467838287354, 0.0, 0.0, 23.52118682861328, 0.0, 0.0, 1.5468597412109375, 0, 0, 0, 0, 0, 0, 9362.0, 30146.0, 35388.0, 9362.0, 0, 0.0806303322315216, -0.3329230844974518, 0.059228088706731796, 1.0006539821624756, 0.03759443014860153, 0.0295637845993042, 0, 0, 0, 1.49267578125, 0.1811065673828125, 1.48828125, 1.52197265625, 10.0, 1.0, 10.0, 1.4928994178771973
21574, 5.236130714416504, 67.48784637451172, -3.4732346534729004, 0.0, 0.0, 23.53516960144043, 0.0, 0.0, 1.3982772827148438, 0, 0, 0, 0, 0, 0, 9362.0, 30146.0, 35388.0, 9362.0, 0, -0.023582719266414642, -0.19468452036380768, -0.14304299652576447, 1.0001972913742065, 0.03824590519070625, 0.02849004603922367, 0, 0, 0, 1.53955078125, 0.278778076171875, 1.48828125, 1.506591796875, 10.0, 1.0, 10.0, 1.493070125579834
21584, 5.247502326965332, 67.54951477050781, -3.483396053314209, 0.0, 0.0, 23.53745460510254, 0.0, 0.0, 0.2285003662109375, 0, 0, 0, 0, 0, 0, 9362.0, 30146.0, 35388.0, 9362.0, 0, -0.0503494031727314, 0.047368474304676056, 0.28498247265815735, 0.9993298053741455, 0.03957097977399826, 0.029497213661670685, 0, 0, 0, 1.55712890625, 0.31793212890625, 1.494873046875, 1.49560546875, 10.0, 1.0, 10.0, 1.4932153224945068
21594, 5.27132511138916, 67.63814544677734, -3.5034749507904053, 0.0, 0.0, 23.539567947387695, 0.0, 0.0, 0.211334228515625, 0, 0, 0, 0, 0, 0, 9362.0, 30146.0, 35388.0, 9362.0, 0, 0.06370235234498978, 0.3512458801269531, 0.30440276861190796, 0.9998987913131714, 0.03873658925294876, 0.030391184613108635, 0, 0, 0, 1.519775390625, 0.236236572265625, 1.494873046875, 1.53076171875, 10.0, 1.0, 10.0, 1.4934691190719604
21604, 5.282916069030762, 67.69939422607422, -3.514960289001465, 0.0, 0.0, 23.5388240814209, 0.0, 0.0, -0.0743865966796875, 0, 0, 0, 0, 0, 0, 9362.0, 30146.0, 35388.0, 9362.0, 0, -0.27238407731056213, 0.06352963298559189, 0.39801180362701416, 1.001147985458374, 0.037071362137794495, 0.029747242107987404, 0, 0, 0, 1.5263671875, 0.2502899169921875, 1.491943359375, 1.547607421875, 10.0, 1.0, 10.0, 1.4936251640319824
21614, 5.307915210723877, 67.7939453125, -3.537534236907959, 0.0, 0.0, 23.5382137298584, 0.0, 0.0, -0.06103515625, 0, 0, 0, 0, 0, 0, 9362.0, 30146.0, 35388.0, 9362.0, 0, -0.09466494619846344, -0.221903458237648, -0.047238171100616455, 1.0002602338790894, 0.03785981982946396, 0.03008623979985714, 0, 0, 0, 1.484619140625, 0.1656646728515625, 1.491943359375, 1.51171875, 10.0, 1.0, 10.0, 1.4936244487762451
21624, 5.3245415687561035, 67.85482788085938, -3.5526931285858154, 0.0, 0.0, 23.54486083984375, 0.0, 0.0, 0.6647109985351562, 0, 0, 0, 0, 0, 0, 9362.0, 30146.0, 35388.0, 9362.0, 7.874380588531494, -0.02697065845131874, 0.00848713144659996, 0.06681573390960693, 0.9990375638008118, 0.03907289355993271, 0.028395647183060646, -0.05234447866678238, -0.030637741088867188, 1.493408203125, 1.540283203125, 0.280364990234375, 1.494140625, 1.53369140625, 10.0, 1.0, 10.0, 1.4936386346817017
21634, 5.346858501434326, 67.94219970703125, -3.5732669830322266, 0.0, 0.0, 23.550899505615234, 0.0, 0.0, 0.6038665771484375, 0, 0, 0, 0, 0, 0, 9362.0, 30146.0, 35388.0, 9362.0, 7.874380588531494, 0.1288515329360962, 0.2665574550628662, 0.08864057064056396, 0.9990259408950806, 0.039403535425662994, 0.027375057339668274, -0.05234447866678238, -0.030637741088867188, 1.493408203125, 1.530029296875, 0.2581329345703125, 1.494140625, 1.559326171875, 10.0, 1.0, 10.0, 1.493818759918213
21644, 5.36121129989624, 68.00247192382812, -3.5867128372192383, 0.0, 0.0, 23.5493106842041, 0.0, 0.0, -0.15888214111328125, 0, 0, 0, 0, 0, 0, 9362.0, 30146.0, 35388.0, 9362.0, 7.874380588531494, -0.1295514553785324, 0.005488932598382235, 0.1227758452296257, 1.001294493675232, 0.03941426798701286, 0.029919501394033432, -0.05234447866678238, -0.030637741088867188, 1.493408203125, 1.47216796875, 0.142547607421875, 1.490478515625, 1.509521484375, 10.0, 1.0, 10.0, 1.4938347339630127
21654, 5.3919782638549805, 68.09321594238281, -3.6152496337890625, 0.0, 0.0, 23.547935485839844, 0.0, 0.0, -0.13751983642578125, 0, 0, 0, 0, 0, 0, 9362.0, 30146.0, 35388.0, 9362.0, 7.874380588531494, -0.1779135912656784, -0.12487287074327469, -0.041411105543375015, 1.0016710758209229, 0.041472431272268295, 0.028475912287831306, -0.05234447866678238, -0.030637741088867188, 1.493408203125, 1.527099609375, 0.2517852783203125, 1.490478515625, 1.508056640625, 10.0, 1.0, 10.0, 1.4940437078475952
21664, 5.4134087562561035, 68.15319061279297, -3.633913993835449, 0.0, 0.0, 23.548423767089844, 0.0, 0.0, 0.048828125, 0, 0, 0, 0, 0, 0, 9362.0, 30146.0, 35388.0, 9362.0, 7.874380588531494, 0.21273310482501984, 0.01631787046790123, -0.009050396271049976, 1.0012942552566528, 0.04206858575344086, 0.03011840023100376, -0.05234447866678238, -0.030637741088867188, 1.493408203125, 1.49853515625, 0.1927032470703125, 1.49267578125, 1.52783203125, 10.0, 1.0, 10.0, 1.4941726922988892
21674, 5.43328857421875, 68.24334716796875, -3.65350079536438, 0.0, 0.0, 23.548921585083008, 0.0, 0.0, 0.04978179931640625, 0, 0, 0, 0, 0, 0, 9362.0, 30146.0, 35388.0, 9362.0, 7.874380588531494, -0.16783756017684937, 0.026815075427293777, 0.17718148231506348, 0.999332845211029, 0.0388176366686821, 0.028098786249756813, -0.05234447866678238, -0.030637741088867188, 1.493408203125, 1.494140625, 0.183990478515625, 1.49267578125, 1.5263671875, 10.0, 1.0, 10.0, 1.4942715167999268
21684, 5.453594207763672, 68.3043441772461, -3.673628568649292, 0.0, 0.0, 23.548358917236328, 0.0, 0.0, -0.05626678466796875, 0, 0, 0, 0, 0, 0, 9362.0, 30146.0, 35388.0, 9362.0, 7.874380588531494, -0.07119826972484589, -0.12161178886890411, -0.13432060182094574, 0.9999491572380066, 0.038406189531087875, 0.026557160541415215, -0.05234447866678238, -0.030637741088867188, 1.493408203125, 1.537353515625, 0.27386474609375, 1.49267578125, 1.51611328125, 10.0, 1.0, 10.0, 1.4943081140518188
21694, 5.4785966873168945, 68.39399719238281, -3.697939872741699, 0.0, 0.0, 23.547908782958984, 0.0, 0.0, -0.045013427734375, 0, 0, 0, 0, 0, 0, 9362.0, 30146.0, 35388.0, 9362.0, 7.874380588531494, 0.028514845296740532, 0.07475487887859344, -0.02670455537736416, 1.0014188289642334, 0.0371466726064682, 0.027309633791446686, -0.05234447866678238, -0.030637741088867188, 1.493408203125, 1.49560546875, 0.1868743896484375, 1.49267578125, 1.53662109375, 10.0, 1.0, 10.0, 1.4945052862167358
21704, 5.493028163909912, 68.45390319824219, -3.7110812664031982, 0.0, 0.0, 23.548131942749023, 0.0, 0.0, 0.02231597900390625, 0, 0, 0, 0, 0, 0, 9362.0, 30146.0, 35388.0, 9362.0, 7.874380588531494, 0.003597111441195011, -0.061632394790649414, 0.14846107363700867, 0.9995071887969971, 0.03769123554229736, 0.028410304337739944, -0.05234447866678238, -0.030637741088867188, 1.493408203125, 1.52197265625, 0.2408599853515625, 1.496337890625, 1.564453125, 10.0, 1.0, 10.0, 1.494605302810669
21714, 5.514495372772217, 68.54114532470703, -3.7316088676452637, 0.0, 0.0, 23.548385620117188, 0.0, 0.0, 0.02536773681640625, 0, 0, 0, 0, 0, 0, 9362.0, 30146.0, 35388.0, 9362.0, 7.874380588531494, -0.13761888444423676, 0.0804644450545311, 0.05720805749297142, 0.9979252815246582, 0.03770587965846062, 0.0274814460426569, -0.05234447866678238, -0.030637741088867188, 1.493408203125, 1.5029296875, 0.201446533203125, 1.496337890625, 1.493408203125, 10.0, 1.0, 10.0, 1.4946482181549072
21724, 5.526829719543457, 68.59761047363281, -3.743370294570923, 0.0, 0.0, 23.55033302307129, 0.0, 0.0, 0.19474029541015625, 0, 0, 0, 0, 0, 0, 9362.0, 30146.0, 35388.0, 9362.0, 7.874380588531494, -0.1814100593328476, 0.2660302221775055, 0.3545338809490204, 0.9976557493209839, 0.04061620309948921, 0.02885754406452179, -0.05885963886976242, -0.12023735046386719, 1.486083984375, 1.518310546875, 0.2331390380859375, 1.494873046875, 1.5380859375, 10.0, 1.0, 10.0, 1.4947452545166016
21734, 5.560358047485352, 68.68479919433594, -3.7762327194213867, 0.0, 0.0, 23.552139282226562, 0.0, 0.0, 0.18062591552734375, 0, 0, 0, 0, 0, 0, 9362.0, 30146.0, 35388.0, 9362.0, 7.874380588531494, -0.046331219375133514, 0.019934913143515587, -0.03391580283641815, 0.9975503087043762, 0.040954165160655975, 0.030215904116630554, -0.05885963886976242, -0.12023735046386719, 1.486083984375, 1.543212890625, 0.286834716796875, 1.494873046875, 1.512451171875, 10.0, 1.0, 10.0, 1.4948172569274902
21744, 5.578741550445557, 68.74488830566406, -3.7937252521514893, 0.0, 0.0, 23.559856414794922, 0.0, 0.0, 0.7717132568359375, 0, 0, 0, 0, 0, 0, 9362.0, 30146.0, 35388.0, 9362.0, 7.874380588531494, -0.09698787331581116, -0.3196881413459778, 0.15243670344352722, 0.9983248710632324, 0.037294287234544754, 0.03200539946556091, -0.05885963886976242, -0.12023735046386719, 1.486083984375, 1.513916015625, 0.224029541015625, 1.493408203125, 1.51611328125, 10.0, 1.0, 10.0, 1.4950147867202759
21754, 5.594259262084961, 68.83236694335938, -3.8082525730133057, 0.0, 0.0, 23.56685447692871, 0.0, 0.0, 0.6998062133789062, 0, 0, 0, 0, 0, 0, 9362.0, 30146.0, 35388.0, 9362.0, 7.874380588531494, -0.2995435297489166, 0.10750215500593185, 0.5464536547660828, 1.0000174045562744, 0.03774569556117058, 0.03097754344344139, -0.05885963886976242, -0.12023735046386719, 1.486083984375, 1.5322265625, 0.2628021240234375, 1.493408203125, 1.537353515625, 10.0, 1.0, 10.0, 1.4952017068862915
21764, 5.609950542449951, 68.88720703125, -3.822798728942871, 0.0, 0.0, 23.57377815246582, 0.0, 0.0, 0.6923675537109375, 0, 0, 0, 0, 0, 0, 9362.0, 30146.0, 35388.0, 9362.0, 7.874380588531494, -0.11717712879180908, 0.4971744418144226, 0.0904177874326706, 1.0001543760299683, 0.03730234503746033, 0.0306401327252388, -0.05885963886976242, -0.12023735046386719, 1.486083984375, 1.51025390625, 0.2164154052734375, 1.48974609375, 1.546875, 10.0, 1.0, 10.0, 1.495343565940857
21774, 5.632072925567627, 68.97245025634766, -3.8436427116394043, 0.0, 0.0, 23.580062866210938, 0.0, 0.0, 0.6284713745117188, 0, 0, 0, 0, 0, 0, 9362.0, 30146.0, 35388.0, 9362.0, 7.874380588531494, -0.11259682476520538, 0.21788056194782257, 0.22557048499584198, 0.9998926520347595, 0.03945176303386688, 0.031309787184000015, -0.05885963886976242, -0.12023735046386719, 1.486083984375, 1.508056640625, 0.211883544921875, 1.48974609375, 1.568115234375, 10.0, 1.0, 10.0, 1.495558738708496
21784, 5.647613048553467, 69.0276107788086, -3.8579511642456055, 0.0, 0.0, 23.584705352783203, 0.0, 0.0, 0.4642486572265625, 0, 0, 0, 0, 0, 0, 9362.0, 30146.0, 35388.0, 9362.0, 7.874380588531494, 0.08084815740585327, 0.3089821934700012, 0.1666959971189499, 0.999316930770874, 0.03781760483980179, 0.029105914756655693, -0.05885963886976242, -0.12023735046386719, 1.486083984375, 1.509521484375, 0.2148895263671875, 1.48974609375, 1.49560546875, 10.0, 1.0, 10.0, 1.4956130981445312
21794, 5.675118446350098, 69.11237335205078, -3.8842077255249023, 0.0, 0.0, 23.58893585205078, 0.0, 0.0, 0.4230499267578125, 0, 0, 0, 0, 0, 0, 9362.0, 30146.0, 35388.0, 9362.0, 7.874380588531494, -0.055101972073316574, 0.21209649741649628, 0.16007858514785767, 1.0000282526016235, 0.03896915912628174, 0.028156228363513947, -0.05885963886976242, -0.12023735046386719, 1.486083984375, 1.5029296875, 0.201446533203125, 1.48974609375, 1.54541015625, 10.0, 1.0, 10.0, 1.495758295059204
21804, 5.69258975982666, 69.1695785522461, -3.8999054431915283, 0.0, 0.0, 23.58078956604004, 0.0, 0.0, -0.8146286010742188, 0, 0, 0, 0, 0, 0, 9362.0, 30146.0, 35388.0, 9362.0, 7.874380588531494, 0.12238667905330658, -0.027179835364222527, 0.15641416609287262, 1.0011347532272339, 0.039645593613386154, 0.02898360975086689, -0.05885963886976242, -0.12023735046386719, 1.486083984375, 1.528564453125, 0.2548828125, 1.49560546875, 1.552734375, 10.0, 1.0, 10.0, 1.4959349632263184
21814, 5.723686218261719, 69.2558364868164, -3.9300005435943604, 0.0, 0.0, 23.573509216308594, 0.0, 0.0, -0.7280349731445312, 0, 0, 0, 0, 0, 0, 9362.0, 30146.0, 35388.0, 9362.0, 7.874380588531494, -0.016530951485037804, -0.4078609049320221, -0.18305960297584534, 0.9992579817771912, 0.038978736847639084, 0.02884860523045063, -0.05885963886976242, -0.12023735046386719, 1.486083984375, 1.5322265625, 0.2628021240234375, 1.49560546875, 1.5087890625, 10.0, 1.0, 10.0, 1.4960544109344482
21824, 5.744570255279541, 69.31102752685547, -3.9496405124664307, 0.0, 0.0, 23.572500228881836, 0.0, 0.0, -0.10089874267578125, 0, 0, 0, 0, 0, 0, 9362.0, 30146.0, 35388.0, 9362.0, 7.874380588531494, 0.06632311642169952, 0.11962467432022095, -0.0989968329668045, 1.0011928081512451, 0.039772242307662964, 0.03040085732936859, -0.043003469705581665, 0.07688140869140625, 1.502197265625, 1.47216796875, 0.142547607421875, 1.4912109375, 1.5498046875, 10.0, 1.0, 10.0, 1.4961168766021729
21834, 5.774954319000244, 69.39720916748047, -3.9789493083953857, 0.0, 0.0, 23.571643829345703, 0.0, 0.0, -0.08563995361328125, 0, 0, 0, 0, 0, 0, 9362.0, 30146.0, 35388.0, 9362.0, 7.874380588531494, -0.10967694967985153, -0.4929710030555725, -0.1460191011428833, 1.0001641511917114, 0.03965190798044205, 0.02878553979098797, -0.043003469705581665, 0.07688140869140625, 1.502197265625, 1.5439453125, 0.2884979248046875, 1.4912109375, 1.48388671875, 10.0, 1.0, 10.0, 1.4961495399475098
21844, 5.794577121734619, 69.45620727539062, -3.9972727298736572, 0.0, 0.0, 23.574777603149414, 0.0, 0.0, 0.31337738037109375, 0, 0, 0, 0, 0, 0, 9362.0, 30146.0, 35388.0, 9362.0, 7.874380588531494, -0.08132906258106232, -0.38643258810043335, 0.016116367653012276, 0.9985575675964355, 0.04041833430528641, 0.0277202557772398, -0.043003469705581665, 0.07688140869140625, 1.502197265625, 1.5234375, 0.2439727783203125, 1.48974609375, 1.540283203125, 10.0, 1.0, 10.0, 1.4963024854660034
21854, 5.824085235595703, 69.54055786132812, -4.024688720703125, 0.0, 0.0, 23.577646255493164, 0.0, 0.0, 0.286865234375, 0, 0, 0, 0, 0, 0, 9362.0, 30146.0, 35388.0, 9362.0, 7.874380588531494, 0.09078516811132431, -0.041563551872968674, -0.05682196468114853, 1.0004992485046387, 0.03929521143436432, 0.029340658336877823, -0.043003469705581665, 0.07688140869140625, 1.502197265625, 1.544677734375, 0.2900543212890625, 1.48974609375, 1.52490234375, 10.0, 1.0, 10.0, 1.496486783027649
21864, 5.846225261688232, 69.59593963623047, -4.047398090362549, 0.0, 0.0, 23.573740005493164, 0.0, 0.0, -0.390625, 0, 0, 0, 0, 0, 0, 9362.0, 30146.0, 35388.0, 9362.0, 7.874380588531494, -0.12664327025413513, -0.08843035995960236, -0.20397509634494781, 1.001309871673584, 0.04047069698572159, 0.03168155252933502, -0.043003469705581665, 0.07688140869140625, 1.502197265625, 1.506591796875, 0.2088775634765625, 1.49560546875, 1.53955078125, 10.0, 1.0, 10.0, 1.4966506958007812
21874, 5.875830173492432, 69.6772689819336, -4.075231075286865, 0.0, 0.0, 23.570274353027344, 0.0, 0.0, -0.34656524658203125, 0, 0, 0, 0, 0, 0, 9362.0, 30146.0, 35388.0, 9362.0, 7.874380588531494, 0.07313243299722672, 0.011007172055542469, 0.061945319175720215, 0.9980474710464478, 0.040417999029159546, 0.029145456850528717, -0.043003469705581665, 0.07688140869140625, 1.502197265625, 1.53076171875, 0.2596435546875, 1.49560546875, 1.5234375, 10.0, 1.0, 10.0, 1.4966790676116943
21884, 5.892099857330322, 69.73178100585938, -4.089580059051514, 0.0, 0.0, 23.563947677612305, 0.0, 0.0, -0.6326675415039062, 0, 0, 0, 0, 0, 0, 9362.0, 30146.0, 35388.0, 9362.0, 7.874380588531494, 0.24742527306079865, 0.0043777902610599995, 0.31313374638557434, 0.9995189905166626, 0.04023580625653267, 0.03096255660057068, -0.043003469705581665, 0.07688140869140625, 1.502197265625, 1.46630859375, 0.132171630859375, 1.491943359375, 1.534423828125, 10.0, 1.0, 10.0, 1.4966877698898315
21894, 5.924957752227783, 69.81646728515625, -4.121123790740967, 0.0, 0.0, 23.55830192565918, 0.0, 0.0, -0.5645751953125, 0, 0, 0, 0, 0, 0, 9362.0, 30146.0, 35388.0, 9362.0, 7.874380588531494, -0.11608196794986725, -0.27004358172416687, -0.06808756291866302, 1.0023664236068726, 0.038511164486408234, 0.03127066045999527, -0.043003469705581665, 0.07688140869140625, 1.502197265625, 1.497802734375, 0.19122314453125, 1.491943359375, 1.5234375, 10.0, 1.0, 10.0, 1.4968950748443604
21904, 5.939382553100586, 69.8717269897461, -4.134919166564941, 0.0, 0.0, 23.55767059326172, 0.0, 0.0, -0.06313323974609375, 0, 0, 0, 0, 0, 0, 9362.0, 30146.0, 35388.0, 9362.0, 7.874380588531494, -0.1692918986082077, 0.03969082236289978, 0.28087785840034485, 0.9995784759521484, 0.038365479558706284, 0.025781625881791115, -0.043003469705581665, 0.07688140869140625, 1.502197265625, 1.50732421875, 0.2104644775390625, 1.48828125, 1.487548828125, 10.0, 1.0, 10.0, 1.4969446659088135
21914, 5.967949390411377, 69.95355987548828, -4.162642955780029, 0.0, 0.0, 23.55714988708496, 0.0, 0.0, -0.05207061767578125, 0, 0, 0, 0, 0, 0, 9362.0, 30146.0, 35388.0, 9362.0, 7.874380588531494, -0.2104298174381256, -0.020240748301148415, 0.07090573757886887, 0.9995784759521484, 0.038365479558706284, 0.025781625881791115, -0.043003469705581665, 0.07688140869140625, 1.502197265625, 1.50732421875, 0.2104644775390625, 1.48828125, 1.5380859375, 10.0, 1.0, 10.0, 1.4969446659088135
21944, 6.035423278808594, 70.14232635498047, -4.225345134735107, 0.0, 0.0, 23.56302261352539, 0.0, 0.0, 0.4505157470703125, 0, 0, 0, 0, 0, 0, 9362.0, 30146.0, 35388.0, 9362.0, 7.874380588531494, 0.26959535479545593, 0.050418589264154434, 0.004390938673168421, 0.9989324808120728, 0.03889930620789528, 0.0292401984333992, -0.0528084896504879, -0.15607833862304688, 1.483154296875, 1.51611328125, 0.2286224365234375, 1.491943359375, 1.480224609375, 10.0, 1.0, 10.0, 1.4969446659088135
21954, 6.062495708465576, 70.22273254394531, -4.2523698806762695, 0.0, 0.0, 23.56302261352539, 0.0, 0.0, 0.4505157470703125, 0, 0, 0, 0, 0, 0, 9362.0, 30146.0, 35388.0, 9362.0, 7.874380588531494, 0.26959535479545593, 0.050418589264154434, 0.004390938673168421, 0.9989324808120728, 0.03889930620789528, 0.0292401984333992, -0.0528084896504879, -0.15607833862304688, 1.483154296875, 1.544677734375, 0.2900543212890625, 1.491943359375, 1.553466796875, 10.0, 1.0, 10.0, 1.4969446659088135
21974, 6.10355281829834, 70.35508728027344, -4.291027545928955, 0.0, 0.0, 23.56302261352539, 0.0, 0.0, 0.4505157470703125, 0, 0, 0, 0, 0, 0, 9362.0, 30146.0, 35388.0, 9362.0, 7.874380588531494, -0.2514905631542206, -0.1315191686153412, -0.03438473120331764, 0.9980916976928711, 0.03744480758905411, 0.02881006710231304, -0.0528084896504879, -0.15607833862304688, 1.483154296875, 1.51904296875, 0.2346954345703125, 1.49267578125, 1.527099609375, 10.0, 1.0, 10.0, 1.4969446659088135
21994, 6.153356075286865, 70.48675537109375, -4.338610649108887, 0.0, 0.0, 23.579065322875977, 0.0, 0.0, 0.42438507080078125, 0, 0, 0, 0, 0, 0, 9362.0, 30146.0, 35388.0, 9362.0, 7.874380588531494, 0.07164981961250305, 0.11181452125310898, 0.07784038037061691, 0.999072253704071, 0.03823421522974968, 0.030508901923894882, -0.0528084896504879, -0.15607833862304688, 1.483154296875, 1.5029296875, 0.201446533203125, 1.49267578125, 1.51171875, 10.0, 1.0, 10.0, 1.4969446659088135
22034, 6.243072509765625, 70.74658203125, -4.422197341918945, 0.0, 0.0, 23.591917037963867, 0.0, 0.0, -0.18482208251953125, 0, 0, 0, 0, 0, 0, 9362.0, 30146.0, 35388.0, 9362.0, 7.874380588531494, 0.07484009116888046, -0.06239177659153938, 0.28764447569847107, 1.000031590461731, 0.038706522434949875, 0.028830835595726967, -0.04073447361588478, -0.04855918884277344, 1.491943359375, 1.549072265625, 0.2998809814453125, 1.487548828125, 1.559326171875, 10.0, 1.0, 10.0, 1.4969446659088135
22074, 6.3182692527771, 71.0015869140625, -4.492979049682617, 0.0, 0.0, 23.570301055908203, 0.0, 0.0, -0.2803802490234375, 0, 0, 0, 0, 0, 0, 9362.0, 30146.0, 35388.0, 9362.0, 7.874380588531494, -0.1567363142967224, 0.1206452026963234, 0.31440240144729614, 0.9983689188957214, 0.0356358103454113, 0.031629208475351334, -0.04073447361588478, -0.04855918884277344, 1.491943359375, 1.541015625, 0.2819976806640625, 1.4912109375, 1.5322265625, 10.0, 1.0, 10.0, 1.4969446659088135
22094, 6.368141174316406, 71.12956237792969, -4.540058135986328, 0.0, 0.0, 23.570301055908203, 0.0, 0.0, -0.2803802490234375, 0, 0, 0, 0, 0, 0, 9362.0, 30146.0, 35388.0, 9362.0, 7.874380588531494, 0.025509603321552277, 0.03242689371109009, 0.17565035820007324, 0.9988436102867126, 0.0368657112121582, 0.02900618687272072, -0.04073447361588478, -0.04855918884277344, 1.491943359375, 1.51611328125, 0.2286224365234375, 1.487548828125, 1.538818359375, 10.0, 1.0, 10.0, 1.4987818002700806
22134, 6.450568675994873, 71.38226318359375, -4.615855693817139, 0.0, 0.0, 23.590858459472656, 0.0, 0.0, 0.31585693359375, 0, 0, 0, 0, 0, 0, 9362.0, 30146.0, 35388.0, 9362.0, 7.874380588531494, 0.08589236438274384, 0.0418504923582077, 0.18791037797927856, 1.0001875162124634, 0.03711975738406181, 0.0281837098300457, -0.050219058990478516, -0.05751800537109375, 1.4912109375, 1.51318359375, 0.2224273681640625, 1.49560546875, 1.513916015625, 10.0, 1.0, 10.0, 1.4987818002700806
22174, 6.556735992431641, 71.62772369384766, -4.717539310455322, 0.0, 0.0, 23.590038299560547, 0.0, 0.0, 0.04405975341796875, 0, 0, 0, 0, 0, 0, 9362.0, 30146.0, 35388.0, 9362.0, 7.874380588531494, -0.14958792924880981, -0.1939113885164261, 0.290988028049469, 1.0000466108322144, 0.03689143434166908, 0.0273356344550848, -0.050219058990478516, -0.05751800537109375, 1.4912109375, 1.5087890625, 0.21337890625, 1.490478515625, 1.530029296875, 10.0, 1.0, 10.0, 1.4987818002700806
22194, 6.606057167053223, 71.74940490722656, -4.765642166137695, 0.0, 0.0, 23.577438354492188, 0.0, 0.0, -0.5947113037109375, 0, 0, 0, 0, 0, 0, 9362.0, 30146.0, 35388.0, 9362.0, 7.874380588531494, -0.07922209054231644, 0.000769764359574765, 0.01753178983926773, 1.000883936882019, 0.03756100684404373, 0.030461056157946587, -0.050219058990478516, -0.05751800537109375, 1.4912109375, 1.541015625, 0.2819976806640625, 1.493408203125, 1.4970703125, 10.0, 1.0, 10.0, 1.4987818002700806
22254, 6.757196426391602, 72.10225677490234, -4.908128261566162, 0.0, 0.0, 23.556182861328125, 0.0, 0.0, -0.39081573486328125, 0, 0, 0, 0, 0, 0, 9362.0, 30146.0, 35388.0, 9362.0, 7.874380588531494, -0.0010218041716143489, 0.02567296102643013, 0.0025651894975453615, 1.0013830661773682, 0.03686828538775444, 0.02935909852385521, -0.038369182497262955, 0.023120880126953125, 1.497802734375, 1.51904296875, 0.2346954345703125, 1.4912109375, 1.4970703125, 10.0, 1.0, 10.0, 1.4987818002700806
22274, 6.815258502960205, 72.2210922241211, -4.962505340576172, 0.0, 0.0, 23.556182861328125, 0.0, 0.0, -0.39081573486328125, 0, 0, 0, 0, 0, 0, 9362.0, 30146.0, 35388.0, 9362.0, 7.874380588531494, 0.1668882817029953, -0.240090012550354, -0.03844578564167023, 1.0013830661773682, 0.03686828538775444, 0.02935909852385521, -0.038369182497262955, 0.023120880126953125, 1.497802734375, 1.5556640625, 0.3145904541015625, 1.494873046875, 1.55126953125, 10.0, 1.0, 10.0, 1.4987818002700806
22294, 6.869163513183594, 72.33443450927734, -5.01362943649292, 0.0, 0.0, 23.513782501220703, 0.0, 0.0, -0.926971435546875, 0, 0, 0, 0, 0, 0, 9362.0, 30146.0, 35388.0, 9362.0, 7.874380588531494, 0.06320957839488983, 0.21070685982704163, -0.1291435807943344, 0.9994131922721863, 0.038512784987688065, 0.030193185433745384, -0.038369182497262955, 0.023120880126953125, 1.497802734375, 1.52783203125, 0.253387451171875, 1.494873046875, 1.5029296875, 10.0, 1.0, 10.0, 1.4987818002700806
22314, 6.922043800354004, 72.45066833496094, -5.064591407775879, 0.0, 0.0, 23.504304885864258, 0.0, 0.0, -0.44689178466796875, 0, 0, 0, 0, 0, 0, 9362.0, 30146.0, 35388.0, 9362.0, 7.874380588531494, 0.067973792552948, -0.16801485419273376, -0.17601777613162994, 0.9982613921165466, 0.03663737699389458, 0.030365701764822006, -0.038369182497262955, 0.023120880126953125, 1.497802734375, 1.5263671875, 0.2502899169921875, 1.493408203125, 1.493408203125, 10.0, 1.0, 10.0, 1.4987818002700806
22354, 7.038989543914795, 72.68197631835938, -5.176784038543701, 0.0, 0.0, 23.50374412536621, 0.0, 0.0, 0.48656463623046875, 0, 0, 0, 0, 0, 0, 9362.0, 30146.0, 35388.0, 9362.0, 7.874380588531494, 0.09974304586648941, 0.012506606988608837, 0.06321003288030624, 1.0010285377502441, 0.03946581482887268, 0.030925190076231956, -0.04082417115569115, 0.014162063598632812, 1.4970703125, 1.53076171875, 0.2596435546875, 1.48974609375, 1.53369140625, 10.0, 1.0, 10.0, 1.4987818002700806
22394, 7.140376567840576, 72.90660095214844, -5.274538516998291, 0.0, 0.0, 23.532888412475586, 0.0, 0.0, 0.61187744140625, 0, 0, 0, 0, 0, 0, 9362.0, 30146.0, 35388.0, 9362.0, 7.874380588531494, -0.11052380502223969, -0.13429543375968933, 0.07012640684843063, 0.9982313513755798, 0.03705998510122299, 0.030638258904218674, -0.04082417115569115, 0.014162063598632812, 1.4970703125, 1.5234375, 0.2439727783203125, 1.4912109375, 1.489013671875, 10.0, 1.0, 10.0, 1.4987818002700806
22414, 7.190503120422363, 73.01983642578125, -5.321781635284424, 0.0, 0.0, 23.54172706604004, 0.0, 0.0, 0.8838653564453125, 0, 0, 0, 0, 0, 0, 9362.0, 30146.0, 35388.0, 9362.0, 7.874380588531494, -0.07948577404022217, -0.02273784577846527, -0.09719032049179077, 0.9982313513755798, 0.03705998510122299, 0.030638258904218674, -0.04082417115569115, 0.014162063598632812, 1.4970703125, 1.53662109375, 0.27239990234375, 1.48974609375, 1.54541015625, 10.0, 1.0, 10.0, 1.4987818002700806
22434, 7.235605716705322, 73.12788391113281, -5.365987777709961, 0.0, 0.0, 23.54172706604004, 0.0, 0.0, 0.8838653564453125, 0, 0, 0, 0, 0, 0, 9362.0, 30146.0, 35388.0, 9362.0, 7.874380588531494, -0.24085325002670288, 0.05785444751381874, 0.09751633554697037, 0.9976294040679932, 0.036898598074913025, 0.029804332181811333, -0.05844144895672798, -0.030637741088867188, 1.493408203125, 1.52197265625, 0.2408599853515625, 1.494140625, 1.47216796875, 10.0, 1.0, 10.0, 1.4987818002700806
22454, 7.276740550994873, 73.23072052001953, -5.403561115264893, 0.0, 0.0, 23.54172706604004, 0.0, 0.0, 0.8838653564453125, 0, 0, 0, 0, 0, 0, 9362.0, 30146.0, 35388.0, 9362.0, 7.874380588531494, 0.023527005687355995, 0.4570958614349365, 0.2869183123111725, 0.9990571141242981, 0.038279805332422256, 0.03220563754439354, -0.05844144895672798, -0.030637741088867188, 1.493408203125, 1.52490234375, 0.247039794921875, 1.49267578125, 1.4970703125, 10.0, 1.0, 10.0, 1.4987818002700806
22474, 7.324759483337402, 73.33674621582031, -5.448602676391602, 0.0, 0.0, 23.597759246826172, 0.0, 0.0, 0.35381317138671875, 0, 0, 0, 0, 0, 0, 9362.0, 30146.0, 35388.0, 9362.0, 7.874380588531494, 0.009873307310044765, 0.36736637353897095, -0.17296163737773895, 1.0013030767440796, 0.03752549737691879, 0.030588874593377113, -0.05844144895672798, -0.030637741088867188, 1.493408203125, 1.546875, 0.2949676513671875, 1.49267578125, 1.50146484375, 10.0, 1.0, 10.0, 1.4987818002700806
22514, 7.4539008140563965, 73.55472564697266, -5.572323322296143, 0.0, 0.0, 23.567405700683594, 0.0, 0.0, -1.0560989379882812, 0, 0, 0, 0, 0, 0, 9362.0, 30146.0, 35388.0, 9362.0, 7.874380588531494, 0.23556244373321533, -0.29980117082595825, 0.07173850387334824, 1.001360535621643, 0.03952087461948395, 0.029712559655308723, -0.05844144895672798, -0.030637741088867188, 1.493408203125, 1.4970703125, 0.18975830078125, 1.493408203125, 1.51318359375, 10.0, 1.0, 10.0, 1.4987818002700806
22534, 7.514292240142822, 73.66020202636719, -5.630589008331299, 0.0, 0.0, 23.54672622680664, 0.0, 0.0, -1.1209487915039062, 0, 0, 0, 0, 0, 0, 9362.0, 30146.0, 35388.0, 9362.0, 7.874380588531494, -0.1367741972208023, -0.0755382552742958, -0.05653153732419014, 1.001360535621643, 0.03952087461948395, 0.029712559655308723, -0.06417390704154968, -0.2187976837158203, 1.47802734375, 1.552001953125, 0.3063201904296875, 1.490478515625, 1.53369140625, 10.0, 1.0, 10.0, 1.4987818002700806
22554, 7.573860168457031, 73.76624298095703, -5.688438415527344, 0.0, 0.0, 23.50712776184082, 0.0, 0.0, -1.397705078125, 0, 0, 0, 0, 0, 0, 9362.0, 30146.0, 35388.0, 9362.0, 7.874380588531494, -0.09135212004184723, -0.2512795031070709, -0.13997220993041992, 1.0012542009353638, 0.038582220673561096, 0.026416143402457237, -0.06417390704154968, -0.2187976837158203, 1.47802734375, 1.532958984375, 0.2644195556640625, 1.490478515625, 1.5439453125, 10.0, 1.0, 10.0, 1.4987818002700806
22574, 7.636222839355469, 73.8733901977539, -5.747495174407959, 0.0, 0.0, 23.473995208740234, 0.0, 0.0, -1.567840576171875, 0, 0, 0, 0, 0, 0, 9362.0, 30146.0, 35388.0, 9362.0, 7.874380588531494, 0.00235389219596982, -0.06419917941093445, 0.05823652073740959, 1.0012542009353638, 0.038582220673561096, 0.026416143402457237, -0.06417390704154968, -0.2187976837158203, 1.47802734375, 1.53369140625, 0.265960693359375, 1.487548828125, 1.53369140625, 10.0, 1.0, 10.0, 1.4987818002700806
22594, 7.700839042663574, 73.9740982055664, -5.810302257537842, 0.0, 0.0, 23.461849212646484, 0.0, 0.0, -0.57373046875, 0, 0, 0, 0, 0, 0, 9362.0, 30146.0, 35388.0, 9362.0, 7.874380588531494, -0.04051944985985756, -0.11547592282295227, -0.13171452283859253, 0.9975627660751343, 0.03850278630852699, 0.02963012456893921, -0.06417390704154968, -0.2187976837158203, 1.47802734375, 1.469970703125, 0.1386566162109375, 1.487548828125, 1.52197265625, 10.0, 1.0, 10.0, 1.4987818002700806
22614, 7.765255928039551, 74.07472229003906, -5.873485088348389, 0.0, 0.0, 23.452150344848633, 0.0, 0.0, -0.45795440673828125, 0, 0, 0, 0, 0, 0, 9362.0, 30146.0, 35388.0, 9362.0, 7.874380588531494, -0.08163192868232727, -0.0949331596493721, -0.32703331112861633, 0.9984499216079712, 0.03909403085708618, 0.03053119033575058, -0.06417390704154968, -0.2187976837158203, 1.47802734375, 1.5439453125, 0.2884979248046875, 1.49267578125, 1.530029296875, 10.0, 1.0, 10.0, 1.4987818002700806
22634, 7.84075403213501, 74.18016815185547, -5.946284294128418, 0.0, 0.0, 23.434043884277344, 0.0, 0.0, -0.85601806640625, 0, 0, 0, 0, 0, 0, 9362.0, 30146.0, 35388.0, 9362.0, 7.874380588531494, 0.08850657939910889, -0.2595198154449463, -0.22364670038223267, 0.9984499216079712, 0.03909403085708618, 0.03053119033575058, -0.0736730769276619, -0.20087814331054688, 1.4794921875, 1.54833984375, 0.298126220703125, 1.48681640625, 1.530029296875, 10.0, 1.0, 10.0, 1.4987818002700806
22654, 7.886857032775879, 74.2813491821289, -5.9904890060424805, 0.0, 0.0, 23.429908752441406, 0.0, 0.0, -0.19435882568359375, 0, 0, 0, 0, 0, 0, 9362.0, 30146.0, 35388.0, 9362.0, 7.874380588531494, -0.11249013990163803, 0.06959212571382523, 0.15061765909194946, 1.0018420219421387, 0.03816986083984375, 0.03000866249203682, -0.0736730769276619, -0.20087814331054688, 1.4794921875, 1.54248046875, 0.28521728515625, 1.48681640625, 1.560791015625, 10.0, 1.0, 10.0, 1.4987818002700806
22674, 7.949170112609863, 74.38128662109375, -6.049493312835693, 0.0, 0.0, 23.424625396728516, 0.0, 0.0, -0.24871826171875, 0, 0, 0, 0, 0, 0, 9362.0, 30146.0, 35388.0, 9362.0, 7.874380588531494, 0.167628675699234, 0.023917609825730324, 0.20321041345596313, 0.9994429349899292, 0.038360968232154846, 0.02958010882139206, -0.0736730769276619, -0.20087814331054688, 1.4794921875, 1.53076171875, 0.2596435546875, 1.48681640625, 1.546875, 10.0, 1.0, 10.0, 1.4987818002700806
22734, 8.136556625366211, 74.6759033203125, -6.230846881866455, 0.0, 0.0, 23.470043182373047, 0.0, 0.0, 1.1508941650390625, 0, 0, 0, 0, 0, 0, 9362.0, 30146.0, 35388.0, 9362.0, 7.874380588531494, -0.015242980793118477, -0.06517745554447174, -0.10296013951301575, 1.0018867254257202, 0.04136098176240921, 0.02925560064613819, -0.03147169202566147, 0.09480094909667969, 1.503662109375, 1.535888671875, 0.2707366943359375, 1.4912109375, 1.516845703125, 10.0, 1.0, 10.0, 1.4987818002700806
22754, 8.193717956542969, 74.77462768554688, -6.286252975463867, 0.0, 0.0, 23.50661849975586, 0.0, 0.0, 1.2418746948242188, 0, 0, 0, 0, 0, 0, 9362.0, 30146.0, 35388.0, 9362.0, 7.874380588531494, -0.047499075531959534, -0.3281184136867523, -0.0723663792014122, 0.9989480376243591, 0.03805650770664215, 0.028779543936252594, -0.03147169202566147, 0.09480094909667969, 1.503662109375, 1.5234375, 0.2439727783203125, 1.49267578125, 1.53955078125, 10.0, 1.0, 10.0, 1.4987818002700806
22774, 8.261626243591309, 74.86946868896484, -6.351212024688721, 0.0, 0.0, 23.533153533935547, 0.0, 0.0, 1.2584686279296875, 0, 0, 0, 0, 0, 0, 9362.0, 30146.0, 35388.0, 9362.0, 7.874380588531494, 0.005145704373717308, -0.048110827803611755, -0.07413354516029358, 0.9982727766036987, 0.039061594754457474, 0.028360135853290558, -0.03147169202566147, 0.09480094909667969, 1.503662109375, 1.530029296875, 0.2581329345703125, 1.4970703125, 1.546875, 10.0, 1.0, 10.0, 1.4987818002700806
22814, 8.376188278198242, 75.05033874511719, -6.464221477508545, 0.0, 0.0, 23.58037757873535, 0.0, 0.0, 0.8697509765625, 0, 0, 0, 0, 0, 0, 9362.0, 30146.0, 35388.0, 9362.0, 7.874380588531494, 0.036041125655174255, 0.3505927324295044, 0.1066630631685257, 1.0013666152954102, 0.03850627318024635, 0.03129487857222557, -0.03147169202566147, 0.09480094909667969, 1.503662109375, 1.5439453125, 0.2884979248046875, 1.49267578125, 1.537353515625, 10.0, 1.0, 10.0, 1.4987818002700806
22834, 8.429542541503906, 75.14192962646484, -6.51786470413208, 0.0, 0.0, 23.58879280090332, 0.0, 0.0, 0.841522216796875, 0, 0, 0, 0, 0, 0, 9362.0, 30146.0, 35388.0, 9362.0, 7.874380588531494, -0.259907603263855, -0.11920138448476791, 0.28190159797668457, 1.0013666152954102, 0.03850627318024635, 0.03129487857222557, -0.04160220921039581, -0.1291980743408203, 1.4853515625, 1.541015625, 0.2819976806640625, 1.494873046875, 1.56005859375, 10.0, 1.0, 10.0, 1.4987818002700806
22854, 8.48477554321289, 75.23497772216797, -6.572327136993408, 0.0, 0.0, 23.621950149536133, 0.0, 0.0, 1.2117385864257812, 0, 0, 0, 0, 0, 0, 9362.0, 30146.0, 35388.0, 9362.0, 7.874380588531494, -0.173436239361763, -0.1364145576953888, 0.06599219143390656, 0.9994171857833862, 0.03950434923171997, 0.027609409764409065, -0.04160220921039581, -0.1291980743408203, 1.4853515625, 1.5556640625, 0.3145904541015625, 1.494873046875, 1.51318359375, 10.0, 1.0, 10.0, 1.4987818002700806
22914, 8.69309139251709, 75.50691223144531, -6.77372407913208, 0.0, 0.0, 23.64372444152832, 0.0, 0.0, 0.25844573974609375, 0, 0, 0, 0, 0, 0, 9362.0, 30146.0, 35388.0, 9362.0, 7.874380588531494, -0.09482482820749283, -0.38486596941947937, -0.2704298198223114, 0.9979904890060425, 0.03857624903321266, 0.029825227335095406, -0.04160220921039581, -0.1291980743408203, 1.4853515625, 1.53515625, 0.2692413330078125, 1.4912109375, 1.5556640625, 10.0, 1.0, 10.0, 1.4987818002700806
22934, 8.762722969055176, 75.59120178222656, -6.839776515960693, 0.0, 0.0, 23.64372444152832, 0.0, 0.0, 0.25844573974609375, 0, 0, 0, 0, 0, 0, 9362.0, 30146.0, 35388.0, 9362.0, 7.874380588531494, 0.14326530694961548, 0.31539100408554077, -0.20813873410224915, 0.9979904890060425, 0.03857624903321266, 0.029825227335095406, -0.07290399074554443, -0.2187976837158203, 1.47802734375, 1.532958984375, 0.2644195556640625, 1.48828125, 1.56884765625, 10.0, 1.0, 10.0, 1.4987818002700806
22954, 8.826812744140625, 75.68073272705078, -6.90367317199707, 0.0, 0.0, 23.65120506286621, 0.0, 0.0, 0.3101348876953125, 0, 0, 0, 0, 0, 0, 9362.0, 30146.0, 35388.0, 9362.0, 7.874380588531494, 0.06691113114356995, 0.06997870653867722, 0.1194031685590744, 1.0004372596740723, 0.03911510482430458, 0.02999311499297619, -0.07290399074554443, -0.2187976837158203, 1.47802734375, 1.559326171875, 0.32293701171875, 1.49267578125, 1.54541015625, 10.0, 1.0, 10.0, 1.4987818002700806
22974, 8.884273529052734, 75.76602935791016, -6.960177421569824, 0.0, 0.0, 23.653736114501953, 0.0, 0.0, -0.01239776611328125, 0, 0, 0, 0, 0, 0, 9362.0, 30146.0, 35388.0, 9362.0, 7.874380588531494, -0.06796586513519287, 0.045399829745292664, 0.2839898467063904, 1.0017640590667725, 0.03971178084611893, 0.02936825342476368, -0.07290399074554443, -0.2187976837158203, 1.47802734375, 1.535888671875, 0.2707366943359375, 1.4912109375, 1.53369140625, 10.0, 1.0, 10.0, 1.4987818002700806
23014, 9.020353317260742, 75.94026947021484, -7.092161178588867, 0.0, 0.0, 23.644733428955078, 0.0, 0.0, -0.5674362182617188, 0, 0, 0, 0, 0, 0, 9362.0, 30146.0, 35388.0, 9362.0, 7.874380588531494, -0.17598086595535278, -0.02899310179054737, -0.04034271091222763, 0.9987815618515015, 0.037963539361953735, 0.029478173702955246, -0.07290399074554443, -0.2187976837158203, 1.47802734375, 1.537353515625, 0.27386474609375, 1.4912109375, 1.48095703125, 10.0, 1.0, 10.0, 1.4987818002700806
23034, 9.08955192565918, 76.02772521972656, -7.160633087158203, 0.0, 0.0, 23.644466400146484, 0.0, 0.0, -0.011444091796875, 0, 0, 0, 0, 0, 0, 9362.0, 30146.0, 35388.0, 9362.0, 7.874380588531494, -0.09772547334432602, -0.1460748314857483, 0.004609032534062862, 1.001617193222046, 0.03913791477680206, 0.03113679774105549, -0.057090289890766144, -0.2187976837158203, 1.47802734375, 1.571044921875, 0.349578857421875, 1.4912109375, 1.550537109375, 10.0, 1.0, 10.0, 1.4987818002700806
23094, 9.283653259277344, 76.28319549560547, -7.350826740264893, 0.0, 0.0, 23.638811111450195, 0.0, 0.0, -0.7198333740234375, 0, 0, 0, 0, 0, 0, 9362.0, 30146.0, 35388.0, 9362.0, 7.874380588531494, -0.17422069609165192, -0.3269643783569336, -0.0727146789431572, 1.0003968477249146, 0.03943737596273422, 0.0300290510058403, -0.057090289890766144, -0.2187976837158203, 1.47802734375, 1.540283203125, 0.280364990234375, 1.4912109375, 1.51904296875, 10.0, 1.0, 10.0, 1.4987818002700806
23114, 9.333293914794922, 76.36384582519531, -7.401201248168945, 0.0, 0.0, 23.630178451538086, 0.0, 0.0, -0.8632659912109375, 0, 0, 0, 0, 0, 0, 9362.0, 30146.0, 35388.0, 9362.0, 7.874380588531494, -0.1764945536851883, 0.11964893341064453, 0.3478386104106903, 1.0012000799179077, 0.03779503330588341, 0.030069833621382713, -0.057090289890766144, -0.2187976837158203, 1.47802734375, 1.524169921875, 0.2455596923828125, 1.494140625, 1.584228515625, 10.0, 1.0, 10.0, 1.4987818002700806
23134, 9.407243728637695, 76.44379425048828, -7.472060203552246, 0.0, 0.0, 23.614459991455078, 0.0, 0.0, -0.3765106201171875, 0, 0, 0, 0, 0, 0, 9362.0, 30146.0, 35388.0, 9362.0, 7.874380588531494, 0.01601959578692913, 0.11663806438446045, 0.21424567699432373, 0.9983051419258118, 0.04013652727007866, 0.029925193637609482, -0.04760679230093956, -0.06647872924804688, 1.490478515625, 1.573974609375, 0.35626220703125, 1.494140625, 1.512451171875, 10.0, 1.0, 10.0, 1.4987818002700806
23174, 9.561960220336914, 76.60319519042969, -7.624391078948975, 0.0, 0.0, 23.614959716796875, 0.0, 0.0, -0.0675201416015625, 0, 0, 0, 0, 0, 0, 9362.0, 30146.0, 35388.0, 9362.0, 7.874380588531494, -0.16221508383750916, -0.06179308891296387, -0.031129563227295876, 0.9999337196350098, 0.037725552916526794, 0.03046182356774807, -0.04760679230093956, -0.06647872924804688, 1.490478515625, 1.5263671875, 0.2502899169921875, 1.489013671875, 1.579833984375, 10.0, 1.0, 10.0, 1.4987818002700806
23234, 9.779435157775879, 76.8407974243164, -7.8391032218933105, 0.0, 0.0, 23.638526916503906, 0.0, 0.0, 0.8417129516601562, 0, 0, 0, 0, 0, 0, 9362.0, 30146.0, 35388.0, 9362.0, 7.874380588531494, 0.05455917492508888, -0.21687710285186768, 0.015197409316897392, 1.0002104043960571, 0.04077529534697533, 0.02719186618924141, -0.04760679230093956, -0.06647872924804688, 1.490478515625, 1.58349609375, 0.3784332275390625, 1.4970703125, 1.518310546875, 10.0, 1.0, 10.0, 1.5079801082611084
23254, 9.853968620300293, 76.91755676269531, -7.910730838775635, 0.0, 0.0, 23.638526916503906, 0.0, 0.0, 0.8417129516601562, 0, 0, 0, 0, 0, 0, 9362.0, 30146.0, 35388.0, 9362.0, 7.874380588531494, 0.14351746439933777, 0.07830675691366196, -0.11860957741737366, 1.0002104043960571, 0.04077529534697533, 0.02719186618924141, -0.04760679230093956, -0.06647872924804688, 1.490478515625, 1.5673828125, 0.3411102294921875, 1.491943359375, 1.566650390625, 10.0, 1.0, 10.0, 1.5079801082611084
23274, 9.927948951721191, 76.99752807617188, -7.983002185821533, 0.0, 0.0, 23.659412384033203, 0.0, 0.0, 0.25577545166015625, 0, 0, 0, 0, 0, 0, 9362.0, 30146.0, 35388.0, 9362.0, 7.874380588531494, 0.121826171875, -0.2778184413909912, 0.22631052136421204, 1.0002104043960571, 0.04077529534697533, 0.02719186618924141, -0.04760679230093956, -0.06647872924804688, 1.490478515625, 1.538818359375, 0.2772674560546875, 1.493408203125, 1.529296875, 10.0, 1.0, 10.0, 1.5079801082611084
23294, 10.015056610107422, 77.0759048461914, -8.068808555603027, 0.0, 0.0, 23.662817001342773, 0.0, 0.0, 0.16231536865234375, 0, 0, 0, 0, 0, 0, 9362.0, 30146.0, 35388.0, 9362.0, 7.874380588531494, 0.11147214472293854, -0.14287424087524414, -0.024995364248752594, 1.0002104043960571, 0.04077529534697533, 0.02719186618924141, -0.04760679230093956, -0.06647872924804688, 1.490478515625, 1.518310546875, 0.2331390380859375, 1.4912109375, 1.564453125, 10.0, 1.0, 10.0, 1.5079801082611084
23314, 10.099740982055664, 77.14934539794922, -8.153854370117188, 0.0, 0.0, 23.66266441345215, 0.0, 0.0, -0.0152587890625, 0, 0, 0, 0, 0, 0, 9362.0, 30146.0, 35388.0, 9362.0, 7.874380588531494, -0.030696183443069458, 0.10892356187105179, -0.31511056423187256, 1.0009660720825195, 0.040418919175863266, 0.028944751247763634, -0.04760679230093956, -0.06647872924804688, 1.490478515625, 1.565185546875, 0.336090087890625, 1.490478515625, 1.55126953125, 10.0, 1.0, 10.0, 1.5079801082611084
23334, 10.15861988067627, 77.22012329101562, -8.21132755279541, 0.0, 0.0, 23.66266441345215, 0.0, 0.0, -0.0152587890625, 0, 0, 0, 0, 0, 0, 9362.0, 30146.0, 35388.0, 9362.0, 7.874380588531494, -0.15483292937278748, 0.3254052996635437, 0.2883016765117645, 0.999470591545105, 0.03854228928685188, 0.030689841136336327, -0.04912177100777626, 0.06792068481445312, 1.50146484375, 1.565185546875, 0.336090087890625, 1.48974609375, 1.51025390625, 10.0, 1.0, 10.0, 1.5079801082611084
23374, 10.319122314453125, 77.37015533447266, -8.369269371032715, 0.0, 0.0, 23.606931686401367, 0.0, 0.0, -0.7158279418945312, 0, 0, 0, 0, 0, 0, 9362.0, 30146.0, 35388.0, 9362.0, 7.874380588531494, -0.008780157193541527, -0.10664673149585724, -0.04712731018662453, 0.9996023774147034, 0.03838301822543144, 0.029671182855963707, -0.04912177100777626, 0.06792068481445312, 1.50146484375, 1.5234375, 0.2439727783203125, 1.497802734375, 1.50439453125, 10.0, 1.0, 10.0, 1.5079801082611084
23394, 10.386810302734375, 77.44503021240234, -8.43628215789795, 0.0, 0.0, 23.594757080078125, 0.0, 0.0, -0.5758285522460938, 0, 0, 0, 0, 0, 0, 9362.0, 30146.0, 35388.0, 9362.0, 7.874380588531494, 0.011037018150091171, 0.03656747564673424, 0.20968203246593475, 1.0011013746261597, 0.03830042481422424, 0.027868349105119705, -0.04912177100777626, 0.06792068481445312, 1.50146484375, 1.57470703125, 0.3579864501953125, 1.4912109375, 1.55126953125, 10.0, 1.0, 10.0, 1.5079801082611084
23414, 10.465002059936523, 77.51910400390625, -8.51190185546875, 0.0, 0.0, 23.598485946655273, 0.0, 0.0, 0.17757415771484375, 0, 0, 0, 0, 0, 0, 9362.0, 30146.0, 35388.0, 9362.0, 7.874380588531494, 0.08592256158590317, -0.23700794577598572, -0.22765962779521942, 0.998779833316803, 0.039751086384058, 0.02968786470592022, -0.04912177100777626, 0.06792068481445312, 1.50146484375, 1.51318359375, 0.2224273681640625, 1.4912109375, 1.55712890625, 10.0, 1.0, 10.0, 1.5079801082611084
23434, 10.558361053466797, 77.59103393554688, -8.603726387023926, 0.0, 0.0, 23.601585388183594, 0.0, 0.0, 0.1476287841796875, 0, 0, 0, 0, 0, 0, 9362.0, 30146.0, 35388.0, 9362.0, 7.874380588531494, 0.04418624937534332, -0.15593580901622772, -0.09007719159126282, 1.000519037246704, 0.03871409222483635, 0.02726692333817482, -0.06675074249505997, 0.023120880126953125, 1.497802734375, 1.546875, 0.2949676513671875, 1.491943359375, 1.50439453125, 10.0, 1.0, 10.0, 1.5079801082611084
23474, 10.713545799255371, 77.73283386230469, -8.75673770904541, 0.0, 0.0, 23.577173233032227, 0.0, 0.0, -0.7863998413085938, 0, 0, 0, 0, 0, 0, 9362.0, 30146.0, 35388.0, 9362.0, 7.874380588531494, -0.12391882389783859, -0.06088123098015785, -0.11019208282232285, 1.000209927558899, 0.04009697213768959, 0.027892664074897766, -0.06675074249505997, 0.023120880126953125, 1.497802734375, 1.524169921875, 0.2455596923828125, 1.491943359375, 1.56884765625, 10.0, 1.0, 10.0, 1.5079801082611084
23494, 10.787026405334473, 77.80266571044922, -8.830427169799805, 0.0, 0.0, 23.56378936767578, 0.0, 0.0, -0.6330490112304688, 0, 0, 0, 0, 0, 0, 9362.0, 30146.0, 35388.0, 9362.0, 7.874380588531494, -0.11824459582567215, -0.362045019865036, 0.01721690408885479, 0.9983035326004028, 0.03924679011106491, 0.028513286262750626, -0.06675074249505997, 0.023120880126953125, 1.497802734375, 1.563720703125, 0.3327789306640625, 1.494140625, 1.579833984375, 10.0, 1.0, 10.0, 1.5079801082611084
23514, 10.85638427734375, 77.8716049194336, -8.898381233215332, 0.0, 0.0, 23.54886245727539, 0.0, 0.0, -0.7062911987304688, 0, 0, 0, 0, 0, 0, 9362.0, 30146.0, 35388.0, 9362.0, 7.874380588531494, 0.10086224973201752, 0.2380317747592926, 0.36647167801856995, 0.9983035326004028, 0.03924679011106491, 0.028513286262750626, -0.06675074249505997, 0.023120880126953125, 1.497802734375, 1.53955078125, 0.278778076171875, 1.49560546875, 1.59228515625, 10.0, 1.0, 10.0, 1.5079801082611084
23574, 11.117247581481934, 78.07229614257812, -9.157215118408203, 0.0, 0.0, 23.540372848510742, 0.0, 0.0, 0.13027191162109375, 0, 0, 0, 0, 0, 0, 9362.0, 30146.0, 35388.0, 9362.0, 7.874380588531494, -0.0264951940625906, -0.20744886994361877, -0.34522545337677, 0.9985870718955994, 0.03825904801487923, 0.03102259710431099, -0.05099833384156227, -0.09335899353027344, 1.48828125, 1.57470703125, 0.3579864501953125, 1.48974609375, 1.55859375, 10.0, 1.0, 10.0, 1.5079801082611084
23634, 11.325676918029785, 78.27147674560547, -9.365586280822754, 0.0, 0.0, 23.554439544677734, 0.0, 0.0, 0.3509521484375, 0, 0, 0, 0, 0, 0, 9362.0, 30146.0, 35388.0, 9362.0, 7.874380588531494, -0.008199200965464115, 0.11827381700277328, -0.17040343582630157, 0.9989719986915588, 0.039107780903577805, 0.028914932161569595, -0.06855369359254837, -0.2098369598388672, 1.478759765625, 1.56884765625, 0.3444366455078125, 1.490478515625, 1.53369140625, 10.0, 1.0, 10.0, 1.5079801082611084
23654, 11.392866134643555, 78.33615112304688, -9.430740356445312, 0.0, 0.0, 23.565689086914062, 0.0, 0.0, 0.5336761474609375, 0, 0, 0, 0, 0, 0, 9362.0, 30146.0, 35388.0, 9362.0, 7.874380588531494, -0.05925294756889343, -0.21232324838638306, 0.15493959188461304, 0.9993306994438171, 0.038422707468271255, 0.029609311372041702, -0.06855369359254837, -0.2098369598388672, 1.478759765625, 1.5556640625, 0.3145904541015625, 1.4912109375, 1.49853515625, 10.0, 1.0, 10.0, 1.5079801082611084
23674, 11.462703704833984, 78.40155792236328, -9.499310493469238, 0.0, 0.0, 23.588376998901367, 0.0, 0.0, 1.0753631591796875, 0, 0, 0, 0, 0, 0, 9362.0, 30146.0, 35388.0, 9362.0, 7.874380588531494, -0.06842126697301865, -0.17596305906772614, -0.1236521303653717, 0.9993306994438171, 0.038422707468271255, 0.029609311372041702, -0.06855369359254837, -0.2098369598388672, 1.478759765625, 1.516845703125, 0.23004150390625, 1.494140625, 1.5703125, 10.0, 1.0, 10.0, 1.5079801082611084
23694, 11.56696605682373, 78.46331024169922, -9.602421760559082, 0.0, 0.0, 23.615135192871094, 0.0, 0.0, 1.2681961059570312, 0, 0, 0, 0, 0, 0, 9362.0, 30146.0, 35388.0, 9362.0, 7.874380588531494, -0.1405089646577835, 0.0850534439086914, -0.20306847989559174, 0.9996517300605774, 0.039841409772634506, 0.028843166306614876, -0.06855369359254837, -0.2098369598388672, 1.478759765625, 1.572509765625, 0.3528594970703125, 1.494140625, 1.5498046875, 10.0, 1.0, 10.0, 1.5079801082611084
23714, 11.657882690429688, 78.52620697021484, -9.69140911102295, 0.0, 0.0, 23.625450134277344, 0.0, 0.0, 0.48923492431640625, 0, 0, 0, 0, 0, 0, 9362.0, 30146.0, 35388.0, 9362.0, 7.874380588531494, -0.09464769810438156, 0.24740354716777802, 0.15874096751213074, 0.9996517300605774, 0.039841409772634506, 0.028843166306614876, -0.06855369359254837, -0.2098369598388672, 1.478759765625, 1.519775390625, 0.236236572265625, 1.491943359375, 1.51318359375, 10.0, 1.0, 10.0, 1.5079801082611084
23734, 11.753514289855957, 78.59088897705078, -9.785758972167969, 0.0, 0.0, 23.640092849731445, 0.0, 0.0, 0.69427490234375, 0, 0, 0, 0, 0, 0, 9362.0, 30146.0, 35388.0, 9362.0, 7.874380588531494, -0.06981517374515533, 0.028192540630698204, -0.33560046553611755, 0.9992988109588623, 0.037999797612428665, 0.02819100022315979, -0.06737785786390305, -0.1739978790283203, 1.481689453125, 1.552734375, 0.3080596923828125, 1.491943359375, 1.5556640625, 10.0, 1.0, 10.0, 1.5079801082611084
23774, 11.909090042114258, 78.72091674804688, -9.941373825073242, 0.0, 0.0, 23.630859375, 0.0, 0.0, -0.4108428955078125, 0, 0, 0, 0, 0, 0, 9362.0, 30146.0, 35388.0, 9362.0, 7.874380588531494, -0.14551414549350739, -0.3532581925392151, 0.00587777653709054, 0.9975994229316711, 0.03778254613280296, 0.0292524341493845, -0.06737785786390305, -0.1739978790283203, 1.481689453125, 1.581298828125, 0.3732147216796875, 1.49267578125, 1.5498046875, 10.0, 1.0, 10.0, 1.5141252279281616
23794, 11.990731239318848, 78.77924346923828, -10.023659706115723, 0.0, 0.0, 23.630859375, 0.0, 0.0, -0.4108428955078125, 0, 0, 0, 0, 0, 0, 9362.0, 30146.0, 35388.0, 9362.0, 7.874380588531494, -0.06786280870437622, 0.012461855076253414, -0.056760743260383606, 0.9990328550338745, 0.03861476853489876, 0.028505932539701462, -0.06737785786390305, -0.1739978790283203, 1.481689453125, 1.493408203125, 0.1825714111328125, 1.494873046875, 1.60400390625, 10.0, 1.0, 10.0, 1.5141252279281616
23814, 12.066370010375977, 78.83873748779297, -10.097973823547363, 0.0, 0.0, 23.630859375, 0.0, 0.0, -0.4108428955078125, 0, 0, 0, 0, 0, 0, 9362.0, 30146.0, 35388.0, 9362.0, 7.874380588531494, 0.3200066089630127, 0.20720693469047546, 0.11669141054153442, 0.9987601637840271, 0.03760731220245361, 0.027445806190371513, -0.06737785786390305, -0.1739978790283203, 1.481689453125, 1.517578125, 0.231689453125, 1.491943359375, 1.55126953125, 10.0, 1.0, 10.0, 1.5141252279281616
23834, 12.14555835723877, 78.89625549316406, -10.176901817321777, 0.0, 0.0, 23.59156608581543, 0.0, 0.0, -0.6931304931640625, 0, 0, 0, 0, 0, 0, 9362.0, 30146.0, 35388.0, 9362.0, 7.874380588531494, -0.06627624481916428, 0.010491754859685898, -0.02049165405333042, 0.9987908005714417, 0.0410718135535717, 0.02887708693742752, -0.03852828964591026, -0.03959846496582031, 1.49267578125, 1.576904296875, 0.36309814453125, 1.491943359375, 1.55419921875, 10.0, 1.0, 10.0, 1.5141252279281616
23854, 12.209315299987793, 78.95353698730469, -10.240738868713379, 0.0, 0.0, 23.57768440246582, 0.0, 0.0, -0.656890869140625, 0, 0, 0, 0, 0, 0, 9362.0, 30146.0, 35388.0, 9362.0, 7.874380588531494, -0.06419101357460022, -0.06081008538603783, 0.1250380575656891, 0.9986094236373901, 0.03875081241130829, 0.02880239300429821, -0.03852828964591026, -0.03959846496582031, 1.49267578125, 1.59814453125, 0.4127655029296875, 1.490478515625, 1.505859375, 10.0, 1.0, 10.0, 1.5141252279281616
23874, 12.260320663452148, 79.00863647460938, -10.290993690490723, 0.0, 0.0, 23.56753921508789, 0.0, 0.0, -0.479888916015625, 0, 0, 0, 0, 0, 0, 9362.0, 30146.0, 35388.0, 9362.0, 7.874380588531494, 0.22871601581573486, 0.3401103913784027, 0.021666495129466057, 0.9975045323371887, 0.038708437234163284, 0.031957224011421204, -0.03852828964591026, -0.03959846496582031, 1.49267578125, 1.569580078125, 0.3462371826171875, 1.489013671875, 1.512451171875, 10.0, 1.0, 10.0, 1.5141252279281616
23894, 12.342995643615723, 79.0628890991211, -10.372764587402344, 0.0, 0.0, 23.553144454956055, 0.0, 0.0, -0.681304931640625, 0, 0, 0, 0, 0, 0, 9362.0, 30146.0, 35388.0, 9362.0, 7.874380588531494, 0.06736335903406143, -0.06150883063673973, 0.10150863230228424, 0.9975045323371887, 0.038708437234163284, 0.031957224011421204, -0.03852828964591026, -0.03959846496582031, 1.49267578125, 1.5439453125, 0.2884979248046875, 1.4912109375, 1.53955078125, 10.0, 1.0, 10.0, 1.5141252279281616
23934, 12.492762565612793, 79.1819076538086, -10.523579597473145, 0.0, 0.0, 23.53676414489746, 0.0, 0.0, -0.12760162353515625, 0, 0, 0, 0, 0, 0, 9362.0, 30146.0, 35388.0, 9362.0, 7.874380588531494, 0.0897693783044815, -0.3045102655887604, 0.18211643397808075, 1.0013923645019531, 0.03669779375195503, 0.03193185478448868, -0.038261886686086655, 0.05000114440917969, 1.5, 1.5732421875, 0.354736328125, 1.4912109375, 1.56591796875, 10.0, 1.0, 10.0, 1.5141252279281616
23954, 12.576568603515625, 79.23536682128906, -10.604618072509766, 0.0, 0.0, 23.542938232421875, 0.0, 0.0, 0.29296875, 0, 0, 0, 0, 0, 0, 9362.0, 30146.0, 35388.0, 9362.0, 7.874380588531494, 0.11514677852392197, 0.12490279227495193, -0.07775649428367615, 1.0013923645019531, 0.03669779375195503, 0.03193185478448868, -0.038261886686086655, 0.05000114440917969, 1.5, 1.55859375, 0.3211212158203125, 1.4912109375, 1.55859375, 10.0, 1.0, 10.0, 1.5141252279281616
23974, 12.656364440917969, 79.29000854492188, -10.682893753051758, 0.0, 0.0, 23.55318832397461, 0.0, 0.0, 0.48618316650390625, 0, 0, 0, 0, 0, 0, 9362.0, 30146.0, 35388.0, 9362.0, 7.874380588531494, -0.35374006628990173, 0.2402961403131485, 0.03306633606553078, 0.9991078972816467, 0.03977717459201813, 0.03069647215306759, -0.038261886686086655, 0.05000114440917969, 1.5, 1.587158203125, 0.3869171142578125, 1.491943359375, 1.538818359375, 10.0, 1.0, 10.0, 1.5141252279281616
23984, 12.698234558105469, 79.31147766113281, -10.724573135375977, 0.0, 0.0, 23.544458389282227, 0.0, 0.0, -0.8729934692382812, 0, 0, 0, 0, 0, 0, 9362.0, 30146.0, 35388.0, 9362.0, 7.874380588531494, -0.09126827120780945, -0.015689032152295113, -0.1210780218243599, 0.9996612668037415, 0.03917496278882027, 0.031013205647468567, -0.038261886686086655, 0.05000114440917969, 1.5, 1.552001953125, 0.3063201904296875, 1.494140625, 1.550537109375, 10.0, 1.0, 10.0, 1.5141252279281616
23994, 12.741029739379883, 79.34351348876953, -10.76705551147461, 0.0, 0.0, 23.544458389282227, 0.0, 0.0, -0.8729934692382812, 0, 0, 0, 0, 0, 0, 9362.0, 30146.0, 35388.0, 9362.0, 7.874380588531494, -0.0044576809741556644, 0.1089315414428711, 0.12737199664115906, 0.9984676241874695, 0.03881438821554184, 0.03142028674483299, -0.038261886686086655, 0.05000114440917969, 1.5, 1.52197265625, 0.2408599853515625, 1.494140625, 1.58642578125, 10.0, 1.0, 10.0, 1.517242193222046
24014, 12.852599143981934, 79.40067291259766, -10.878300666809082, 0.0, 0.0, 23.535581588745117, 0.0, 0.0, -0.102996826171875, 0, 0, 0, 0, 0, 0, 9362.0, 30146.0, 35388.0, 9362.0, 7.874380588531494, -0.04416988417506218, -0.02895338274538517, -0.2651901841163635, 0.997897744178772, 0.03890680894255638, 0.02646920084953308, -0.038261886686086655, 0.05000114440917969, 1.5, 1.58056640625, 0.3715972900390625, 1.493408203125, 1.587158203125, 10.0, 1.0, 10.0, 1.517242193222046
24034, 12.953636169433594, 79.4549331665039, -10.977619171142578, 0.0, 0.0, 23.537290573120117, 0.0, 0.0, 0.12493133544921875, 0, 0, 0, 0, 0, 0, 9362.0, 30146.0, 35388.0, 9362.0, 7.874380588531494, 0.20534062385559082, -0.0012020595604553819, 0.05215233936905861, 1.0014413595199585, 0.039906375110149384, 0.03130556643009186, -0.05761939659714699, 0.07688140869140625, 1.502197265625, 1.5087890625, 0.21337890625, 1.49267578125, 1.58349609375, 10.0, 1.0, 10.0, 1.517755150794983
24044, 12.98304271697998, 79.47756958007812, -11.0062255859375, 0.0, 0.0, 23.53898048400879, 0.0, 0.0, 0.1689910888671875, 0, 0, 0, 0, 0, 0, 9362.0, 30146.0, 35388.0, 9362.0, 7.874380588531494, 0.0673505887389183, -0.15642748773097992, 0.246256023645401, 1.0023698806762695, 0.03997793793678284, 0.028652463108301163, -0.05761939659714699, 0.07688140869140625, 1.502197265625, 1.55859375, 0.3211212158203125, 1.494873046875, 1.55126953125, 10.0, 1.0, 10.0, 1.517755150794983
24054, 13.020837783813477, 79.50901794433594, -11.041607856750488, 0.0, 0.0, 23.540512084960938, 0.0, 0.0, 0.15316009521484375, 0, 0, 0, 0, 0, 0, 9362.0, 30146.0, 35388.0, 9362.0, 7.874380588531494, 0.22000563144683838, 0.24266016483306885, 0.5473222136497498, 1.0020989179611206, 0.038309674710035324, 0.028029296547174454, -0.05761939659714699, 0.07688140869140625, 1.502197265625, 1.60546875, 0.43011474609375, 1.494873046875, 1.587158203125, 10.0, 1.0, 10.0, 1.517755150794983
24074, 13.119771003723145, 79.56143951416016, -11.140100479125977, 0.0, 0.0, 23.53694725036621, 0.0, 0.0, -0.1682281494140625, 0, 0, 0, 0, 0, 0, 9362.0, 30146.0, 35388.0, 9362.0, 7.874380588531494, -0.12819212675094604, 0.17902643978595734, -0.16893532872200012, 0.9999963045120239, 0.03787219896912575, 0.030515030026435852, -0.05761939659714699, 0.07688140869140625, 1.502197265625, 1.5556640625, 0.3145904541015625, 1.491943359375, 1.57763671875, 10.0, 1.0, 10.0, 1.5182799100875854
24094, 13.223041534423828, 79.61341857910156, -11.242559432983398, 0.0, 0.0, 23.53694725036621, 0.0, 0.0, -0.1682281494140625, 0, 0, 0, 0, 0, 0, 9362.0, 30146.0, 35388.0, 9362.0, 7.874380588531494, -0.22449329495429993, -0.1126704066991806, -0.39218902587890625, 1.0000770092010498, 0.03862210735678673, 0.028583621606230736, -0.05761939659714699, 0.07688140869140625, 1.502197265625, 1.5908203125, 0.395538330078125, 1.491943359375, 1.58935546875, 10.0, 1.0, 10.0, 1.5182799100875854
24134, 13.390901565551758, 79.71890258789062, -11.412704467773438, 0.0, 0.0, 23.522716522216797, 0.0, 0.0, -0.7318496704101562, 0, 0, 0, 0, 0, 0, 9362.0, 30146.0, 35388.0, 9362.0, 7.874380588531494, -0.1500186026096344, 0.04707074537873268, -0.055866826325654984, 0.9990508556365967, 0.04016289487481117, 0.029561128467321396, -0.05761939659714699, 0.07688140869140625, 1.502197265625, 1.55419921875, 0.311279296875, 1.491943359375, 1.57470703125, 10.0, 1.0, 10.0, 1.5182799100875854
24194, 13.66285228729248, 79.87358093261719, -11.680984497070312, 0.0, 0.0, 23.47466278076172, 0.0, 0.0, -1.0997772216796875, 0, 0, 0, 0, 0, 0, 9362.0, 30146.0, 35388.0, 9362.0, 7.874380588531494, 0.03175267577171326, -0.014576241374015808, 0.15219198167324066, 0.999056875705719, 0.0373220257461071, 0.029671907424926758, -0.05761939659714699, 0.07688140869140625, 1.502197265625, 1.585693359375, 0.383544921875, 1.489013671875, 1.5029296875, 10.0, 1.0, 10.0, 1.5182799100875854
