timeTick, roll, pitch, yaw, stateX, stateY, stateZ, stateVX, stateVY, stateVZ, otX0, otY0, otZ0, otRoll0, otPitch0, otYaw0, left wing, pitch motor, yaw motor, right wing, voltage, roll rate, pitch rate, yaw rate, A_x, A_y, A_z, current, i_raw, v_raw, airflow_voltage, airflow_speed, pot_Pitch, voltage_nKF, kFFx, state, State, volt_KF
16444, -2.444186210632324, -4.418383598327637, -0.09273146837949753, 0, 0, 0, 0, 0, 0, 0, 0, 0, 0, 0, 0, 0, 0, 0, 0, 0, 0, 0, 0, 0, 0, 0, 0, 0, 0, 0, 0, 0, 0, 0, 0, 0, 0
16454, -2.44637393951416, -4.41819429397583, -0.09326423704624176, 0.0, 0.0, 21.777896881103516, 0.0, 0.0, 0.8649826049804688, 0, 0, 0, 0, 0, 0, 9362.0, 30146.0, 35388.0, 9362.0, 0, 0, 0, 0, 0, 0, 0, 0, 0, 0, 0, 0, 0, 0, 0, 0, 0, 0
16464, -2.4459304809570312, -4.41962194442749, -0.09227268397808075, 0.0, 0.0, 21.780214309692383, 0.0, 0.0, 0.23174285888671875, 0, 0, 0, 0, 0, 0, 9362.0, 30146.0, 35388.0, 9362.0, 0, -0.11288052797317505, -0.29859328269958496, -0.20611698925495148, -0.08354343473911285, -0.0477038249373436, 0.9982929229736328, 0, 0, 0, 1.351318359375, 0.0153350830078125, 0, 1.434814453125, 10.0, 1.0, 10.0, 1.4543956518173218
16474, -2.447260856628418, -4.420506000518799, -0.09108806401491165, 0.0, 0.0, 21.782299041748047, 0.0, 0.0, 0.20847320556640625, 0, 0, 0, 0, 0, 0, 9362.0, 30146.0, 35388.0, 9362.0, 0, 0.22740939259529114, 0.20934084057807922, 0.20067331194877625, -0.08388657122850418, -0.04380200058221817, 0.9975281357765198, 0, 0, 0, 1.44140625, 0.0914459228515625, 1.493408203125, 1.34326171875, 10.0, 1.0, 10.0, 1.4543116092681885
16484, -2.449794292449951, -4.4220051765441895, -0.09011811017990112, 0.0, 0.0, 21.783628463745117, 0.0, 0.0, 0.13294219970703125, 0, 0, 0, 0, 0, 0, 9362.0, 30146.0, 35388.0, 9362.0, 0, -0.03534950688481331, -0.028706500306725502, 0.2316053807735443, -0.08580552786588669, -0.04572514817118645, 0.9945966601371765, 0, 0, 0, 1.42236328125, 0.0649566650390625, 1.493408203125, 1.38720703125, 10.0, 1.0, 10.0, 1.4540327787399292
16494, -2.449190616607666, -4.424053192138672, -0.08914494514465332, 0.0, 0.0, 21.784826278686523, 0.0, 0.0, 0.119781494140625, 0, 0, 0, 0, 0, 0, 9362.0, 30146.0, 35388.0, 9362.0, 0, -0.21120613813400269, -0.22044682502746582, 0.00242778193205595, -0.08697106689214706, -0.04786691814661026, 0.993698239326477, 0, 0, 0, 1.387939453125, 0.0297393798828125, 1.49267578125, 1.447265625, 10.0, 1.0, 10.0, 1.4539240598678589
16504, -2.4513752460479736, -4.428249359130859, -0.08698635548353195, 0.0, 0.0, 21.7902774810791, 0.0, 0.0, 0.5451202392578125, 0, 0, 0, 0, 0, 0, 9362.0, 30146.0, 35388.0, 9362.0, 0, 0.007073782850056887, 0.35181576013565063, 0.370744526386261, -0.08479426056146622, -0.04509957879781723, 0.9935996532440186, 0, 0, 0, 1.409912109375, 0.0501251220703125, 1.49267578125, 1.41796875, 10.0, 1.0, 10.0, 1.4537264108657837
16514, -2.4527194499969482, -4.427661895751953, -0.08813019096851349, 0.0, 0.0, 21.795185089111328, 0.0, 0.0, 0.49076080322265625, 0, 0, 0, 0, 0, 0, 9362.0, 30146.0, 35388.0, 9362.0, 0, 0.040365684777498245, 0.0032204657327383757, 0.11984214931726456, -0.08251660317182541, -0.04458305612206459, 0.9930947422981262, 0, 0, 0, 1.42529296875, 0.0688018798828125, 1.494873046875, 1.39892578125, 10.0, 1.0, 10.0, 1.4535812139511108
16524, -2.4539573192596436, -4.431018829345703, -0.08904878050088882, 0.0, 0.0, 21.795772552490234, 0.0, 0.0, 0.058746337890625, 0, 0, 0, 0, 0, 0, 9362.0, 30146.0, 35388.0, 9362.0, 0, 0.2305223047733307, -0.14848434925079346, -0.19622193276882172, -0.08465404808521271, -0.04692038521170616, 0.9922908544540405, 0, 0, 0, 1.358642578125, 0.0159912109375, 1.494873046875, 1.406982421875, 10.0, 1.0, 10.0, 1.4534364938735962
16534, -2.454383611679077, -4.430423259735107, -0.08980504423379898, 0.0, 0.0, 21.796302795410156, 0.0, 0.0, 0.0530242919921875, 0, 0, 0, 0, 0, 0, 9362.0, 30146.0, 35388.0, 9362.0, 0, -0.22503294050693512, 0.1531011313199997, 0.21623091399669647, -0.08516228944063187, -0.04742622375488281, 0.9958166480064392, 0, 0, 0, 1.430419921875, 0.0756378173828125, 1.494140625, 1.41064453125, 10.0, 1.0, 10.0, 1.4534167051315308
16544, -2.4546427726745605, -4.431704998016357, -0.08882482349872589, 0.0, 0.0, 21.79787254333496, 0.0, 0.0, 0.15697479248046875, 0, 0, 0, 0, 0, 0, 9362.0, 30146.0, 35388.0, 9362.0, 8.132232666015625, 0.15493227541446686, 0.16289815306663513, -0.08177930861711502, -0.08323127031326294, -0.04694034531712532, 0.9971523880958557, 0, 0, 0, 1.428955078125, 0.073577880859375, 1.494140625, 1.43701171875, 10.0, 1.0, 10.0, 1.4532537460327148
16554, -2.4551451206207275, -4.431766986846924, -0.09056117385625839, 0.0, 0.0, 21.799285888671875, 0.0, 0.0, 0.14133453369140625, 0, 0, 0, 0, 0, 0, 9362.0, 30146.0, 35388.0, 9362.0, 8.132232666015625, 0.06770303845405579, -0.14796745777130127, 0.10076906532049179, -0.08504270762205124, -0.046885598450899124, 0.9957805275917053, -0.06208757311105728, -0.1650371551513672, 1.482421875, 1.4296875, 0.07464599609375, 1.49267578125, 1.38720703125, 10.0, 1.0, 10.0, 1.4530771970748901
16564, -2.454890012741089, -4.434238433837891, -0.09054768830537796, 0.0, 0.0, 21.80055809020996, 0.0, 0.0, 0.12722015380859375, 0, 0, 0, 0, 0, 0, 9362.0, 30146.0, 35388.0, 9362.0, 8.132232666015625, 0.29760512709617615, -0.19239790737628937, -0.2756059765815735, -0.0855778306722641, -0.04860799014568329, 0.9955620765686035, -0.06208757311105728, -0.1650371551513672, 1.482421875, 1.374755859375, 0.021392822265625, 1.49267578125, 1.40771484375, 10.0, 1.0, 10.0, 1.4528424739837646
16574, -2.4560446739196777, -4.435574054718018, -0.09014620631933212, 0.0, 0.0, 21.80170249938965, 0.0, 0.0, 0.11444091796875, 0, 0, 0, 0, 0, 0, 9362.0, 30146.0, 35388.0, 9362.0, 8.132232666015625, 0.09260247647762299, 0.2187391072511673, 0.2291792333126068, -0.08474639058113098, -0.04651349037885666, 0.9956652522087097, -0.06208757311105728, -0.1650371551513672, 1.482421875, 1.41064453125, 0.0509490966796875, 1.49560546875, 1.424560546875, 10.0, 1.0, 10.0, 1.4528199434280396
16584, -2.4566128253936768, -4.439822673797607, -0.08909496665000916, 0.0, 0.0, 21.808748245239258, 0.0, 0.0, 0.7045745849609375, 0, 0, 0, 0, 0, 0, 9362.0, 30146.0, 35388.0, 9362.0, 8.132232666015625, 0.12445331364870071, -0.03937874734401703, 0.2798663079738617, -0.08445314317941666, -0.04702048376202583, 0.9964496493339539, -0.06208757311105728, -0.1650371551513672, 1.482421875, 1.411376953125, 0.05181884765625, 1.49560546875, 1.3916015625, 10.0, 1.0, 10.0, 1.4528584480285645
16594, -2.456550359725952, -4.442881107330322, -0.0896233320236206, 0.0, 0.0, 21.815088272094727, 0.0, 0.0, 0.634002685546875, 0, 0, 0, 0, 0, 0, 9362.0, 30146.0, 35388.0, 9362.0, 8.132232666015625, -0.02250971645116806, 0.23809684813022614, -0.06746207177639008, -0.08551833033561707, -0.04600925371050835, 0.9946439862251282, -0.06208757311105728, -0.1650371551513672, 1.482421875, 1.400390625, 0.04034423828125, 1.491943359375, 1.392333984375, 10.0, 1.0, 10.0, 1.4526151418685913
16604, -2.459202766418457, -4.444872856140137, -0.08925335109233856, 0.0, 0.0, 21.82407569885254, 0.0, 0.0, 0.89874267578125, 0, 0, 0, 0, 0, 0, 9362.0, 30146.0, 35388.0, 9362.0, 8.132232666015625, 0.039804551750421524, 0.18518246710300446, 0.15809188783168793, -0.08247097581624985, -0.04619443789124489, 0.9947850704193115, -0.06208757311105728, -0.1650371551513672, 1.482421875, 1.387939453125, 0.0297393798828125, 1.491943359375, 1.3681640625, 10.0, 1.0, 10.0, 1.452306866645813
16614, -2.4597647190093994, -4.447293281555176, -0.0892079621553421, 0.0, 0.0, 21.832164764404297, 0.0, 0.0, 0.8089065551757812, 0, 0, 0, 0, 0, 0, 9362.0, 30146.0, 35388.0, 9362.0, 8.132232666015625, 0.06605995446443558, 0.3172024190425873, -0.06976518779993057, -0.08392049372196198, -0.04626363143324852, 0.9963253140449524, -0.06208757311105728, -0.1650371551513672, 1.482421875, 1.426025390625, 0.069732666015625, 1.48974609375, 1.40625, 10.0, 1.0, 10.0, 1.4522297382354736
16624, -2.4625918865203857, -4.450024604797363, -0.08939121663570404, 0.0, 0.0, 21.839445114135742, 0.0, 0.0, 0.7280349731445312, 0, 0, 0, 0, 0, 0, 9362.0, 30146.0, 35388.0, 9362.0, 8.132232666015625, -0.04770882800221443, 0.25496459007263184, -0.07200533896684647, -0.08466055989265442, -0.04772735759615898, 0.9990261793136597, -0.06208757311105728, -0.1650371551513672, 1.482421875, 1.377685546875, 0.023040771484375, 1.48974609375, 1.34326171875, 10.0, 1.0, 10.0, 1.4521458148956299
16634, -2.4639248847961426, -4.4499125480651855, -0.08919480443000793, 0.0, 0.0, 21.845996856689453, 0.0, 0.0, 0.6551742553710938, 0, 0, 0, 0, 0, 0, 9362.0, 30146.0, 35388.0, 9362.0, 8.132232666015625, -0.22636014223098755, 0.29443785548210144, 0.3039809763431549, -0.0834580585360527, -0.04848204180598259, 0.9976761341094971, -0.06208757311105728, -0.1650371551513672, 1.482421875, 1.427490234375, 0.0716400146484375, 1.4912109375, 1.404052734375, 10.0, 1.0, 10.0, 1.4520785808563232
16644, -2.4644737243652344, -4.451518535614014, -0.08968836814165115, 0.0, 0.0, 21.849706649780273, 0.0, 0.0, 0.37097930908203125, 0, 0, 0, 0, 0, 0, 9362.0, 30146.0, 35388.0, 9362.0, 8.132232666015625, 0.16069567203521729, -0.0013883833307772875, 0.016004497185349464, -0.08350291103124619, -0.047217924147844315, 0.9970067143440247, -0.06208757311105728, -0.1650371551513672, 1.482421875, 1.411376953125, 0.05181884765625, 1.4912109375, 1.40625, 10.0, 1.0, 10.0, 1.4518941640853882
16654, -2.4655163288116455, -4.451919078826904, -0.09071293473243713, 0.0, 0.0, 21.853044509887695, 0.0, 0.0, 0.3337860107421875, 0, 0, 0, 0, 0, 0, 9362.0, 30146.0, 35388.0, 9362.0, 8.132232666015625, 0.05751865729689598, 0.027175424620509148, -0.0826839730143547, -0.0839185044169426, -0.044758204370737076, 0.9949545860290527, -0.05478537827730179, -0.13815879821777344, 1.484619140625, 1.34033203125, 0.0166168212890625, 1.490478515625, 1.364501953125, 10.0, 1.0, 10.0, 1.4516962766647339
16664, -2.466240167617798, -4.452354431152344, -0.09065835922956467, 0.0, 0.0, 21.847299575805664, 0.0, 0.0, -0.574493408203125, 0, 0, 0, 0, 0, 0, 9362.0, 30146.0, 35388.0, 9362.0, 8.132232666015625, -0.23957271873950958, -0.07448096573352814, -0.07496174424886703, -0.08476673066616058, -0.04515215381979942, 0.9937808513641357, -0.05478537827730179, -0.13815879821777344, 1.484619140625, 1.409912109375, 0.0501251220703125, 1.490478515625, 1.336669921875, 10.0, 1.0, 10.0, 1.4515835046768188
16674, -2.466538429260254, -4.453754425048828, -0.09236005693674088, 0.0, 0.0, 21.842130661010742, 0.0, 0.0, -0.5168914794921875, 0, 0, 0, 0, 0, 0, 9362.0, 30146.0, 35388.0, 9362.0, 8.132232666015625, 0.012074698694050312, 0.04681190103292465, 0.0453178808093071, -0.08166816830635071, -0.04572795331478119, 0.9950547814369202, -0.05478537827730179, -0.13815879821777344, 1.484619140625, 1.354248046875, 0.0154266357421875, 1.491943359375, 1.399658203125, 10.0, 1.0, 10.0, 1.4513115882873535
16684, -2.4667789936065674, -4.456861972808838, -0.09113381057977676, 0.0, 0.0, 21.840211868286133, 0.0, 0.0, -0.1918792724609375, 0, 0, 0, 0, 0, 0, 9362.0, 30146.0, 35388.0, 9362.0, 8.132232666015625, -0.09876581281423569, -0.040746353566646576, 0.06862867623567581, -0.08313002437353134, -0.046496883034706116, 0.9930203557014465, -0.05478537827730179, -0.13815879821777344, 1.484619140625, 1.405517578125, 0.0454254150390625, 1.491943359375, 1.385009765625, 10.0, 1.0, 10.0, 1.451150894165039
16694, -2.4682700634002686, -4.45667028427124, -0.0907621905207634, 0.0, 0.0, 21.838485717773438, 0.0, 0.0, -0.17261505126953125, 0, 0, 0, 0, 0, 0, 9362.0, 30146.0, 35388.0, 9362.0, 8.132232666015625, 0.0548357293009758, 0.27727964520454407, 0.08559446036815643, -0.08383499085903168, -0.046136051416397095, 0.9962121844291687, -0.05478537827730179, -0.13815879821777344, 1.484619140625, 1.417236328125, 0.058624267578125, 1.493408203125, 1.446533203125, 10.0, 1.0, 10.0, 1.4510680437088013
16704, -2.469277858734131, -4.4552998542785645, -0.08950003236532211, 0.0, 0.0, 21.836931228637695, 0.0, 0.0, -0.15544891357421875, 0, 0, 0, 0, 0, 0, 9362.0, 30146.0, 35388.0, 9362.0, 8.132232666015625, -0.3014485836029053, -0.0186079740524292, 0.3650866448879242, -0.08408298343420029, -0.04666127637028694, 0.9958704113960266, -0.05478537827730179, -0.13815879821777344, 1.484619140625, 1.41796875, 0.05950927734375, 1.493408203125, 1.364501953125, 10.0, 1.0, 10.0, 1.4508869647979736
16714, -2.47029972076416, -4.455782890319824, -0.08797714114189148, 0.0, 0.0, 21.835533142089844, 0.0, 0.0, -0.13980865478515625, 0, 0, 0, 0, 0, 0, 9362.0, 30146.0, 35388.0, 9362.0, 8.132232666015625, 0.07903946191072464, -0.24694819748401642, -0.012584538199007511, -0.0844205841422081, -0.04661787301301956, 0.9976285099983215, -0.05478537827730179, -0.13815879821777344, 1.484619140625, 1.418701171875, 0.0603485107421875, 1.4912109375, 1.4033203125, 10.0, 1.0, 10.0, 1.4506666660308838
16724, -2.471137046813965, -4.45761251449585, -0.08807355165481567, 0.0, 0.0, 21.841928482055664, 0.0, 0.0, 0.6395339965820312, 0, 0, 0, 0, 0, 0, 9362.0, 30146.0, 35388.0, 9362.0, 8.132232666015625, -0.07277484238147736, 0.06474130600690842, 0.09115676581859589, -0.0844033733010292, -0.046986013650894165, 0.9980029463768005, -0.05478537827730179, -0.13815879821777344, 1.484619140625, 1.349853515625, 0.015350341796875, 1.4912109375, 1.365234375, 10.0, 1.0, 10.0, 1.4504259824752808
16734, -2.4717519283294678, -4.459078311920166, -0.08833866566419601, 0.0, 0.0, 21.847684860229492, 0.0, 0.0, 0.5756378173828125, 0, 0, 0, 0, 0, 0, 9362.0, 30146.0, 35388.0, 9362.0, 8.132232666015625, -0.07429879158735275, 0.04193238168954849, 0.14881294965744019, -0.08329261094331741, -0.04575362801551819, 0.9942720532417297, -0.05478537827730179, -0.13815879821777344, 1.484619140625, 1.40771484375, 0.0478363037109375, 1.48828125, 1.436279296875, 10.0, 1.0, 10.0, 1.4502400159835815
16744, -2.4723334312438965, -4.463355541229248, -0.08718887716531754, 0.0, 0.0, 21.857240676879883, 0.0, 0.0, 0.9555816650390625, 0, 0, 0, 0, 0, 0, 9362.0, 30146.0, 35388.0, 9362.0, 8.132232666015625, -0.04723881930112839, 0.12716257572174072, -0.03351260721683502, -0.08245592564344406, -0.04635265842080116, 0.9953012466430664, -0.05478537827730179, -0.13815879821777344, 1.484619140625, 1.447265625, 0.1004791259765625, 1.48828125, 1.36669921875, 10.0, 1.0, 10.0, 1.4500616788864136
16754, -2.4728336334228516, -4.463947772979736, -0.08731021732091904, 0.0, 0.0, 21.865840911865234, 0.0, 0.0, 0.8600234985351562, 0, 0, 0, 0, 0, 0, 9362.0, 30146.0, 35388.0, 9362.0, 8.132232666015625, 0.00808996893465519, 0.6049103736877441, 0.24745024740695953, -0.08309324085712433, -0.04736030101776123, 0.9944268465042114, -0.06053873151540756, -0.0037593841552734375, 1.49560546875, 1.37255859375, 0.02044677734375, 1.494140625, 1.382080078125, 10.0, 1.0, 10.0, 1.449820637702942
16764, -2.474252700805664, -4.463930130004883, -0.08652237802743912, 0.0, 0.0, 21.876314163208008, 0.0, 0.0, 1.0473251342773438, 0, 0, 0, 0, 0, 0, 9362.0, 30146.0, 35388.0, 9362.0, 8.132232666015625, -0.04558926448225975, -0.14892393350601196, -0.3104653060436249, -0.0821218192577362, -0.04651506990194321, 0.9941408038139343, -0.06053873151540756, -0.0037593841552734375, 1.49560546875, 1.36376953125, 0.017181396484375, 1.494140625, 1.38427734375, 10.0, 1.0, 10.0, 1.4496389627456665
16774, -2.4766287803649902, -4.464644432067871, -0.08639294654130936, 0.0, 0.0, 21.885740280151367, 0.0, 0.0, 0.9426116943359375, 0, 0, 0, 0, 0, 0, 9362.0, 30146.0, 35388.0, 9362.0, 8.132232666015625, -0.17970065772533417, -0.24512192606925964, 0.294951856136322, -0.08438804745674133, -0.047414276748895645, 0.9957939386367798, -0.06053873151540756, -0.0037593841552734375, 1.49560546875, 1.39453125, 0.035003662109375, 1.491943359375, 1.41357421875, 10.0, 1.0, 10.0, 1.4495446681976318
16784, -2.4784488677978516, -4.466209411621094, -0.08737648278474808, 0.0, 0.0, 21.888208389282227, 0.0, 0.0, 0.2468109130859375, 0, 0, 0, 0, 0, 0, 9362.0, 30146.0, 35388.0, 9362.0, 8.132232666015625, -0.32017961144447327, -0.022310668602585793, -0.17760612070560455, -0.08603015542030334, -0.046263329684734344, 0.9947816133499146, -0.06053873151540756, -0.0037593841552734375, 1.49560546875, 1.398193359375, 0.03826904296875, 1.491943359375, 1.4033203125, 10.0, 1.0, 10.0, 1.4494553804397583
16794, -2.4788920879364014, -4.466649532318115, -0.08710487186908722, 0.0, 0.0, 21.890430450439453, 0.0, 0.0, 0.22220611572265625, 0, 0, 0, 0, 0, 0, 9362.0, 30146.0, 35388.0, 9362.0, 8.132232666015625, -0.07232456654310226, 0.01981273666024208, 0.016037296503782272, -0.08060891926288605, -0.047085218131542206, 0.9955908060073853, -0.06053873151540756, -0.0037593841552734375, 1.49560546875, 1.4091796875, 0.04937744140625, 1.494873046875, 1.426025390625, 10.0, 1.0, 10.0, 1.4494155645370483
16804, -2.4799325466156006, -4.4702887535095215, -0.08792469650506973, 0.0, 0.0, 21.88860321044922, 0.0, 0.0, -0.1827239990234375, 0, 0, 0, 0, 0, 0, 9362.0, 30146.0, 35388.0, 9362.0, 8.132232666015625, 0.2546224296092987, 0.22021335363388062, -0.07126948982477188, -0.08260644972324371, -0.04539818316698074, 0.9965546727180481, -0.06053873151540756, -0.0037593841552734375, 1.49560546875, 1.4091796875, 0.04937744140625, 1.494873046875, 1.39306640625, 10.0, 1.0, 10.0, 1.4493149518966675
16814, -2.4813787937164307, -4.470570087432861, -0.08783876895904541, 0.0, 0.0, 21.886959075927734, 0.0, 0.0, -0.1644134521484375, 0, 0, 0, 0, 0, 0, 9362.0, 30146.0, 35388.0, 9362.0, 8.132232666015625, -0.2228214591741562, -0.0007451981655322015, 0.04386945068836212, -0.08317886292934418, -0.047448672354221344, 0.9955921769142151, -0.06053873151540756, -0.0037593841552734375, 1.49560546875, 1.33154296875, 0.0198516845703125, 1.4912109375, 1.380615234375, 10.0, 1.0, 10.0, 1.4490412473678589
16824, -2.4830806255340576, -4.469208717346191, -0.09038296341896057, 0.0, 0.0, 21.883838653564453, 0.0, 0.0, -0.312042236328125, 0, 0, 0, 0, 0, 0, 9362.0, 30146.0, 35388.0, 9362.0, 8.132232666015625, 0.01688496582210064, -0.44993317127227783, -0.27764397859573364, -0.08352819830179214, -0.045186154544353485, 0.9947059750556946, -0.06053873151540756, -0.0037593841552734375, 1.49560546875, 1.424560546875, 0.0678253173828125, 1.4912109375, 1.42822265625, 10.0, 1.0, 10.0, 1.4488059282302856
16854, -2.481126070022583, -4.471073150634766, -0.09520945698022842, 0.0, 0.0, 21.88102912902832, 0.0, 0.0, -0.28095245361328125, 0, 0, 0, 0, 0, 0, 9362.0, 30146.0, 35388.0, 9362.0, 8.132232666015625, -0.2515951693058014, -0.22387096285820007, -0.10051162540912628, -0.08350245654582977, -0.04570528492331505, 0.9976823329925537, -0.06053873151540756, -0.0037593841552734375, 1.49560546875, 1.377685546875, 0.023040771484375, 1.49560546875, 1.36962890625, 10.0, 1.0, 10.0, 1.4486534595489502
16864, -2.4822587966918945, -4.471362113952637, -0.09615562111139297, 0.0, 0.0, 21.88111114501953, 0.0, 0.0, -0.342559814453125, 0, 0, 0, 0, 0, 0, 9362.0, 30146.0, 35388.0, 9362.0, 8.132232666015625, -0.2515951693058014, -0.22387096285820007, -0.10051162540912628, -0.08350245654582977, -0.04570528492331505, 0.9976823329925537, -0.06053873151540756, -0.0037593841552734375, 1.49560546875, 1.377685546875, 0.023040771484375, 1.49560546875, 1.4033203125, 10.0, 1.0, 10.0, 1.447855830192566
16874, -2.4837403297424316, -4.474496841430664, -0.0943496823310852, 0.0, 0.0, 21.88111114501953, 0.0, 0.0, -0.342559814453125, 0, 0, 0, 0, 0, 0, 9362.0, 30146.0, 35388.0, 9362.0, 8.132232666015625, -0.2515951693058014, -0.22387096285820007, -0.10051162540912628, -0.08169354498386383, -0.04621923714876175, 0.9924577474594116, -0.06053873151540756, -0.0037593841552734375, 1.49560546875, 1.3740234375, 0.0210723876953125, 1.49560546875, 1.38427734375, 10.0, 1.0, 10.0, 1.447855830192566
16914, -2.4851648807525635, -4.483878135681152, -0.0928080752491951, 0.0, 0.0, 21.830087661743164, 0.0, 0.0, -1.2338638305664062, 0, 0, 0, 0, 0, 0, 9362.0, 30146.0, 35388.0, 9362.0, 8.132232666015625, -0.2515951693058014, -0.22387096285820007, -0.10051162540912628, -0.08429955691099167, -0.04673036187887192, 0.9973535537719727, -0.06053873151540756, -0.0037593841552734375, 1.49560546875, 1.368896484375, 0.01885986328125, 1.494873046875, 1.402587890625, 10.0, 1.0, 10.0, 1.4472453594207764
16964, -2.4883742332458496, -4.485159397125244, -0.08928444236516953, 0.0, 0.0, 21.805463790893555, 0.0, 0.0, -0.35266876220703125, 0, 0, 0, 0, 0, 0, 9362.0, 30146.0, 35388.0, 9362.0, 8.132232666015625, -0.2515951693058014, -0.22387096285820007, -0.10051162540912628, -0.08131082355976105, -0.04562612250447273, 0.9946203231811523, -0.06053873151540756, -0.0037593841552734375, 1.49560546875, 1.355712890625, 0.0155029296875, 1.49560546875, 1.40625, 10.0, 1.0, 10.0, 1.4459455013275146
16974, -2.4898502826690674, -4.48349666595459, -0.09006596356630325, 0.0, 0.0, 21.78959083557129, 0.0, 0.0, -0.6015777587890625, 0, 0, 0, 0, 0, 0, 9362.0, 30146.0, 35388.0, 9362.0, 8.132232666015625, -0.2515951693058014, -0.22387096285820007, -0.10051162540912628, -0.0830719918012619, -0.04544094577431679, 0.9938166737556458, -0.06053873151540756, -0.0037593841552734375, 1.49560546875, 1.355712890625, 0.0155029296875, 1.49560546875, 1.367431640625, 10.0, 1.0, 10.0, 1.4456828832626343
16984, -2.49042010307312, -4.484111785888672, -0.09087148308753967, 0.0, 0.0, 21.792926788330078, 0.0, 0.0, 0.33359527587890625, 0, 0, 0, 0, 0, 0, 9362.0, 30146.0, 35388.0, 9362.0, 8.132232666015625, -0.2515951693058014, -0.22387096285820007, -0.10051162540912628, -0.0830719918012619, -0.04544094577431679, 0.9938166737556458, -0.06053873151540756, -0.0037593841552734375, 1.49560546875, 1.355712890625, 0.0155029296875, 1.49560546875, 1.392333984375, 10.0, 1.0, 10.0, 1.4454445838928223
16994, -2.491370677947998, -4.485790252685547, -0.0914309024810791, 0.0, 0.0, 21.792926788330078, 0.0, 0.0, 0.33359527587890625, 0, 0, 0, 0, 0, 0, 9362.0, 30146.0, 35388.0, 9362.0, 8.132232666015625, -0.2515951693058014, -0.22387096285820007, -0.10051162540912628, -0.08216331899166107, -0.04903006553649902, 0.9961075186729431, -0.06053873151540756, -0.0037593841552734375, 1.49560546875, 1.359375, 0.0160980224609375, 1.49560546875, 1.383544921875, 10.0, 1.0, 10.0, 1.4453707933425903
17004, -2.4926764965057373, -4.4884514808654785, -0.08964229375123978, 0.0, 0.0, 21.792926788330078, 0.0, 0.0, 0.33359527587890625, 0, 0, 0, 0, 0, 0, 9362.0, 30146.0, 35388.0, 9362.0, 8.132232666015625, -0.2515951693058014, -0.22387096285820007, -0.10051162540912628, -0.08354452252388, -0.04766726493835449, 0.9955093264579773, -0.06053873151540756, -0.0037593841552734375, 1.49560546875, 1.38134765625, 0.025177001953125, 1.49560546875, 1.39013671875, 10.0, 1.0, 10.0, 1.4453707933425903
17014, -2.4918737411499023, -4.488304615020752, -0.09088491648435593, 0.0, 0.0, 21.792926788330078, 0.0, 0.0, 0.33359527587890625, 0, 0, 0, 0, 0, 0, 9362.0, 30146.0, 35388.0, 9362.0, 8.132232666015625, -0.2515951693058014, -0.22387096285820007, -0.10051162540912628, -0.08519399911165237, -0.04481402784585953, 0.994502604007721, -0.06053873151540756, -0.0037593841552734375, 1.49560546875, 1.320556640625, 0.02685546875, 1.49560546875, 1.37109375, 10.0, 1.0, 10.0, 1.4450327157974243
17024, -2.492753505706787, -4.4906463623046875, -0.09092286974191666, 0.0, 0.0, 21.79365348815918, 0.0, 0.0, -0.22144317626953125, 0, 0, 0, 0, 0, 0, 9362.0, 30146.0, 35388.0, 9362.0, 8.132232666015625, -0.2515951693058014, -0.22387096285820007, -0.10051162540912628, -0.08519399911165237, -0.04481402784585953, 0.994502604007721, -0.06053873151540756, -0.0037593841552734375, 1.49560546875, 1.320556640625, 0.02685546875, 1.49560546875, 1.383544921875, 10.0, 1.0, 10.0, 1.4447989463806152
17034, -2.492408514022827, -4.492598056793213, -0.09103282541036606, 0.0, 0.0, 21.79365348815918, 0.0, 0.0, -0.22144317626953125, 0, 0, 0, 0, 0, 0, 9362.0, 30146.0, 35388.0, 9362.0, 8.132232666015625, -0.2515951693058014, -0.22387096285820007, -0.10051162540912628, -0.08214451372623444, -0.048906899988651276, 0.9938681721687317, -0.06053873151540756, -0.0037593841552734375, 1.49560546875, 1.39892578125, 0.0390167236328125, 1.49560546875, 1.42236328125, 10.0, 1.0, 10.0, 1.4447989463806152
17044, -2.4937939643859863, -4.496255874633789, -0.09320434182882309, 0.0, 0.0, 21.783851623535156, 0.0, 0.0, -0.7808685302734375, 0, 0, 0, 0, 0, 0, 9362.0, 30146.0, 35388.0, 9362.0, 8.132232666015625, -0.2515951693058014, -0.22387096285820007, -0.10051162540912628, -0.08214451372623444, -0.048906899988651276, 0.9938681721687317, -0.06053873151540756, -0.0037593841552734375, 1.49560546875, 1.39892578125, 0.0390167236328125, 1.49560546875, 1.376220703125, 10.0, 1.0, 10.0, 1.4447989463806152
17054, -2.4950904846191406, -4.4982404708862305, -0.09541946649551392, 0.0, 0.0, 21.783851623535156, 0.0, 0.0, -0.7808685302734375, 0, 0, 0, 0, 0, 0, 9362.0, 30146.0, 35388.0, 9362.0, 8.132232666015625, -0.2515951693058014, -0.22387096285820007, -0.10051162540912628, -0.08252400159835815, -0.049415506422519684, 0.9961585998535156, -0.06053873151540756, -0.0037593841552734375, 1.49560546875, 1.36669921875, 0.01806640625, 1.491943359375, 1.421630859375, 10.0, 1.0, 10.0, 1.4447989463806152
17074, -2.4967358112335205, -4.503433704376221, -0.0952649787068367, 0.0, 0.0, 21.783851623535156, 0.0, 0.0, -0.7808685302734375, 0, 0, 0, 0, 0, 0, 9362.0, 30146.0, 35388.0, 9362.0, 8.132232666015625, -0.2515951693058014, -0.22387096285820007, -0.10051162540912628, -0.08457274734973907, -0.04696839302778244, 0.9955666065216064, -0.06053873151540756, -0.0037593841552734375, 1.49560546875, 1.364501953125, 0.0173492431640625, 1.490478515625, 1.35205078125, 10.0, 1.0, 10.0, 1.4440250396728516
17094, -2.497619152069092, -4.506965160369873, -0.0985131785273552, 0.0, 0.0, 21.761112213134766, 0.0, 0.0, -0.22430419921875, 0, 0, 0, 0, 0, 0, 9362.0, 30146.0, 35388.0, 9362.0, 8.132232666015625, -0.2515951693058014, -0.22387096285820007, -0.10051162540912628, -0.08020516484975815, -0.04585150629281998, 0.9960756301879883, -0.06053873151540756, -0.0037593841552734375, 1.49560546875, 1.33447265625, 0.0186309814453125, 1.494873046875, 1.4033203125, 10.0, 1.0, 10.0, 1.443566918373108
17104, -2.4984660148620605, -4.507856845855713, -0.09861530363559723, 0.0, 0.0, 21.761112213134766, 0.0, 0.0, -0.22430419921875, 0, 0, 0, 0, 0, 0, 9362.0, 30146.0, 35388.0, 9362.0, 8.132232666015625, -0.2515951693058014, -0.22387096285820007, -0.10051162540912628, -0.08242321759462357, -0.045193079859018326, 0.9964998364448547, -0.06053873151540756, -0.0037593841552734375, 1.49560546875, 1.3359375, 0.01806640625, 1.494873046875, 1.36083984375, 10.0, 1.0, 10.0, 1.443566918373108
17134, -2.5007219314575195, -4.5080156326293945, -0.0972425639629364, 0.0, 0.0, 21.74893569946289, 0.0, 0.0, -0.2105712890625, 0, 0, 0, 0, 0, 0, 9362.0, 30146.0, 35388.0, 9362.0, 8.132232666015625, -0.2515951693058014, -0.22387096285820007, -0.10051162540912628, -0.08242321759462357, -0.045193079859018326, 0.9964998364448547, -0.06053873151540756, -0.0037593841552734375, 1.49560546875, 1.4208984375, 0.063079833984375, 1.49560546875, 1.386474609375, 10.0, 1.0, 10.0, 1.4426383972167969
17144, -2.502107858657837, -4.506727695465088, -0.09590913355350494, 0.0, 0.0, 21.752443313598633, 0.0, 0.0, 0.5403518676757812, 0, 0, 0, 0, 0, 0, 9362.0, 30146.0, 35388.0, 9362.0, 8.132232666015625, -0.2515951693058014, -0.22387096285820007, -0.10051162540912628, -0.08242321759462357, -0.045193079859018326, 0.9964998364448547, -0.06053873151540756, -0.0037593841552734375, 1.49560546875, 1.4208984375, 0.063079833984375, 1.49560546875, 1.417236328125, 10.0, 1.0, 10.0, 1.4426383972167969
17154, -2.5034496784210205, -4.508984565734863, -0.09463553130626678, 0.0, 0.0, 21.752443313598633, 0.0, 0.0, 0.5403518676757812, 0, 0, 0, 0, 0, 0, 9362.0, 30146.0, 35388.0, 9362.0, 8.132232666015625, -0.2515951693058014, -0.22387096285820007, -0.10051162540912628, -0.08242321759462357, -0.045193079859018326, 0.9964998364448547, -0.06053873151540756, -0.0037593841552734375, 1.49560546875, 1.38720703125, 0.0291900634765625, 1.487548828125, 1.380615234375, 10.0, 1.0, 10.0, 1.4426383972167969
17164, -2.5044190883636475, -4.512942790985107, -0.09231153875589371, 0.0, 0.0, 21.762775421142578, 0.0, 0.0, 0.547027587890625, 0, 0, 0, 0, 0, 0, 9362.0, 30146.0, 35388.0, 9362.0, 8.132232666015625, -0.2515951693058014, -0.22387096285820007, -0.10051162540912628, -0.08242321759462357, -0.045193079859018326, 0.9964998364448547, -0.06053873151540756, -0.0037593841552734375, 1.49560546875, 1.38720703125, 0.0291900634765625, 1.487548828125, 1.36376953125, 10.0, 1.0, 10.0, 1.4423799514770508
17174, -2.5045039653778076, -4.5128583908081055, -0.0934084877371788, 0.0, 0.0, 21.767698287963867, 0.0, 0.0, 0.49228668212890625, 0, 0, 0, 0, 0, 0, 9362.0, 30146.0, 35388.0, 9362.0, 8.132232666015625, -0.2515951693058014, -0.22387096285820007, -0.10051162540912628, -0.08242321759462357, -0.045193079859018326, 0.9964998364448547, -0.06053873151540756, -0.0037593841552734375, 1.49560546875, 1.38720703125, 0.0291900634765625, 1.487548828125, 1.40185546875, 10.0, 1.0, 10.0, 1.4422413110733032
17184, -2.5047519207000732, -4.513138771057129, -0.0916723757982254, 0.0, 0.0, 21.77376937866211, 0.0, 0.0, 0.6071090698242188, 0, 0, 0, 0, 0, 0, 9362.0, 30146.0, 35388.0, 9362.0, 8.132232666015625, -0.2515951693058014, -0.22387096285820007, -0.10051162540912628, -0.08242321759462357, -0.045193079859018326, 0.9964998364448547, -0.06053873151540756, -0.0037593841552734375, 1.49560546875, 1.38720703125, 0.0291900634765625, 1.487548828125, 1.412841796875, 10.0, 1.0, 10.0, 1.4420260190963745
17194, -2.5038857460021973, -4.51408576965332, -0.09113940596580505, 0.0, 0.0, 21.779233932495117, 0.0, 0.0, 0.5464553833007812, 0, 0, 0, 0, 0, 0, 9362.0, 30146.0, 35388.0, 9362.0, 8.132232666015625, -0.2515951693058014, -0.22387096285820007, -0.10051162540912628, -0.08242321759462357, -0.045193079859018326, 0.9964998364448547, -0.06053873151540756, -0.0037593841552734375, 1.49560546875, 1.322021484375, 0.0257415771484375, 1.487548828125, 1.368896484375, 10.0, 1.0, 10.0, 1.4417740106582642
17214, -2.503046751022339, -4.517003536224365, -0.09035270661115646, 0.0, 0.0, 21.783058166503906, 0.0, 0.0, 0.38242340087890625, 0, 0, 0, 0, 0, 0, 9362.0, 30146.0, 35388.0, 9362.0, 8.132232666015625, -0.2515951693058014, -0.22387096285820007, -0.10051162540912628, -0.08242855966091156, -0.04557874798774719, 0.9966094493865967, -0.06053873151540756, -0.0037593841552734375, 1.49560546875, 1.360107421875, 0.0162506103515625, 1.48974609375, 1.3857421875, 10.0, 1.0, 10.0, 1.4416022300720215
17244, -2.5038187503814697, -4.5250749588012695, -0.08128000795841217, 0.0, 0.0, 21.790447235107422, 0.0, 0.0, 0.11806488037109375, 0, 0, 0, 0, 0, 0, 9362.0, 30146.0, 35388.0, 9362.0, 8.132232666015625, -0.2515951693058014, -0.22387096285820007, -0.10051162540912628, -0.08351998031139374, -0.046754140406847, 0.996435284614563, -0.06053873151540756, -0.0037593841552734375, 1.49560546875, 1.36669921875, 0.01806640625, 1.490478515625, 1.43115234375, 10.0, 1.0, 10.0, 1.4411721229553223
17254, -2.505049705505371, -4.527541160583496, -0.07992194592952728, 0.0, 0.0, 21.790447235107422, 0.0, 0.0, 0.11806488037109375, 0, 0, 0, 0, 0, 0, 9362.0, 30146.0, 35388.0, 9362.0, 8.132232666015625, -0.2515951693058014, -0.22387096285820007, -0.10051162540912628, -0.08351998031139374, -0.046754140406847, 0.996435284614563, -0.07350756227970123, -0.1739978790283203, 1.481689453125, 1.36669921875, 0.01806640625, 1.4912109375, 1.3798828125, 10.0, 1.0, 10.0, 1.4411721229553223
17274, -2.5069332122802734, -4.530276298522949, -0.0807565376162529, 0.0, 0.0, 21.79436492919922, 0.0, 0.0, 0.13523101806640625, 0, 0, 0, 0, 0, 0, 9362.0, 30146.0, 35388.0, 9362.0, 8.132232666015625, -0.2515951693058014, -0.22387096285820007, -0.10051162540912628, -0.08576616644859314, -0.04910796135663986, 0.996585488319397, -0.07350756227970123, -0.1739978790283203, 1.481689453125, 1.37841796875, 0.023406982421875, 1.494140625, 1.440673828125, 10.0, 1.0, 10.0, 1.4406647682189941
17304, -2.5098066329956055, -4.534605503082275, -0.08231843262910843, 0.0, 0.0, 21.783462524414062, 0.0, 0.0, -0.5941390991210938, 0, 0, 0, 0, 0, 0, 9362.0, 30146.0, 35388.0, 9362.0, 8.132232666015625, -0.2515951693058014, -0.22387096285820007, -0.10051162540912628, -0.08347252011299133, -0.046450335532426834, 0.9940136671066284, -0.07350756227970123, -0.1739978790283203, 1.481689453125, 1.37841796875, 0.023406982421875, 1.494140625, 1.370361328125, 10.0, 1.0, 10.0, 1.4403374195098877
17334, -2.5112504959106445, -4.537700176239014, -0.08245807886123657, 0.0, 0.0, 21.770008087158203, 0.0, 0.0, -0.38394927978515625, 0, 0, 0, 0, 0, 0, 9362.0, 30146.0, 35388.0, 9362.0, 8.132232666015625, -0.2515951693058014, -0.22387096285820007, -0.10051162540912628, -0.08332954347133636, -0.0451379120349884, 0.9943134784698486, -0.07350756227970123, -0.1739978790283203, 1.481689453125, 1.39453125, 0.035003662109375, 1.49267578125, 1.443603515625, 10.0, 1.0, 10.0, 1.439978003501892
17344, -2.510298728942871, -4.536568641662598, -0.08101413398981094, 0.0, 0.0, 21.770008087158203, 0.0, 0.0, -0.38394927978515625, 0, 0, 0, 0, 0, 0, 9362.0, 30146.0, 35388.0, 9362.0, 8.132232666015625, -0.2515951693058014, -0.22387096285820007, -0.10051162540912628, -0.08332954347133636, -0.0451379120349884, 0.9943134784698486, -0.07350756227970123, -0.1739978790283203, 1.481689453125, 1.38427734375, 0.027099609375, 1.49267578125, 1.411376953125, 10.0, 1.0, 10.0, 1.439978003501892
17354, -2.511824607849121, -4.535855770111084, -0.08085720986127853, 0.0, 0.0, 21.770008087158203, 0.0, 0.0, -0.38394927978515625, 0, 0, 0, 0, 0, 0, 9362.0, 30146.0, 35388.0, 9362.0, 8.132232666015625, -0.2515951693058014, -0.22387096285820007, -0.10051162540912628, -0.08332954347133636, -0.0451379120349884, 0.9943134784698486, -0.040328070521354675, 0.0052013397216796875, 1.496337890625, 1.38427734375, 0.027099609375, 1.49267578125, 1.37255859375, 10.0, 1.0, 10.0, 1.4396167993545532
17364, -2.511683225631714, -4.539790153503418, -0.07827559858560562, 0.0, 0.0, 21.758773803710938, 0.0, 0.0, -0.2590179443359375, 0, 0, 0, 0, 0, 0, 9362.0, 30146.0, 35388.0, 9362.0, 8.132232666015625, -0.2515951693058014, -0.22387096285820007, -0.10051162540912628, -0.08332954347133636, -0.0451379120349884, 0.9943134784698486, -0.040328070521354675, 0.0052013397216796875, 1.496337890625, 1.38427734375, 0.027099609375, 1.49267578125, 1.39013671875, 10.0, 1.0, 10.0, 1.439477801322937
17374, -2.5119025707244873, -4.541863918304443, -0.0769205391407013, 0.0, 0.0, 21.758773803710938, 0.0, 0.0, -0.2590179443359375, 0, 0, 0, 0, 0, 0, 9362.0, 30146.0, 35388.0, 9362.0, 8.132232666015625, -0.2515951693058014, -0.22387096285820007, -0.10051162540912628, -0.08332954347133636, -0.0451379120349884, 0.9943134784698486, -0.040328070521354675, 0.0052013397216796875, 1.496337890625, 1.38427734375, 0.027099609375, 1.49267578125, 1.4091796875, 10.0, 1.0, 10.0, 1.4393649101257324
17394, -2.5122792720794678, -4.543554306030273, -0.07451476901769638, 0.0, 0.0, 21.7548885345459, 0.0, 0.0, -0.1552581787109375, 0, 0, 0, 0, 0, 0, 9362.0, 30146.0, 35388.0, 9362.0, 8.132232666015625, -0.2515951693058014, -0.22387096285820007, -0.10051162540912628, -0.08359021693468094, -0.04630029946565628, 0.9966767430305481, -0.040328070521354675, 0.0052013397216796875, 1.496337890625, 1.365966796875, 0.017791748046875, 1.49267578125, 1.402587890625, 10.0, 1.0, 10.0, 1.4388258457183838
17404, -2.5116865634918213, -4.54849910736084, -0.07270150631666183, 0.0, 0.0, 21.759889602661133, 0.0, 0.0, 0.6397247314453125, 0, 0, 0, 0, 0, 0, 9362.0, 30146.0, 35388.0, 9362.0, 8.132232666015625, -0.2515951693058014, -0.22387096285820007, -0.10051162540912628, -0.08359021693468094, -0.04630029946565628, 0.9966767430305481, -0.040328070521354675, 0.0052013397216796875, 1.496337890625, 1.365966796875, 0.017791748046875, 1.49267578125, 1.405517578125, 10.0, 1.0, 10.0, 1.438745379447937
17444, -2.5104596614837646, -4.550776481628418, -0.07011742889881134, 0.0, 0.0, 21.765647888183594, 0.0, 0.0, 0.5758285522460938, 0, 0, 0, 0, 0, 0, 9362.0, 30146.0, 35388.0, 9362.0, 8.132232666015625, -0.2515951693058014, -0.22387096285820007, -0.10051162540912628, -0.08414778113365173, -0.045259375125169754, 0.9943140149116516, -0.040328070521354675, 0.0052013397216796875, 1.496337890625, 1.412841796875, 0.0534515380859375, 1.493408203125, 1.433349609375, 10.0, 1.0, 10.0, 1.4382942914962769
17454, -2.5097107887268066, -4.552446365356445, -0.06935526430606842, 0.0, 0.0, 21.765647888183594, 0.0, 0.0, 0.5758285522460938, 0, 0, 0, 0, 0, 0, 9362.0, 30146.0, 35388.0, 9362.0, 8.132232666015625, -0.2515951693058014, -0.22387096285820007, -0.10051162540912628, -0.08414778113365173, -0.045259375125169754, 0.9943140149116516, -0.056835927069187164, -0.19191741943359375, 1.480224609375, 1.412841796875, 0.0534515380859375, 1.493408203125, 1.4443359375, 10.0, 1.0, 10.0, 1.4382942914962769
17464, -2.51082444190979, -4.5554890632629395, -0.0658668577671051, 0.0, 0.0, 21.79306983947754, 0.0, 0.0, 0.51422119140625, 0, 0, 0, 0, 0, 0, 9362.0, 30146.0, 35388.0, 9362.0, 8.132232666015625, -0.2515951693058014, -0.22387096285820007, -0.10051162540912628, -0.08414778113365173, -0.045259375125169754, 0.9943140149116516, -0.056835927069187164, -0.19191741943359375, 1.480224609375, 1.412841796875, 0.0534515380859375, 1.493408203125, 1.383544921875, 10.0, 1.0, 10.0, 1.4378658533096313
17484, -2.5123982429504395, -4.557868957519531, -0.06379221379756927, 0.0, 0.0, 21.800222396850586, 0.0, 0.0, 0.252532958984375, 0, 0, 0, 0, 0, 0, 9362.0, 30146.0, 35388.0, 9362.0, 8.132232666015625, -0.2515951693058014, -0.22387096285820007, -0.10051162540912628, -0.08414778113365173, -0.045259375125169754, 0.9943140149116516, -0.056835927069187164, -0.19191741943359375, 1.480224609375, 1.371826171875, 0.02008056640625, 1.493408203125, 1.35791015625, 10.0, 1.0, 10.0, 1.4377301931381226
17504, -2.5129876136779785, -4.558772087097168, -0.0648411363363266, 0.0, 0.0, 21.802494049072266, 0.0, 0.0, 0.22716522216796875, 0, 0, 0, 0, 0, 0, 9362.0, 30146.0, 35388.0, 9362.0, 8.132232666015625, -0.2515951693058014, -0.22387096285820007, -0.10051162540912628, -0.08322664350271225, -0.0455048531293869, 0.9974655508995056, -0.056835927069187164, -0.19191741943359375, 1.480224609375, 1.43994140625, 0.089324951171875, 1.4912109375, 1.4443359375, 10.0, 1.0, 10.0, 1.4373149871826172
17514, -2.512472629547119, -4.559671401977539, -0.0635981410741806, 0.0, 0.0, 21.802494049072266, 0.0, 0.0, 0.22716522216796875, 0, 0, 0, 0, 0, 0, 9362.0, 30146.0, 35388.0, 9362.0, 8.132232666015625, -0.2515951693058014, -0.22387096285820007, -0.10051162540912628, -0.08259998261928558, -0.04684283956885338, 0.9975332021713257, -0.056835927069187164, -0.19191741943359375, 1.480224609375, 1.43994140625, 0.089324951171875, 1.491943359375, 1.36376953125, 10.0, 1.0, 10.0, 1.4371087551116943
17524, -2.5137224197387695, -4.557729721069336, -0.064220130443573, 0.0, 0.0, 21.816150665283203, 0.0, 0.0, 0.5615234375, 0, 0, 0, 0, 0, 0, 9362.0, 30146.0, 35388.0, 9362.0, 8.132232666015625, -0.2515951693058014, -0.22387096285820007, -0.10051162540912628, -0.08259998261928558, -0.04684283956885338, 0.9975332021713257, -0.056835927069187164, -0.19191741943359375, 1.480224609375, 1.43994140625, 0.089324951171875, 1.491943359375, 1.428955078125, 10.0, 1.0, 10.0, 1.4370664358139038
17534, -2.5145037174224854, -4.558321952819824, -0.06301616132259369, 0.0, 0.0, 21.821205139160156, 0.0, 0.0, 0.5054473876953125, 0, 0, 0, 0, 0, 0, 9362.0, 30146.0, 35388.0, 9362.0, 8.132232666015625, -0.2515951693058014, -0.22387096285820007, -0.10051162540912628, -0.08259998261928558, -0.04684283956885338, 0.9975332021713257, -0.056835927069187164, -0.19191741943359375, 1.480224609375, 1.43994140625, 0.089324951171875, 1.491943359375, 1.4267578125, 10.0, 1.0, 10.0, 1.4370664358139038
17544, -2.5166404247283936, -4.560366630554199, -0.06341198086738586, 0.0, 0.0, 21.821205139160156, 0.0, 0.0, 0.5054473876953125, 0, 0, 0, 0, 0, 0, 9362.0, 30146.0, 35388.0, 9362.0, 8.132232666015625, -0.2515951693058014, -0.22387096285820007, -0.10051162540912628, -0.08259998261928558, -0.04684283956885338, 0.9975332021713257, -0.056835927069187164, -0.19191741943359375, 1.480224609375, 1.43994140625, 0.089324951171875, 1.491943359375, 1.39892578125, 10.0, 1.0, 10.0, 1.4370664358139038
17554, -2.5155484676361084, -4.560693740844727, -0.06446220725774765, 0.0, 0.0, 21.821205139160156, 0.0, 0.0, 0.5054473876953125, 0, 0, 0, 0, 0, 0, 9362.0, 30146.0, 35388.0, 9362.0, 8.132232666015625, -0.2515951693058014, -0.22387096285820007, -0.10051162540912628, -0.08259998261928558, -0.04684283956885338, 0.9975332021713257, -0.0833330973982811, -0.0037593841552734375, 1.49560546875, 1.43994140625, 0.089324951171875, 1.491943359375, 1.43115234375, 10.0, 1.0, 10.0, 1.436928153038025
17564, -2.5167880058288574, -4.5603928565979, -0.06194876506924629, 0.0, 0.0, 21.83243751525879, 0.0, 0.0, 0.2590179443359375, 0, 0, 0, 0, 0, 0, 9362.0, 30146.0, 35388.0, 9362.0, 8.132232666015625, -0.2515951693058014, -0.22387096285820007, -0.10051162540912628, -0.08259998261928558, -0.04684283956885338, 0.9975332021713257, -0.0833330973982811, -0.0037593841552734375, 1.49560546875, 1.43994140625, 0.089324951171875, 1.491943359375, 1.427490234375, 10.0, 1.0, 10.0, 1.4369680881500244
17584, -2.519516706466675, -4.561260223388672, -0.06374475359916687, 0.0, 0.0, 21.83243751525879, 0.0, 0.0, 0.2590179443359375, 0, 0, 0, 0, 0, 0, 9362.0, 30146.0, 35388.0, 9362.0, 8.132232666015625, -0.2515951693058014, -0.22387096285820007, -0.10051162540912628, -0.08088833093643188, -0.04657818749547005, 0.9949308037757874, -0.0833330973982811, -0.0037593841552734375, 1.49560546875, 1.3681640625, 0.0185394287109375, 1.491943359375, 1.39306640625, 10.0, 1.0, 10.0, 1.4367210865020752
17594, -2.5204479694366455, -4.564972400665283, -0.06377677619457245, 0.0, 0.0, 21.83243751525879, 0.0, 0.0, 0.2590179443359375, 0, 0, 0, 0, 0, 0, 9362.0, 30146.0, 35388.0, 9362.0, 8.132232666015625, -0.2515951693058014, -0.22387096285820007, -0.10051162540912628, -0.08487051725387573, -0.04895161837339401, 0.9969979524612427, -0.0833330973982811, -0.0037593841552734375, 1.49560546875, 1.3623046875, 0.0167999267578125, 1.491943359375, 1.3828125, 10.0, 1.0, 10.0, 1.4363136291503906
17604, -2.5202789306640625, -4.566817760467529, -0.06644561141729355, 0.0, 0.0, 21.858078002929688, 0.0, 0.0, 0.5817413330078125, 0, 0, 0, 0, 0, 0, 9362.0, 30146.0, 35388.0, 9362.0, 8.132232666015625, -0.2515951693058014, -0.22387096285820007, -0.10051162540912628, -0.08487051725387573, -0.04895161837339401, 0.9969979524612427, -0.0833330973982811, -0.0037593841552734375, 1.49560546875, 1.3623046875, 0.0167999267578125, 1.491943359375, 1.382080078125, 10.0, 1.0, 10.0, 1.4361480474472046
17664, -2.513864755630493, -4.5800251960754395, -0.029688647016882896, 0.0, 0.0, 21.88574981689453, 0.0, 0.0, 0.51727294921875, 0, 0, 0, 0, 0, 0, 9362.0, 30146.0, 35388.0, 9362.0, 8.132232666015625, -0.2515951693058014, -0.22387096285820007, -0.10051162540912628, -0.07878724485635757, -0.0386945903301239, 0.992744505405426, -0.0833330973982811, -0.0037593841552734375, 1.49560546875, 1.36962890625, 0.01910400390625, 1.48828125, 1.44140625, 10.0, 1.0, 10.0, 1.4356133937835693
17674, -2.5323245525360107, -4.584993362426758, -0.06986336410045624, 0.0, 0.0, 21.88574981689453, 0.0, 0.0, 0.51727294921875, 0, 0, 0, 0, 0, 0, 9362.0, 30146.0, 35388.0, 9362.0, 8.132232666015625, -0.2515951693058014, -0.22387096285820007, -0.10051162540912628, -0.07878724485635757, -0.0386945903301239, 0.992744505405426, -0.0833330973982811, -0.0037593841552734375, 1.49560546875, 1.439208984375, 0.0882415771484375, 1.494140625, 1.4384765625, 10.0, 1.0, 10.0, 1.4356133937835693
17684, -2.554422616958618, -4.596654891967773, -0.06158941611647606, 0.0, 0.0, 21.913455963134766, 0.0, 0.0, 0.5739212036132812, 0, 0, 0, 0, 0, 0, 9362.0, 30146.0, 35388.0, 9362.0, 8.132232666015625, -0.2515951693058014, -0.22387096285820007, -0.10051162540912628, -0.07878724485635757, -0.0386945903301239, 0.992744505405426, -0.0833330973982811, -0.0037593841552734375, 1.49560546875, 1.439208984375, 0.0882415771484375, 1.494140625, 1.43408203125, 10.0, 1.0, 10.0, 1.4357293844223022
17694, -2.570403814315796, -4.604755878448486, -0.056490372866392136, 0.0, 0.0, 21.918621063232422, 0.0, 0.0, 0.516510009765625, 0, 0, 0, 0, 0, 0, 9362.0, 30146.0, 35388.0, 9362.0, 8.132232666015625, -0.2515951693058014, -0.22387096285820007, -0.10051162540912628, -0.07878724485635757, -0.0386945903301239, 0.992744505405426, -0.0833330973982811, -0.0037593841552734375, 1.49560546875, 1.439208984375, 0.0882415771484375, 1.487548828125, 1.41064453125, 10.0, 1.0, 10.0, 1.4357777833938599
17724, -2.602477550506592, -4.6091694831848145, 0.0735001415014267, 0.0, 0.0, 21.91063117980957, 0.0, 0.0, -0.12378692626953125, 0, 0, 0, 0, 0, 0, 9362.0, 30146.0, 35388.0, 9362.0, 8.132232666015625, -0.2515951693058014, -0.22387096285820007, -0.10051162540912628, -0.09414904564619064, -0.06243639439344406, 0.9956997036933899, -0.0833330973982811, -0.0037593841552734375, 1.49560546875, 1.439208984375, 0.0882415771484375, 1.493408203125, 1.443603515625, 10.0, 1.0, 10.0, 1.435450553894043
17734, -2.6105754375457764, -4.604213237762451, 0.0994790643453598, 0.0, 0.0, 21.909517288208008, 0.0, 0.0, -0.11138916015625, 0, 0, 0, 0, 0, 0, 9362.0, 30146.0, 35388.0, 9362.0, 8.132232666015625, -0.2515951693058014, -0.22387096285820007, -0.10051162540912628, -0.09414904564619064, -0.06243639439344406, 0.9956997036933899, -0.0833330973982811, -0.0037593841552734375, 1.49560546875, 1.439208984375, 0.0882415771484375, 1.493408203125, 1.435546875, 10.0, 1.0, 10.0, 1.4354209899902344
17744, -2.614029884338379, -4.594076633453369, 0.12558415532112122, 0.0, 0.0, 21.90851593017578, 0.0, 0.0, -0.10013580322265625, 0, 0, 0, 0, 0, 0, 9362.0, 30146.0, 35388.0, 9362.0, 8.132232666015625, -0.2515951693058014, -0.22387096285820007, -0.10051162540912628, -0.09414904564619064, -0.06243639439344406, 0.9956997036933899, -0.0833330973982811, -0.0037593841552734375, 1.49560546875, 1.439208984375, 0.0882415771484375, 1.493408203125, 1.462646484375, 10.0, 1.0, 10.0, 1.4354209899902344
17754, -2.609269142150879, -4.584654808044434, 0.15690875053405762, 0.0, 0.0, 21.90851593017578, 0.0, 0.0, -0.10013580322265625, 0, 0, 0, 0, 0, 0, 9362.0, 30146.0, 35388.0, 9362.0, 8.132232666015625, -0.2515951693058014, -0.22387096285820007, -0.10051162540912628, -0.08753335475921631, -0.038774341344833374, 0.9886417984962463, -0.0833330973982811, -0.0037593841552734375, 1.49560546875, 1.439208984375, 0.0882415771484375, 1.496337890625, 1.472900390625, 10.0, 1.0, 10.0, 1.4354209899902344
17764, -2.6097071170806885, -4.5677170753479, 0.18729224801063538, 0.0, 0.0, 21.9073486328125, 0.0, 0.0, -0.02651214599609375, 0, 0, 0, 0, 0, 0, 9362.0, 30146.0, 35388.0, 9362.0, 8.132232666015625, -0.2515951693058014, -0.22387096285820007, -0.10051162540912628, -0.08753335475921631, -0.038774341344833374, 0.9886417984962463, -0.0833330973982811, -0.0037593841552734375, 1.49560546875, 1.439208984375, 0.0882415771484375, 1.496337890625, 1.42236328125, 10.0, 1.0, 10.0, 1.4355058670043945
17774, -2.609456777572632, -4.554670810699463, 0.21031060814857483, 0.0, 0.0, 21.9071102142334, 0.0, 0.0, -0.02384185791015625, 0, 0, 0, 0, 0, 0, 9362.0, 30146.0, 35388.0, 9362.0, 8.132232666015625, -0.2515951693058014, -0.22387096285820007, -0.10051162540912628, -0.08753335475921631, -0.038774341344833374, 0.9886417984962463, -0.0833330973982811, -0.0037593841552734375, 1.49560546875, 1.439208984375, 0.0882415771484375, 1.4912109375, 1.465576171875, 10.0, 1.0, 10.0, 1.4355058670043945
17784, -2.6023905277252197, -4.539493560791016, 0.21959009766578674, 0.0, 0.0, 21.9071102142334, 0.0, 0.0, -0.02384185791015625, 0, 0, 0, 0, 0, 0, 9362.0, 30146.0, 35388.0, 9362.0, 8.132232666015625, -0.2515951693058014, -0.22387096285820007, -0.10051162540912628, -0.08325421810150146, -0.0636337399482727, 0.9962700605392456, -0.0833330973982811, -0.0037593841552734375, 1.49560546875, 1.35791015625, 0.015869140625, 1.4912109375, 1.41650390625, 10.0, 1.0, 10.0, 1.4355058670043945
17824, -2.554121494293213, -4.510613918304443, 0.24107606709003448, 0.0, 0.0, 21.90723419189453, 0.0, 0.0, 0.15697479248046875, 0, 0, 0, 0, 0, 0, 9362.0, 30146.0, 35388.0, 9362.0, 8.132232666015625, -0.2515951693058014, -0.22387096285820007, -0.10051162540912628, -0.07749775797128677, -0.05608854815363884, 0.9970826506614685, -0.0833330973982811, -0.0037593841552734375, 1.49560546875, 1.41943359375, 0.0612945556640625, 1.4912109375, 1.390869140625, 10.0, 1.0, 10.0, 1.4350919723510742
17864, -2.530959367752075, -4.541222095489502, 0.2663401961326599, 0.0, 0.0, 21.89957046508789, 0.0, 0.0, -0.365447998046875, 0, 0, 0, 0, 0, 0, 9362.0, 30146.0, 35388.0, 9362.0, 8.132232666015625, -0.2515951693058014, -0.22387096285820007, -0.10051162540912628, -0.07086829096078873, -0.02341354638338089, 0.9931172728538513, -0.0833330973982811, -0.0037593841552734375, 1.49560546875, 1.333740234375, 0.0189361572265625, 1.493408203125, 1.367431640625, 10.0, 1.0, 10.0, 1.4347046613693237
17874, -2.5644371509552, -4.563045978546143, 0.23612292110919952, 0.0, 0.0, 21.89957046508789, 0.0, 0.0, -0.365447998046875, 0, 0, 0, 0, 0, 0, 9362.0, 30146.0, 35388.0, 9362.0, 8.132232666015625, -3.6488611698150635, 2.3022844791412354, -1.6437361240386963, -0.07086829096078873, -0.02341354638338089, 0.9931172728538513, -0.0833330973982811, -0.0037593841552734375, 1.49560546875, 1.40771484375, 0.0478363037109375, 1.48681640625, 1.367431640625, 10.0, 1.0, 10.0, 1.4347795248031616
17914, -2.8756656646728516, -4.708577632904053, 0.11879441887140274, 0.0, 0.0, 21.905202865600586, 0.0, 0.0, 0.42247772216796875, 0, 0, 0, 0, 0, 0, 9362.0, 30146.0, 35388.0, 9362.0, 8.132232666015625, -3.6488611698150635, 2.3022844791412354, -1.6437361240386963, -0.07805927097797394, -0.03704970329999924, 1.0021711587905884, -0.0833330973982811, -0.0037593841552734375, 1.49560546875, 1.43115234375, 0.0766143798828125, 1.494873046875, 1.4384765625, 10.0, 1.0, 10.0, 1.434700846672058
17924, -2.994328737258911, -4.757485389709473, 0.06766507774591446, 0.0, 0.0, 21.897411346435547, 0.0, 0.0, -0.46291351318359375, 0, 0, 0, 0, 0, 0, 9362.0, 30146.0, 35388.0, 9362.0, 8.132232666015625, -3.6488611698150635, 2.3022844791412354, -1.6437361240386963, -0.07805927097797394, -0.03704970329999924, 1.0021711587905884, -0.0833330973982811, -0.0037593841552734375, 1.49560546875, 1.43115234375, 0.0766143798828125, 1.494873046875, 1.46484375, 10.0, 1.0, 10.0, 1.4348129034042358
17954, -3.2493436336517334, -4.862959384918213, -0.057131826877593994, 0.0, 0.0, 21.897411346435547, 0.0, 0.0, -0.46291351318359375, 0, 0, 0, 0, 0, 0, 9362.0, 30146.0, 35388.0, 9362.0, 8.132232666015625, -3.6488611698150635, 2.3022844791412354, -1.6437361240386963, -0.10302841663360596, -0.09238091111183167, 0.9546008706092834, -0.0833330973982811, -0.0037593841552734375, 1.49560546875, 1.32861328125, 0.0214385986328125, 1.494873046875, 1.486083984375, 10.0, 1.0, 10.0, 1.4348361492156982
17964, -3.334351062774658, -4.888991355895996, -0.1986689269542694, 0.0, 0.0, 21.897411346435547, 0.0, 0.0, -0.46291351318359375, 0, 0, 0, 0, 0, 0, 9362.0, 30146.0, 35388.0, 9362.0, 8.132232666015625, -3.6488611698150635, 2.3022844791412354, -1.6437361240386963, -0.09761212766170502, -0.1347278505563736, 1.0009965896606445, -0.0833330973982811, -0.0037593841552734375, 1.49560546875, 1.352783203125, 0.015350341796875, 1.494873046875, 1.43408203125, 10.0, 1.0, 10.0, 1.4346210956573486
17974, -3.348414659500122, -4.920450210571289, -0.25364890694618225, 0.0, 0.0, 21.886388778686523, 0.0, 0.0, -0.03662109375, 0, 0, 0, 0, 0, 0, 9362.0, 30146.0, 35388.0, 9362.0, 8.132232666015625, -3.6488611698150635, 2.3022844791412354, -1.6437361240386963, -0.09761212766170502, -0.1347278505563736, 1.0009965896606445, -0.0833330973982811, -0.0037593841552734375, 1.49560546875, 1.352783203125, 0.015350341796875, 1.494873046875, 1.477294921875, 10.0, 1.0, 10.0, 1.4346210956573486
17984, -3.2937583923339844, -4.993092060089111, -0.24223801493644714, 0.0, 0.0, 21.884965896606445, 0.0, 0.0, -0.1422882080078125, 0, 0, 0, 0, 0, 0, 9362.0, 30146.0, 35388.0, 9362.0, 8.132232666015625, -3.6488611698150635, 2.3022844791412354, -1.6437361240386963, -0.09761212766170502, -0.1347278505563736, 1.0009965896606445, -0.0833330973982811, -0.0037593841552734375, 1.49560546875, 1.352783203125, 0.015350341796875, 1.494873046875, 1.447998046875, 10.0, 1.0, 10.0, 1.4346920251846313
17994, -3.223635196685791, -5.061052322387695, -0.19272716343402863, 0.0, 0.0, 21.883684158325195, 0.0, 0.0, -0.128173828125, 0, 0, 0, 0, 0, 0, 9362.0, 30146.0, 35388.0, 9362.0, 8.132232666015625, -3.6488611698150635, 2.3022844791412354, -1.6437361240386963, -0.09761212766170502, -0.1347278505563736, 1.0009965896606445, -0.0833330973982811, -0.0037593841552734375, 1.49560546875, 1.352783203125, 0.015350341796875, 1.490478515625, 1.447998046875, 10.0, 1.0, 10.0, 1.4347738027572632
18024, -2.871598243713379, -5.3976359367370605, -0.02105172537267208, 0.0, 0.0, 21.876516342163086, 0.0, 0.0, -0.7167816162109375, 0, 0, 0, 0, 0, 0, 9362.0, 30146.0, 35388.0, 9362.0, 8.132232666015625, -3.6488611698150635, 2.3022844791412354, -1.6437361240386963, -0.07872700691223145, -0.023179946467280388, 1.019110083580017, -0.0833330973982811, -0.0037593841552734375, 1.49560546875, 1.3447265625, 0.0158538818359375, 1.490478515625, 1.40478515625, 10.0, 1.0, 10.0, 1.4346950054168701
18054, -2.85516095161438, -5.668262004852295, -0.08741362392902374, 0.0, 0.0, 21.861740112304688, 0.0, 0.0, -0.24890899658203125, 0, 0, 0, 0, 0, 0, 9362.0, 30146.0, 35388.0, 9362.0, 8.132232666015625, -3.6488611698150635, 2.3022844791412354, -1.6437361240386963, -0.10646474361419678, 0.0307388287037611, 1.0411642789840698, -0.06589414179325104, -0.03959846496582031, 1.49267578125, 1.3447265625, 0.0158538818359375, 1.48974609375, 1.470703125, 10.0, 1.0, 10.0, 1.4346950054168701
18094, -3.2038376331329346, -6.036964416503906, -0.14351199567317963, 0.0, 0.0, 21.83773422241211, 0.0, 0.0, -0.6540298461914062, 0, 0, 0, 0, 0, 0, 9362.0, 30146.0, 35388.0, 9362.0, 8.132232666015625, -3.6488611698150635, 2.3022844791412354, -1.6437361240386963, -0.11051685363054276, -0.02590077929198742, 0.9344667196273804, -0.06589414179325104, -0.03959846496582031, 1.49267578125, 1.389404296875, 0.03082275390625, 1.48974609375, 1.467041015625, 10.0, 1.0, 10.0, 1.434585690498352
18124, -3.494821071624756, -6.275269985198975, -0.09261677414178848, 0.0, 0.0, 21.82697105407715, 0.0, 0.0, -0.1667022705078125, 0, 0, 0, 0, 0, 0, 9362.0, 30146.0, 35388.0, 9362.0, 8.132232666015625, -3.6488611698150635, 2.3022844791412354, -1.6437361240386963, -0.11543848365545273, -0.07206729054450989, 1.0528788566589355, -0.06589414179325104, -0.03959846496582031, 1.49267578125, 1.324951171875, 0.0236663818359375, 1.48974609375, 1.4560546875, 10.0, 1.0, 10.0, 1.4345146417617798
18134, -3.551978349685669, -6.318859100341797, -0.06334096938371658, 0.0, 0.0, 21.82549285888672, 0.0, 0.0, -0.14781951904296875, 0, 0, 0, 0, 0, 0, 9362.0, 30146.0, 35388.0, 9362.0, 8.132232666015625, -3.6488611698150635, 2.3022844791412354, -1.6437361240386963, -0.11543848365545273, -0.07206729054450989, 1.0528788566589355, -0.06589414179325104, -0.03959846496582031, 1.49267578125, 1.445068359375, 0.0970306396484375, 1.48974609375, 1.458984375, 10.0, 1.0, 10.0, 1.4345146417617798
18164, -3.7143852710723877, -6.377109527587891, 0.0007346172933466733, 0.0, 0.0, 21.82549285888672, 0.0, 0.0, -0.14781951904296875, 0, 0, 0, 0, 0, 0, 9362.0, 30146.0, 35388.0, 9362.0, 8.132232666015625, -3.6488611698150635, 2.3022844791412354, -1.6437361240386963, -0.1693514734506607, -0.09254094213247299, 1.060335636138916, -0.06589414179325104, -0.03959846496582031, 1.49267578125, 1.3857421875, 0.0280914306640625, 1.48974609375, 1.415771484375, 10.0, 1.0, 10.0, 1.4345860481262207
18184, -3.7697243690490723, -6.244421005249023, -0.12124957889318466, 0.0, 0.0, 21.818201065063477, 0.0, 0.0, 0.5002975463867188, 0, 0, 0, 0, 0, 0, 9362.0, 30146.0, 35388.0, 9362.0, 8.132232666015625, -3.6488611698150635, 2.3022844791412354, -1.6437361240386963, -0.1746896356344223, -0.09192312508821487, 1.1009416580200195, -0.06589414179325104, -0.03959846496582031, 1.49267578125, 1.354248046875, 0.0154266357421875, 1.48974609375, 1.428955078125, 10.0, 1.0, 10.0, 1.4342283010482788
18194, -3.7836618423461914, -6.164694309234619, -0.22076772153377533, 0.0, 0.0, 21.82278823852539, 0.0, 0.0, 0.45871734619140625, 0, 0, 0, 0, 0, 0, 9362.0, 30146.0, 35388.0, 9362.0, 8.132232666015625, -3.6488611698150635, 2.3022844791412354, -1.6437361240386963, -0.1746896356344223, -0.09192312508821487, 1.1009416580200195, -0.06589414179325104, -0.03959846496582031, 1.49267578125, 1.354248046875, 0.0154266357421875, 1.496337890625, 1.423828125, 10.0, 1.0, 10.0, 1.4342283010482788
18214, -3.741201162338257, -5.989704132080078, -0.48605895042419434, 0.0, 0.0, 21.819299697875977, 0.0, 0.0, -0.34885406494140625, 0, 0, 0, 0, 0, 0, 9362.0, 30146.0, 35388.0, 9362.0, 8.132232666015625, -3.6488611698150635, 2.3022844791412354, -1.6437361240386963, -0.11590489745140076, -0.06119644269347191, 1.0144346952438354, -0.06589414179325104, -0.03959846496582031, 1.49267578125, 1.33154296875, 0.0198516845703125, 1.496337890625, 1.396728515625, 10.0, 1.0, 10.0, 1.4338997602462769
18224, -3.661698341369629, -5.915561199188232, -0.5872787833213806, 0.0, 0.0, 21.808982849121094, 0.0, 0.0, -0.7190704345703125, 0, 0, 0, 0, 0, 0, 9362.0, 30146.0, 35388.0, 9362.0, 8.132232666015625, -3.6488611698150635, 2.3022844791412354, -1.6437361240386963, -0.11590489745140076, -0.06119644269347191, 1.0144346952438354, -0.06589414179325104, -0.03959846496582031, 1.49267578125, 1.33154296875, 0.0198516845703125, 1.496337890625, 1.400390625, 10.0, 1.0, 10.0, 1.4338997602462769
18244, -3.500274181365967, -5.840571880340576, -0.616334855556488, 0.0, 0.0, 21.802507400512695, 0.0, 0.0, -0.6475448608398438, 0, 0, 0, 0, 0, 0, 9362.0, 30146.0, 35388.0, 9362.0, 8.132232666015625, -3.6488611698150635, 2.3022844791412354, -1.6437361240386963, -0.10794083029031754, -0.09499044716358185, 0.9936886429786682, -0.06589414179325104, -0.03959846496582031, 1.49267578125, 1.40625, 0.04620361328125, 1.494140625, 1.386474609375, 10.0, 1.0, 10.0, 1.4334317445755005
18254, -3.437706470489502, -5.817755699157715, -0.5729753971099854, 0.0, 0.0, 21.802507400512695, 0.0, 0.0, -0.6475448608398438, 0, 0, 0, 0, 0, 0, 9362.0, 30146.0, 35388.0, 9362.0, 8.132232666015625, -3.6488611698150635, 2.3022844791412354, -1.6437361240386963, -0.10794083029031754, -0.09499044716358185, 0.9936886429786682, -0.06589414179325104, -0.03959846496582031, 1.49267578125, 1.40625, 0.04620361328125, 1.494140625, 1.456787109375, 10.0, 1.0, 10.0, 1.432879090309143
18264, -3.346578598022461, -5.796599388122559, -0.48598751425743103, 0.0, 0.0, 21.802507400512695, 0.0, 0.0, -0.6475448608398438, 0, 0, 0, 0, 0, 0, 9362.0, 30146.0, 35388.0, 9362.0, 8.132232666015625, -3.6488611698150635, 2.3022844791412354, -1.6437361240386963, -0.13334950804710388, -0.07356451451778412, 0.9806596040725708, -0.06589414179325104, -0.03959846496582031, 1.49267578125, 1.40625, 0.04620361328125, 1.494140625, 1.37255859375, 10.0, 1.0, 10.0, 1.432708501815796
18274, -3.312479019165039, -5.775940418243408, -0.43920060992240906, 0.0, 0.0, 21.802507400512695, 0.0, 0.0, -0.6475448608398438, 0, 0, 0, 0, 0, 0, 9362.0, 30146.0, 35388.0, 9362.0, 8.132232666015625, -3.6488611698150635, 2.3022844791412354, -1.6437361240386963, -0.14317573606967926, -0.06364984065294266, 0.979727566242218, -0.06589414179325104, -0.03959846496582031, 1.49267578125, 1.45166015625, 0.107452392578125, 1.493408203125, 1.37255859375, 10.0, 1.0, 10.0, 1.4326175451278687
